~VERSION INFORMATION
 VERS.                 2.0:   CWLS LOG ASCII STANDARD -VERSION 2.0
 WRAP.                  NO:   ONE LINE PER DEPTH STEP
~WELL INFORMATION BLOCK
#MNEM.UNIT           DATA                    DESCRIPTION OF MNEMONIC
#---------    -------------------            -------------------------------
# Generated from Intellog Unique Number	CS_73_76/WELL/1041
WELL.         06-14-076-07W4                 : Well_name    - WELL
LOC .         AA/06-14-076-07W4/0            : Location     - LOCATION
UWI .         AA/06-14-076-07W4/0            : Uwi          - UNIQUE WELL ID
ENTR.         SP                             : Entered      - ENTERED BY
SRVC.         SCHLUMBERGER                   : Scn          - SERVICE COMPANY
STRT.M        175                            : top_depth    - START DEPTH
STOP.M        415                            : bot_depth    - STOP DEPTH
STEP.M        0.25                           : increment    - STEP LENGTH
 NULL. -999.2500:NULL Value
~CURVE INFORMATION BLOCK
#MNEM UNIT       ERCB CURVE CODE    CURVE DESCRIPTION
#-----------   ------------------   ----------------------------------
DEPT.M        00 001 00 00         : DEPTH        - DEPTH
NPHI.V/V      00 330 00 00         : PHIN         - NEUTRON POROSITY (LIMESTONE)
DPHI.V/V      00 890 00 00         : PHID         - DENSITY POROSITY (LIMESTONE)
GR  .API      00 310 00 00         : GR           - GAMMA RAY
ILD .OHMM     00 120 00 00         : RESD         - DEEP RESISTIVITY (DIL)
~PARAMETER INFORMATION
#MNEM.UNIT           DATA             DESCRIPTION OF MNEMONIC
#---------         -----------     ------------------------------
GL  .M        607.14               : gl           - GROUND LEVEL ELEVATION
EREF.M        610.79               : kb           - ELEVATION OF DEPTH REFERENCE
DATM.M        607.14               : datum        - DATUM ELEVATION
TDD .M        414.9                : tdd          - TOTAL DEPTH DRILLER
RUN .         ONE                  : Run          - RUN NUMBER
ENG .         BILL                 : Engineer     - RECORDING ENGINEER
WIT .         JIM                  : Witness      - WITNESSED BY
MUD .         GEL                  : Mud_type     - MUD TYPE
MATR.         LIMESTONE            : Logunit      - NEUTRON MATRIX
TMAX.C        18                   : BHT          - MAXIMUM RECORDED TEMPERATURE
BHTD.M        414.9                : BHTDEP       - MAXIMUM RECORDED TEMPERATURE
MATR.         1                    : LOGUNIT      - NEUTRON MATRIX
RMT .C        25                   : MDTP         - TEMPERATURE OF MUD
NEUT.         1                    : NEUTRON      - NEUTRON TYPE
RESI.         0                    : RESIST       - RESISTIVITY TYPE
RMC .OHMM     0.25                 : RMC          - RESISTIVITY OF MUD CAKE
RMF .OHMM     0.25                 : RMF          - RESISTIVITY OF MUD FILTRATE
SUFT.C        15                   : SUFT         - SURFACE TEMPERATURE
~A  DEPTH     PHIN     PHID       GR     RESD
# ...
  262.000    0.423    0.248   88.376   13.988
  262.250    0.411    0.243   87.772   12.739
  262.500    0.425    0.242   86.556   12.047
  262.750    0.418    0.241   84.726   11.612
  263.000    0.444    0.238   82.284   11.403
  263.250    0.442    0.235   80.455   10.988
  263.500    0.466    0.228   81.076   10.794
  263.750    0.486    0.226   85.368   10.801
  264.000    0.448    0.230   92.723   10.607
  264.250    0.407    0.233  100.078   10.417
  264.500    0.394    0.232  102.534   10.232
  264.750    0.406    0.226   97.033   10.048
  265.000    0.461    0.217   95.815   10.247
  265.250    0.471    0.211   95.211   10.255
  265.500    0.464    0.207   93.994   10.072
  265.750    0.438    0.210   92.777    9.891
  266.000    0.430    0.210   93.396    9.534
  266.250    0.430    0.210   98.917    9.016
  266.500    0.422    0.211  106.881    8.368
  266.750    0.420    0.214  110.563    7.915
  267.000    0.439    0.216  103.836    7.627
  267.250    0.455    0.212   95.883    7.349
  267.500    0.440    0.211   93.442    6.950
  267.750    0.406    0.213   98.961    6.574
  268.000    0.391    0.214  107.541    6.335
  268.250    0.414    0.214  111.221    5.991
  268.500    0.457    0.214  107.555    5.775
  268.750    0.487    0.212   99.603    5.777
  269.000    0.522    0.210   98.999    5.674
  269.250    0.550    0.215  101.455    5.573
  269.500    0.520    0.226  103.301    5.579
  269.750    0.472    0.220  103.920    5.477
  270.000    0.464    0.219  105.767    5.482
  270.250    0.464    0.232  108.222    5.487
  270.500    0.467    0.242  110.067    5.490
  270.750    0.480    0.234  107.624    5.707
  271.000    0.486    0.226  100.285    6.044
  271.250    0.527    0.226   91.721    6.776
  271.500    0.475    0.226   87.443    7.040
  271.750    0.434    0.224   83.775    7.455
  272.000    0.393    0.221   82.560    8.047
  272.250    0.379    0.220   83.179    8.522
  272.500    0.389    0.221   84.411    8.857
  272.750    0.422    0.227   85.030    9.035
  273.000    0.509    0.243   83.202    9.040
  273.250    0.565    0.270   87.498    8.390
  273.500    0.535    0.270   91.790    7.499
  273.750    0.503    0.257   95.471    6.959
  274.000    0.510    0.242   96.090    6.458
  274.250    0.493    0.256   93.036    6.108
  274.500    0.483    0.285   90.595    5.997
  274.750    0.504    0.296   87.540    6.474
  275.000    0.499    0.308   82.038    6.986
  275.250    0.466    0.304   80.821    7.831
  275.500    0.411    0.298   83.279    8.451
  275.750    0.401    0.287   86.350    8.783
  276.000    0.392    0.275   86.966    8.465
  276.250    0.399    0.253   86.974    7.855
  276.500    0.425    0.241   88.207    6.889
  276.750    0.428    0.252   85.153    6.514
  277.000    0.532    0.295   81.486    6.278
  277.250    0.574    0.421   83.332    6.053
  277.500    0.594    0.448   95.586    6.056
  277.750    0.563    0.439   98.041    6.176
  278.000    0.581    0.316   95.601    6.542
  278.250    0.558    0.276   86.423    6.929
  278.500    0.507    0.272   79.085    7.199
  278.750    0.484    0.276   75.420    7.625
  279.000    0.457    0.280   72.977    8.709
  279.250    0.441    0.285   73.595    9.762
  279.500    0.425    0.291   79.115   10.534
  279.750    0.417    0.290   83.407   11.156
  280.000    0.431    0.286   85.252   11.378
  280.250    0.471    0.277   84.648   10.970
  280.500    0.438    0.269   85.269   10.975
  280.750    0.416    0.267   88.948   10.782
  281.000    0.400    0.262   92.629   10.585
  281.250    0.411    0.255   92.637   10.597
  281.500    0.382    0.255   87.747   10.805
  281.750    0.375    0.266   90.205   10.815
  282.000    0.378    0.276   93.273   10.824
  282.250    0.389    0.289  101.853   10.433
  282.500    0.375    0.284  104.922   10.437
  282.750    0.384    0.279  104.318   10.058
  283.000    0.435    0.260   98.814    9.695
  283.250    0.466    0.221   94.536    9.523
  283.500    0.444    0.211   90.259    9.350
  283.750    0.424    0.217   88.428    9.538
  284.000    0.405    0.222   87.212    9.726
  284.250    0.395    0.244   86.607   10.109
  284.500    0.411    0.250   86.618   10.310
  284.750    0.436    0.235   86.009   10.516
  285.000    0.487    0.227   84.793   10.722
  285.250    0.520    0.229   80.514   10.735
  285.500    0.551    0.220   73.787   10.740
  285.750    0.512    0.196   72.570   10.747
  286.000    0.431    0.148   76.865   10.358
  286.250    0.428    0.124   80.544    9.982
  286.500    0.426    0.171   84.226    9.265
  286.750    0.412    0.192   84.847    8.761
  287.000    0.442    0.183   86.691    8.286
  287.250    0.464    0.178   89.760    7.548
  287.500    0.448    0.198   94.055    7.273
  287.750    0.448    0.203   96.511    7.009
  288.000    0.475    0.202   94.680    6.754
  288.250    0.522    0.214   92.852    6.269
  288.500    0.513    0.237   95.308    5.929
  288.750    0.480    0.262   99.603    5.502
  289.000    0.425    0.268  102.059    5.011
  289.250    0.385    0.259  100.230    4.478
  289.500    0.405    0.251   96.562    4.002
  289.750    0.427    0.273   94.735    3.509
  290.000    0.453    0.285   90.455    3.256
  290.250    0.496    0.282   93.526    3.138
  290.500    0.502    0.268   92.309    3.262
  290.750    0.497    0.259   93.540    3.455
  291.000    0.513    0.253   89.874    3.729
  291.250    0.539    0.250   89.883    4.180
  291.500    0.574    0.258   92.954    4.596
  291.750    0.535    0.245   93.570    5.251
  292.000    0.485    0.227   97.864    5.883
  292.250    0.433    0.228   98.484    7.112
  292.500    0.395    0.253   89.308    8.122
  292.750    0.360    0.277   77.071   10.002
  293.000    0.263    0.304   73.404   12.554
  293.250    0.231    0.330   72.188   17.319
  293.500    0.232    0.359   72.194   21.736
  293.750    0.237    0.373   74.039   25.782
  294.000    0.226    0.366   77.721   28.355
  294.250    0.189    0.364   77.728   30.600
  294.500    0.188    0.365   79.572   34.305
  294.750    0.192    0.361   81.418   35.642
  295.000    0.180    0.353   80.812   38.467
  295.250    0.163    0.354   68.575   42.313
  295.500    0.151    0.356   63.684   43.976
  295.750    0.162    0.354   61.856   44.842
  296.000    0.173    0.352   64.312   44.884
  296.250    0.179    0.342   66.769   43.261
  296.500    0.177    0.338   64.327   41.689
  296.750    0.180    0.337   57.599   39.435
  297.000    0.194    0.334   52.097   38.726
  297.250    0.206    0.325   53.943   37.312
  297.500    0.218    0.320   55.175   35.957
  297.750    0.223    0.326   55.180   35.316
  298.000    0.222    0.332   61.315   32.785
  298.250    0.211    0.339   62.545   32.187
  298.500    0.218    0.348   63.775   29.874
  298.750    0.230    0.346   66.232   28.249
  299.000    0.244    0.349   69.303   26.217
  299.250    0.250    0.360   72.984   24.331
  299.500    0.243    0.366   74.829   22.582
  299.750    0.232    0.371   73.611   21.358
  300.000    0.230    0.366   67.496   20.198
  300.250    0.240    0.361   63.828   19.464
  300.500    0.241    0.351   69.348   18.759
  300.750    0.257    0.342   86.498   18.421
  301.000    0.279    0.333   98.138   18.089
  301.250    0.305    0.328   90.189   17.767
  301.500    0.307    0.325   80.399   17.122
  301.750    0.250    0.333   62.037   16.505
  302.000    0.243    0.351   55.312   15.903
  302.250    0.262    0.364   55.931   15.039
  302.500    0.290    0.364   59.001   12.945
  302.750    0.332    0.352   60.236   12.013
  303.000    0.358    0.327   60.240   10.941
  303.250    0.393    0.314   65.145   10.346
  303.500    0.445    0.310   71.891    9.971
  303.750    0.536    0.311   73.120    9.977
  304.000    0.574    0.305   65.780   10.371
  304.250    0.263    0.288   56.603   10.575
  304.500    0.183    0.162   57.225   10.790
  304.750    0.162    0.095   62.131   10.796
  305.000    0.391    0.137   66.423   10.210
  305.250    0.441    0.282   68.268    9.657
