~VERSION INFORMATION
 VERS.                 2.0:   CWLS LOG ASCII STANDARD -VERSION 2.0
 WRAP.                  NO:   ONE LINE PER DEPTH STEP
~WELL INFORMATION BLOCK
#MNEM.UNIT           DATA                    DESCRIPTION OF MNEMONIC
#---------    -------------------            -------------------------------
# Generated from Intellog Unique Number	CC_84_87/WELL/1180
NULL.         -999.25                        : NULL_VALUE
WELL.         COSEKA TOTAL LYNTON            : Well_name    - WELL              
LOC .         09-28-087-07W4                 : Location     - LOCATION          
UWI .         AA/09-28-087-07W400            : Uwi          - UNIQUE WELL ID    
ENTR.         DW                             : Entered      - ENTERED BY        
SRVC.         SCHLUMBERGER                   : Scn          - SERVICE COMPANY   
DATE.         20 FEB 81                      : Date         - LOG DATE
STRT.M        35                             : top_depth    - START DEPTH       
STOP.M        163.101                        : bot_depth    - STOP DEPTH        
STEP.M        0.3                            : increment    - STEP LENGTH       
~CURVE INFORMATION BLOCK
#MNEM UNIT       ERCB CURVE CODE    CURVE DESCRIPTION
#-----------   ------------------   ----------------------------------
DEPT.M        00 001 00 00         : DEPTH        - DEPTH                       
DPHI.V/V      00 890 00 00         : PHID         - DENSITY POROSITY (LIMESTONE)
NPHI.V/V      00 330 00 00         : PHIN         - NEUTRON POROSITY (LIMESTONE)
GR  .API      00 310 00 00         : GR           - GAMMA RAY                   
ILD .OHMM     00 120 00 00         : RESD         - DEEP RESISTIVITY (DIL)      
~PARAMETER INFORMATION       
#MNEM.UNIT           DATA             DESCRIPTION OF MNEMONIC
#---------         -----------     ------------------------------
GL  .M        407.99               : gl           - GROUND LEVEL ELEVATION      
EREF.M        409.49               : kb           - ELEVATION OF DEPTH REFERENCE
DATM.M        409.49               : datum        - DATUM ELEVATION             
TDD .M        168                  : tdd          - TOTAL DEPTH DRILLER         
RUN .         ONE                  : Run          - RUN NUMBER                  
ENG .         BILL                 : Engineer     - RECORDING ENGINEER          
WIT .         JIM                  : Witness      - WITNESSED BY                
MUD .         GEL                  : Mud_type     - MUD TYPE                    
MATR.         LIMESTONE            : Logunit      - NEUTRON MATRIX              
TMAX.C        15                   : BHT          - MAXIMUM RECORDED TEMPERATURE
BHTD.M        163                  : BHTDEP       - MAXIMUM RECORDED TEMPERATURE
MATR.         1                    : LOGUNIT      - NEUTRON MATRIX              
RMT .C        25                   : MDTP         - TEMPERATURE OF MUD          
NEUT.         1                    : NEUTRON      - NEUTRON TYPE                
RESI.         0                    : RESIST       - RESISTIVITY TYPE            
RMC .OHMM     0.25                 : RMC          - RESISTIVITY OF MUD CAKE     
RMF .OHMM     0.25                 : RMF          - RESISTIVITY OF MUD FILTRATE 
SUFT.C        4                    : SUFT         - SURFACE TEMPERATURE         
~A  DEPTH     PHID     PHIN       GR     RESD
   35.000    0.201    0.377   59.275   18.716
   35.300    0.200    0.362   60.416   17.997
   35.600    0.214    0.354   59.104   17.304
   35.900    0.228    0.354   59.039   17.286
   36.200    0.233    0.370   60.824   17.264
   36.500    0.198    0.374   62.596   16.603
   36.800    0.213    0.370   60.673   16.585
   37.100    0.231    0.378   58.144   16.561
   37.400    0.216    0.386   58.057   16.545
   37.700    0.204    0.388   59.836   16.214
   38.000    0.213    0.377   61.012   16.823
   38.300    0.211    0.366   62.781   19.200
   38.600    0.204    0.351   59.621   21.906
   38.900    0.196    0.313   53.374   24.063
   39.200    0.216    0.278   47.745   24.033
   39.500    0.210    0.322   42.734   21.828
   39.800    0.245    0.341   42.650   20.209
   40.100    0.211    0.351   48.147   18.353
   40.400    0.229    0.381   58.558   17.651
   40.700    0.227    0.401   61.570   17.967
   41.000    0.192    0.404   62.107   18.644
   41.300    0.216    0.358   60.803   19.716
   41.600    0.212    0.321   56.409   21.247
   41.900    0.200    0.322   52.022   21.226
   42.200    0.173    0.332   51.329   21.609
   42.500    0.168    0.330   53.700   22.000
   42.800    0.175    0.304   54.884   23.267
   43.100    0.176    0.291   54.200   25.555
   43.400    0.182    0.284   47.953   26.514
   43.700    0.187    0.273   44.786   26.479
   44.000    0.177    0.272   42.245   25.462
   44.300    0.148    0.278   40.940   23.571
   44.600    0.150    0.278   43.936   21.006
   44.900    0.188    0.305   45.704   17.683
   45.200    0.244    0.337   46.873   14.601
   45.500    0.276    0.380   51.746   13.514
   45.800    0.299    0.411   68.974   12.750
   46.100    0.328    0.435   69.516   12.262
   46.400    0.352    0.435   64.493   12.014
   46.700    0.327    0.432   61.345   12.467
   47.000    0.328    0.458   60.649   12.454
   47.300    0.310    0.482   61.179   12.203
   47.600    0.324    0.477   62.971   11.509
   47.900    0.313    0.481   67.832   11.072
   48.200    0.324    0.503   74.541   10.444
   48.500    0.300    0.497   78.181    9.850
   48.800    0.256    0.479   79.344    9.476
   49.100    0.240    0.468   78.041    9.108
   49.400    0.227    0.450   73.646    9.102
   49.700    0.251    0.436   72.340    9.263
   50.000    0.265    0.462   75.960    9.614
   50.300    0.276    0.502   76.492   10.165
   50.600    0.252    0.482   74.568   10.753
   50.900    0.292    0.446   74.495   11.812
   51.200    0.327    0.472   74.436   12.489
   51.500    0.317    0.486   73.734   12.239
   51.800    0.308    0.474   70.577   11.117
   52.100    0.301    0.482   71.130    9.721
   52.400    0.295    0.484   74.743    9.169
   52.700    0.288    0.481   74.069   10.464
   53.000    0.269    0.491   71.515   17.807
   53.300    0.031    0.457   69.579   22.777
   53.600    0.064    0.246   67.050   24.084
   53.900    0.124    0.302   57.717   22.293
   54.200    0.190    0.354   64.420   18.767
   54.500    0.272    0.414   66.816   14.916
   54.800    0.290    0.515   67.356   12.556
   55.100    0.256    0.487   67.305   12.068
   55.400    0.295    0.462   70.309   11.832
   55.700    0.320    0.469   73.327   12.046
   56.000    0.335    0.502   73.878   12.978
   56.300    0.328    0.507   74.409   13.468
   56.600    0.324    0.498   77.423   14.243
   56.900    0.327    0.504   78.584   14.782
   57.200    0.320    0.514   74.800   15.333
   57.500    0.301    0.482   72.250   15.029
   57.800    0.321    0.500   71.580   13.390
   58.100    0.318    0.511   71.489   11.490
   58.400    0.314    0.497   73.269    8.962
   58.700    0.317    0.505   75.043    8.453
   59.000    0.326    0.519   76.214    8.608
   59.300    0.318    0.501   76.136    8.597
   59.600    0.284    0.475   77.312    7.958
   59.900    0.285    0.471   80.322    7.506
   60.200    0.276    0.484   83.334    7.083
   60.500    0.258    0.511   83.881    6.193
   60.800    0.294    0.506   88.747    5.520
   61.100    0.268    0.510   89.906    5.307
   61.400    0.287    0.526   89.222    5.506
   61.700    0.297    0.541   86.061    6.164
   62.000    0.282    0.548   82.897    6.902
   62.300    0.292    0.504   82.186    7.580
   62.600    0.299    0.494   79.666    8.171
   62.900    0.310    0.505   79.579    8.005
   63.200    0.304    0.511   79.500    7.849
   63.500    0.277    0.496   78.208    7.266
   63.800    0.260    0.503   80.602    6.475
   64.100    0.256    0.508   83.620    5.147
   64.400    0.277    0.509   84.770    4.499
   64.700    0.294    0.563   85.943    4.166
   65.000    0.279    0.567   88.955    3.856
   65.300    0.303    0.557   91.354    3.568
   65.600    0.294    0.558   91.886    3.365
   65.900    0.292    0.588   91.825    3.238
   66.200    0.289    0.622   91.111    3.114
   66.500    0.323    0.620   91.053    2.994
   66.800    0.321    0.621   97.156    3.048
   67.100    0.305    0.589   97.077    3.544
   67.400    0.295    0.572   91.450    4.199
   67.700    0.289    0.561   86.429    4.528
   68.000    0.260    0.531   85.748    4.790
   68.300    0.279    0.522   88.763    5.571
   68.600    0.266    0.531   88.067    6.118
   68.900    0.255    0.494   88.607    6.470
   69.200    0.260    0.488   89.155    6.715
   69.500    0.263    0.507   82.904    7.237
   69.800    0.274    0.491   83.451    7.654
   70.100    0.270    0.478   88.315    7.644
   70.400    0.283    0.472   89.479    7.781
   70.700    0.289    0.489   87.548    8.229
   71.000    0.247    0.492   89.324    8.704
   71.300    0.238    0.486   92.944    9.203
   71.600    0.254    0.485   92.867    9.734
   71.900    0.234    0.480   92.188   11.985
   72.200    0.137    0.458   92.110   14.478
   72.500    0.063    0.441   87.110   15.016
   72.800    0.123    0.321   80.237   15.007
   73.100    0.177    0.368   78.323   14.155
   73.400    0.271    0.398   84.421   12.144
   73.700    0.265    0.439   86.180    9.652
   74.000    0.270    0.472   86.128    9.109
   74.300    0.270    0.475   87.272    8.925
   74.600    0.264    0.459   89.671    8.420
   74.900    0.237    0.473   92.683    8.098
   75.200    0.260    0.488   94.463    7.216
   75.500    0.277    0.505   95.635    6.807
   75.800    0.254    0.515   95.562    6.931
   76.100    0.243    0.508   94.252    7.759
   76.400    0.232    0.503   91.696    8.854
   76.700    0.265    0.509   89.145    9.915
   77.000    0.265    0.444   87.233   10.482
   77.300    0.268    0.440   83.454   10.082
   77.600    0.272    0.448   82.147    9.512
   77.900    0.274    0.467   85.144    8.473
   78.200    0.266    0.470   87.564    7.846
   78.500    0.256    0.473   94.899    6.992
   78.800    0.249    0.490   94.829    5.996
   79.100    0.250    0.497   92.891    5.658
   79.400    0.264    0.499   92.195    5.546
   79.700    0.264    0.512   92.727    5.537
   80.000    0.249    0.521   93.916    5.638
   80.300    0.261    0.503   94.456    5.963
   80.600    0.257    0.479   93.150    6.427
   80.900    0.237    0.491   90.603    6.542
   81.200    0.256    0.505   88.066    7.188
   81.500    0.281    0.485   85.519    6.912
   81.800    0.275    0.477   85.433    5.929
   82.100    0.275    0.489   94.016    5.184
   82.400    0.280    0.539   93.947    4.121
   82.700    0.280    0.564   90.776    3.815
   83.000    0.272    0.580   88.234    3.958
   83.300    0.277    0.588   88.781    4.603
   83.600    0.255    0.540   91.173    5.668
   83.900    0.254    0.485   91.099    6.719
   84.200    0.249    0.476   86.708    8.593
   84.500    0.248    0.462   82.298    8.748
   84.800    0.274    0.468   80.995    8.573
   85.100    0.268    0.482   82.152    8.404
   85.400    0.259    0.477   85.796    8.389
   85.700    0.263    0.466   86.329    8.227
   86.000    0.265    0.452   82.561    8.699
   86.300    0.181    0.452   81.836    9.556
   86.600    0.041    0.458   80.557   10.105
   86.900    0.071    0.423   72.459   10.485
