~VERSION INFORMATION
 VERS.                 2.0:   CWLS LOG ASCII STANDARD -VERSION 2.0
 WRAP.                  NO:   ONE LINE PER DEPTH STEP
~WELL INFORMATION BLOCK
#MNEM.UNIT           DATA                    DESCRIPTION OF MNEMONIC
#---------    -------------------            -------------------------------
# Generated from Intellog Unique Number	CW_82_90/WELL/3417
WELL.         PCENT WOODEN HOUSE             : Well_name    - WELL
LOC .         AA/05-24-088-23W4/0            : Location     - LOCATION
UWI .         AA/05-24-088-23W4/0            : Uwi          - UNIQUE WELL ID
ENTR.         MAX                            : Entered      - ENTERED BY
SRVC.         COMPUTALOG                     : Scn          - SERVICE COMPANY
STRT.M        100                            : top_depth    - START DEPTH
STOP.M        306                            : bot_depth    - STOP DEPTH
STEP.M        0.25                           : increment    - STEP LENGTH
 NULL. -999.2500:NULL Value
~CURVE INFORMATION BLOCK
#MNEM UNIT       ERCB CURVE CODE    CURVE DESCRIPTION
#-----------   ------------------   ----------------------------------
DEPT.M        00 001 00 00         : DEPTH        - DEPTH
GR  .API      00 310 00 00         : GR           - GAMMA RAY
CALI.MM       00 280 01 00         : CAL          - CALIPER
DPHI.V/V      00 890 00 00         : PHID         - DENSITY POROSITY (SANDSTONE)
NPHI.V/V      00 330 00 00         : PHIN         - NEUTRON POROSITY (SANDSTONE)
ILD .OHMM     00 120 00 00         : RESD         - DEEP RESISTIVITY (DIL)
~PARAMETER INFORMATION
#MNEM.UNIT           DATA             DESCRIPTION OF MNEMONIC
#---------         -----------     ------------------------------
GL  .M        511                  : gl           - GROUND LEVEL ELEVATION
EREF.M        515.1                : kb           - ELEVATION OF DEPTH REFERENCE
DATM.M        511                  : datum        - DATUM ELEVATION
TDD .M        317.5                : tdd          - TOTAL DEPTH DRILLER
RUN .         ONE                  : Run          - RUN NUMBER
ENG .         BILL                 : Engineer     - RECORDING ENGINEER
WIT .         JIM                  : Witness      - WITNESSED BY
MUD .         GEL                  : Mud_type     - MUD TYPE
MATR.         SANDSTONE            : Logunit      - NEUTRON MATRIX
TMAX.C        26                   : BHT          - MAXIMUM RECORDED TEMPERATURE
BHTD.M        317.5                : BHTDEP       - MAXIMUM RECORDED TEMPERATURE
MATR.         1                    : LOGUNIT      - NEUTRON MATRIX
RMT .C        15                   : MDTP         - TEMPERATURE OF MUD
NEUT.         1                    : NEUTRON      - NEUTRON TYPE
RESI.         0                    : RESIST       - RESISTIVITY TYPE
RMC .OHMM     6                    : RMC          - RESISTIVITY OF MUD CAKE
RMF .OHMM     5                    : RMF          - RESISTIVITY OF MUD FILTRATE
SUFT.C        -10                  : SUFT         - SURFACE TEMPERATURE
~A  DEPTH       GR      CAL     PHID     PHIN     RESD
# ...
  282.500   50.030  219.398    0.173    0.347   21.966
  282.750   50.623  218.887    0.193    0.333   25.229
  283.000   50.917  218.872    0.216    0.326   28.977
  283.250   51.210  219.364    0.236    0.335   30.347
  283.500   52.404  220.852    0.243    0.329   30.631
  283.750   55.101  220.840    0.238    0.316   30.351
  284.000   60.801  220.830    0.213    0.305   28.985
  284.250   61.696  220.316    0.205    0.308   26.924
  284.500   62.289  220.304    0.207    0.308   23.881
  284.750   64.386  219.792    0.208    0.295   20.227
  285.000   67.983  219.279    0.206    0.304   17.613
  285.250   72.182  219.264    0.206    0.331   15.768
  285.500   74.579  219.756    0.205    0.348   15.058
  285.750   77.276  220.245    0.204    0.339   14.648
  286.000   82.075  220.734    0.204    0.314   14.381
  286.250   88.376  222.223    0.199    0.290   14.515
  286.500   91.073  223.211    0.192    0.289   14.516
  286.750   89.263  223.703    0.182    0.333   14.788
  287.000   83.849  224.691    0.173    0.354   14.926
  287.250   77.233  225.182    0.156    0.396   14.927
  287.500   76.625  225.671    0.114    0.405   14.791
  287.750   82.025  226.160    0.107    0.380   14.521
  288.000   88.627  226.147    0.137    0.363   14.389
  288.250   95.830  226.135    0.171    0.337   14.127
  288.500  102.132  226.122    0.172    0.319   13.742
  288.750  109.335  226.111    0.159    0.289   13.368
  289.000  114.435  226.100    0.157    0.286   13.246
  289.250  113.826  226.086    0.163    0.339   13.493
  289.500  107.510  226.075    0.161    0.379   14.002
  289.750   88.577  226.064    0.152    0.398   14.664
  290.000   68.743  225.051    0.163    0.401   15.500
  290.250   65.131  224.539    0.195    0.385   16.384
  290.500   73.535  223.521    0.217    0.361   17.804
  290.750   87.347  223.513    0.246    0.331   18.475
  291.000  116.180  223.999    0.230    0.302   17.643
  291.250  136.001  224.991    0.212    0.272   16.540
  291.500  145.607  223.977    0.208    0.320   16.090
  291.750  148.904  222.963    0.212    0.348   16.091
  292.000  148.896  221.952    0.201    0.377   16.392
  292.250  147.087  221.438    0.193    0.393   16.853
  292.500  140.471  221.426    0.187    0.383   18.146
  292.750  135.357  221.914    0.184    0.373   19.180
  293.000  131.745  222.903    0.187    0.369   20.652
  293.250  128.733  223.394    0.197    0.364   21.628
  293.500  125.722  222.379    0.209    0.357   22.862
  293.750  116.402  221.366    0.227    0.348   22.654
  294.000  110.086  221.356    0.237    0.352   22.036
  294.250  105.572  221.843    0.233    0.358   21.239
  294.500  102.861  222.334    0.213    0.352   20.283
  294.750   98.948  222.322    0.195    0.342   19.913
  295.000   96.239  221.807    0.189    0.354   19.914
  295.250   95.931  221.294    0.186    0.365   19.372
  295.500  101.030  220.283    0.180    0.361   18.845
  295.750  110.637  219.770    0.177    0.350   19.021
  296.000  125.651  219.256    0.170    0.357   19.737
  296.250  133.455  219.245    0.163    0.352   20.481
  296.500  125.336  219.234    0.166    0.345   21.449
  296.750  122.924  219.223    0.169    0.334   23.095
  297.000  118.712  219.710    0.172    0.328   25.097
  297.250   98.578  220.196    0.196    0.351   27.022
  297.500   92.561  220.686    0.217    0.336   26.775
  297.750   96.160  221.175    0.221    0.312   25.806
  298.000  101.260  221.165    0.207    0.273   24.873
  298.250   99.749  221.653    0.199    0.283   24.196
  298.500   97.039  221.642    0.188    0.317   23.975
  298.750   94.628  222.130    0.175    0.349   23.538
  299.000   93.721  223.120    0.172    0.390   23.540
  299.250   96.418  223.106    0.178    0.396   23.760
  299.500  105.722  222.594    0.189    0.367   23.982
  299.750  114.428  222.083    0.186    0.323   23.984
  300.000  123.132  221.067    0.177    0.301   23.985
  300.250  119.221  220.556    0.145    0.309   23.987
  300.500  115.007  219.044    0.143    0.321   23.988
  300.750  111.395  218.030    0.155    0.340   23.770
  301.000  102.376  216.517    0.173    0.355   23.771
  301.250   88.248  215.501    0.180    0.372   23.773
  301.500   79.230  214.990    0.185    0.390   23.774
  301.750   71.411  217.480    0.190    0.398   23.558
  302.000   72.606  219.973    0.195    0.352   23.559
  302.250   78.606  222.462    0.199    0.322   23.780
  302.500   83.106  223.455    0.204    0.295   24.224
  302.750   88.807  222.939    0.210    0.292   24.906
  303.000   92.103  220.424    0.216    0.340   25.844
  303.250   96.904  218.913    0.224    0.375   26.818
  303.500  107.411  221.402    0.235    0.380   28.348
  303.750  117.018  221.892    0.246    0.355   30.522
  304.000  122.418  221.378    0.254    0.302   32.561
  304.250  122.711  222.867    0.246    0.273   35.059
  304.500  119.099  223.860    0.220    0.345   39.167
  304.750  110.981  223.847    0.194    0.410   47.547
  305.000   83.035  223.336    0.192    0.427   54.110
  305.250   64.102  221.822    0.207    0.452   56.148
  305.500   52.378  221.809    0.227    0.487   58.804
  305.750   40.955  221.295    0.246    0.520   61.586
  306.000   33.137  221.785    0.256    0.580   65.097
