~Version : LASO    vs 4.00 - DATA COPYRIGHT - RILEYS DATASHARE INTERNATIONAL
 VERS.                2.0 :   CWLS Log ASCII Standard -VERSION 2.0
 WRAP.                 NO :   One line per depth step
~Well Information Block
#MNEM.UNIT       Data                        Description of Mnemonic
#----.----      -------------------------- : -----------------------------
 STRT.M             0.0000                 : Start Depth
 STOP.M           204.7500                 : End Depth
 STEP.M             0.1250                 : Depth Increment
 NULL.           -999.25                   : NULL Value
 COMP.                                     : COMPANY
 WELL.    MOBIL CLARKE OV 7-25             : WELL NAME
 FLD .    WILDCAT                          : FIELD NAME
 LOC .    07-25-090-08W4                   : WELL LOCATION
 PROV.    ALBERTA                          : PROVINCE
 SRVC.    DRESSER ATLAS                    : LOGGING SERVICE COMPANY
 DATE.    19-FEB-81                        : DATE LOGGED
 UWI .    AA/07-25-090-08W400              : UNIQUE WELL ID
~Curve Information Block
#MNEM.UNIT        API CODE                   Curve Description
#----.----      LG--CV-CL--M               : -----------------
 DEPT.M          0   1  0  0               : 1 DEPTH
 DT  .US/M      60 520 42  1               : 2 SONIC INTERVAL TRANSIT TIME (COMPENSATED)
 CALI.MM        42 280  1  1               : 3 DENSITY CALIPER
 GR  .GAPI      42 310  1  1               : 4 GAMMA RAY
 NPHI.V/V       42 890  3  1               : 5 NEUTRON POROSITY (SANDSTONE)
 RHOB.K/M3      42 350  1  1               : 6 BULK DENSITY
 IL  .OHMM       5 120 45  1               : 7 INDUCTION
 SFL .OHMM       5 220  6  1               : 8 FOCUSSED RESISTIVITY
 SP  .MV         5  10  1  1               : 9 SPONTANEOUS POTENTIAL
~Parameter Information Block
#MNEM.UNIT       Data                        Description of Mnemonic
#----.----      -------------------------- : -----------------------------
 RUN .                   1                 : Run Number
 GL  .M           449.0000                 : Ground Level Elevation
 DREF.                  KB                 : Depth Reference
 EREF.M           449.0000                 : Elevation of Depth Reference
 TDL .M           202.0000                 : Total Depth Logger
 TDD .M           205.0000                 : Total Depth Driller
 BHT .DEGC         20.0000                 : Bottom Hole Temperature
 BS  .MM          159.0000                 : Bit Size
 DFD .           9999.0000                 : Mud Weight (Density)
 DFV .            150.0000                 : Mud Viscosity
 RM  .OHMM          4.1000                 : Mud Resistivity
 RMT .DEGC         20.0000                 : Mud Resistivity Temperature
 RMF .OHMM          3.9000                 : Mud Filtrate Resistivity
 RMFT.DEGC          8.0000                 : RMF Temperature
 RMC .OHMM          7.8000                 : Mud Cake Resistivity
 RMCT.DEGC          8.0000                 : RMC Temperature
~Asc DEPTH      DT         CALI       GR         NPHI       RHOB       IL         SFL        SP   
# ...
   70.8750   472.2400   180.0000    76.0650     0.3451  2230.0000    16.6950    20.7700  -139.9200
   71.0000   477.4000   179.1000    73.4850     0.3488  2227.5000    16.9400    21.2000  -139.7400
   71.1250   495.8400   178.7750    72.5550     0.3470  2225.7000    17.2500    20.7700  -139.5450
   71.2500   509.3600   178.7750    72.7500     0.3477  2223.8000    17.5550    18.9950  -139.5450
   71.3750   518.9200   178.4750    73.1100     0.3488  2218.3000    17.8600    17.7650  -139.7400
   71.5000   524.8400   177.2500    74.9550     0.3539  2209.7000    18.1700    17.7050  -140.1000
   71.6250   527.5200   176.3250    75.1350     0.3572  2204.2000    18.3550    19.3000  -140.2950
   71.7500   522.8800   177.8750    74.7750     0.3587  2200.0000    18.4150    21.7500  -140.6700
   71.8750   520.9200   183.3750    73.8450     0.3653  2182.8000    18.5350    24.0150  -141.0300
   72.0000   518.2000   183.7000    73.6650     0.3595  2158.3000    18.7200    25.3650  -141.7800
   72.1250   510.6000   182.4750    72.9300     0.3539  2141.7000    18.9650    25.9150  -142.1400
   72.2500   506.6400   180.9250    69.9750     0.3470  2130.7000    19.2750    26.2250  -142.3350
   72.3750   509.8400   180.3250    68.6850     0.3422  2133.8000    19.7000    24.9350  -142.3350
   72.5000   513.5200   177.2500    66.8550     0.3400  2150.8999    20.2550    23.5900  -142.3350
   72.6250   515.2400   177.2500    65.3700     0.3326  2176.7000    20.7450    22.2400  -142.1400
   72.7500   534.1600   178.4750    65.9250     0.3275  2198.1001    21.4800    21.6900  -141.7800
   72.8750   583.3200   180.3250    65.1900     0.3161  2200.6001    22.1550    22.2400  -142.3350
   73.0000   609.1600   185.2250    66.1050     0.3084  2198.7000    22.8300    23.7700  -143.8050
   73.1250   563.4000   191.9500    68.3250     0.2996  2202.3999    23.5050    26.4050  -145.4850
   73.2500   570.2800   195.9500    67.7700     0.2919  2207.3000    24.4850    30.2050  -147.1500
   73.3750   594.8400   185.8250    65.1900     0.2783  2206.1001    25.8350    35.1700  -148.6350
   73.5000   605.9600   178.4750    62.2350     0.2765  2204.2000    27.4300    37.5000  -148.8150
   73.6250   570.5200   177.8750    60.2100     0.2739  2213.3999    28.9650    36.9450  -148.6350
   73.7500   547.6800   176.0250    59.2950     0.2702  2230.6001    30.6850    34.9850  -148.0650
   73.8750   517.4800   175.7250    58.7400     0.2658  2239.2000    32.3400    32.9650  -147.5100
   74.0000   521.1600   175.1000    58.7400     0.2621  2247.1001    33.5050    33.0250  -147.1500
   74.1250   559.4800   174.2000    58.9200     0.2574  2255.7000    35.0400    36.5150  -147.7050
   74.2500   580.6000   174.2000    58.3650     0.2559  2264.8999    37.4300    43.8100  -148.4400
   74.3750   602.9600   174.2000    58.5600     0.2533  2269.8000    39.2100    50.0600  -149.3700
   74.5000   614.3600   174.2000    57.0750     0.2530  2271.6001    40.9300    52.5500  -150.2850
   74.6250   620.6800   174.2000    54.1350     0.2530  2277.8000    43.2000    51.4000  -150.6450
   74.7500   572.0000   173.8750    53.7600     0.2533  2283.3000    45.7750    54.9000  -151.0200
   74.8750   487.2400   173.8750    53.2050     0.2479  2290.6001    46.8200    62.2500  -151.2000
   75.0000   329.2400   174.2000    51.7350     0.2467  2309.0000    46.2050    68.2500  -151.5900
   75.1250   121.6400   174.5000    51.9150     0.2431  2336.0000    46.5100    68.9500  -152.1450
   75.2500   103.4400   174.8000    51.7350     0.2405  2382.5000    45.1600    65.5000  -152.8950
   75.3750   148.1600   175.7250    52.2900     0.2416  2437.7000    42.5850    60.7500  -153.4500
   75.5000   225.5600   176.0250    53.4000     0.2489  2437.7000    40.3150    58.8500  -153.6300
   75.6250   447.6800   176.3250    54.6900     0.2578  2399.1001    38.9650    55.3000  -153.8100
   75.7500   511.3200   177.8750    55.0500     0.2666  2359.3000    38.6000    47.2400  -153.8100
   75.8750   348.4400   179.1000    54.1350     0.2765  2318.8000    37.5550    41.1750  -153.8100
   76.0000   190.9200   179.7000    53.2050     0.2871  2260.0000    36.0850    38.5400  -153.2550
   76.1250   489.2000   180.3250    52.8450     0.2967  2206.7000    34.7350    39.7050  -152.7000
   76.2500   451.3600   179.1000    52.1100     0.3033  2177.3000    33.1400    42.2750  -151.9650
   76.3750   230.0000   180.3250    51.5550     0.3000  2163.8000    32.4000    44.8500  -151.2000
   76.5000   189.7200   182.7750    49.3350     0.2959  2166.2000    32.5850    45.1550  -151.5900
   76.6250   473.7200   187.3750    47.5050     0.2893  2167.5000    33.4450    39.5200  -152.3400
   76.7500   520.1600   179.7000    47.6850     0.2842  2160.1001    34.4850    35.6000  -153.0750
   76.8750   580.6000   177.8750    49.5300     0.2938  2138.7000    35.4700    34.1250  -153.8100
   77.0000   581.6000   178.4750    49.7100     0.3033  2096.3999    36.9400    35.7200  -154.1850
   77.1250   530.7200   178.7750    49.7100     0.3117  2059.0000    37.6150    37.8650  -153.8100
   77.2500   487.9600   179.7000    49.7100     0.3191  2040.0000    36.5100    40.3750  -153.2550
   77.3750   476.4400   182.1500    50.2650     0.3132  2051.7000    35.7750    42.7650  -152.5200
   77.5000   510.3200   184.9250    50.8200     0.3095  2082.3000    35.3450    46.4450  -151.9650
   77.6250   529.0000   180.9250    51.3750     0.3077  2138.7000    34.8550    49.7500  -151.5900
   77.7500   505.6800   174.8000    53.9550     0.3088  2201.2000    34.1800    48.2200  -151.0200
   77.8750   509.1200   171.1250    56.3400     0.3077  2242.2000    34.5500    39.6400  -150.2850
   78.0000   517.9600   170.2000    58.3650     0.3125  2250.8000    35.4100    30.8800  -148.8150
   78.1250   291.4400   170.5250    59.8500     0.3242  2242.8000    34.6100    25.1200  -146.7750
   78.2500   130.7200   170.8250    59.8500     0.3392  2216.5000    32.7700    24.8150  -146.7750
   78.3750   305.6800   170.5250    60.7650     0.3716  2149.1001    31.6650    28.4900  -148.4400
   78.5000   530.7200   169.9000    62.2350     0.3815  2070.0000    31.1750    33.9450  -150.4650
   78.6250   629.2000   168.0750    63.7200     0.3760  2006.9000    30.7450    38.2350  -152.5200
   78.7500   656.5600   168.6750    62.7900     0.3705  1962.2000    30.5000    39.2750  -154.0050
   78.8750   650.0400   170.5250    61.8750     0.3719  1907.7000    31.7900    37.3150  -154.9200
   79.0000   633.1200   176.0250    58.5600     0.3749  1853.7000    32.7100    37.1300  -155.1150
   79.1250   647.2800   178.4750    55.6050     0.3785  1838.4000    32.7100    36.9450  -155.2950
   79.2500   649.8800   184.3000    53.0250     0.3782  1848.2000    32.8300    36.0900  -155.6700
   79.3750   641.0400   188.2750    50.6250     0.3775  1860.5000    33.3850    34.6800  -156.0450
   79.5000   628.0800   193.5000    49.8900     0.3793  1879.5000    33.5650    35.1100  -156.6000
   79.6250   616.4800   204.2250    50.0850     0.3749  1899.1001    33.1400    36.6400  -157.1550
   79.7500   623.1600   199.3250    50.4450     0.3661  1900.9000    33.2600    38.7850  -157.5150
   79.8750   610.4800   191.3500    51.1800     0.3587  1894.2000    33.6300    39.8250  -158.0700
   80.0000   602.9600   189.5000    50.8200     0.3539  1894.8000    33.9350    39.3350  -158.8200
   80.1250   584.2800   184.6000    50.4450     0.3488  1910.1001    34.0600    35.7200  -159.3750
   80.2500   585.5200   182.7750    50.2650     0.3488  1934.6001    34.2400    32.7800  -159.5550
   80.3750   586.2800   175.4250    51.0000     0.3580  1973.8000    34.6700    33.7600  -159.7350
   80.5000   586.0000   164.3750    52.2900     0.3591  2016.1000    34.7950    36.6400  -159.9300
   80.6250   588.7200   161.0250    54.8700     0.3646  2035.7000    34.9150    39.7650  -160.3050
   80.7500   592.8800   161.0250    58.1850     0.3584  2038.2000    35.3450    38.9050  -160.4850
   80.8750   595.6000   161.3250    60.7650     0.3569  2037.0000    35.6550    37.9250  -160.6650
