~VERSION INFORMATION
 VERS.                 2.0:   CWLS LOG ASCII STANDARD -VERSION 2.0
 WRAP.                  NO:   ONE LINE PER DEPTH STEP
~WELL INFORMATION BLOCK
#MNEM.UNIT           DATA                    DESCRIPTION OF MNEMONIC
#---------    -------------------            -------------------------------
# Generated from Intellog Unique Number	CC_80_83/WELL/2302
NULL.         -999.25                        : NULL_VALUE
WELL.         PEX PCEJ CHARD OV              : Well_name    - WELL              
LOC .         07-26-080-08W4                 : Location     - LOCATION          
UWI .         AA/07-26-080-08W400            : Uwi          - UNIQUE WELL ID    
ENTR.         DW                             : Entered      - ENTERED BY        
SRVC.         SCHLUMBERGER                   : Scn          - SERVICE COMPANY   
DATE.         05 feb 80                      : Date         - LOG DATE
STRT.M        220                            : top_depth    - START DEPTH       
STOP.M        450.092                        : bot_depth    - STOP DEPTH        
STEP.M        0.3                            : increment    - STEP LENGTH       
~CURVE INFORMATION BLOCK
#MNEM UNIT       ERCB CURVE CODE    CURVE DESCRIPTION
#-----------   ------------------   ----------------------------------
DEPT.M        00 001 00 00         : DEPTH        - DEPTH                       
DPHI.V/V      00 890 00 00         : PHID         - DENSITY POROSITY (LIMESTONE)
NPHI.V/V      00 330 00 00         : PHIN         - NEUTRON POROSITY (LIMESTONE)
GR  .API      00 310 00 00         : GR           - GAMMA RAY                   
ILD .OHMM     00 120 00 00         : RESD         - DEEP RESISTIVITY (DIL)      
~PARAMETER INFORMATION       
#MNEM.UNIT           DATA             DESCRIPTION OF MNEMONIC
#---------         -----------     ------------------------------
GL  .M        666.9                : gl           - GROUND LEVEL ELEVATION      
EREF.M        670.55               : kb           - ELEVATION OF DEPTH REFERENCE
DATM.M        670.55               : datum        - DATUM ELEVATION             
TDD .M        455                  : tdd          - TOTAL DEPTH DRILLER         
RUN .         ONE                  : Run          - RUN NUMBER                  
ENG .         BILL                 : Engineer     - RECORDING ENGINEER          
WIT .         JIM                  : Witness      - WITNESSED BY                
MUD .         GEL                  : Mud_type     - MUD TYPE                    
MATR.         LIMESTONE            : Logunit      - NEUTRON MATRIX              
TMAX.C        15                   : BHT          - MAXIMUM RECORDED TEMPERATURE
BHTD.M        455                  : BHTDEP       - MAXIMUM RECORDED TEMPERATURE
MATR.         1                    : LOGUNIT      - NEUTRON MATRIX              
RMT .C        25                   : MDTP         - TEMPERATURE OF MUD          
NEUT.         1                    : NEUTRON      - NEUTRON TYPE                
RESI.         0                    : RESIST       - RESISTIVITY TYPE            
RMC .OHMM     0.25                 : RMC          - RESISTIVITY OF MUD CAKE     
RMF .OHMM     0.25                 : RMF          - RESISTIVITY OF MUD FILTRATE 
SUFT.C        4                    : SUFT         - SURFACE TEMPERATURE         
~A  DEPTH     PHID     PHIN       GR     RESD
# ...
  272.200    0.164    0.353  109.489    7.235
  272.500    0.192    0.336  115.023    8.559
  272.800    0.199    0.319   92.294   10.511
  273.100    0.202    0.336  103.972   12.668
  273.400    0.196    0.335  102.747   16.762
  273.700    0.184    0.347   93.535   16.452
  274.000    0.178    0.340  100.297   14.169
  274.300    0.186    0.344   95.386   12.434
  274.600    0.210    0.350  106.451   11.116
  274.900    0.245    0.375   97.238   11.116
  275.200    0.294    0.389   89.255   11.756
  275.500    0.272    0.347   96.018   13.398
  275.800    0.214    0.339   87.420   14.986
  276.100    0.223    0.332   40.113   17.078
  276.400    0.217    0.313   32.744   19.462
  276.700    0.212    0.303   32.134   22.179
  277.000    0.220    0.314   42.584   22.179
  277.299    0.218    0.311   49.346   20.583
  277.599    0.207    0.297   59.796   19.462
  277.899    0.183    0.313   72.089   18.402
  278.199    0.185    0.315   83.153   17.727
  278.499    0.213    0.316   65.953   18.062
  278.799    0.197    0.316   58.585   18.749
  279.099    0.197    0.304   60.432   19.102
  279.399    0.214    0.313   67.809   18.749
  279.699    0.211    0.324   72.114   18.062
  279.999    0.206    0.326   78.263   17.400
  280.299    0.192    0.336   82.569   16.148
  280.599    0.167    0.338   86.873   14.709
  280.899    0.156    0.328   98.552   13.398
  281.199    0.154    0.342   97.942   11.978
  281.499    0.159    0.358  102.247   10.316
  281.799    0.151    0.376  104.094    8.093
  282.099    0.147    0.363  112.700    7.235
  282.399    0.143    0.356  104.717    7.943
  282.699    0.184    0.365   98.577    8.885
  282.999    0.207    0.366   89.364   10.709
  283.299    0.204    0.359   77.694   13.398
  283.599    0.203    0.348   87.530   15.556
  283.899    0.197    0.325   82.618   15.556
  284.199    0.182    0.339   78.322   14.436
  284.499    0.179    0.334   85.699   13.150
  284.799    0.173    0.349   90.004   12.204
  285.099    0.170    0.353   93.695   10.910
  285.399    0.191    0.361   99.843    9.574
  285.699    0.193    0.377  107.836    8.720
  285.999    0.197    0.395  112.755    8.093
  286.299    0.207    0.414  106.000    7.652
  286.599    0.210    0.409   99.246    7.652
  286.899    0.218    0.370   88.191    8.245
  287.199    0.198    0.384   94.954    8.885
  287.499    0.197    0.378   92.500   10.125
  287.799    0.199    0.366   83.902   11.756
  288.099    0.197    0.354   93.737   13.398
  288.399    0.193    0.349   98.042   14.436
  288.699    0.192    0.339   86.372   14.436
  288.999    0.193    0.316   72.245   13.907
  289.299    0.244    0.353   69.791   12.668
  289.599    0.237    0.391   86.999   11.978
  289.899    0.227    0.383   98.679   10.910
  290.199    0.230    0.420  102.369    9.754
  290.499    0.214    0.436   95.000    8.720
  290.799    0.216    0.443   92.547    8.401
  291.099    0.168    0.386   85.177    8.093
  291.399    0.196    0.380   88.254    7.943
  291.699    0.210    0.372  102.390    8.401
  291.999    0.220    0.364   91.334    8.720
  292.299    0.224    0.362   95.025    8.885
  292.599    0.194    0.361   80.898    8.720
  292.899    0.199    0.332   68.613    8.885
  293.199    0.207    0.345   45.269    9.052
  293.499    0.231    0.337   45.273    9.397
  293.799    0.259    0.393   65.554    9.397
  294.099    0.313    0.431   47.739   10.316
  294.399    0.254    0.383   49.588   11.325
  294.699    0.211    0.338   58.193   12.668
  294.999    0.215    0.348   64.342   13.398
  295.299    0.225    0.344   63.731   15.268
  295.599    0.228    0.345   58.822   16.148
  295.899    0.225    0.348   61.282   16.762
  296.199    0.226    0.358   63.130   17.078
  296.499    0.228    0.342   64.363   16.452
  296.799    0.232    0.343   58.837   16.148
  297.099    0.227    0.336   64.371   16.148
  297.399    0.224    0.345   65.604   15.849
  297.699    0.228    0.327   68.681   15.556
  297.999    0.228    0.329   63.155   14.986
  298.299    0.233    0.336   65.003   14.436
  298.599    0.236    0.356   62.550   14.169
  298.899    0.239    0.344   61.939   13.650
  299.199    0.233    0.359   58.873   13.150
  299.499    0.226    0.366   60.105   12.668
  299.799    0.223    0.353   63.181   12.668
  300.099    0.222    0.359   63.185   12.668
  300.399    0.225    0.345   65.032   12.668
  300.699    0.227    0.359   70.566   12.668
  300.999    0.221    0.351   62.584   12.434
  301.299    0.219    0.321   64.430   12.434
  301.599    0.219    0.314   71.193   11.978
  301.898    0.216    0.314   68.125   11.756
  302.198    0.210    0.320   62.600   11.756
  302.498    0.210    0.324   60.146   11.978
  302.798    0.217    0.315   56.464   12.204
  303.098    0.220    0.285   65.685   12.204
  303.398    0.173    0.229   63.231   12.434
  303.698    0.127    0.162   56.477   13.650
  303.998    0.087    0.121   47.879   14.709
  304.298    0.125    0.194   42.968   16.452
  304.598    0.198    0.184   53.417   17.727
  304.898    0.000    0.126   65.710   18.062
  305.198    0.028    0.101   50.353   18.062
  305.498    0.038    0.100   38.070   19.829
  305.798    0.064    0.154   39.917   22.179
  306.098    0.159    0.196   44.222   22.597
  306.398    0.207    0.354   53.443   19.462
  306.698    0.216    0.357   65.735   14.986
  306.998    0.211    0.352   64.511   12.204
  307.298    0.209    0.345   62.057   11.116
  307.598    0.212    0.352   60.833   10.709
  307.898    0.227    0.366   58.379   11.116
  308.198    0.231    0.365   51.011   11.325
  308.498    0.233    0.363   54.087   11.978
  308.798    0.242    0.354   51.019   12.668
  309.098    0.239    0.352   51.023   13.650
  309.398    0.232    0.377   54.100   14.169
  309.698    0.244    0.366   51.645   14.709
  309.998    0.241    0.357   47.963   14.986
  310.298    0.246    0.356   46.739   15.268
  310.598    0.249    0.338   47.358   15.556
  310.898    0.244    0.334   50.434   15.268
  311.198    0.241    0.335   52.281   14.986
  311.498    0.248    0.330   52.901   13.907
  311.798    0.224    0.360   55.362   12.434
  312.098    0.213    0.359   64.583   10.125
  312.398    0.222    0.355   70.731    8.720
  312.698    0.267    0.383   78.723    7.652
  312.998    0.237    0.379   85.486    7.102
  313.298    0.190    0.363   79.960    6.841
  313.598    0.188    0.339   79.964    6.841
  313.898    0.221    0.383   89.799    6.970
  314.198    0.210    0.373   86.732    7.102
  314.498    0.197    0.351   84.892    7.235
  314.798    0.183    0.340   81.824    7.796
  315.098    0.193    0.345   94.733    8.245
  315.398    0.199    0.339   91.664    8.720
  315.698    0.185    0.357   85.523    9.574
  315.998    0.210    0.341   87.372   10.125
  316.298    0.211    0.335   70.171   10.316
  316.598    0.191    0.338   76.320    9.223
  316.898    0.190    0.362   85.541    8.245
  317.198    0.173    0.367   81.244    7.511
  317.498    0.185    0.363   87.392    6.715
  317.798    0.184    0.356   86.782    6.841
  318.098    0.181    0.360   86.172    7.102
  318.398    0.181    0.383   90.477    7.235
  318.698    0.214    0.394   83.722    6.970
  318.998    0.250    0.411   88.642    6.715
  319.298    0.195    0.393   90.490    7.511
  319.598    0.208    0.343   72.675    9.754
  319.898    0.201    0.354   75.752   10.316
  320.198    0.174    0.384   84.972    5.892
  320.498    0.157    0.397   90.507    2.845
  320.798    0.157    0.405   96.041    2.405
  321.098    0.202    0.424   98.504    2.232
  321.398    0.242    0.444   92.362    2.360
  321.698    0.263    0.454   89.295    2.898
  321.998    0.297    0.445   88.684    3.429
  322.298    0.296    0.457   86.231    4.709
  322.598    0.301    0.435   83.163    5.367
  322.898    0.258    0.377   77.638    5.892
  323.198    0.191    0.346   75.798    6.970
  323.498    0.198    0.347   85.633    7.372
  323.798    0.230    0.363   88.096    6.970
  324.098    0.264    0.406   86.256    5.783
