~VERSION INFORMATION
 VERS.                 2.0:   CWLS LOG ASCII STANDARD -VERSION 2.0
 WRAP.                  NO:   ONE LINE PER DEPTH STEP
~WELL INFORMATION BLOCK
#MNEM.UNIT           DATA                    DESCRIPTION OF MNEMONIC
#---------    -------------------            -------------------------------
# Generated from Intellog Unique Number	CN_91_93/WELL/3557
WELL.         01-28-093-11W4                 : Well_name    - WELL
LOC .         AA/01-28-093-11W4/0            : Location     - LOCATION
UWI .         AA/01-28-093-11W400            : Uwi          - UNIQUE WELL ID
ENTR.         JOETTE                         : Entered      - ENTERED BY
SRVC.         SCHLUMBERGER                   : Scn          - SERVICE COMPANY
DATE.         03/16/92                       : Date         - LOG DATE
STRT.F        10                             : top_depth    - START DEPTH
STOP.F        370.072                        : bot_depth    - STOP DEPTH
STEP.F        0.8202                         : increment    - STEP LENGTH
 NULL. -999.2500:NULL Value
~CURVE INFORMATION BLOCK
#MNEM UNIT       ERCB CURVE CODE    CURVE DESCRIPTION
#-----------   ------------------   ----------------------------------
DEPT.F        00 001 00 00         : DEPTH        - DEPTH
GR  .API      00 310 00 00         : GR           - GAMMA RAY
CALI.MM       00 280 01 00         : CAL          - CALIPER
NPHI.V/V      00 330 00 00         : PHIN         - NEUTRON POROSITY (SANDSTONE)
DPHI.V/V      00 890 00 00         : PHID         - DENSITY POROSITY (SANDSTONE)
ILD .OHMM     00 120 00 00         : RESD         - DEEP RESISTIVITY (DIL)
~PARAMETER INFORMATION
#MNEM.UNIT           DATA             DESCRIPTION OF MNEMONIC
#---------         -----------     ------------------------------
GL  .M        328.5                : gl           - GROUND LEVEL ELEVATION
EREF.M        328.5                : kb           - ELEVATION OF DEPTH REFERENCE
DATM.M        328.5                : datum        - DATUM ELEVATION
TDD .M        118.9                : tdd          - TOTAL DEPTH DRILLER
RUN .         ONE                  : Run          - RUN NUMBER
ENG .         JO                   : Engineer     - RECORDING ENGINEER
WIT .         TIM                  : Witness      - WITNESSED BY
MUD .         GEL                  : Mud_type     - MUD TYPE
MATR.         SANDSTONE            : Logunit      - NEUTRON MATRIX
TMAX.C        18                   : BHT          - MAXIMUM RECORDED TEMPERATURE
BHTD.M        118.9                : BHTDEP       - MAXIMUM RECORDED TEMPERATURE
RMT .C        16                   : MDTP         - TEMPERATURE OF MUD
MUDD.KG/M     1010                 : MWT          - MUD DENSITY
NEUT.         1                    : NEUTRON      - NEUTRON TYPE
RESI.         0                    : RESIST       - RESISTIVITY TYPE
RM  .OHMM     6.5                  : RM           - RESISTIVITY OF MUD
RMC .OHMM     6.5                  : RMC          - RESISTIVITY OF MUD CAKE
RMF .OHMM     6.5                  : RMF          - RESISTIVITY OF MUD FILTRATE
SUFT.C        4                    : SUFT         - SURFACE TEMPERATURE
~A  DEPTH       GR      CAL     PHIN     PHID     RESD
# ...
  129.751  109.538  155.019    0.597    0.418    3.208
  130.571  112.692  154.986    0.549    0.311    4.711
  131.391  113.949  154.954    0.511    0.275    5.759
  132.211  115.195  155.981    0.496    0.264    6.306
  133.031  112.634  159.102    0.473    0.252    6.186
  133.852  114.521  161.196    0.491    0.240    5.335
  134.672  123.399  164.341    0.516    0.278    5.138
  135.492  122.109  163.250    0.506    0.250    5.628
  136.312  117.635  162.158    0.479    0.255    6.878
  137.133  114.438  162.125    0.479    0.226    7.000
  137.953  116.966  168.457    0.495    0.201    9.552
  138.773  122.031  170.519    0.502    0.171    4.931
  139.593  130.910  164.147    0.569    0.228    4.926
  140.413  136.605  157.750    0.546    0.263    3.604
  141.234  135.950  159.837    0.538    0.279    3.601
  142.054  136.566  169.346    0.527    0.297    4.165
  142.874  136.547  169.305    0.511    0.289    4.085
  143.694  137.794  163.968    0.511    0.278    4.081
  144.514  135.232  161.825    0.515    0.263    4.552
  145.335  134.577  160.726    0.516    0.275    5.565
  146.155  135.193  162.804    0.523    0.273    6.320
  146.975  132.627  163.847    0.521    0.263    5.656
  147.795  132.607  164.874    0.498    0.251    4.791
  148.615  130.686  165.892    0.493    0.240    5.544
  149.436  126.212  165.852    0.513    0.250    8.601
  150.256  123.646  164.760    0.516    0.231   10.135
  151.076  127.445  163.668    0.489    0.206    6.060
  151.896  135.688  162.585    0.457    0.235    4.271
  152.717  146.473  159.358    0.505    0.261    4.593
  153.537  149.631  158.275    0.523    0.262    5.030
  154.357  140.714  158.234    0.509    0.235    8.872
  155.177  129.885  158.202    0.483    0.203    9.539
  155.997  119.696  158.169    0.446    0.219   12.320
  156.818  113.321  159.196    0.426    0.181   16.206
  157.638  106.310  161.274    0.388    0.155   13.234
  158.458  115.815  162.301    0.374    0.154   12.064
  159.278  113.258  165.446    0.394    0.203   10.795
  160.098  106.247  166.481    0.428    0.238   17.699
  160.919   96.694  169.627    0.443    0.290   28.479
  161.739   80.780  169.586    0.408    0.326   26.937
  162.559   65.507  168.503    0.400    0.321   41.783
  163.379   52.776  165.276    0.390    0.308   45.764
  164.199   48.938  164.192    0.394    0.302   50.113
  165.020   47.648  162.041    0.395    0.303   48.255
  165.840   38.730  160.942    0.396    0.297   70.859
  166.660   24.093  158.791    0.394    0.278  120.520
  167.480   12.628  157.691    0.380    0.272  551.798
  168.301    6.253  156.607    0.357    0.274  122.503
  169.121    4.962  156.567    0.331    0.282  141.733
  169.941    8.121  157.602    0.333    0.277  215.900
  170.761   15.728  160.739    0.349    0.283  179.566
  171.581   21.429  163.876    0.373    0.295  119.847
  172.402   25.854  165.979    0.388    0.302   89.272
  173.222   23.927  170.175    0.403    0.296   97.756
  174.042   24.543  173.304    0.422    0.319   87.493
  174.862   28.337  174.339    0.412    0.314   74.115
  175.682   30.225  175.374    0.421    0.307   62.769
  176.503   31.471  176.385    0.437    0.316   68.734
  177.323   30.816  176.369    0.448    0.324   67.425
  178.143   28.255  173.134    0.435    0.322   52.112
  178.963   24.417  172.051    0.409    0.322   60.292
  179.783   23.762  172.026    0.405    0.316   80.778
  180.604   24.378  171.994    0.405    0.307   59.077
  181.424   28.812  171.945    0.392    0.310   48.231
  182.244   33.873  174.048    0.391    0.305   57.874
  183.064   36.386  180.355    0.398    0.297   57.835
  183.885   37.012  183.500    0.405    0.306   62.195
  184.705   35.721  184.535    0.401    0.308   62.139
  185.525   36.968  183.443    0.398    0.304   50.731
  186.345   38.224  181.276    0.400    0.312   43.769
  187.165   39.466  179.133    0.407    0.321   49.720
  187.986   40.087  175.915    0.417    0.308   52.485
  188.806   43.876  174.831    0.425    0.317   59.606
  189.626   45.133  172.672    0.419    0.316   46.069
  190.446   44.468  171.588    0.425    0.314   37.620
  191.266   41.916  169.429    0.430    0.313  106.923
  192.087   36.177  166.219    0.436    0.305  272.174
  192.907   31.063  164.060    0.412    0.310  185.018
  193.727   34.226  161.909    0.394    0.290  119.012
  194.547   34.837  160.825    0.389    0.297  206.121
  195.367   32.280  160.785    0.424    0.313  337.878
  196.188   28.443  159.693    0.420    0.313  286.217
  197.008   31.601  157.542    0.394    0.318  213.246
  197.828   35.395  156.450    0.392    0.324  112.112
  198.648   38.553  155.350    0.399    0.326  158.702
  199.469   41.076  155.326    0.395    0.315  180.277
  200.289   38.514  155.294    0.383    0.303   69.394
  201.109   39.131  155.253    0.388    0.302   62.108
  201.929   42.289  155.221    0.405    0.295  146.949
  202.749   39.082  154.129    0.422    0.289  223.847
  203.570   37.791  154.097    0.420    0.283   65.445
  204.390   38.403  154.064    0.412    0.286   86.089
  205.210   39.664  154.032    0.423    0.298   79.910
  206.030   43.458  152.924    0.419    0.301   85.915
  206.850   42.798  151.840    0.409    0.298   89.025
  207.671   40.872  150.740    0.415    0.306   90.591
  208.491   37.670  149.657    0.411    0.318   87.270
  209.311   40.197  148.557    0.405    0.326   71.264
  210.131   43.987  148.533    0.419    0.324   82.432
  210.951   42.696  147.425    0.436    0.317  106.441
  211.772   43.312  147.400    0.424    0.307   86.938
  212.592   44.564  147.368    0.410    0.295   65.972
  213.412   45.815  146.276    0.411    0.301   52.894
  214.232   47.703  146.244    0.410    0.291   52.834
  215.052   44.501  145.152    0.398    0.264  105.988
  215.873   40.668  145.103    0.389    0.248  167.482
  216.693   41.289  145.063    0.393    0.265   65.662
  217.513   44.437  145.047    0.402    0.306   51.689
  218.333   43.787  143.947    0.403    0.293   60.909
  219.154   44.403  143.906    0.390    0.284   63.128
  219.974   49.464  143.890    0.402    0.294   83.041
  220.794   53.262  143.849    0.401    0.289   45.289
  221.614   57.692  143.817    0.411    0.293   65.296
  222.434   63.388  143.776    0.435    0.289   60.623
  223.255   65.280  143.752    0.444    0.286   99.375
  224.075   58.900  144.763    0.481    0.302   92.264
  224.895   56.333  144.747    0.445    0.308   31.237
  225.715   58.861  144.698    0.413    0.299   34.206
  226.535   65.197  144.657    0.396    0.301   38.141
  227.356   75.347  144.641    0.373    0.267   32.907
  228.176   97.567  143.541    0.381    0.258   28.917
  228.996  101.366  143.509    0.390    0.269   34.076
  229.816  100.711  143.476    0.403    0.276   46.499
  230.636   94.331  143.444    0.408    0.281   38.673
  231.457   96.849  143.412    0.383    0.276   13.579
  232.277  101.919  142.312    0.368    0.247   16.302
  233.097  110.162  142.279    0.353    0.216   25.292
  233.917  105.058  142.255    0.369    0.219   33.270
  234.738   89.149  141.155    0.388    0.244   30.328
  235.558   88.490  141.107    0.369    0.266   26.650
  236.378   87.835  141.082    0.368    0.264   31.397
  237.198   85.908  139.999    0.377    0.274   23.825
  238.018   93.516  139.950    0.376    0.270   18.755
  238.839  105.572  139.926    0.363    0.214   15.312
  239.659  115.722  139.877    0.352    0.190   15.581
  240.479  124.600  139.853    0.349    0.200   17.378
  241.299  129.030  139.828    0.367    0.219   17.362
  242.119  129.006  139.796    0.368    0.224   13.917
  242.940  133.435  139.763    0.368    0.210   21.205
  243.760  137.229  139.723    0.380    0.214   25.921
  244.580  132.761  139.699    0.399    0.230   29.445
  245.400  125.750  138.599    0.412    0.245   16.967
  246.220  111.743  138.558    0.412    0.258   14.906
  247.041  108.546  138.534    0.392    0.245   16.323
  247.861  119.331  138.493    0.379    0.211   16.917
  248.681  128.845  138.461    0.383    0.199   15.141
