~VERSION INFORMATION
 VERS.                 2.0:   CWLS LOG ASCII STANDARD -VERSION 2.0
 WRAP.                  NO:   ONE LINE PER DEPTH STEP
~WELL INFORMATION BLOCK
#MNEM.UNIT           DATA                    DESCRIPTION OF MNEMONIC
#---------    -------------------            -------------------------------
# Generated from Intellog Unique Number	CN_94_101/WELL/4989
WELL.         07-09-099-14W4                 : Well_name    - WELL
LOC .         AA/07-09-099-14W4/0            : Location     - LOCATION
UWI .         AA/07-09-099-14W400            : Uwi          - UNIQUE WELL ID
ENTR.         TIM                            : Entered      - ENTERED BY
SRVC.         SCHLUMBERGER                   : Scn          - SERVICE COMPANY
DATE.         08/11/92                       : Date         - LOG DATE
STRT.M        350                            : top_depth    - START DEPTH
STOP.M        550                            : bot_depth    - STOP DEPTH
STEP.M        0.25                           : increment    - STEP LENGTH
 NULL. -999.2500:NULL Value
~CURVE INFORMATION BLOCK
#MNEM UNIT       ERCB CURVE CODE    CURVE DESCRIPTION
#-----------   ------------------   ----------------------------------
DEPT.M        00 001 00 00         : DEPTH        - DEPTH
GR  .API      00 310 00 00         : GR           - GAMMA RAY
ILD .OHMM     00 120 00 00         : RESD         - DEEP RESISTIVITY (DIL)
NPHI.V/V      00 330 00 00         : PHIN         - NEUTRON POROSITY (SANDSTONE)
DPHI.V/V      00 890 00 00         : PHID         - DENSITY POROSITY (SANDSTONE)
~PARAMETER INFORMATION
#MNEM.UNIT           DATA             DESCRIPTION OF MNEMONIC
#---------         -----------     ------------------------------
GL  .M        792                  : gl           - GROUND LEVEL ELEVATION
EREF.M        795.6                : kb           - ELEVATION OF DEPTH REFERENCE
DATM.M        795.6                : datum        - DATUM ELEVATION
TDD .M        551                  : tdd          - TOTAL DEPTH DRILLER
RUN .         ONE                  : Run          - RUN NUMBER
ENG .         JO                   : Engineer     - RECORDING ENGINEER
WIT .         TIM                  : Witness      - WITNESSED BY
MUD .         GEL                  : Mud_type     - MUD TYPE
MATR.         SANDSTONE            : Logunit      - NEUTRON MATRIX
TMAX.C        30                   : BHT          - MAXIMUM RECORDED TEMPERATURE
BHTD.M        551                  : BHTDEP       - MAXIMUM RECORDED TEMPERATURE
RMT .C        27                   : MDTP         - TEMPERATURE OF MUD
MUDD.KG/M     1050                 : MWT          - MUD DENSITY
NEUT.         1                    : NEUTRON      - NEUTRON TYPE
RESI.         0                    : RESIST       - RESISTIVITY TYPE
RM  .OHMM     3.5                  : RM           - RESISTIVITY OF MUD
RMC .OHMM     3.5                  : RMC          - RESISTIVITY OF MUD CAKE
RMF .OHMM     3.5                  : RMF          - RESISTIVITY OF MUD FILTRATE
SUFT.C        4                    : SUFT         - SURFACE TEMPERATURE
~A  DEPTH       GR     RESD     PHIN     PHID
# ...
  480.500   92.975    2.978    0.348    0.271
  480.750   92.424    2.981    0.342    0.267
  481.000   90.666    3.039    0.330    0.263
  481.250   89.525    3.094    0.318    0.268
  481.500   88.948    3.263    0.313    0.273
  481.750   88.397    3.441    0.297    0.275
  482.000   87.243    3.756    0.268    0.254
  482.250   86.089    4.246    0.248    0.216
  482.500   83.741    4.557    0.207    0.157
  482.750   80.777    4.720    0.199    0.076
  483.000   76.593    4.892    0.239    0.063
  483.250   70.009    4.984    0.257    0.066
  483.500   66.441    4.823    0.282    0.064
  483.750   68.303    4.585    0.300    0.063
  484.000   71.372    4.285    0.319    0.059
  484.250   73.851    3.804    0.330    0.061
  484.500   76.933    3.494    0.344    0.294
  484.750   78.783    3.209    0.365    0.284
  485.000   80.042    2.948    0.385    0.275
  485.250   85.524    2.756    0.390    0.271
  485.500   91.610    2.576    0.397    0.271
  485.750   95.912    2.491    0.408    0.275
  486.000   98.364    2.329    0.413    0.281
  486.250  100.227    2.291    0.409    0.283
  486.500   98.495    2.255    0.402    0.277
  486.750   97.315    2.378    0.395    0.273
  487.000   96.174    2.465    0.383    0.285
  487.250   93.813    2.601    0.388    0.285
  487.500   90.849    2.648    0.401    0.280
  487.750   92.108    2.562    0.415    0.272
  488.000   94.573    2.395    0.433    0.269
  488.250   97.629    2.125    0.447    0.278
  488.500  101.905    1.760    0.457    0.292
  488.750  102.600    1.617    0.466    0.301
  489.000  101.420    1.511    0.470    0.303
  489.250  100.265    1.413    0.469    0.304
  489.500   99.111    1.414    0.462    0.306
  489.750   97.380    1.392    0.455    0.308
  490.000   96.803    1.443    0.445    0.305
  490.250   95.648    1.469    0.424    0.302
  490.500   94.494    1.632    0.408    0.293
  490.750   91.530    1.909    0.398    0.278
  491.000   90.376    2.435    0.389    0.285
  491.250   93.458    2.568    0.423    0.281
  491.500   95.910    2.615    0.421    0.254
  491.750   97.196    2.665    0.413    0.252
  492.000   96.619    2.668    0.406    0.263
  492.250   94.874    2.627    0.401    0.282
  492.500   93.707    2.676    0.398    0.302
  492.750   91.359    2.775    0.391    0.309
  493.000   88.985    2.925    0.354    0.307
  493.250   90.860    2.931    0.365    0.299
  493.500   94.520    2.934    0.384    0.293
  493.750   96.999    2.887    0.392    0.293
  494.000   97.654    2.746    0.396    0.291
  494.250   97.733    2.612    0.395    0.291
  494.500   97.156    2.569    0.389    0.291
  494.750   96.644    2.529    0.358    0.291
  495.000   96.683    2.489    0.366    0.291
  495.250   96.119    2.450    0.384    0.292
  495.500   96.159    2.370    0.393    0.287
  495.750   95.608    2.293    0.397    0.281
  496.000   95.660    2.144    0.397    0.281
  496.250   95.713    2.109    0.399    0.288
  496.500   95.765    2.040    0.403    0.299
  496.750   95.214    1.940    0.415    0.314
  497.000   92.853    1.876    0.419    0.316
  497.250   91.712    1.784    0.422    0.311
  497.500   92.381    1.697    0.423    0.304
  497.750   93.023    1.613    0.430    0.299
  498.000   93.076    1.561    0.437    0.295
  498.250   93.115    1.536    0.442    0.290
  498.500   92.564    1.538    0.445    0.287
  498.750   91.436    1.540    0.440    0.279
  499.000   90.859    1.597    0.428    0.267
  499.250   89.141    1.684    0.415    0.271
  499.500   88.564    1.746    0.412    0.275
  499.750   88.013    1.777    0.414    0.283
  500.000   88.065    1.780    0.416    0.290
  500.250   87.514    1.782    0.419    0.294
  500.500   87.567    1.847    0.420    0.315
  500.750   88.222    1.882    0.419    0.330
  501.000   88.878    1.759    0.420    0.341
  501.250   90.137    1.701    0.417    0.342
  501.500   91.396    1.537    0.408    0.340
  501.750   91.475    1.436    0.398    0.343
  502.000   90.911    1.297    0.406    0.350
  502.250   90.360    1.212    0.417    0.356
  502.500   89.796    1.152    0.436    0.357
  502.750   89.258    1.154    0.443    0.366
  503.000   88.707    1.196    0.446    0.362
  503.250   86.333    1.606    0.416    0.353
  503.500   82.162    2.698    0.401    0.343
  503.750   71.355    3.816    0.374    0.343
  504.000   51.484    5.213    0.361    0.348
  504.250   38.264    6.761    0.352    0.344
  504.500   37.109   10.424    0.357    0.327
  504.750   36.572   12.620    0.362    0.321
  505.000   37.227   12.003    0.368    0.328
  505.250   39.090   10.834    0.361    0.323
  505.500   40.952    9.292    0.369    0.314
  505.750   42.801    8.533    0.370    0.317
  506.000   44.664    7.838    0.368    0.320
  506.250   48.966    6.720    0.368    0.325
  506.500   52.035    5.285    0.362    0.336
  506.750   55.091    4.530    0.361    0.346
  507.000   61.780    3.752    0.361    0.348
  507.250   67.275    3.108    0.384    0.349
  507.500   71.551    2.758    0.410    0.352
  507.750   77.663    2.245    0.421    0.349
  508.000   79.499    1.860    0.421    0.348
  508.250   81.361    1.709    0.419    0.347
  508.500   83.224    1.624    0.416    0.343
  508.750   85.716    1.571    0.411    0.333
  509.000   88.168    1.520    0.404    0.311
  509.250   91.237    1.497    0.397    0.294
  509.500   93.113    1.499    0.395    0.289
  509.750   94.385    1.500    0.395    0.294
  510.000   94.411    1.556    0.394    0.298
  510.250   93.860    1.669    0.394    0.295
  510.500   92.706    1.821    0.393    0.286
  510.750   90.345    2.131    0.385    0.290
  511.000   85.571    2.535    0.351    0.292
  511.250   65.097    3.017    0.317    0.295
  511.500   52.480    3.846    0.317    0.297
  511.750   48.309    5.347    0.319    0.297
  512.000   46.564    7.179    0.322    0.296
  512.250   47.220    7.316    0.323    0.296
  512.500   47.272    6.835    0.325    0.293
  512.750   46.721    5.862    0.328    0.292
  513.000   47.967    5.291    0.325    0.294
  513.250   48.623    4.945    0.316    0.295
  513.500   45.056    4.785    0.311    0.292
  513.750   37.265    4.790    0.311    0.282
  514.000   27.061    4.715    0.311    0.277
  514.250   24.700    4.805    0.311    0.275
  514.500   24.752    4.893    0.311    0.279
  514.750   26.011    5.343    0.311    0.281
  515.000   27.887    5.934    0.311    0.288
  515.250   28.542    6.475    0.307    0.286
  515.500   27.401    9.002    0.306    0.282
  515.750   26.837   13.175    0.308    0.280
  516.000   25.670   15.424    0.309    0.277
  516.250   24.516   15.976    0.309    0.276
  516.500   23.965   16.847    0.308    0.274
  516.750   23.427   18.081    0.308    0.274
  517.000   23.466   18.742    0.310    0.284
  517.250   23.519   17.827    0.315    0.291
  517.500   23.584   17.234    0.320    0.293
  517.750   23.623   15.294    0.322    0.295
  518.000   25.512   12.451    0.323    0.297
  518.250   26.784    9.960    0.326    0.297
  518.500   28.017    7.186    0.328    0.298
  518.750   31.703    6.833    0.340    0.302
  519.000   35.362    6.613    0.352    0.303
  519.250   41.447    6.508    0.357    0.305
  519.500   46.956    6.408    0.356    0.305
  519.750   47.008    6.305    0.353    0.301
  520.000   47.664    6.311    0.352    0.299
  520.250   48.320    6.322    0.349    0.305
  520.500   48.976    6.330    0.347    0.316
  520.750   50.235    6.339    0.342    0.317
  521.000   51.481    6.345    0.341    0.317
  521.250   53.946    6.358    0.339    0.314
  521.500   57.645    6.369    0.343    0.312
  521.750   58.891    6.373    0.344    0.302
  522.000   61.370    6.382    0.340    0.296
  522.250   63.232    6.391    0.334    0.297
  522.500   65.081    6.399    0.335    0.301
  522.750   68.163    6.519    0.339    0.308
  523.000   70.026    6.875    0.345    0.314
  523.250   70.668    7.379    0.348    0.315
  523.500   71.350    7.916    0.343    0.317
  523.750   70.196    8.638    0.338    0.320
