~VERSION INFORMATION
 VERS.                 2.0:   CWLS LOG ASCII STANDARD -VERSION 2.0
 WRAP.                  NO:   ONE LINE PER DEPTH STEP
~WELL INFORMATION BLOCK
#MNEM.UNIT           DATA                    DESCRIPTION OF MNEMONIC
#---------    -------------------            -------------------------------
# Generated from Intellog Unique Number	CX_WELLS/WELL/3917
LOC .         AA/06-01-097-15W4/0            : Location     - LOCATION
UWI .         AA/06-01-097-15W400            : Uwi          - UNIQUE WELL ID
ENTR.         T                              : Entered      - ENTERED BY
SRVC.         SCHLUMBERGER                   : Scn          - SERVICE COMPANY
STRT.F        600                            : top_depth    - START DEPTH
STOP.F        1320.14                        : bot_depth    - STOP DEPTH
STEP.F        0.82                           : increment    - STEP LENGTH
 NULL. -999.2500:NULL Value
~CURVE INFORMATION BLOCK
#MNEM UNIT       ERCB CURVE CODE    CURVE DESCRIPTION
#-----------   ------------------   ----------------------------------
DEPT.F        00 001 00 00         : DEPTH        - DEPTH
GR  .API      00 310 00 00         : GR           - GAMMA RAY
NPHI.V/V      00 330 00 00         : PHIN         - NEUTRON POROSITY (SANDSTONE)
ILD .OHMM     00 120 00 00         : RESD         - DEEP RESISTIVITY (OTHER)
~PARAMETER INFORMATION
#MNEM.UNIT           DATA             DESCRIPTION OF MNEMONIC
#---------         -----------     ------------------------------
GL  .F        2145                 : gl           - GROUND LEVEL ELEVATION
EREF.F        2151.7               : kb           - ELEVATION OF DEPTH REFERENCE
DATM.F        2151.7               : datum        - DATUM ELEVATION
TDD .F        1321                 : tdd          - TOTAL DEPTH DRILLER
RUN .         ONE                  : Run          - RUN NUMBER
ENG .         BILL                 : Engineer     - RECORDING ENGINEER
WIT .         JIM                  : Witness      - WITNESSED BY
MUD .         GEL                  : Mud_type     - MUD TYPE
MATR.         SANDSTONE            : Logunit      - NEUTRON MATRIX
TMAX.F        68                   : BHT          - MAXIMUM RECORDED TEMPERATURE
BHTD.F        1321                 : BHTDEP       - MAXIMUM RECORDED TEMPERATURE
MATR.         1                    : LOGUNIT      - NEUTRON MATRIX
RMT .F        68                   : MDTP         - TEMPERATURE OF MUD
NEUT.         1                    : NEUTRON      - NEUTRON TYPE
RESI.         5.65                 : RESIST       - RESISTIVITY TYPE
RMC .OHMM     6.4                  : RMC          - RESISTIVITY OF MUD CAKE
RMF .OHMM     5.2                  : RMF          - RESISTIVITY OF MUD FILTRATE
SUFT.F        37.4                 : SUFT         - SURFACE TEMPERATURE
~A  DEPTH       GR     PHIN     RESD
# ...
  777.986   48.788    0.381   24.530
  778.806   47.078    0.366   26.666
  779.626   46.222    0.354   29.514
  780.446   45.360    0.344   30.938
  781.266   47.471    0.339   33.073
  782.087   51.276    0.333   33.071
  782.907   61.017    0.332   30.931
  783.727   69.910    0.355   27.367
  784.547   75.835    0.395   24.515
  785.367   80.488    0.424   15.962
  786.188   83.021    0.433   13.109
  787.008   85.127    0.481   12.395
  787.828   85.967    0.497   12.393
  788.648   88.073    0.511   11.678
  789.469   89.758    0.515   10.965
  790.289   92.715    0.488   10.963
  791.109   89.312    0.463   11.673
  791.929   79.124    0.425   13.809
  792.749   56.638    0.408   18.083
  793.570   51.539    0.402   22.357
  794.390   46.864    0.393   27.343
  795.210   45.154    0.389   30.191
  796.030   45.140    0.381   30.188
  796.850   45.980    0.377   30.899
  797.671   46.817    0.378   30.897
  798.491   48.075    0.381   30.183
  799.311   49.336    0.391   25.906
  800.131   51.444    0.398   25.904
  800.951   53.127    0.396   27.327
  801.772   51.843    0.394   28.038
  802.592   50.136    0.392   28.036
  803.412   49.277    0.394   28.034
  804.232   48.842    0.395   28.033
  805.052   48.825    0.394   28.031
  805.873   48.820    0.393   28.741
  806.693   50.081    0.394   28.739
  807.513   53.462    0.402   26.599
  808.333   56.416    0.405   21.610
  809.154   56.405    0.393   17.332
  809.974   54.697    0.379   23.744
  810.794   52.990    0.368   30.154
  811.614   52.131    0.362   30.153
  812.434   51.696    0.361   29.439
  813.255   51.258    0.358   28.724
  814.075   51.250    0.356   29.435
  814.895   50.806    0.360   31.571
  815.715   50.377    0.366   31.568
  816.535   49.939    0.367   30.141
  817.356   49.504    0.370   29.427
  818.176   49.069    0.373   28.000
  818.996   49.057    0.376   27.998
  819.816   48.620    0.378   27.996
  820.636   48.611    0.381   27.995
  821.457   48.595    0.388   27.993
  822.277   48.586    0.391   27.991
  823.097   48.999    0.401   28.702
  823.917   49.839    0.409   25.850
  824.738   54.489    0.417   17.297
  825.558   58.718    0.424   13.019
  826.378   62.947    0.422   22.281
  827.198   69.720    0.433   23.704
  828.018   79.037    0.451   18.714
  828.839   84.959    0.469   14.437
  829.659   82.831    0.470   10.873
  830.479   79.003    0.466   11.583
  831.299   70.509    0.457   13.006
  832.119   67.954    0.447   13.004
  832.940   59.457    0.422   14.427
  833.760   57.756    0.403   17.276
  834.580   54.777    0.400   26.538
  835.400   54.763    0.402   30.811
  836.220   71.712    0.450   21.546
  837.041   87.389    0.476   14.418
  837.861   90.340    0.486    9.428
  838.681   90.756    0.497   10.139
  839.501   91.596    0.503   10.137
  840.322   92.854    0.490    8.710
  841.142   94.539    0.473    6.570
  841.962   93.679    0.465    6.569
  842.782   89.852    0.470    7.992
  843.602   85.601    0.478   12.265
  844.423   83.046    0.486   17.252
  845.243   85.579    0.505   16.537
  846.063   99.560    0.496   10.834
  846.883  103.789    0.479    7.981
  847.703  105.050    0.473    7.980
  848.524  101.644    0.479    8.691
  849.344   98.665    0.481    8.689
  850.164   97.800    0.488    8.687
  850.984   99.061    0.492    8.685
  851.804  100.748    0.487    7.971
  852.625  102.007    0.486    7.256
  853.445  101.998    0.490    7.255
  854.265  101.560    0.493    6.540
  855.085  101.128    0.496    6.538
  855.906  100.263    0.498    6.536
  856.726   99.410    0.498    6.534
  857.546   97.697    0.502    6.533
  858.366   96.841    0.505    6.530
  859.186   94.704    0.504    6.529
  860.007   93.850    0.499    7.239
  860.827   92.564    0.496    7.238
  861.647   92.553    0.498    7.948
  862.467   93.390    0.499    7.947
  863.287   94.227    0.498    7.231
  864.108   94.216    0.492    7.230
  864.928   92.509    0.497    6.515
  865.748   89.951    0.510    6.513
  866.568   89.516    0.508    6.512
  867.388   89.929    0.498    6.510
  868.209   90.339    0.497    6.508
  869.029   90.330    0.503    6.506
  869.849   89.892    0.507    6.504
  870.669   90.305    0.506    6.502
  871.490   90.297    0.505    6.500
  872.310   91.131    0.508    5.786
  873.130   91.544    0.511    5.784
  873.950   92.378    0.510    5.070
  874.770   93.642    0.509    5.068
  875.591   94.055    0.506    5.065
  876.411   94.044    0.506    5.064
  877.231   93.179    0.509    4.350
  878.051   91.893    0.520    4.348
  878.871   91.463    0.528    5.059
  879.692   89.751    0.535    5.056
  880.512   89.318    0.528    5.054
  881.332   88.883    0.520    5.052
  882.152   89.720    0.506    5.051
  882.972   91.405    0.493    4.337
  883.793   92.666    0.499    4.334
  884.613   93.927    0.520    4.332
  885.433   93.916    0.525    5.043
  886.253   93.481    0.532    5.041
  887.073   93.888    0.510    5.039
  887.894   95.573    0.507    5.038
  888.714   96.834    0.508    5.036
  889.534   96.825    0.507    5.033
  890.354   93.422    0.499    5.032
  891.175   87.472    0.489    5.030
  891.995   83.221    0.456    5.028
  892.815   78.122    0.348    5.026
  893.635   73.871    0.256    5.024
  894.455   65.801    0.231    5.022
  895.276   60.702    0.285    6.445
  896.096   59.416    0.337   10.719
  896.916   62.799    0.362   18.556
  897.736   67.452    0.386   31.380
  898.556   72.102    0.409   22.828
  899.377   72.936    0.424   14.987
  900.197   73.352    0.441   11.422
  901.017   74.613    0.445   12.133
  901.837   75.023    0.450   12.844
  902.657   75.863    0.460   12.842
  903.478   80.516    0.457   11.414
  904.298   84.321    0.449   10.699
  905.118   87.275    0.441   10.698
  905.938   83.872    0.425   10.697
  906.759   79.196    0.409   11.408
  907.579   74.521    0.393   14.968
  908.399   65.606    0.401   17.816
  909.219   67.288    0.421   18.527
  910.039   71.093    0.416   17.813
  910.860   72.778    0.411   17.811
  911.680   69.796    0.410   18.521
  912.500   67.244    0.406   19.233
  913.320   64.689    0.402   21.368
  914.140   62.128    0.400   22.079
  914.961   64.237    0.424   20.651
  915.781   68.892    0.431   20.650
  916.601   75.241    0.457   19.936
  917.421   78.620    0.477   16.371
  918.241   81.576    0.485   11.380
  919.062   84.112    0.494    9.241
  919.882   87.914    0.503    5.676
  920.702   90.444    0.509    4.962
  921.522   92.132    0.494    4.960
  922.343   92.118    0.486    4.958
  923.163   89.984    0.486    5.668
  923.983   88.707    0.485    6.379
  924.803   86.999    0.479    6.378
  925.623   86.559    0.472    6.376
  926.444   88.670    0.460    6.374
  927.264   89.931    0.451    6.372
  928.084   90.765    0.444    6.370
  928.904   91.178    0.454    6.368
  929.724   91.594    0.468    6.366
  930.545   91.583    0.475    6.365
  931.365   90.718    0.481    6.363
  932.185   90.283    0.484    7.074
  933.005   89.424    0.485    7.071
  933.825   87.719    0.486    7.069
  934.646   83.892    0.487    8.492
  935.466   87.695    0.492    9.916
  936.286   91.923    0.494   10.627
  937.106   95.728    0.498   11.338
  937.927   96.138    0.495    8.484
  938.747   96.127    0.491    7.771
  939.567   95.692    0.467    7.056
  940.387   93.561    0.454    7.054
  941.207   90.582    0.448    7.765
  942.028   86.755    0.455    8.475
  942.848   84.200    0.463    9.186
  943.668   82.916    0.471    9.184
  944.488   82.057    0.474    9.182
  945.308   82.889    0.473    9.181
  946.129   82.032    0.464    8.466
  946.949   79.053    0.446   10.602
  947.769   76.074    0.432   12.025
  948.589   74.788    0.459   13.448
  949.409   80.713    0.479   15.584
  950.230   83.246    0.495   16.295
  951.050   83.656    0.497   13.443
  951.870   83.648    0.466   11.303
  952.690   81.093    0.447    9.875
  953.510   73.449    0.423    9.875
  954.331   67.075    0.425    9.872
  955.151   68.336    0.425   11.296
