~VERSION INFORMATION
 VERS.                 2.0:   CWLS LOG ASCII STANDARD -VERSION 2.0
 WRAP.                  NO:   ONE LINE PER DEPTH STEP
~WELL INFORMATION BLOCK
#MNEM.UNIT           DATA                    DESCRIPTION OF MNEMONIC
#---------    -------------------            -------------------------------
# Generated from Intellog Unique Number	CN_91_93/WELL/3709
WELL.         IMPERIAL OIL LTD.              : Well_name    - WELL
LOC .         AA/01-28-093-15W4/0            : Location     - LOCATION
UWI .         AA/01-28-093-15W400            : Uwi          - UNIQUE WELL ID
ENTR.         JOETTE                         : Entered      - ENTERED BY
SRVC.         SCHLUMBERGER                   : Scn          - SERVICE COMPANY
DATE.         03/22/92                       : Date         - LOG DATE
STRT.F        100                            : top_depth    - START DEPTH
STOP.F        529.79                         : bot_depth    - STOP DEPTH
STEP.F        0.82                           : increment    - STEP LENGTH
 NULL. -999.2500:NULL Value
~CURVE INFORMATION BLOCK
#MNEM UNIT       ERCB CURVE CODE    CURVE DESCRIPTION
#-----------   ------------------   ----------------------------------
DEPT.F        00 001 00 00         : DEPTH        - DEPTH
GR  .API      00 310 00 00         : GR           - GAMMA RAY
NPHI.V/V      00 330 00 00         : PHIN         - NEUTRON POROSITY (SANDSTONE)
ILD .OHMM     00 120 00 00         : RESD         - DEEP RESISTIVITY (DIL)
~PARAMETER INFORMATION
#MNEM.UNIT           DATA             DESCRIPTION OF MNEMONIC
#---------         -----------     ------------------------------
GL  .F        1456.9               : gl           - GROUND LEVEL ELEVATION
EREF.F        1456.9               : kb           - ELEVATION OF DEPTH REFERENCE
DATM.F        1456.9               : datum        - DATUM ELEVATION
TDD .F        530                  : tdd          - TOTAL DEPTH DRILLER
RUN .         ONE                  : Run          - RUN NUMBER
ENG .         JO                   : Engineer     - RECORDING ENGINEER
WIT .         TIM                  : Witness      - WITNESSED BY
MUD .         GEL                  : Mud_type     - MUD TYPE
MATR.         SANDSTONE            : Logunit      - NEUTRON MATRIX
TMAX.F        42                   : BHT          - MAXIMUM RECORDED TEMPERATURE
BHTD.F        530                  : BHTDEP       - MAXIMUM RECORDED TEMPERATURE
RMT .F        44                   : MDTP         - TEMPERATURE OF MUD
MUDD.LB/G     1.01                 : MWT          - MUD DENSITY
NEUT.         1                    : NEUTRON      - NEUTRON TYPE
RESI.         0                    : RESIST       - RESISTIVITY TYPE
RM  .OHMM     11.8                 : RM           - RESISTIVITY OF MUD
RMC .OHMM     11.8                 : RMC          - RESISTIVITY OF MUD CAKE
RMF .OHMM     11.8                 : RMF          - RESISTIVITY OF MUD FILTRATE
SUFT.F        39.2                 : SUFT         - SURFACE TEMPERATURE
~A  DEPTH       GR     PHIN     RESD
  100.000   57.065    0.503    8.030
  100.820   53.861    0.515    8.539
  101.640   51.375    0.523    9.192
  102.461   57.888    0.503    8.905
  103.281   56.122    0.502    8.689
  104.101   56.513    0.500    8.402
  104.921   56.913    0.480    8.692
  105.741   55.139    0.483    9.345
  106.562   55.898    0.493    9.637
  107.382   53.764    0.521    9.060
  108.202   52.725    0.512    8.700
  109.022   54.922    0.495    8.485
  109.843   55.306    0.499    8.632
  110.663   56.768    0.497    8.706
  111.483   56.089    0.490    8.707
  112.303   55.761    0.493    8.275
  113.123   53.284    0.494    8.205
  113.944   50.790    0.484    8.496
  114.764   46.507    0.499    8.932
  115.584   53.371    0.510    9.296
  116.404   59.533    0.511    9.008
  117.224   56.680    0.507    6.623
  118.045   57.790    0.529    6.118
  118.865   61.786    0.535    5.976
  119.685   63.608    0.549    6.122
  120.505   63.280    0.535    6.197
  121.325   60.084    0.517    6.270
  122.146   65.869    0.524    6.272
  122.966   65.542    0.521    6.201
  123.786   63.056    0.523    6.132
  124.606   63.448    0.514    6.133
  125.427   59.523    0.526    6.208
  126.247   56.686    0.538    6.282
  127.067   58.516    0.524    6.356
  127.887   62.136    0.520    6.502
  128.707   64.334    0.525    6.866
  129.528   64.726    0.510    6.940
  130.348   65.836    0.503    6.869
  131.168   61.193    0.511    6.438
  131.988   61.584    0.525    6.151
  132.808   64.493    0.535    6.008
  133.629   66.331    0.535    6.081
  134.449   63.846    0.541    6.084
  135.269   62.447    0.540    6.085
  136.089   63.558    0.518    6.086
  136.909   63.941    0.499    6.234
  137.730   63.254    0.490    6.380
  138.550   57.892    0.504    6.598
  139.370   53.248    0.512    7.107
  140.190   50.763    0.513    7.760
  141.010   60.153    0.527    8.774
  141.831   52.265    0.503    8.776
  142.651   50.139    0.449    6.897
  143.471   46.231    0.450    7.333
  144.291   46.966    0.443    8.203
  145.112   48.437    0.438   10.231
  145.932   47.757    0.439   10.883
  146.752   47.445    0.445   11.392
  147.572   48.181    0.460   10.887
  148.392   48.212    0.467   11.106
  149.213   48.244    0.475   11.686
  150.033   51.513    0.472    9.807
  150.853   50.833    0.453    9.303
  151.673   46.901    0.404    8.872
  152.493   39.741    0.220    9.017
  153.314   32.220    0.269    9.526
  154.134   28.296    0.314   13.289
  154.954   33.363    0.402   17.415
  155.774   38.070    0.439   32.970
  156.594   38.110    0.432   30.223
  157.415   35.992    0.428   11.561
  158.235   38.181    0.453   11.345
  159.055   40.723    0.441   15.543
  159.875   38.956    0.437   12.579
  160.696   40.786    0.442   11.857
  161.516   43.344    0.426   17.140
  162.336   38.341    0.421   14.466
  163.156   36.566    0.436   12.369
  163.976   38.764    0.434   11.792
  164.797   35.919    0.419   15.411
  165.617   33.074    0.435   13.243
  166.437   32.386    0.445   12.521
  167.257   34.584    0.452   16.791
  168.077   37.125    0.454   15.998
  168.898   37.157    0.459   13.901
  169.718   39.355    0.460   13.614
  170.538   43.343    0.452   11.807
  171.358   37.980    0.428   13.979
  172.178   33.696    0.411   15.790
  172.999   31.219    0.439   12.102
  173.819   29.804    0.445   13.407
  174.639   32.713    0.460   13.336
  175.459   39.945    0.472   13.627
  176.280   55.449    0.508   12.254
  177.100   61.954    0.521   10.592
  177.920   61.267    0.507    8.568
  178.740   56.624    0.513    7.340
  179.560   58.454    0.513    6.547
  180.381   65.702    0.505    6.982
  181.201   65.007    0.497    6.985
  182.021   68.986    0.496    6.625
  182.841   69.026    0.536    6.265
  183.661   67.620    0.526    6.194
  184.482   66.573    0.497    6.197
  185.302   69.849    0.487    6.054
  186.122   70.600    0.487    5.983
  186.942   72.062    0.492    6.057
  187.762   64.902    0.487    6.565
  188.583   59.180    0.480    7.074
  189.403   55.615    0.469    7.220
  190.223   52.426    0.461    7.294
  191.043   49.925    0.469    8.020
  191.864   46.720    0.479    8.600
  192.684   49.989    0.490    8.892
  193.504   52.898    0.503    8.749
  194.324   53.289    0.476    8.461
  195.144   53.688    0.385    7.957
  195.965   45.081    0.210    7.670
  196.785   35.403    0.243    8.033
  197.605   30.041    0.299    8.902
  198.425   25.390    0.374   11.581
  199.245   27.947    0.438   26.630
  200.066   31.934    0.437   23.883
  200.886   35.922    0.451   17.446
  201.706   50.347    0.470   13.108
  202.526   57.947    0.476   11.229
  203.346   54.734    0.483   10.218
  204.167   50.451    0.491    9.641
  204.987   47.606    0.456    8.558
  205.807   44.760    0.447    8.632
  206.627   42.275    0.458    9.719
  207.448   45.543    0.468    9.431
  208.268   54.941    0.477   10.953
  209.088   52.448    0.479   10.086
  209.908   49.243    0.483    8.713
  210.728   48.916    0.489    8.281
  211.549   49.667    0.495    7.994
  212.369   50.785    0.491    8.647
  213.189   51.896    0.473    8.648
  214.009   51.928    0.457    8.217
  214.829   51.600    0.467    7.784
  215.650   49.474    0.486    7.930
  216.470   49.506    0.486    8.367
  217.290   54.581    0.469    8.441
  218.110   52.087    0.480    8.371
  218.930   50.329    0.487    8.589
  219.751   59.359    0.474    8.447
  220.571   60.470    0.438    7.942
  221.391   57.617    0.395    7.944
  222.211   51.535    0.415    7.656
  223.031   46.173    0.427    7.802
  223.852   41.522    0.437   10.337
  224.672   40.834    0.457   13.377
  225.492   45.189    0.499   12.293
  226.312   59.974    0.500   11.427
  227.133   71.522    0.495   13.165
  227.953   71.194    0.513   15.627
  228.773   72.672    0.528    7.743
  229.593   71.266    0.513    6.298
  230.413   69.851    0.508    6.228
  231.234   67.374    0.520    6.447
  232.054   69.196    0.523    6.739
  232.874   72.120    0.502    7.174
  233.694   72.871    0.503    7.610
  234.514   72.176    0.522    7.540
  235.335   72.208    0.511    7.179
  236.155   70.442    0.499    6.964
  236.975   65.439    0.506    7.039
  237.795   66.909    0.514    7.186
  238.615   66.582    0.529    7.260
  239.436   61.227    0.539    7.623
  240.256   64.487    0.532    8.276
  241.076   68.124    0.507    9.001
  241.896   63.121    0.485    7.484
  242.717   56.312    0.447    7.702
  243.537   53.467    0.437    8.211
  244.357   53.498    0.460    9.660
  245.177   51.373    0.454   11.254
  245.997   53.570    0.435   11.399
  246.818   56.119    0.441   11.618
  247.638   55.432    0.447   11.982
  248.458   51.156    0.440   13.214
  249.278   49.390    0.416   13.071
  250.098   51.572    0.428   14.013
  250.919   54.840    0.439   15.462
  251.739   54.161    0.435   16.476
  252.559   51.683    0.435   15.610
  253.379   52.434    0.441   14.454
  254.199   52.826    0.437   12.503
  255.020   52.866    0.442   12.288
  255.840   53.241    0.450   12.434
  256.660   55.079    0.442   12.943
  257.480   57.988    0.436   12.873
  258.301   54.424    0.440   12.730
  259.121   59.131    0.452   12.732
  259.941   60.241    0.460   12.806
  260.761   60.273    0.433   12.880
  261.581   56.349    0.423   12.447
  262.402   49.188    0.432   12.594
  263.222   50.299    0.423   15.997
  264.042   51.410    0.424   14.913
  264.862   48.573    0.435   13.974
  265.682   53.639    0.439   12.385
  266.503   55.118    0.452   12.025
  267.323   58.019    0.459   11.376
  268.143   55.893    0.440   11.739
  268.963   51.609    0.447   11.885
  269.783   52.001    0.450   12.321
  270.604   56.004    0.441   12.468
  271.424   54.590    0.424   12.470
  272.244   51.745    0.432   13.485
  273.064   52.504    0.452   14.789
  273.885   50.378    0.464   13.778
  274.705   51.848    0.458   12.333
  275.525   52.951    0.440   11.756
  276.345   53.702    0.433   10.383
  277.165   50.857    0.429   10.168
