~VERSION INFORMATION
 VERS.                 2.0:   CWLS LOG ASCII STANDARD -VERSION 2.0
 WRAP.                  NO:   ONE LINE PER DEPTH STEP
~WELL INFORMATION BLOCK
#MNEM.UNIT           DATA                    DESCRIPTION OF MNEMONIC
#---------    -------------------            -------------------------------
# Generated from Intellog Unique Number	CN_94_101/WELL/2647
WELL.         06-28-094-13W4                 : Well_name    - WELL
LOC .         AA/06-28-094-13W4/0            : Location     - LOCATION
UWI .         AA/06-28-094-13W400            : Uwi          - UNIQUE WELL ID
ENTR.         JOETTE                         : Entered      - ENTERED BY
SRVC.         SCHLUMBERGER                   : Scn          - SERVICE COMPANY
DATE.         06/18/92                       : Date         - LOG DATE
STRT.M        15                             : top_depth    - START DEPTH
STOP.M        145                            : bot_depth    - STOP DEPTH
STEP.M        0.25                           : increment    - STEP LENGTH
 NULL. -999.2500:NULL Value
~CURVE INFORMATION BLOCK
#MNEM UNIT       ERCB CURVE CODE    CURVE DESCRIPTION
#-----------   ------------------   ----------------------------------
DEPT.M        00 001 00 00         : DEPTH        - DEPTH
GR  .API      00 310 00 00         : GR           - GAMMA RAY
NPHI.V/V      00 330 00 00         : PHIN         - NEUTRON POROSITY (SANDSTONE)
DPHI.V/V      00 890 00 00         : PHID         - DENSITY POROSITY (SANDSTONE)
ILD .OHMM     00 120 00 00         : RESD         - DEEP RESISTIVITY (DIL)
~PARAMETER INFORMATION
#MNEM.UNIT           DATA             DESCRIPTION OF MNEMONIC
#---------         -----------     ------------------------------
GL  .M        400.2                : gl           - GROUND LEVEL ELEVATION
EREF.M        403.5                : kb           - ELEVATION OF DEPTH REFERENCE
DATM.M        403.5                : datum        - DATUM ELEVATION
TDD .M        151                  : tdd          - TOTAL DEPTH DRILLER
RUN .         ONE                  : Run          - RUN NUMBER
ENG .         JO                   : Engineer     - RECORDING ENGINEER
WIT .         TIM                  : Witness      - WITNESSED BY
MUD .         GEL                  : Mud_type     - MUD TYPE
MATR.         SANDSTONE            : Logunit      - NEUTRON MATRIX
TMAX.C        15                   : BHT          - MAXIMUM RECORDED TEMPERATURE
BHTD.M        151                  : BHTDEP       - MAXIMUM RECORDED TEMPERATURE
RMT .C        16.9                 : MDTP         - TEMPERATURE OF MUD
MUDD.KG/M     1050                 : MWT          - MUD DENSITY
NEUT.         1                    : NEUTRON      - NEUTRON TYPE
RESI.         0                    : RESIST       - RESISTIVITY TYPE
RM  .OHMM     5.88                 : RM           - RESISTIVITY OF MUD
RMC .OHMM     5.88                 : RMC          - RESISTIVITY OF MUD CAKE
RMF .OHMM     6.27                 : RMF          - RESISTIVITY OF MUD FILTRATE
SUFT.C        4                    : SUFT         - SURFACE TEMPERATURE
~A  DEPTH       GR     PHIN     PHID     RESD
   15.000   69.865    0.593    0.268    0.000
   15.250   72.396    0.569    0.258    0.000
   15.500   73.672    0.544    0.266    0.000
   15.750   70.543    0.553    0.264    0.000
   16.000   67.413    0.563    0.255    0.000
   16.250   66.806    0.574    0.260    0.000
   16.500   67.452    0.575    0.255    0.000
   16.750   69.358    0.571    0.260    0.000
   17.000   71.263    0.566    0.270    0.000
   17.250   71.914    0.569    0.278    0.000
   17.500   71.923    0.574    0.283    0.000
   17.750   71.944    0.575    0.286    0.000
   18.000   72.591    0.574    0.276    0.000
   18.250   73.238    0.570    0.274    0.000
   18.500   75.143    0.565    0.281    0.000
   18.750   75.790    0.559    0.279    0.000
   19.000   74.548    0.551    0.272    0.000
   19.250   73.307    0.547    0.274    0.000
   19.500   70.807    0.552    0.299    0.000
   19.750   72.087    0.562    0.318    0.000
   20.000   73.989    0.562    0.308    0.000
   20.250   75.889    0.556    0.300    0.000
   20.500   77.795    0.557    0.289    0.000
   20.750   76.558    0.567    0.269    0.000
   21.000   74.058    0.571    0.294    0.000
   21.250   70.303    0.541    0.311    0.000
   21.500   69.053    0.534    0.310    0.000
   21.750   66.553    0.521    0.299    0.000
   22.000   67.204    0.533    0.288    0.000
   22.250   69.110    0.552    0.292    0.000
   22.500   69.752    0.562    0.285    0.000
   22.750   67.882    0.563    0.274    0.000
   23.000   66.011    0.573    0.285    0.000
   23.250   68.546    0.579    0.290    0.000
   23.500   70.451    0.573    0.266    0.000
   23.750   69.214    0.570    0.265    0.000
   24.000   69.865    0.573    0.275    0.000
   24.250   71.132    0.581    0.290    0.000
   24.500   74.296    0.597    0.300    0.000
   24.750   73.684    0.591    0.307    0.000
   25.000   71.822    0.561    0.307    0.000
   25.250   70.572    0.539    0.303    0.000
   25.500   67.452    0.535    0.302    0.000
   25.750   65.577    0.525    0.297    0.000
   26.000   63.702    0.516    0.289    0.000
   26.250   60.581    0.513    0.289    0.000
   26.500   59.335    0.529    0.302    0.000
   26.750   58.723    0.544    0.313    0.000
   27.000   61.254    0.549    0.315    0.000
   27.250   66.939    0.544    0.282    0.000
   27.500   68.840    0.549    0.283    0.000
   27.750   64.457    0.551    0.304    0.000
   28.000   61.957    0.560    0.319    0.000
   28.250   61.340    0.580    0.315    0.000
   28.500   60.728    0.566    0.315    0.000
   28.750   60.750    0.565    0.316    0.000
   29.000   60.763    0.563    0.326    0.000
   29.250   62.043    0.560    0.317    0.000
   29.500   63.315    0.547    0.293    0.000
   29.750   67.742    0.547    0.302    0.000
   30.000   70.277    0.555    0.335    0.000
   30.250   70.294    0.515    0.322    0.000
   30.500   70.311    0.504    0.289    0.000
   30.750   72.842    0.495    0.263    0.000
   31.000   73.497    0.493    0.276    0.000
   31.250   71.622    0.499    0.281    0.000
   31.500   71.644    0.509    0.271    0.000
   31.750   72.282    0.515    0.251    0.000
   32.000   74.187    0.509    0.248    0.000
   32.250   74.834    0.501    0.254    0.000
   32.500   74.851    0.507    0.264    0.000
   32.750   75.502    0.521    0.262    0.000
   33.000   75.520    0.539    0.266    0.000
   33.250   74.908    0.555    0.269    0.000
   33.500   74.296    0.545    0.266    0.000
   33.750   73.684    0.539    0.281    0.000
   34.000   71.813    0.550    0.289    0.000
   34.250   68.050    0.518    0.280    0.000
   34.500   63.033    0.498    0.270    0.000
   34.750   57.390    0.485    0.272    0.000
   35.000   58.037    0.480    0.256    0.000
   35.250   59.947    0.509    0.258    0.000
   35.500   59.955    0.533    0.273    0.000
   35.750   59.977    0.528    0.268    0.000
   36.000   59.994    0.544    0.237    0.000
   36.250   60.641    0.571    0.234    0.000
   36.500   61.913    0.571    0.259    0.000
   36.750   64.456    0.566    0.271    0.000
   37.000   65.723    0.566    0.264    0.000
   37.250   68.258    0.562    0.275    0.000
   37.500   67.646    0.547    0.285    0.000
   37.750   63.262    0.542    0.293    0.000
   38.000   60.758    0.547    0.298    0.000
   38.250   56.374    0.548    0.264    0.000
   38.500   57.021    0.551    0.238    0.000
   38.750   58.293    0.559    0.233    0.000
   39.000   57.681    0.573    0.234    0.000
   39.250   56.439    0.577    0.304    0.000
   39.500   57.715    0.578    0.296    0.000
   39.750   61.509    0.578    0.285    0.000
   40.000   65.306    0.562    0.242    0.000
   40.250   65.324    0.539    0.209    0.000
   40.500   65.337    0.552    0.314    0.000
   40.750   69.130    0.548    0.308    0.000
   41.000   72.294    0.537    0.293    0.000
   41.250   72.941    0.545    0.275    0.000
   41.500   71.070    0.549    0.282    0.000
   41.750   69.833    0.542    0.286    0.000
   42.000   69.217    0.517    0.283    0.000
   42.250   69.234    0.503    0.273    0.000
   42.500   69.881    0.507    0.260    0.000
   42.750   71.786    0.518    0.259    0.000
   43.000   73.062    0.518    0.271    0.000
   43.250   73.709    0.506    0.283    0.000
   43.500   70.584    0.502    0.284    0.000
   43.750   69.972    0.509    0.278    0.000
   44.000   72.511    0.539    0.278    0.000
   44.250   74.412    0.538    0.285    0.000
   44.500   76.313    0.528    0.293    0.000
   44.750   77.589    0.524    0.288    0.000
   45.000   76.348    0.533    0.269    0.000
   45.250   74.481    0.552    0.263    0.000
   45.500   73.240    0.576    0.279    0.000
   45.750   71.370    0.565    0.273    0.000
   46.000   71.387    0.547    0.270    0.000
   46.250   75.185    0.527    0.279    0.000
   46.500   77.086    0.558    0.272    0.000
   46.750   77.732    0.578    0.258    0.000
   47.000   75.857    0.592    0.238    0.000
   47.250   73.987    0.600    0.234    0.000
   47.500   73.375    0.594    0.299    0.000
   47.750   74.026    0.578    0.300    0.000
   48.000   73.409    0.573    0.300    0.000
   48.250   71.539    0.584    0.294    0.000
   48.500   73.444    0.579    0.290    0.000
   48.750   75.983    0.570    0.276    0.000
   49.000   76.630    0.572    0.272    0.000
   49.250   79.160    0.579    0.282    0.000
   49.500   82.329    0.596    0.286    0.000
   49.750   79.833    0.620    0.316    0.000
   50.000   79.216    0.622    0.313    0.000
   50.250   77.346    0.608    0.307    0.000
   50.500   76.729    0.596    0.303    0.000
   50.750   75.492    0.580    0.299    0.000
   51.000   74.251    0.574    0.292    0.000
   51.250   73.005    0.567    0.278    0.000
   51.500   70.505    0.554    0.277    0.000
   51.750   68.635    0.530    0.282    0.000
   52.000   68.023    0.525    0.277    0.000
   52.250   69.299    0.541    0.268    0.000
   52.500   72.463    0.548    0.242    0.000
   52.750   75.002    0.544    0.182    0.000
   53.000   73.131    0.567    0.146    0.000
   53.250   75.037    0.586    0.273    0.000
   53.500   73.162    0.573    0.273    0.000
   53.750   69.403    0.550    0.257    0.000
   54.000   67.532    0.540    0.256    0.000
   54.250   68.179    0.532    0.270    0.000
   54.500   70.084    0.513    0.278    0.000
   54.750   73.882    0.490    0.273    0.000
   55.000   75.783    0.469    0.244    0.000
   55.250   77.059    0.463    0.239    0.000
   55.500   77.076    0.517    0.244    0.000
   55.750   75.206    0.553    0.274    0.000
   56.000   74.594    0.573    0.275    0.000
   56.250   75.245    0.570    0.266    0.000
   56.500   77.150    0.564    0.247    0.000
   56.750   76.538    0.537    0.242    0.000
   57.000   75.926    0.530    0.232    0.000
   57.250   77.202    0.507    0.223    0.000
   57.500   78.478    0.473    0.214    0.000
   57.750   75.344    0.459    0.222    0.000
   58.000   73.474    0.458    0.230    0.000
   58.250   76.013    0.465    0.230    0.000
