~VERSION INFORMATION
 VERS.                 2.0:   CWLS LOG ASCII STANDARD -VERSION 2.0
 WRAP.                  NO:   ONE LINE PER DEPTH STEP
~WELL INFORMATION BLOCK
#MNEM.UNIT           DATA                    DESCRIPTION OF MNEMONIC
#---------    -------------------            -------------------------------
# Generated from Intellog Unique Number	CW_82_90/WELL/637
WELL.         GULF LIVOCK OV 07-31           : Well_name    - WELL
LOC .         AA/07-31-084-23W4/0            : Location     - LOCATION
UWI .         AA/07-31-084-23W4/0            : Uwi          - UNIQUE WELL ID
ENTR.         JAYE                           : Entered      - ENTERED BY
SRVC.         SCHLUMBERGER                   : Scn          - SERVICE COMPANY
DATE.         9 FEB 82                       : Date         - LOG DATE
STRT.M        150                            : top_depth    - START DEPTH
STOP.M        405                            : bot_depth    - STOP DEPTH
STEP.M        0.25                           : increment    - STEP LENGTH
 NULL. -999.2500:NULL Value
~CURVE INFORMATION BLOCK
#MNEM UNIT       ERCB CURVE CODE    CURVE DESCRIPTION
#-----------   ------------------   ----------------------------------
DEPT.M        00 001 00 00         : DEPTH        - DEPTH
CALI.MM       00 280 01 00         : CAL          - CALIPER
GR  .API      00 310 00 00         : GR           - GAMMA RAY
NPHI.V/V      00 330 00 00         : PHIN         - NEUTRON POROSITY (SANDSTONE)
DPHI.V/V      00 890 00 00         : PHID         - DENSITY POROSITY (SANDSTONE)
ILD .OHMM     00 120 00 00         : RESD         - DEEP RESISTIVITY (DIL)
~PARAMETER INFORMATION
#MNEM.UNIT           DATA             DESCRIPTION OF MNEMONIC
#---------         -----------     ------------------------------
GL  .M        574.7                : gl           - GROUND LEVEL ELEVATION
EREF.M        579.1                : kb           - ELEVATION OF DEPTH REFERENCE
DATM.M        574.7                : datum        - DATUM ELEVATION
TDD .M        410                  : tdd          - TOTAL DEPTH DRILLER
RUN .         ONE                  : Run          - RUN NUMBER
ENG .         GARTH                : Engineer     - RECORDING ENGINEER
WIT .         WALKER               : Witness      - WITNESSED BY
BASE.         EDMONTON             : Branch       - HOME BASE OF LOGGING UNIT
MUD .         GEL                  : Mud_type     - MUD TYPE
MATR.         SANDSTONE            : Logunit      - NEUTRON MATRIX
TMAX.C        26.1                 : BHT          - MAXIMUM RECORDED TEMPERATURE
BHTD.M        410                  : BHTDEP       - MAXIMUM RECORDED TEMPERATURE
RMT .C        15.5                 : MDTP         - TEMPERATURE OF MUD
MUDD.KG/M     1090                 : MWT          - MUD DENSITY
NEUT.         1                    : NEUTRON      - NEUTRON TYPE
RESI.         0                    : RESIST       - RESISTIVITY TYPE
RM  .OHMM     5.77                 : RM           - RESISTIVITY OF MUD
RMC .OHMM     0                    : RMC          - RESISTIVITY OF MUD CAKE
RMF .OHMM     6.87                 : RMF          - RESISTIVITY OF MUD FILTRATE
SUFT.C        0                    : SUFT         - SURFACE TEMPERATURE
~A  DEPTH      CAL       GR     PHIN     PHID     RESD
# ...
  296.000  262.317   77.544    0.441    0.240    9.810
  296.250  262.217   73.499    0.421    0.246   10.231
  296.500  263.158   68.335    0.430    0.265   10.511
  296.750  263.786   62.922    0.477    0.247   10.676
  297.000  263.997   58.006    0.492    0.237   10.743
  297.250  263.897   61.680    0.509    0.273   10.770
  297.500  263.483   69.212    0.517    0.323   10.879
  297.750  263.486   72.824    0.482    0.312   10.865
  298.000  263.490   71.891    0.461    0.298   10.570
  298.250  262.347   69.590    0.449    0.281   10.457
  298.500  260.892   70.276    0.440    0.290   10.642
  298.750  259.645   70.527    0.449    0.307   11.098
  299.000  258.711   68.038    0.452    0.308   11.705
  299.250  257.881   67.293    0.442    0.310   12.324
  299.500  257.155   67.046    0.450    0.314   12.471
  299.750  256.846   67.234    0.458    0.321   12.361
  300.000  256.329   67.609    0.453    0.331   12.185
  300.250  256.227   71.656    0.448    0.292   12.033
  300.500  256.959   77.446    0.446    0.266   11.883
  300.750  257.587   81.555    0.454    0.247   11.691
  301.000  258.424   84.482    0.448    0.253   11.502
  301.250  259.157   83.799    0.457    0.253   11.252
  301.500  259.473   82.182    0.466    0.252   10.863
  301.750  259.788   82.806    0.467    0.255   10.607
  302.000  260.521   86.168    0.461    0.259   10.203
  302.250  261.357   89.220    0.460    0.247    9.630
  302.500  262.403   88.101    0.461    0.229    8.972
  302.750  263.031   87.106    0.448    0.219    8.437
  303.000  263.867   78.457    0.445    0.225    8.379
  303.250  264.912   67.752    0.482    0.233    9.211
  303.500  266.582   63.957    0.459    0.239   10.673
  303.750  266.586   64.643    0.406    0.111   12.437
  304.000  265.234   67.135    0.334    0.114   14.683
  304.250  264.196   69.439    0.349    0.142   16.697
  304.500  264.095   73.237    0.365    0.177   16.091
  304.750  264.098   78.840    0.389    0.183   14.879
  305.000  263.164   82.638    0.396    0.217   12.784
  305.250  264.001   82.640    0.467    0.251   10.017
  305.500  264.525   81.957    0.469    0.253    7.433
  305.750  264.529   75.298    0.465    0.264    6.569
  306.000  264.740   62.478    0.464    0.238    6.851
  306.250  266.097   56.567    0.467    0.203    7.489
  306.500  268.080   58.498    0.395    0.145    8.436
  306.750  269.124   64.474    0.340    0.151    9.831
  307.000  270.169   70.762    0.416    0.170   11.673
  307.250  272.152   74.000    0.458    0.188   11.993
  307.500  272.467   75.993    0.481    0.209   11.863
  307.750  272.367   76.804    0.497    0.225   11.605
  308.000  272.370   77.739    0.501    0.229   10.893
  308.250  272.581   77.305    0.502    0.231    9.774
  308.500  271.960   76.995    0.452    0.225    8.720
  308.750  271.858   75.503    0.436    0.198    7.989
  309.000  271.758   73.077    0.463    0.162    7.627
  309.250  271.344   71.087    0.466    0.148    7.474
  309.500  271.243   72.395    0.439    0.173    7.271
  309.750  271.143   76.442    0.434    0.202    7.247
  310.000  270.520   78.871    0.445    0.207    7.348
  310.250  270.732   80.242    0.463    0.209    7.549
  310.500  271.152   79.559    0.480    0.210    7.769
  310.750  270.635   77.631    0.489    0.222    8.042
  311.000  267.409   77.570    0.493    0.239    8.339
  311.250  266.995   78.816    0.479    0.237    8.664
  311.500  268.873   82.241    0.453    0.222    9.139
  311.750  271.689   87.284    0.442    0.221    9.459
  312.000  272.005   90.460    0.440    0.219    9.884
  312.250  271.591   92.702    0.446    0.216   10.001
  312.500  270.345   93.824    0.458    0.216    8.692
  312.750  270.035   90.153    0.458    0.213    8.439
  313.000  269.830   87.478    0.447    0.206    8.669
  313.250  269.209   87.853    0.409    0.199   10.236
  313.500  268.170   86.050    0.408    0.208   11.995
  313.750  267.444   85.367    0.428    0.235   12.532
  314.000  267.031   88.169    0.433    0.246   12.707
  314.250  266.305   90.038    0.423    0.250   12.786
  314.500  265.996   90.412    0.428    0.237   12.890
  314.750  265.791   89.418    0.427    0.227   12.802
  315.000  265.690   88.175    0.421    0.224   12.643
  315.250  266.526   86.247    0.418    0.225   12.486
  315.500  267.051   82.638    0.424    0.233   12.283
  315.750  267.470   80.835    0.433    0.249   11.948
  316.000  267.161   79.280    0.440    0.257   11.647
  316.250  265.393   75.921    0.433    0.256   11.543
  316.500  262.063   73.183    0.419    0.257   11.791
  316.750  261.442   75.177    0.421    0.254   12.160
  317.000  262.174   95.655    0.457    0.240   12.468
  317.250  262.595  103.624    0.479    0.224   12.808
  317.500  262.597   85.264    0.493    0.219   13.689
  317.750  264.475   59.996    0.490    0.211   15.217
  318.000  265.208   53.213    0.388    0.149   17.934
  318.250  264.274   57.509    0.247    0.088   22.403
  318.500  262.506   62.739    0.303    0.117   23.987
  318.750  261.572   65.479    0.357    0.193   23.421
  319.000  261.263   62.431    0.419    0.214   21.943
  319.250  261.683   53.594    0.392    0.159   21.266
  319.500  261.894   52.724    0.271    0.054   24.320
  319.750  262.002   53.597    0.290    0.053   28.231
  320.000  262.213   51.358    0.281    0.058   33.646
  320.250  262.321   50.177    0.247    0.054   40.636
  320.500  262.636   49.431    0.241    0.050   46.556
  320.750  263.473   49.246    0.242    0.038   51.081
  321.000  264.414   52.048    0.248    0.027   51.501
  321.250  264.521   57.340    0.250    0.034   51.247
  321.500  264.941   61.761    0.259    0.057   49.478
  321.750  265.257   65.185    0.290    0.077   47.942
  322.000  265.156   66.556    0.328    0.086   43.915
  322.250  265.471   66.060    0.320    0.104   39.032
  322.500  265.891   68.862    0.301    0.113   33.228
  322.750  266.415   72.536    0.325    0.127   31.127
  323.000  266.315   78.201    0.365    0.197   26.296
  323.250  266.110   80.630    0.425    0.206   20.108
  323.500  265.279   80.631    0.435    0.206   18.981
  323.750  263.824   73.475    0.437    0.200   17.485
  324.000  262.369   72.543    0.445    0.188   17.267
  324.250  262.373   73.665    0.432    0.178   17.873
  324.500  262.689   77.837    0.392    0.169   18.814
  324.750  262.900   77.714    0.391    0.181   18.933
  325.000  262.799   75.039    0.427    0.202   18.522
  325.250  261.656   75.787    0.418    0.192   18.534
  325.500  262.285   77.594    0.413    0.184   18.270
  325.750  264.788   81.454    0.421    0.195   17.571
  326.000  266.875   81.954    0.429    0.198   16.433
  326.250  267.086   80.025    0.427    0.190   15.777
  326.500  266.360   78.533    0.429    0.179   15.121
  326.750  266.468   78.348    0.438    0.181   14.820
  327.000  267.200   79.470    0.458    0.195   14.797
  327.250  267.204   79.471    0.446    0.200   15.231
  327.500  266.582   76.112    0.435    0.172   15.823
  327.750  265.856   77.794    0.409    0.139   17.329
  328.000  264.505   78.355    0.384    0.120   19.157
  328.250  263.258   77.610    0.368    0.111   20.358
  328.500  262.741   80.288    0.388    0.127   20.524
  328.750  262.432   81.160    0.419    0.175   19.852
  329.000  262.955   81.660    0.438    0.224   18.460
  329.250  263.896   82.159    0.443    0.221   17.197
  329.500  264.628   81.912    0.436    0.204   16.451
  329.750  264.840   81.042    0.434    0.187   15.942
  330.000  265.051   81.417    0.440    0.170   15.306
  330.250  265.576   81.730    0.460    0.179   14.338
  330.500  266.517   78.121    0.471    0.179   13.611
  330.750  267.562   77.998    0.446    0.149   13.543
  331.000  267.878   81.921    0.409    0.119   13.889
  331.250  268.401   86.466    0.418    0.162   13.534
  331.500  269.133   88.895    0.435    0.196   12.823
  331.750  268.408   90.390    0.434    0.210   12.335
  332.000  267.682   89.644    0.448    0.199   12.227
  332.250  267.269   87.592    0.444    0.170   11.984
