~VERSION INFORMATION
 VERS.                 2.0:   CWLS LOG ASCII STANDARD -VERSION 2.0
 WRAP.                  NO:   ONE LINE PER DEPTH STEP
~WELL INFORMATION BLOCK
#MNEM.UNIT           DATA                    DESCRIPTION OF MNEMONIC
#---------    -------------------            -------------------------------
# Generated from Intellog Unique Number	CW_82_90/WELL/637
WELL.         GULF LIVOCK OV 07-31           : Well_name    - WELL
LOC .         AA/07-31-084-23W4/0            : Location     - LOCATION
UWI .         AA/07-31-084-23W4/0            : Uwi          - UNIQUE WELL ID
ENTR.         JAYE                           : Entered      - ENTERED BY
SRVC.         SCHLUMBERGER                   : Scn          - SERVICE COMPANY
DATE.         9 FEB 82                       : Date         - LOG DATE
STRT.M        150                            : top_depth    - START DEPTH
STOP.M        405                            : bot_depth    - STOP DEPTH
STEP.M        0.25                           : increment    - STEP LENGTH
 NULL. -999.2500:NULL Value
~CURVE INFORMATION BLOCK
#MNEM UNIT       ERCB CURVE CODE    CURVE DESCRIPTION
#-----------   ------------------   ----------------------------------
DEPT.M        00 001 00 00         : DEPTH        - DEPTH
CALI.MM       00 280 01 00         : CAL          - CALIPER
GR  .API      00 310 00 00         : GR           - GAMMA RAY
NPHI.V/V      00 330 00 00         : PHIN         - NEUTRON POROSITY (SANDSTONE)
DPHI.V/V      00 890 00 00         : PHID         - DENSITY POROSITY (SANDSTONE)
ILD .OHMM     00 120 00 00         : RESD         - DEEP RESISTIVITY (DIL)
~PARAMETER INFORMATION
#MNEM.UNIT           DATA             DESCRIPTION OF MNEMONIC
#---------         -----------     ------------------------------
GL  .M        574.7                : gl           - GROUND LEVEL ELEVATION
EREF.M        579.1                : kb           - ELEVATION OF DEPTH REFERENCE
DATM.M        574.7                : datum        - DATUM ELEVATION
TDD .M        410                  : tdd          - TOTAL DEPTH DRILLER
RUN .         ONE                  : Run          - RUN NUMBER
ENG .         GARTH                : Engineer     - RECORDING ENGINEER
WIT .         WALKER               : Witness      - WITNESSED BY
BASE.         EDMONTON             : Branch       - HOME BASE OF LOGGING UNIT
MUD .         GEL                  : Mud_type     - MUD TYPE
MATR.         SANDSTONE            : Logunit      - NEUTRON MATRIX
TMAX.C        26.1                 : BHT          - MAXIMUM RECORDED TEMPERATURE
BHTD.M        410                  : BHTDEP       - MAXIMUM RECORDED TEMPERATURE
RMT .C        15.5                 : MDTP         - TEMPERATURE OF MUD
MUDD.KG/M     1090                 : MWT          - MUD DENSITY
NEUT.         1                    : NEUTRON      - NEUTRON TYPE
RESI.         0                    : RESIST       - RESISTIVITY TYPE
RM  .OHMM     5.77                 : RM           - RESISTIVITY OF MUD
RMC .OHMM     0                    : RMC          - RESISTIVITY OF MUD CAKE
RMF .OHMM     6.87                 : RMF          - RESISTIVITY OF MUD FILTRATE
SUFT.C        0                    : SUFT         - SURFACE TEMPERATURE
~A  DEPTH      CAL       GR     PHIN     PHID     RESD
  150.000  280.210  109.980    0.578    0.267    4.216
  150.250  278.130  111.849    0.579    0.270    4.180
  150.500  273.862  113.842    0.574    0.260    4.104
  150.750  271.886  112.163    0.541    0.257    4.091
  151.000  270.848  109.799    0.506    0.269    4.171
  151.250  273.455  108.431    0.508    0.276    4.269
  151.500  274.813  108.059    0.512    0.274    4.264
  151.750  273.149  108.994    0.517    0.272    4.235
  152.000  270.652  111.174    0.550    0.275    4.261
  152.250  269.406  111.985    0.562    0.277    4.328
  152.500  269.409  111.426    0.550    0.265    4.438
  152.750  268.996  111.303    0.541    0.259    4.466
  153.000  268.791  108.877    0.560    0.267    4.469
  153.250  271.814  107.385    0.605    0.274    4.480
  153.500  273.901  108.196    0.602    0.274    4.483
  153.750  276.092  111.309    0.580    0.278    4.427
  154.000  277.970  113.053    0.557    0.282    4.380
  154.250  280.682  112.059    0.532    0.274    4.416
  154.500  281.310  111.749    0.533    0.281    4.502
  154.750  281.835  112.809    0.514    0.276    4.513
  155.000  280.900  114.429    0.528    0.243    4.383
  155.250  279.132  110.447    0.563    0.254    4.303
  155.500  276.844  105.095    0.560    0.256    4.322
  155.750  275.389   98.811    0.537    0.188    4.689
  156.000  274.142   95.513    0.490    0.085    5.058
  156.250  273.520  104.913    0.434    0.115    5.207
  156.500  273.316  107.280    0.490    0.179    5.279
  156.750  273.110  107.966    0.499    0.225    5.252
  157.000  272.697  108.216    0.499    0.236    5.236
  157.250  272.700  107.782    0.515    0.234    5.512
  157.500  273.225  106.788    0.539    0.241    5.695
  157.750  273.853  102.868    0.523    0.250    5.938
  158.000  273.960  100.193    0.461    0.250    6.263
  158.250  273.963   99.075    0.433    0.245    6.569
  158.500  274.487  101.814    0.464    0.238    6.524
  158.750  275.636  104.990    0.462    0.235    6.158
  159.000  276.265  109.099    0.457    0.238    5.737
  159.250  276.372  112.524    0.467    0.242    5.405
  159.500  276.376  111.841    0.487    0.247    5.210
  159.750  275.753  110.473    0.498    0.260    5.183
  160.000  275.340  109.977    0.504    0.264    5.176
  160.250  274.927  110.103    0.539    0.260    5.199
  160.500  275.138  109.917    0.532    0.262    5.261
  160.750  274.516  111.662    0.523    0.266    5.374
  161.000  274.936  109.485    0.551    0.268    5.553
  161.250  274.627   95.918    0.578    0.271    5.845
  161.500  274.422   86.645    0.548    0.276    6.271
  161.750  273.592   76.004    0.498    0.281    6.790
  162.000  273.179   70.403    0.468    0.275    8.692
  162.250  272.036   47.313    0.462    0.276   12.479
  162.500  270.685   35.614    0.420    0.297   20.904
  162.750  269.959   32.503    0.358    0.217   22.424
  163.000  269.441   39.973    0.305    0.189   22.020
  163.250  269.132   54.415    0.351    0.194   18.360
  163.500  268.302   59.147    0.402    0.231   14.013
  163.750  268.409   58.962    0.406    0.264   11.531
  164.000  268.100   62.137    0.450    0.277   10.885
  164.250  268.520   65.064    0.479    0.284   10.728
  164.500  269.565   67.119    0.476    0.295   10.675
  164.750  271.131   65.814    0.459    0.318   10.152
  165.000  268.843   66.438    0.443    0.310   10.007
  165.250  269.991   70.298    0.442    0.294    9.482
  165.500  270.933   69.864    0.480    0.273    9.506
  165.750  270.311   63.828    0.471    0.268    9.858
  166.000  269.584   62.522    0.443    0.265   10.377
  166.250  269.171   60.034    0.432    0.269   11.428
  166.500  268.758   54.061    0.423    0.267   12.445
  166.750  268.240   50.203    0.432    0.273   13.862
  167.000  268.139   46.470    0.443    0.312   15.268
  167.250  268.143   45.165    0.426    0.332   15.743
  167.500  268.563   48.589    0.416    0.321   15.782
  167.750  268.878   49.275    0.435    0.307   16.153
  168.000  268.881   44.858    0.466    0.308   17.624
  168.250  268.885   39.506    0.445    0.334   20.152
  168.500  268.159   37.143    0.402    0.345   24.799
  168.750  267.642   36.335    0.397    0.350   28.199
  169.000  267.332   38.577    0.396    0.346   31.115
  169.250  267.544   43.371    0.405    0.341   31.666
  169.500  267.652   43.311    0.417    0.338   31.450
  169.750  267.550   42.503    0.425    0.342   31.467
  170.000  267.345   43.376    0.420    0.346   31.724
  170.250  267.140   42.817    0.431    0.343   32.651
  170.500  266.622   39.955    0.431    0.338   34.438
  170.750  267.042   37.654    0.407    0.337   34.461
  171.000  267.567   41.639    0.402    0.342   33.083
  171.250  267.361   43.508    0.407    0.340   31.347
  171.500  266.740   42.078    0.432    0.328   30.379
  171.750  266.430   39.590    0.449    0.333   29.832
  172.000  266.434   41.520    0.456    0.344   28.319
  172.250  266.646   40.962    0.439    0.336   26.681
  172.500  266.753   44.885    0.416    0.324   22.754
  172.750  266.964   49.803    0.397    0.315   21.479
  173.000  267.384   55.655    0.413    0.316   20.389
  173.250  267.492   56.030    0.432    0.320   19.799
  173.500  267.703   50.243    0.443    0.321   19.809
  173.750  267.602   42.838    0.446    0.320   19.934
  174.000  267.814   44.893    0.451    0.321   20.556
  174.250  267.088   47.447    0.443    0.329   20.841
  174.500  266.674   51.805    0.429    0.321   20.854
  174.750  267.302   54.545    0.415    0.307   20.593
  175.000  268.035   54.671    0.409    0.309   21.118
  175.250  267.830   46.021    0.447    0.319   22.313
  175.500  264.916   36.437    0.457    0.323   28.352
  175.750  262.732   33.513    0.446    0.339   29.789
  176.000  262.215   32.208    0.427    0.352   27.287
  176.250  263.051   38.745    0.425    0.357   22.579
  176.500  263.368   41.609    0.413    0.332   19.076
  176.750  263.892   41.922    0.398    0.323   18.523
  177.000  264.937   45.222    0.409    0.326   19.134
  177.250  265.773   49.519    0.408    0.322   20.995
  177.500  267.547   48.897    0.410    0.306   17.939
  177.750  270.571   41.865    0.438    0.303   21.662
  178.000  271.095   34.958    0.420    0.326   26.809
  178.250  269.223   34.711    0.404    0.338   28.066
  178.500  266.831   36.268    0.428    0.337   27.198
  178.750  265.689   38.075    0.430    0.332   26.908
  179.000  265.274   39.259    0.437    0.338   27.645
  179.250  265.278   35.464    0.463    0.345   28.776
  179.500  266.114   34.158    0.459    0.344   29.394
  179.750  268.097   34.346    0.444    0.340   27.434
  180.000  269.454   37.895    0.424    0.340   23.092
  180.250  271.854   44.245    0.405    0.339   20.678
  180.500  273.107   47.733    0.430    0.326   18.941
  180.750  273.943   51.033    0.465    0.319   17.913
  181.000  273.842   53.711    0.469    0.322   16.814
  181.250  273.221   55.828    0.449    0.313   16.480
  181.500  272.495   59.066    0.435    0.294   15.498
  181.750  271.248   60.250    0.414    0.288   14.795
  182.000  270.210   60.563    0.401    0.286   13.966
  182.250  269.692   61.436    0.404    0.281   12.366
  182.500  268.341   63.118    0.411    0.279   11.434
  182.750  268.240   65.049    0.415    0.295   10.875
  183.000  267.826   66.669    0.426    0.287   10.639
  183.250  267.726   68.102    0.436    0.275    9.819
  183.500  267.520   70.095    0.434    0.272    9.216
  183.750  267.628   71.715    0.425    0.273    8.207
  184.000  267.215   73.085    0.423    0.277    7.954
  184.250  266.593   76.510    0.431    0.285    7.424
  184.500  266.596   79.561    0.425    0.272    6.475
  184.750  266.600   82.052    0.450    0.262    6.170
  185.000  266.603   77.759    0.479    0.264    6.268
  185.250  265.981   70.541    0.471    0.270    7.007
  185.500  265.776   62.824    0.476    0.281    8.688
  185.750  266.196   57.971    0.458    0.301    9.935
  186.000  266.616   59.591    0.419    0.297   10.187
  186.250  267.661   64.758    0.414    0.284    9.985
