~VERSION INFORMATION
 VERS.                 2.0:   CWLS LOG ASCII STANDARD -VERSION 2.0
 WRAP.                  NO:   ONE LINE PER DEPTH STEP
~WELL INFORMATION BLOCK
#MNEM.UNIT           DATA                    DESCRIPTION OF MNEMONIC
#---------    -------------------            -------------------------------
# Generated from Intellog Unique Number	CW_79_81/WELL/637
WELL.         07-33-079-25W4                 : Well_name    - WELL
LOC .         AA/07-33-079-25W4/0            : Location     - LOCATION
UWI .         AA/07-33-079-25W4/0            : Uwi          - UNIQUE WELL ID
ENTR.         MAX                            : Entered      - ENTERED BY
SRVC.         SCHLUMBERGER                   : Scn          - SERVICE COMPANY
STRT.M        200                            : top_depth    - START DEPTH
STOP.M        475                            : bot_depth    - STOP DEPTH
STEP.M        0.25                           : increment    - STEP LENGTH
 NULL. -999.2500:NULL Value
~CURVE INFORMATION BLOCK
#MNEM UNIT       ERCB CURVE CODE    CURVE DESCRIPTION
#-----------   ------------------   ----------------------------------
DEPT.M        00 001 00 00         : DEPTH        - DEPTH
ILD .OHMM     00 120 00 00         : RESD         - DEEP RESISTIVITY (DIL)
NPHI.V/V      00 330 00 00         : PHIN         - NEUTRON POROSITY (SANDSTONE)
DPHI.V/V      00 890 00 00         : PHID         - DENSITY POROSITY (SANDSTONE)
CALI.MM       00 280 01 00         : CAL          - CALIPER
GR  .API      00 310 00 00         : GR           - GAMMA RAY
~PARAMETER INFORMATION
#MNEM.UNIT           DATA             DESCRIPTION OF MNEMONIC
#---------         -----------     ------------------------------
GL  .M        557.85               : gl           - GROUND LEVEL ELEVATION
EREF.M        562.3                : kb           - ELEVATION OF DEPTH REFERENCE
DATM.M        557.85               : datum        - DATUM ELEVATION
TDD .M        485.5                : tdd          - TOTAL DEPTH DRILLER
RUN .         ONE                  : Run          - RUN NUMBER
ENG .         BILL                 : Engineer     - RECORDING ENGINEER
WIT .         JIM                  : Witness      - WITNESSED BY
MUD .         GEL                  : Mud_type     - MUD TYPE
MATR.         SANDSTONE            : Logunit      - NEUTRON MATRIX
TMAX.C        17.7                 : BHT          - MAXIMUM RECORDED TEMPERATURE
BHTD.M        485                  : BHTDEP       - MAXIMUM RECORDED TEMPERATURE
RMT .C        20                   : MDTP         - TEMPERATURE OF MUD
MUDD.KG/M     1110                 : MWT          - MUD DENSITY
NEUT.         1                    : NEUTRON      - NEUTRON TYPE
RESI.         0                    : RESIST       - RESISTIVITY TYPE
RM  .OHMM     11.3                 : RM           - RESISTIVITY OF MUD
RMC .OHMM     0.25                 : RMC          - RESISTIVITY OF MUD CAKE
RMF .OHMM     4.93                 : RMF          - RESISTIVITY OF MUD FILTRATE
SUFT.C        -15                  : SUFT         - SURFACE TEMPERATURE
~A  DEPTH     RESD     PHIN     PHID      CAL       GR
# ...
  309.500    5.277    0.532    0.251  264.263   85.673
  309.750    5.475    0.557    0.238  263.756   88.692
  310.000    5.681    0.536    0.228  263.248   89.899
  310.250    5.949    0.514    0.225  262.237   89.293
  310.500    6.004    0.493    0.229  260.722   86.872
  310.750    6.004    0.472    0.248  259.207   79.920
  311.000    5.840    0.453    0.265  258.195   78.104
  311.250    5.525    0.444    0.275  257.688   79.310
  311.500    4.992    0.498    0.286  257.683   77.193
  311.750    4.427    0.496    0.291  257.680   73.564
  312.000    3.891    0.526    0.266  257.676   70.238
  312.250    3.855    0.557    0.244  257.672   70.537
  312.500    4.000    0.564    0.271  257.668   72.651
  312.750    4.306    0.547    0.284  257.664   78.390
  313.000    4.899    0.541    0.280  258.164   83.524
  313.250    6.343    0.526    0.259  258.663   84.126
  313.500    6.461    0.501    0.254  258.659   81.707
  313.750    6.892    0.470    0.252  258.655   73.545
  314.000    7.351    0.458    0.259  258.651   71.125
  314.250    7.557    0.450    0.269  258.646   70.216
  314.500    7.627    0.436    0.278  258.140   70.214
  314.750    7.627    0.421    0.282  258.135   71.420
  315.000    7.556    0.421    0.277  257.627   72.928
  315.250    7.418    0.424    0.254  257.624   75.646
  315.500    7.215    0.447    0.243  257.620   78.363
  315.750    7.018    0.478    0.242  257.616   81.382
  316.000    6.953    0.481    0.242  257.612   83.798
  316.250    7.018    0.474    0.237  257.608   83.493
  316.500    7.148    0.481    0.244  257.604   80.771
  316.750    7.417    0.488    0.253  257.600   77.142
  317.000    7.485    0.479    0.253  257.595   75.629
  317.250    7.280    0.478    0.240  257.591   76.835
  317.500    6.952    0.487    0.234  257.587   79.553
  317.750    6.638    0.492    0.231  257.583   83.478
  318.000    6.638    0.477    0.227  258.084   89.822
  318.250    7.081    0.476    0.226  258.079   88.309
  318.500    7.483    0.488    0.230  258.075   84.680
  318.750    7.836    0.484    0.242  257.568   81.958
  319.000    7.909    0.452    0.244  257.060   81.653
  319.250    7.764    0.459    0.239  257.056   82.860
  319.500    7.622    0.481    0.241  257.052   84.066
  319.750    7.482    0.470    0.236  257.048   83.460
  320.000    7.413    0.457    0.230  257.048   82.550
  320.250    7.413    0.432    0.233  257.039   82.246
  320.500    7.344    0.436    0.236  257.036   82.545
  320.750    7.277    0.462    0.239  257.032   83.147
  321.000    7.143    0.486    0.233  258.035   83.145
  321.250    6.821    0.502    0.218  258.535   82.236
  321.500    6.696    0.471    0.215  258.531   80.723
  321.750    7.209    0.475    0.215  258.527   79.209
  322.000    7.833    0.482    0.209  258.523   79.207
  322.250    8.831    0.479    0.232  259.022   78.600
  322.500   10.817    0.443    0.184  258.514   73.461
  322.750   11.862    0.307    0.128  258.510   66.206
  323.000   11.538    0.343    0.165  258.507   64.995
  323.250   11.018    0.435    0.201  259.006   65.597
  323.500    9.954    0.465    0.242  259.002   67.709
  323.750    9.245    0.475    0.247  259.501   71.938
  324.000    8.747    0.458    0.240  259.497   75.864
  324.250    8.430    0.433    0.239  259.998   76.164
  324.500    8.352    0.432    0.237  261.000   76.463
  324.750    8.199    0.446    0.232  261.501   77.669
  325.000    7.975    0.452    0.224  262.000   77.969
  325.250    7.829    0.462    0.223  262.499   78.269
  325.500    7.829    0.485    0.217  262.496   78.569
  325.750    7.829    0.463    0.221  262.491   77.963
  326.000    8.048    0.464    0.223  262.991   78.262
  326.250    8.350    0.466    0.221  262.987   77.353
  326.500    8.744    0.453    0.223  262.984   72.213
  326.750    9.157    0.440    0.234  262.979   71.607
  327.000    9.500    0.429    0.248  262.975   74.022
  327.250    9.500    0.413    0.248  262.972   73.717
  327.500    9.326    0.440    0.232  262.967   72.506
  327.750    9.155    0.463    0.232  262.964   74.013
  328.000    9.155    0.447    0.234  262.959   75.825
  328.250    9.155    0.429    0.229  262.955   79.751
  328.500    9.239    0.418    0.225  262.951   81.864
  328.750    9.239    0.408    0.234  263.450   80.955
  329.000    9.239    0.428    0.237  263.447   80.046
  329.250    9.239    0.444    0.229  263.443   79.742
  329.500    9.238    0.444    0.231  263.438   79.135
  329.750    9.237    0.440    0.238  263.438   77.923
  330.000    9.152    0.437    0.241  263.429   76.713
  330.250    8.820    0.431    0.239  263.930   74.595
  330.500    8.117    0.422    0.235  263.926   75.196
  330.750    7.895    0.423    0.230  264.426   76.706
  331.000    7.823    0.427    0.222  264.422   79.423
  331.250    7.822    0.449    0.224  264.418   79.723
  331.500    7.822    0.454    0.230  264.414   81.231
  331.750    7.967    0.455    0.233  264.410   81.228
  332.000    8.267    0.453    0.228  264.406   80.319
  332.250    8.657    0.456    0.220  264.402   80.922
  332.500    9.065    0.455    0.225  264.398   80.013
  332.750    9.669    0.452    0.239  264.394   75.478
  333.000   10.901    0.445    0.276  264.390   65.503
  333.250   13.110    0.442    0.279  263.379   60.364
  333.500   16.663    0.451    0.292  261.360   60.662
  333.750   18.613    0.448    0.316  258.333   61.869
  334.000   17.938    0.436    0.319  256.818   58.845
  334.250   16.057    0.438    0.304  256.815   60.051
  334.500   14.777    0.479    0.288  258.322   61.560
  334.750   13.853    0.471    0.285  259.325   63.069
  335.000   13.852    0.452    0.281  258.818   66.995
  335.250   14.240    0.436    0.284  257.302   66.085
  335.500   14.912    0.448    0.291  255.284   63.665
  335.750   15.760    0.473    0.304  254.273   60.339
  336.000   17.605    0.465    0.305  253.765   57.919
  336.250   19.485    0.481    0.297  253.761   59.126
  336.500   19.128    0.487    0.287  253.254   63.354
  336.750   13.722    0.471    0.274  253.250   66.676
  337.000   12.170    0.448    0.255  254.253   69.695
  337.250   11.838    0.430    0.224  254.752   73.016
  337.500   12.058    0.417    0.216  254.748   76.036
  337.750   12.282    0.451    0.235  254.745   79.962
  338.000   12.743    0.465    0.266  254.237   79.658
  338.250   13.222    0.430    0.277  253.729   76.331
  338.500   13.974    0.416    0.273  253.726   71.796
  338.750   15.323    0.405    0.237  253.722   66.656
  339.000   18.945    0.411    0.180  253.717   59.703
  339.250   20.968    0.403    0.105  252.705   46.405
  339.500   23.858    0.341    0.089  251.694   44.892
  339.750   26.405    0.209    0.059  251.691   45.191
  340.000   27.907    0.166    0.035  251.686   48.815
  340.250   27.650    0.305    0.271  251.683   66.944
  340.500   25.682    0.435    0.298  251.678   66.337
  340.750   21.752    0.449    0.280  251.675   66.637
  341.000   17.592    0.468    0.272  251.670   72.678
  341.250   14.763    0.459    0.272  251.667   71.165
  341.500   12.620    0.432    0.257  251.662   70.256
  341.750   11.507    0.416    0.247  251.659   77.204
  342.000   10.590    0.406    0.242  252.158   83.547
  342.250    9.836    0.450    0.248  252.154   85.660
  342.500    9.479    0.452    0.245  252.150   83.240
  342.750    9.567    0.424    0.239  252.146   78.705
  343.000    9.655    0.438    0.243  252.142   72.961
  343.250    9.926    0.456    0.266  252.138   71.448
  343.500   10.204    0.442    0.271  252.134   68.726
  343.750   10.298    0.441    0.273  252.129   65.097
  344.000   10.017    0.469    0.268  252.125   69.326
  344.250    8.803    0.475    0.254  252.122   75.668
  344.500    8.484    0.432    0.245  252.118   75.969
  344.750    8.405    0.410    0.246  252.114   76.268
  345.000    7.635    0.437    0.253  249.658   75.692
  345.250    7.638    0.497    0.256  250.171   75.400
  345.500    7.502    0.488    0.252  249.685   74.810
  345.750    7.436    0.475    0.250  249.197   73.921
