~Version Information Block
VERS .                 2.00:  CWLS LOG ASCII STANDARD - VERSION 2.00
WRAP .                   NO:  One line per depth step
~Well Information Block
#MNEM.UNIT        Data Type   Information
#---------- ----------------  -----------
STRT .M                38.1:  START DEPTH
STOP .M                83.4:  STOP DEPTH
STEP .M                 0.3:  STEP
NULL .              -999.25:  NULL VALUE
COMP . SYNCRUDE CANADA LTD :  COMPANY
WELL . MILDRED OV PROGRAM  :  WELL
FLD  . TAR SANDS           :  FIELD
LOC  . 01-26-094-12W4      :  LOCATION
PROV . ALBERTA             :  PROVINCE
SRVC . SCHLUMBERGER        :  SERVICE COMPANY
DATE . 22 JAN 76           :  LOG DATE
UWI  . AA/01-26-094-12W400 :  UNIQUE WELL ID
~Curve Information Block
#MNEM.UNIT         API CODE   Curve Description
#---------- ----------------  -----------------
DEPTH.M                    :  Transferred from LOGMATE/ESP.
GR   .API                  :  Loaded from 920923.153755
PHID .FRAC                 :  Loaded from 920923.153755
RESD .OHMM                 :  Loaded from 920923.153755
~Parameter Information Block
#MNEM.UNIT            Value   Description
#---------- ----------------  -----------
PROJECT.            MOS_94_12:
SET  .                  RAW:
~A        DEPTH             GR           PHID           RESD
        38.1000       123.3900         0.3908         2.8700
        38.4000       119.1100         0.3640         2.8700
        38.7000       118.8200         0.3446         3.3600
        39.0000       126.2000         0.3290         3.0400
        39.3000       130.7400         0.3171         2.8600
        39.6000       120.7500         0.2914         3.1500
        39.9000       125.8200         0.2651         3.0100
        40.2000       129.4800         0.2475         3.0500
        40.5000       132.6700         0.2266         7.2800
        40.8000       129.5100         0.2368         6.0800
        41.1000       122.5800         0.2472         6.8600
        41.4000       116.4100         0.2269         6.6000
        41.7000       126.3700         0.1917         4.6400
        42.0000       139.6300         0.1962         7.2100
        42.3000       144.7700         0.2775         9.1500
        42.6000       138.3000         0.2986        10.3100
        42.9000       144.6700         0.3016         3.8800
        43.2000       140.6300         0.2935         4.6400
        43.5000       144.4100         0.2853         4.0400
        43.8000       147.9500         0.2554         3.6000
        44.1000       144.0800         0.2534         4.1200
        44.4000       140.5600         0.2746         3.9200
        44.7000       146.2200         0.2693         4.6800
        45.0000       147.3000         0.2452         5.7400
        45.3000       138.2500         0.2272         5.6200
        45.6000       138.9600         0.2176         4.2000
        45.9000       150.9300         0.2601         5.6000
        46.2000       151.1200         0.2923         9.9400
        46.5000       151.1900         0.2838         5.7200
        46.8000       140.4900         0.2655         3.5700
        47.1000       134.0800         0.2384         4.5100
        47.4000       130.3900         0.2032         4.1400
        47.7000       121.8100         0.1672         5.3600
        48.0000       109.3400         0.2121         8.8500
        48.3000        92.6900         0.2170         7.1800
        48.6000        99.7100         0.1838         9.7500
        48.9000       106.7300         0.1947        13.2500
        49.2000        89.1400         0.2665        10.3500
        49.5000        76.3800         0.2898         7.8800
        49.8000        70.0900         0.3140        10.3500
        50.1000        73.3400         0.2971        13.6100
        50.4000        82.2800         0.2794        16.9600
        50.7000        84.0200         0.2644        19.2100
        51.0000        90.0400         0.2519        16.2100
        51.3000        94.9400         0.2384        14.9000
        51.6000       102.9000         0.2160        14.7900
        51.9000        89.0800         0.2524        10.0800
        52.2000        81.2100         0.2761         6.8800
        52.5000        76.3900         0.2742         8.4900
        52.8000        82.2300         0.2692        17.1800
        53.1000        74.9500         0.2916        15.0100
        53.4000        75.3100         0.2742        12.9500
        53.7000        74.8000         0.2821        16.4200
        54.0000        72.2800         0.3005        14.0100
        54.3000        69.5200         0.2779        16.8100
        54.6000        67.1800         0.2778        19.3500
        54.9000        74.2000         0.2920        19.6700
        55.2000        79.4500         0.2973        20.6100
        55.5000        84.5300         0.2632        17.3400
        55.8000        93.5500         0.2302        19.2100
        56.1000       109.1600         0.2007        20.5000
        56.4000       116.9400         0.1809        16.0800
        56.7000       122.2600         0.2365         7.6500
        57.0000       130.1000         0.2518         9.5700
        57.3000       134.8200         0.2682         9.6000
        57.6000       139.0700         0.2325         7.2300
        57.9000       145.2100         0.2571         5.9600
        58.2000       152.2300         0.2894         8.4800
        58.5000       143.8200         0.2798         6.0000
        58.8000       141.2500         0.2653         4.5700
        59.1000       134.9600         0.2550         4.6400
        59.4000       124.8500         0.2568         4.1200
        59.7000       126.5700         0.2376         5.7000
        60.0000       111.9200         0.2139         7.3800
        60.3000       102.9300         0.0856         4.8900
        60.6000       105.0600         0.0652        13.8000
        60.9000        90.8900         0.2414        77.5700
        61.2000        77.8900         0.2774       105.0000
        61.5000        81.3200         0.2767        14.8800
        61.8000        91.7500         0.2797        50.4200
        62.1000        95.6500         0.2770       101.6600
        62.4000        97.6600         0.2789        35.8700
        62.7000        87.6700         0.2945        39.5300
        63.0000        88.6200         0.2750        49.4400
        63.3000        95.7600         0.2574        82.7800
        63.6000       106.9600         0.2706        51.8100
        63.9000       121.9800         0.2260        23.8700
        64.2000       137.4200         0.1897        33.5000
        64.5000       150.2700         0.1620        33.9200
        64.8000       150.4600         0.1739        13.6500
        65.1000       148.1100         0.2088         9.8000
        65.4000       142.5900         0.1816         8.3800
        65.7000       152.0900         0.1595        10.7200
        66.0000       147.2700         0.1488        11.6300
        66.3000       142.2800         0.1695         8.7300
        66.6000       132.7600         0.1988        11.5500
        66.9000       126.1700         0.2111         8.9600
        67.2000       134.6100         0.1942        12.9400
        67.5000       128.0900         0.2360        16.4100
        67.8000       137.2800         0.2077        10.7300
        68.1000       140.6500         0.1873        13.1700
        68.4000       134.4300         0.2214        16.2400
        68.7000       132.3800         0.2289        12.5200
        69.0000       122.3800         0.2489        12.3700
        69.3000       112.9200         0.2782        12.0400
        69.6000       105.7500         0.2949        10.9600
        69.9000       110.2400         0.2267        16.4400
        70.2000       121.9600         0.1948        20.5600
        70.5000       115.5600         0.1752        24.7600
        70.8000        83.5500         0.2549        13.3700
        71.1000        41.2900         0.2829         9.7900
        71.4000        38.1300         0.2840        73.8100
        71.7000        32.9600         0.2711       157.9300
        72.0000        25.5500         0.2707       334.8800
        72.3000        24.0900         0.2569       369.1200
        72.6000        28.9400         0.2754       536.0600
        72.9000        32.1200         0.2949       761.8400
        73.2000        33.0200         0.3222       804.1900
        73.5000        52.2300         0.2828       354.8000
        73.8000        70.8500         0.2447       184.7700
        74.1000        60.3800         0.2254       464.9700
        74.4000        41.2000         0.3047       141.2600
        74.7000        47.1600         0.2991        24.7700
        75.0000        45.7600         0.3150       862.8800
        75.3000        32.0600         0.3253      1264.4700
        75.6000        39.3700         0.3526        86.2100
        75.9000        45.2100         0.3769       456.7300
        76.2000        37.9200         0.3489       927.4700
        76.5000        39.7600         0.3533       167.0700
        76.8000        36.6500         0.3493        52.3300
        77.1000        25.7200         0.3108       545.0200
        77.4000        32.1400         0.3079        84.5300
