~VERSION INFORMATION
 VERS.                 2.0:   CWLS LOG ASCII STANDARD -VERSION 2.0
 WRAP.                  NO:   ONE LINE PER DEPTH STEP
~WELL INFORMATION BLOCK
#MNEM.UNIT           DATA                    DESCRIPTION OF MNEMONIC
#---------    -------------------            -------------------------------
# Generated from Intellog Unique Number	CN_94_101/WELL/4980
WELL.         06-04-097-14W4                 : Well_name    - WELL
LOC .         AA/06-04-097-14W4/0            : Location     - LOCATION
UWI .         AA/06-04-097-14W400            : Uwi          - UNIQUE WELL ID
ENTR.         JOETTE                         : Entered      - ENTERED BY
SRVC.         SCHLUMBERGER                   : Scn          - SERVICE COMPANY
DATE.         08/17/92                       : Date         - LOG DATE
STRT.M        106.68                         : top_depth    - START DEPTH
STOP.M        374.93                         : bot_depth    - STOP DEPTH
STEP.M        0.25                           : increment    - STEP LENGTH
 NULL. -999.2500:NULL Value
~CURVE INFORMATION BLOCK
#MNEM UNIT       ERCB CURVE CODE    CURVE DESCRIPTION
#-----------   ------------------   ----------------------------------
DEPT.M        00 001 00 00         : DEPTH        - DEPTH
ILD .OHMM     00 120 00 00         : RESD         - DEEP RESISTIVITY (DIL)
GR  .API      00 310 00 00         : GR           - GAMMA RAY
NPHI.V/V      00 330 00 00         : PHIN         - NEUTRON POROSITY (SANDSTONE)
~PARAMETER INFORMATION
#MNEM.UNIT           DATA             DESCRIPTION OF MNEMONIC
#---------         -----------     ------------------------------
GL  .M        639.166              : gl           - GROUND LEVEL ELEVATION
EREF.M        639.166              : kb           - ELEVATION OF DEPTH REFERENCE
DATM.M        639.166              : datum        - DATUM ELEVATION
TDD .M        377.647              : tdd          - TOTAL DEPTH DRILLER
RUN .         ONE                  : Run          - RUN NUMBER
ENG .         JO                   : Engineer     - RECORDING ENGINEER
WIT .         TIM                  : Witness      - WITNESSED BY
MUD .         GEL                  : Mud_type     - MUD TYPE
MATR.         SANDSTONE            : Logunit      - NEUTRON MATRIX
TMAX.C        12.2222              : BHT          - MAXIMUM RECORDED TEMPERATURE
BHTD.M        377.647              : BHTDEP       - MAXIMUM RECORDED TEMPERATURE
RMT .C        8.33333              : MDTP         - TEMPERATURE OF MUD
MUDD.KG/M     1200                 : MWT          - MUD DENSITY
NEUT.         1                    : NEUTRON      - NEUTRON TYPE
RESI.         0                    : RESIST       - RESISTIVITY TYPE
RM  .OHMM     6.5                  : RM           - RESISTIVITY OF MUD
RMC .OHMM     6.5                  : RMC          - RESISTIVITY OF MUD CAKE
RMF .OHMM     5.9                  : RMF          - RESISTIVITY OF MUD FILTRATE
SUFT.C        4                    : SUFT         - SURFACE TEMPERATURE
~A  DEPTH     RESD       GR     PHIN
# ...
  160.930   27.917   12.681    0.356
  161.180   30.617   12.337    0.362
  161.430   32.106   10.497    0.365
  161.680   29.748   13.114    0.370
  161.930   25.776   19.459    0.375
  162.180   24.429   17.613    0.381
  162.430   21.400   16.149    0.394
  162.680   23.157   20.625    0.402
  162.930   21.272   23.628    0.398
  163.180   21.950   25.502    0.390
  163.430   20.740   32.958    0.389
  163.680   26.137   28.142    0.391
  163.930   26.750   32.623    0.392
  164.180   26.685   31.154    0.388
  164.430   27.295   31.916    0.365
  164.680   24.130   27.849    0.367
  164.930   36.607   29.727    0.377
  165.180   39.375   24.539    0.371
  165.430   38.502   22.698    0.362
  165.680   34.933   18.998    0.355
  165.930   35.475   19.017    0.346
  166.180   36.490   16.437    0.335
  166.430   31.371   19.798    0.321
  166.680   21.058   29.118    0.337
  166.930    5.690   39.182    0.344
  167.180    5.560   47.005    0.348
  167.430    5.902   51.486    0.354
  167.680    6.915   66.012    0.363
  167.930    7.121   81.654    0.393
  168.180    6.991   90.603    0.453
  168.430   13.264   93.592    0.481
  168.680   17.448   88.776    0.498
  168.930   15.901   80.990    0.489
  169.180    5.792   82.863    0.481
  169.430    5.930   72.097    0.480
  169.680    6.272   72.116    0.507
  169.930    6.275   76.225    0.516
  170.180    5.942   71.786    0.517
  170.430    6.417   75.518    0.509
  170.680    6.893   86.326    0.502
  170.930    5.347   87.460    0.500
  171.180    5.552   85.619    0.502
  171.430    6.230   88.989    0.506
  171.680    6.302   84.913    0.509
  171.930    6.037   81.584    0.509
  172.180    5.972   87.553    0.508
  172.430    6.042   83.481    0.507
  172.680    6.182   78.665    0.508
  172.930    6.253   72.734    0.511
  173.180    6.662   79.451    0.515
  173.430    6.934   81.329    0.517
  173.680    7.005   80.603    0.508
  173.930    6.807   77.647    0.498
  174.180    6.406   71.348    0.496
  174.430    6.342   69.875    0.501
  174.680    6.549   67.662    0.504
  174.930    6.620   67.681    0.503
  175.180    6.557   76.629    0.499
  175.430    6.359   83.713    0.501
  175.680    6.226   87.450    0.502
  175.930    5.624   85.610    0.501
  176.180    5.898   83.769    0.504
  176.430    6.171   83.787    0.513
  176.680    5.702   83.062    0.512
  176.930    5.099   79.734    0.511
  177.180    5.440   80.501    0.516
  177.430    5.511   70.846    0.516
  177.680    5.312   67.146    0.508
  177.930    5.383   74.974    0.504
  178.180    5.725   83.174    0.504
  178.430    5.324   85.056    0.506
  178.680    5.395   86.191    0.510
  178.930    5.736   87.697    0.516
  179.180    5.942   90.690    0.520
  179.430    6.352   94.060    0.522
  179.680    6.355   89.240    0.517
  179.930    6.222   71.408    0.508
  180.180    6.159   65.477    0.507
  180.430    5.894   59.913    0.507
  180.680    5.896   62.911    0.503
  180.930    5.563   67.020    0.496
  181.180    5.163   77.079    0.492
  181.430    5.167   77.098    0.492
  181.680    5.979   81.960    0.488
  181.930    4.904   81.602    0.484
  182.180    4.032   84.968    0.482
  182.430    5.249   83.871    0.486
  182.680    6.668   80.170    0.492
  182.930    8.830   67.917    0.498
  183.180    9.711   79.092    0.499
  183.430    8.028   82.457    0.496
  183.680    9.312   71.692    0.493
  183.930   10.598   62.790    0.478
  184.180    6.219   72.101    0.476
  184.430    4.672   78.079    0.480
  184.680    4.676   69.163    0.485
  184.930    5.286   63.231    0.491
  185.180    5.762   62.506    0.491
  185.430    5.496   77.032    0.489
  185.680    5.500   76.679    0.492
  185.930    5.571   72.979    0.500
  186.180    5.642   74.490    0.501
  186.430    6.186   70.413    0.490
  186.680    8.414   72.663    0.466
  186.930   12.530   69.707    0.460
  187.180    9.635   67.866    0.451
  187.430   10.111   65.281    0.445
  187.680    5.597   60.465    0.447
  187.930    5.804   59.368    0.453
  188.180    6.413   73.523    0.479
  188.430    6.484   70.938    0.480
  188.680    5.342   76.163    0.493
  188.930    4.740   83.624    0.504
  189.180    4.136   80.296    0.504
  189.430    4.006   76.219    0.531
  189.680    4.212   86.654    0.531
  189.930    4.822   87.793    0.523
  190.180    6.713   82.973    0.528
  190.430    7.256   78.157    0.525
  190.680    7.935   63.668    0.500
  190.930    6.050   50.299    0.495
  191.180    6.998   53.292    0.498
  191.430    7.474   52.196    0.491
  191.680    8.893   62.259    0.482
  191.930   10.515   64.137    0.482
  192.180   11.463   60.065    0.469
  192.430   13.489   52.646    0.445
  192.680   23.066   52.293    0.422
  192.930   26.307   48.221    0.424
  193.180   29.277   33.736    0.421
  193.430   23.820   31.891    0.406
  193.680   20.857   29.678    0.397
  193.930   20.860   21.144    0.402
  194.180   22.685   20.795    0.398
  194.430   20.328   22.297    0.388
  194.680   21.411   21.581    0.389
  194.930   22.157   19.363    0.432
  195.180   23.778   20.126    0.435
  195.430   21.557   23.868    0.428
  195.680   18.594   24.997    0.413
  195.930   19.138   25.016    0.406
  196.180   10.781   28.381    0.400
  196.430   36.876   39.189    0.402
  196.680    8.496   41.810    0.414
  196.930    8.230   46.292    0.411
  197.180    8.167   50.777    0.403
  197.430    8.507   54.143    0.391
  197.680    9.387   51.558    0.369
  197.930   12.965   45.999    0.392
  198.180   16.609   54.942    0.435
  198.430   18.231   63.514    0.450
  198.680   20.864   68.748    0.454
  198.930   19.520   65.792    0.456
  199.180   19.255   62.087    0.450
  199.430   18.920   50.949    0.426
  199.680   17.172   48.360    0.402
  199.930   15.354   29.413    0.379
  200.180   20.751   20.135    0.389
  200.430   23.048   24.244    0.414
  200.680   18.939   22.031    0.429
  200.930   20.696   19.075    0.422
  201.180   21.576   15.374    0.422
  201.430   23.197   16.513    0.426
  201.680   26.438   16.904    0.403
  201.930   22.328   24.727    0.382
  202.180   21.523   24.011    0.385
  202.430   20.651   20.311    0.390
  202.680   17.216   18.461    0.392
  202.930   15.264   23.319    0.397
  203.180   15.133   25.197    0.403
  203.430   18.845   23.728    0.418
  203.680   18.647   21.891    0.412
  203.930   12.853   24.880    0.416
  204.180   15.284   27.130    0.420
  204.430   15.355   31.988    0.428
  204.680   11.717   32.378    0.432
  204.930   15.969   30.909    0.435
  205.180   13.141   26.465    0.436
  205.430   14.291   24.625    0.436
  205.680   19.688   27.995    0.431
  205.930   16.793   33.963    0.425
  206.180   13.089   31.746    0.399
  206.430   13.766   28.046    0.397
  206.680   28.939   26.949    0.391
  206.930   28.606   22.877    0.390
  207.180   27.329   22.523    0.395
  207.430   27.400   21.803    0.401
  207.680   13.853   25.540    0.403
  207.930   11.024   30.765    0.418
  208.180   15.006   34.874    0.434
  208.430   10.762   39.355    0.440
  208.680    8.002   44.957    0.438
  208.930   12.321   44.975    0.447
  209.180   12.864   51.320    0.448
  209.430   13.610   47.987    0.445
  209.680   10.646   45.031    0.450
  209.930    7.818   48.773    0.454
  210.180   10.923   48.419    0.459
  210.430   12.141   48.438    0.465
  210.680    5.942   52.547    0.475
  210.930    6.418   56.657    0.491
  211.180    6.016   60.027    0.502
  211.430    6.695   61.528    0.496
  211.680    7.171   64.894    0.487
  211.930   18.905   69.007    0.474
  212.180   35.293   67.166    0.464
  212.430   39.544   60.863    0.440
  212.680   20.872   41.911    0.394
  212.930   11.437   37.472    0.403
  213.180   14.137   44.180    0.421
  213.430   12.928   44.199    0.430
  213.680   12.932   47.569    0.434
  213.930   13.339   45.732    0.435
  214.180   10.782   48.354    0.447
  214.430   14.762   45.021    0.441
  214.680   12.474   44.296    0.437
  214.930   11.197   47.290    0.447
