~Version : LASO    vs 4.00
VERS.                2.00:   CWLS Log ASCII Standard -VERSION 2.0
WRAP.                  NO:
~Well Information Block
#MNEM.UNIT       Data                        Description of Mnemonic
#----.----      -------------------------- : -----------------------------
STRT.M            13.0000:
STOP.M           191.0000:
STEP.M             0.2000:
NULL.           -999.2500:
COMP.  MOBIL OIL OF CANADA          :COMPANY
WELL.  MOBIL CLARKE OV 4-1          :WELL
FLD.                                :FIELD
LOC.   04-01-091-08W4               :LOCATION
CTRY.  CANADA                       :COUNTRY
PROV.  ALBERTA                      :PROVINCE
SRVC.  SCHLUMBERGER                 :SERVICE COMPANY
DATE.  12-FEB-81                    :LOG DATE
UWI.   AA/04-01-091-08W400          :UNIQUE WELL ID
~Parameter Information Block
#MNEM.UNIT       Data                        Description of Mnemonic
#----.----      -------------------------- : -----------------------------
RUN .                   1                 : Run Number
GL  .M           444.1000                 : Ground Level Elevation
DREF.                  GD                 : Depth Reference
EREF.M           444.1000                 : Elevation of Depth Reference
TDL .M           191.5000                 : Total Depth Logger
TDD .M           192.0000                 : Total Depth Driller
CSGL.M            15.0000                 : Casing Bottom Logger
CSGD.M            15.0000                 : Casing Bottom Driller
CSGS.MM          179.0000                 : Casing Size
CSGW.KG/M          0.0000                 : Casing Weight
BHT .DEGC         12.0000                 : Bottom Hole Temperature
BS  .MM          158.0000                 : Bit Size
DFD .           1080.0000                 : Mud Weight (Density)
DFV .             85.0000                 : Mud Viscosity
DFPH.             12.6000                 : Mud pH
~Curve Information Block
#MNEM.UNIT        API CODE    Curve Description
#---------    ------------    -------------------------------------------
DEPT.M                    :   DEPTH
CALI.MM       42 280  1  1:   3 DENSITY CALIPER
DPHI.V/V                  :   DPHI
DT  .US/M     60 520  0  1:   2 SONIC INTERVAL TRANSIT TIME (COMPENSATED)
GR  .GAPI     42 310  1  1:   4 GAMMA RAY
ILD .OHMM      5 120 46  1:   7 DEEP INDUCTION
ILM .OHMM      5 120 44  1:   8 MEDIUM INDUCTION
NPHI.V/V      42 890  3  1:   5 NEUTRON POROSITY (SANDSTONE)
RHOB.K/M3     42 350  1  1:   6 BULK DENSITY
SFLU.OHMM      5 220  1  1:   9 FOCUSSED RESISTIVITY
SP  .MV        5  10  1  1:   10 SPONTANEOUS POTENTIAL
~A  Depth           CALI        DPHI          DT          GR         ILD         ILM        NPHI        RHOB        SFLU          SP
# ...
61.8000         175.9250      0.2046    642.9200     58.3050     22.9208    410.2324      0.3487   2328.7000     94.5867    -73.7400
62.0000         175.9250      0.2028    499.4000     78.9300     15.5536    406.4713      0.3719   2344.5000     34.9808    -69.9900
62.2000         175.9250      0.1982    556.8000     90.4350     13.9261    399.0524      0.4149   2310.8000     14.4487    -67.4850
62.4000         180.9000      0.2086    557.5200     95.7450     12.4690    399.0524      0.4842   2296.0000      8.1626    -65.2200
62.6000         193.2750      0.2249    516.7600     93.9450      9.4587    425.6277      0.5484   2276.2000      5.9680    -63.9750
62.8000         197.0000      0.2257    502.1200     93.8400      7.9402    410.2324      0.5342   2288.1001      7.1094    -64.7250
63.0000         182.1250      0.2193    502.2400     96.2400      7.0442    402.7448      0.5175   2302.8999      9.9961    -65.4750
63.2000         173.4500      0.2196    530.2000    104.3550      6.6655    381.0921      0.5492   2288.1001      6.1920    -63.9750
63.4000         173.4500      0.2245    537.1600    105.1500      6.6655    395.3939      0.5797   2291.0000      3.9069    -62.7150
63.6000         173.4500      0.2284    544.8000    104.9550      6.4838    410.2324      0.5928   2267.3000      3.8004    -62.2200
63.8000         174.7000      0.2272    547.5600    101.8500      6.2493    406.4713      0.5879   2261.3000      5.0099    -62.4600
64.0000         175.9250      0.2200    546.4400    100.2450      5.9680    402.7448      0.5620   2308.8999      7.7238    -62.7150
64.2000         175.9250      0.2067    541.5200    101.6550      6.0790    406.4713      0.5529   2333.6001      8.0878    -62.4600
64.4000         175.9250      0.1971    535.8800     99.0450      6.4244    406.4713      0.5558   2353.3999      7.6530    -62.7150
64.6000         173.4500      0.2147    529.6000     89.5350      7.4444    406.4713      0.5562   2315.8000      4.9640    -63.4650
64.8000         173.4500      0.3245    530.4400     85.7400      8.0878    402.7448      0.5537   2291.0000      4.4446    -64.4700
65.0000         173.4500      0.3634    532.5600     80.0250      8.9501    410.2324      0.5525   2297.0000      5.3436    -65.7300
65.2000         170.9750      0.3831    521.3600     68.4150     10.9605    395.3939      0.4816   2435.6001     18.3582    -65.9700
65.4000         168.5000      0.3772    508.4800     66.1200     12.2414    399.0524      0.4283   2566.3000     43.6345    -64.7250
65.6000         168.5000      0.3574    478.2800     68.6100     13.1774    399.0524      0.3904   2722.7000    111.6426    -63.9750
65.8000         170.9750      0.3365    351.4000     82.3350     13.9261    402.7448      0.3855   2704.8999     44.0382    -66.7200
66.0000         173.4500      0.3153    312.2000     85.9350     13.7984    402.7448      0.4221   2578.2000     14.0550    -67.4850
66.2000         173.4500      0.2941    329.3600     86.5350     13.2993    399.0524      0.4686   2409.8000      8.0878    -67.7250
66.4000         174.7000      0.2740    417.6400     87.4350     10.8600    406.4713      0.5071   2215.8000     10.4672    -68.9850
66.6000         172.2250      0.2626    467.9600     89.1450      9.3720    402.7448      0.4963   2235.6001     14.3163    -69.7350
66.8000         172.2250      0.2539    533.2000     91.4400      8.0878    402.7448      0.4908   2243.5000     15.6975    -69.2400
67.0000         172.2250      0.2510    536.0400     96.8400      6.9156    381.0921      0.5029   2249.5000     13.0566    -67.7250
67.2000         173.4500      0.2496    537.0400    107.8500      5.2460    410.2324      0.5558   2239.6001      6.3071    -63.7200
67.4000         174.7000      0.2510    535.1200    109.8600      4.5691    410.2324      0.5757   2243.5000      3.8004    -61.9650
67.6000         174.7000      0.2502    535.7200    110.1600      4.0535    402.7448      0.6004   2245.5000      2.4879    -61.4550
67.8000         174.7000      0.2479    555.3200    109.6650      3.3100    395.3939      0.6302   2235.6001      2.5576    -61.4550
68.0000         175.9250      0.2488    560.7600    109.2600      3.1321    406.4713      0.6241   2235.6001      2.6536    -61.4550
68.2000         177.1750      0.2429    563.8000    107.6550      3.0467    417.8592      0.6251   2258.3999      2.6781    -61.7100
68.4000         179.6500      0.2366    563.4800    106.5600      3.0467    402.7448      0.6072   2242.5000      2.7786    -61.9650
68.6000         179.6500      0.2386    562.6400    106.6500      3.1033    402.7448      0.5986   2273.2000      2.6051    -61.9650
68.8000         179.6500      0.2506    561.7600    106.2600      3.2198    381.0921      0.5911   2283.1001      2.6536    -61.4550
69.0000         179.6500      0.2523    558.4400    104.2500      3.5304    406.4713      0.5981   2235.6001      2.9096    -60.9600
69.2000         183.3750      0.2457    555.8000    104.9550      3.7656    410.2324      0.5817   2247.5000      3.2797    -60.9600
69.4000         179.6500      0.2328    551.4400    105.8550      4.0535    410.2324      0.5560   2277.2000      3.8356    -61.2150
69.6000         180.9000      0.2206    539.0800    103.4550      4.8734    417.8592      0.5136   2283.1001      4.8287    -61.4550
69.8000         180.9000      0.2138    533.5200    102.4500      5.2460    421.7256      0.5077   2295.0000      5.5954    -61.7100
70.0000         179.6500      0.2110    529.6000    100.9500      5.6472    421.7256      0.5038   2316.8000      6.7894    -61.9650
70.2000         180.9000      0.2148    527.6400     99.8550      5.8591    429.5660      0.4986   2310.8000      7.9402    -62.4600
70.4000         182.1250      0.2107    529.6801    102.8550      6.2493    402.7448      0.5130   2320.7000      7.5828    -62.4600
70.6000         183.3750      0.2150    531.5200    103.9500      6.3655    381.0921      0.5138   2294.0000      6.6043    -62.2200
70.8000         183.3750      0.2157    532.1200    102.1500      6.4244    402.7448      0.5130   2278.2000      5.8591    -61.9650
71.0000         183.3750      0.2290    526.0000     98.2500      6.3655    402.7448      0.5260   2291.0000      6.0232    -61.9650
71.2000         183.3750      0.2380    522.4400     97.5450      6.3655    402.7448      0.5221   2271.2000      6.9156    -62.2200
71.4000         180.9000      0.2328    521.0000     96.8400      6.4838    402.7448      0.5071   2259.3000      7.3085    -62.4600
71.6000         182.1250      0.2191    520.8000     99.6450      6.9796    410.2324      0.4879   2300.8999      6.7271    -63.7200
71.8000         182.1250      0.2056    519.7200    103.6500      7.2415    417.8592      0.4904   2330.6001      6.8522    -64.7250
72.0000         177.1750      0.1941    515.9600    105.4500      7.3762    421.7256      0.4978   2349.5000      7.7952    -65.9700
72.2000         179.6500      0.1877    507.4800    105.4500      7.1094    395.3939      0.4756   2368.3000     10.6618    -67.7250
72.4000         175.9250      0.1814    503.7600    106.8600      6.9156    381.0921      0.4768   2354.3999     12.8183    -68.4750
72.6000         174.7000      0.1794    500.9200    107.3550      6.7271    388.1771      0.4789   2352.3999     11.0619    -67.4850
72.8000         179.6500      0.1836    492.6000    104.7600      6.1352    410.2324      0.5013   2342.5000      5.3930    -64.7250
73.0000         179.6500      0.1888    495.7200    104.1600      5.7521    410.2324      0.5153   2338.6001      5.1503    -64.2150
73.2000         174.7000      0.1869    504.9200    102.8550      5.4933    410.2324      0.5212   2332.6001      5.0099    -63.9750
73.4000         175.9250      0.1915    510.0400    101.5500      5.3436    402.7448      0.5241   2346.5000      4.7844    -62.9700
73.6000         180.9000      0.1892    517.5600     98.8500      5.2946    425.6277      0.5457   2328.7000      4.6114    -62.9700
73.8000         182.1250      0.1933    518.1600     99.4500      5.3930    425.6277      0.5509   2341.5000      5.1979    -62.9700
