~VERSION INFORMATION
 VERS.                 2.0:   CWLS LOG ASCII STANDARD -VERSION 2.0
 WRAP.                  NO:   ONE LINE PER DEPTH STEP
~WELL INFORMATION BLOCK
#MNEM.UNIT           DATA                    DESCRIPTION OF MNEMONIC
#---------    -------------------            -------------------------------
# Generated from Intellog Unique Number	CN_94_101/WELL/3642
WELL.         08-25-096-13W4                 : Well_name    - WELL
LOC .         AA/08-25-096-13W4/0            : Location     - LOCATION
UWI .         AA/08-25-096-13W400            : Uwi          - UNIQUE WELL ID
ENTR.         J                              : Entered      - ENTERED BY
SRVC.         SCHLUMBERGER                   : Scn          - SERVICE COMPANY
DATE.         08/05/92                       : Date         - LOG DATE
STRT.F        50                             : top_depth    - START DEPTH
STOP.F        739.797                        : bot_depth    - STOP DEPTH
STEP.F        0.8202                         : increment    - STEP LENGTH
 NULL. -999.2500:NULL Value
~CURVE INFORMATION BLOCK
#MNEM UNIT       ERCB CURVE CODE    CURVE DESCRIPTION
#-----------   ------------------   ----------------------------------
DEPT.F        00 001 00 00         : DEPTH        - DEPTH
ILD .OHMM     00 120 00 00         : RESD         - DEEP RESISTIVITY (DIL)
GR  .API      00 310 00 00         : GR           - GAMMA RAY
DPHI.V/V      00 890 00 00         : PHID         - DENSITY POROSITY (SANDSTONE)
~PARAMETER INFORMATION
#MNEM.UNIT           DATA             DESCRIPTION OF MNEMONIC
#---------         -----------     ------------------------------
GL  .M        0                    : gl           - GROUND LEVEL ELEVATION
EREF.M        0                    : kb           - ELEVATION OF DEPTH REFERENCE
DATM.M        0                    : datum        - DATUM ELEVATION
TDD .M        229.972              : tdd          - TOTAL DEPTH DRILLER
RUN .         ONE                  : Run          - RUN NUMBER
ENG .         JO                   : Engineer     - RECORDING ENGINEER
WIT .         TIM                  : Witness      - WITNESSED BY
MUD .         GEL                  : Mud_type     - MUD TYPE
MATR.         SANDSTONE            : Logunit      - NEUTRON MATRIX
TMAX.F        0                    : BHT          - MAXIMUM RECORDED TEMPERATURE
BHTD.F        754.5                : BHTDEP       - MAXIMUM RECORDED TEMPERATURE
RMT .F        0                    : MDTP         - TEMPERATURE OF MUD
MUDD.LB/G     6.9                  : MWT          - MUD DENSITY
NEUT.         1                    : NEUTRON      - NEUTRON TYPE
RESI.         0                    : RESIST       - RESISTIVITY TYPE
RM  .OHMM     0                    : RM           - RESISTIVITY OF MUD
RMC .OHMM     0                    : RMC          - RESISTIVITY OF MUD CAKE
RMF .OHMM     0                    : RMF          - RESISTIVITY OF MUD FILTRATE
SUFT.F        39.2                 : SUFT         - SURFACE TEMPERATURE
~A  DEPTH     RESD       GR     PHID
   50.000    5.526   90.323    0.296
   50.820    5.743   84.289    0.289
   51.640    5.439   83.098    0.301
   52.461    5.341   93.258    0.293
   53.281    5.152   93.297    0.275
   54.101    5.987   94.138    0.277
   54.921    6.823   96.194    0.299
   55.742    6.460   97.027    0.296
   56.562    5.678   95.034    0.296
   57.382    5.791   91.430    0.309
   58.202    6.019   88.230    0.322
   59.022    5.699   89.483    0.327
   59.843    5.495   90.309    0.299
   60.663    5.502   92.364    0.302
   61.483    6.046   93.633    0.307
   62.303    6.282   92.839    0.303
   63.123    6.286   89.632    0.315
   63.944    6.176   87.242    0.319
   64.764    5.740   88.900    0.291
   65.584    5.854   88.114    0.276
   66.404    5.970   85.708    0.272
   67.224    6.203   85.747    0.265
   68.045    6.326   86.183    0.311
   68.865    6.333   81.356    0.298
   69.685    6.339   83.412    0.297
   70.505    6.348   83.038    0.314
   71.326    6.237   81.863    0.321
   72.146    6.247   81.902    0.316
   72.966    6.250   79.901    0.324
   73.786    6.141   81.559    0.319
   74.606    6.500   81.186    0.328
   75.427    6.632   77.971    0.323
   76.247    6.050   75.168    0.317
   77.067    6.644   84.526    0.328
   77.887    7.164   82.525    0.287
   78.707    7.445   79.731    0.297
   79.528    6.919   78.952    0.307
   80.348    6.312   75.332    0.303
   81.168    5.548   70.910    0.309
   81.988    4.786   74.990    0.301
   82.808    3.979   82.721    0.228
   83.629    3.984   87.206    0.197
   84.449    4.217   88.054    0.242
   85.269    4.463   87.681    0.330
   86.089    4.305   90.951    0.322
   86.909    3.856   91.395    0.324
   87.730    3.517   89.799    0.335
   88.550    3.456   89.020    0.332
   89.370    3.726   88.655    0.324
   90.190    3.800   88.281    0.293
   91.010    3.734   89.527    0.302
   91.831    3.669   89.963    0.316
   92.651    3.742   90.399    0.311
   93.471    3.816   97.321    0.299
   94.291    4.040   94.121    0.298
   95.112    4.197   90.096    0.319
   95.932    4.362   90.532    0.326
   96.752    4.365   89.754    0.331
   97.572    4.289   94.659    0.329
   98.392    4.215   91.038    0.301
   99.213    4.219   88.236    0.296
  100.033    4.304   91.506    0.288
  100.853    4.472   95.181    0.279
  101.673    4.822   94.823    0.304
  102.493    4.827   93.227    0.314
  103.314    4.655   90.837    0.286
  104.134    4.662   91.273    0.297
  104.954    4.843   90.494    0.321
  105.774    5.032   88.906    0.314
  106.594    5.132   87.310    0.288
  107.415    5.136   88.969    0.293
  108.235    4.865   89.413    0.314
  109.055    4.606   86.197    0.334
  109.875    4.280   83.394    0.329
  110.696    3.978   85.855    0.288
  111.516    3.837   81.845    0.273
  112.336    4.061   77.415    0.263
  113.156    4.380   75.827    0.270
  113.976    4.723   80.732    0.300
  114.797    5.091   78.731    0.316
  115.617    5.193   80.382    0.310
  116.437    4.916   83.652    0.282
  117.257    5.301   83.699    0.283
  118.077    5.934   84.540    0.295
  118.898    6.396   82.960    0.304
  119.718    7.158   82.166    0.309
  120.538    8.012   82.602    0.281
  121.358    8.480   83.848    0.274
  122.178    6.668   83.894    0.264
  122.999    5.441   82.306    0.269
  123.819    5.151   83.949    0.279
  124.639    9.522   87.219    0.292
  125.459   13.820   84.822    0.293
  126.280   12.607   66.229    0.293
  127.100    8.548   57.751    0.256
  127.920    7.942   53.733    0.245
  128.740    8.249   59.440    0.298
  129.560    9.064   61.091    0.309
  130.381    8.742   57.883    0.290
  131.201   18.069   55.081    0.284
  132.021   15.586   53.492    0.250
  132.841   12.029   58.795    0.159
  133.661    9.458   60.453    0.207
  134.482   10.198   56.428    0.260
  135.302   15.944   53.221    0.301
  136.122   19.589   54.061    0.302
  136.942   20.727   53.688    0.267
  137.762   21.938   51.298    0.256
  138.583   10.841   52.551    0.244
  139.403    8.367   55.814    0.271
  140.223    7.219   67.999    0.297
  141.043    6.229   73.293    0.305
  141.864    5.577   75.356    0.305
  142.684    6.243   77.007    0.311
  143.504    6.248   79.880    0.305
  144.324    6.256   79.507    0.283
  145.144    6.501   77.513    0.281
  145.965    6.754   73.901    0.292
  146.785    6.635   72.718    0.293
  147.605    6.283   75.178    0.284
  148.425    6.528   76.829    0.280
  149.245    7.171   84.560    0.275
  150.066    7.877   82.567    0.270
  150.886    6.925   77.335    0.265
  151.706    5.865   72.103    0.280
  152.526    5.349   80.232    0.301
  153.346    4.447   85.534    0.301
  154.167    4.291   89.209    0.295
  154.987    4.627   90.058    0.279
  155.807    4.717   88.470    0.272
  156.627    4.722   86.469    0.268
  157.448    4.555   82.856    0.269
  158.268    4.476   89.381    0.280
  159.088    4.917   90.627    0.297
  159.908    5.713   90.253    0.289
  160.728    5.826   87.038    0.284
  161.549    5.619   83.425    0.283
  162.369    5.420   83.059    0.294
  163.189    5.738   87.147    0.294
  164.009    6.073   86.766    0.274
  164.829    6.428   81.939    0.274
  165.650    6.678   78.326    0.297
  166.470    6.810   75.928    0.285
  167.290    6.945   75.150    0.292
  168.110    7.082   79.642    0.305
  168.930    6.831   75.220    0.311
  169.751    5.895   75.251    0.311
  170.571    5.477   85.412    0.308
  171.391    5.483   80.172    0.302
  172.211    6.611   68.058    0.290
  173.031   11.991   63.231    0.274
  173.852   14.192   58.007    0.262
  174.672   16.796   59.245    0.271
  175.492   10.567   78.717    0.309
  176.312    9.115   79.971    0.282
  177.133    6.778   70.698    0.275
  177.953    6.185   70.317    0.302
  178.773    6.546   68.736    0.306
  179.593    7.465   70.784    0.307
  180.413    6.938   74.459    0.303
  181.234    6.096   76.110    0.276
  182.054    5.460   76.958    0.263
  182.874    6.223   73.346    0.284
  183.694    7.786   69.733    0.304
  184.514    8.397   65.724    0.297
  185.335    7.519   66.152    0.307
  186.155    6.489   70.232    0.304
  186.975    6.259   71.081    0.279
  187.795    6.873   72.739    0.278
  188.615    7.277   74.795    0.265
  189.436    7.284   70.770    0.279
  190.256    6.896   75.254    0.313
  191.076    6.062   79.747    0.339
  191.896    6.416   75.730    0.334
  192.717    6.543   76.166    0.308
  193.537    6.312   79.039    0.304
  194.357    7.064   78.260    0.321
  195.177    6.941   78.292    0.312
  195.997    6.215   77.918    0.311
  196.818    6.107   75.520    0.276
  197.638    6.585   71.503    0.296
  198.458    6.843   69.510    0.305
  199.278    5.904   78.861    0.312
  200.098    4.729   83.353    0.301
  200.919    5.099   81.360    0.285
  201.739    7.002   79.764    0.273
  202.559    6.268   75.747    0.247
  203.379    4.661   76.588    0.226
  204.199    3.665   84.724    0.198
  205.020    4.028   92.050    0.213
  205.840    4.108   92.891    0.246
  206.660    4.188   96.567    0.278
  207.480    4.194   99.432    0.266
  208.301    4.198   98.661    0.272
  209.121    4.049   97.486    0.295
  209.941    3.560   97.509    0.293
  210.761    3.370   93.492    0.290
  211.581    3.771   87.458    0.285
  212.402    4.718   89.910    0.270
  213.222    5.186   94.411    0.233
  214.042    5.094   96.864    0.211
  214.862    5.099   96.085    0.259
  215.682    5.298   92.877    0.235
  216.503    5.206   88.455    0.229
  217.323    5.510   83.628    0.273
  218.143    6.641   87.303    0.291
  218.963    7.858   86.120    0.286
  219.783    8.319   80.888    0.293
  220.604    8.484   74.854    0.302
  221.424   10.613   73.671    0.294
  222.244   12.557   69.646    0.289
  223.064   13.797   65.223    0.285
  223.885   12.586   69.311    0.284
  224.705   11.066   76.630    0.277
  225.525   12.613   79.503    0.258
  226.345   14.379   78.320    0.227
  227.165   15.226   77.144    0.253
