~VERSION INFORMATION
 VERS.                 2.0:   CWLS LOG ASCII STANDARD -VERSION 2.0
 WRAP.                  NO:   ONE LINE PER DEPTH STEP
~WELL INFORMATION BLOCK
#MNEM.UNIT           DATA                    DESCRIPTION OF MNEMONIC
#---------    -------------------            -------------------------------
# Generated from Intellog Unique Number	CX_WELLS/WELL/1073
WELL.         07-23-089-08W4                 : Well_name    - WELL
LOC .         AA/07-23-089-08W4/0            : Location     - LOCATION
UWI .         AA/07-23-089-08W400            : Uwi          - UNIQUE WELL ID
ENTR.         RJA                            : Entered      - ENTERED BY
SRVC.         SCHLUMBERGER                   : Scn          - SERVICE COMPANY
STRT.F        50                             : top_depth    - START DEPTH
STOP.F        579.856                        : bot_depth    - STOP DEPTH
STEP.F        0.8202                         : increment    - STEP LENGTH
 NULL. -999.2500:NULL Value
~CURVE INFORMATION BLOCK
#MNEM UNIT       ERCB CURVE CODE    CURVE DESCRIPTION
#-----------   ------------------   ----------------------------------
DEPT.F        00 001 00 00         : DEPTH        - DEPTH
GR  .API      00 310 00 00         : GR           - GAMMA RAY
DPHI.V/V      00 890 00 00         : PHID         - DENSITY POROSITY (SANDSTONE)
ILD .OHMM     00 120 00 00         : RESD         - DEEP RESISTIVITY (DLL)
~PARAMETER INFORMATION
#MNEM.UNIT           DATA             DESCRIPTION OF MNEMONIC
#---------         -----------     ------------------------------
GL  .M        421.398              : gl           - GROUND LEVEL ELEVATION
EREF.M        422.313              : kb           - ELEVATION OF DEPTH REFERENCE
DATM.M        422.313              : datum        - DATUM ELEVATION
TDD .M        183.49               : tdd          - TOTAL DEPTH DRILLER
RUN .         ONE                  : Run          - RUN NUMBER
ENG .         BILL                 : Engineer     - RECORDING ENGINEER
WIT .         JIM                  : Witness      - WITNESSED BY
MUD .         GEL                  : Mud_type     - MUD TYPE
MATR.         SANDSTONE            : Logunit      - NEUTRON MATRIX
TMAX.C        60                   : BHT          - MAXIMUM RECORDED TEMPERATURE
BHTD.M        183.49               : BHTDEP       - MAXIMUM RECORDED TEMPERATURE
MATR.         1                    : LOGUNIT      - NEUTRON MATRIX
RMT .C        25                   : MDTP         - TEMPERATURE OF MUD
NEUT.         1                    : NEUTRON      - NEUTRON TYPE
RESI.         1                    : RESIST       - RESISTIVITY TYPE
RMC .OHMM     0.25                 : RMC          - RESISTIVITY OF MUD CAKE
RMF .OHMM     0.25                 : RMF          - RESISTIVITY OF MUD FILTRATE
SUFT.C        15                   : SUFT         - SURFACE TEMPERATURE
~A  DEPTH       GR     PHID     RESD
# ...
  405.971  118.166    0.260   21.469
  406.791  121.184    0.254   23.538
  407.612  121.169    0.252   22.262
  408.432  115.687    0.245   19.199
  409.252  108.990    0.238   17.828
  410.072  105.937    0.227   20.281
  410.892  107.137    0.217   27.236
  411.713  108.944    0.217   28.776
  412.533  111.966    0.220   26.717
  413.353  115.595    0.223   25.272
  414.173  110.109    0.223   23.467
  414.993  105.842    0.220   47.291
  415.814  100.967    0.220   98.882
  416.634   98.514    0.225  202.977
  417.454  101.544    0.233  549.481
  418.274  108.202    0.235  698.186
  419.094  108.798    0.238  359.229
  419.915  100.279    0.248   83.617
  420.735   85.686    0.284   24.284
  421.555   75.336    0.303   30.292
  422.375   72.288    0.318   36.418
  423.196   70.450    0.316   45.427
  424.016   72.257    0.312   39.182
  424.836   82.568    0.302   31.389
  425.656   91.664    0.292   27.577
  426.476  103.190    0.281   25.139
  427.297  113.500    0.267   25.131
  428.117  102.548    0.262   25.591
  428.937   93.417    0.261   27.035
  429.757   96.439    0.256   29.096
  430.577  101.287    0.244   31.314
  431.398  108.561    0.226   33.705
  432.218  117.649    0.213   34.322
  433.038  116.423    0.209   35.597
  433.858  111.544    0.207   34.292
  434.678  110.921    0.206   33.044
  435.499  110.906    0.208   30.682
  436.319  110.891    0.214   30.674
  437.139  110.871    0.219   71.645
  437.959  110.856    0.225   41.944
  438.780  110.233    0.232   27.943
  439.600  107.792    0.232   23.226
  440.420  103.521    0.232   20.408
  441.240   96.824    0.232   92.606
  442.060   91.949    0.233   85.991
  442.881   97.401    0.235   56.235
  443.701  106.497    0.242   39.595
  444.521  113.767    0.258   32.915
  445.341  111.318    0.271   65.117
  446.161  104.017    0.272  179.561
  446.982   90.638    0.280  300.890
  447.802   85.156    0.287  348.631
  448.622   85.137    0.299  163.571
  449.442   80.870    0.317   54.057
  450.262   63.847    0.334   93.989
  451.083   43.783    0.354  169.559
  451.903   42.549    0.361  361.137
  452.723   48.611    0.341  305.769
  453.543   55.885    0.324  112.879
  454.364   62.551    0.314   78.026
  455.184   46.136    0.304   41.655
  456.004   38.216    0.318   32.762
  456.824   40.630    0.325   28.784
  457.644   45.478    0.320   24.825
  458.465   63.686    0.310   23.918
  459.285   76.426    0.303   23.471
  460.105   86.737    0.302   23.901
  460.925   95.226    0.301   24.340
  461.745  100.070    0.298   25.245
  462.566  103.695    0.290   26.182
  463.386  105.502    0.283   26.665
  464.206  106.090    0.271   26.654
  465.026  105.468    0.273   26.648
  465.846  105.452    0.273   26.153
  466.667  106.044    0.273   26.142
  467.487  106.029    0.273   26.134
  468.307  106.010    0.274   25.180
  469.127  105.994    0.274   23.381
  469.948  105.979    0.273   22.115
  470.768  107.179    0.271   22.105
  471.588  108.986    0.269   21.694
  472.408  112.007    0.268   21.291
  473.228  116.240    0.268   20.897
  474.049  117.440    0.267   19.765
  474.869  118.639    0.266   19.395
  475.689  121.053    0.264   19.387
  476.509  122.860    0.263   19.384
  477.329  124.664    0.261   19.377
  478.150  124.648    0.260   19.370
  478.970  124.637    0.257   19.010
  479.790  124.621    0.254   18.314
  480.610  125.210    0.247   17.647
  481.430  125.798    0.242   17.002
  482.251  126.390    0.242   16.082
  483.071  127.589    0.245   17.307
  483.891  130.000    0.243   18.625
  484.711  130.600    0.238   18.619
  485.531  132.407    0.234   17.612
  486.352  131.776    0.235   16.054
  487.172  128.724    0.240   13.593
  487.992  126.283    0.242   12.165
  488.812  125.052    0.242   13.337
  489.633  126.252    0.241   14.893
  490.453  130.485    0.235   16.631
  491.273  135.329    0.215   20.367
  492.093  140.173    0.205   14.606
  492.913  139.550    0.203   10.283
  493.734  135.283    0.209   10.666
  494.554  123.723    0.220   10.862
  495.374  118.237    0.228   12.354
  496.194  123.084    0.226   14.315
  497.014  135.218    0.217   17.210
  497.835  141.884    0.208   15.119
  498.655  144.902    0.202   14.039
  499.475  144.283    0.206   15.392
  500.295  137.582    0.212   18.848
  501.115  126.633    0.219   21.046
  501.936  119.329    0.227   19.908
  502.756  116.880    0.229   17.489
  503.576  118.683    0.219   16.850
  504.396  119.275    0.221   16.537
  505.217  116.226    0.225   15.933
  506.037  108.918    0.230   14.795
  506.857  107.692    0.235   13.738
  507.677  107.669    0.237   12.757
  508.497  109.480    0.236   12.752
  509.318  115.538    0.230   14.505
  510.138  122.205    0.218   18.774
  510.958  130.086    0.205   22.990
  511.778  134.323    0.194   19.467
  512.598  137.948    0.183   16.481
  513.419  137.325    0.192   16.175
  514.239  111.191    0.208   14.746
  515.059   99.634    0.224   13.443
  515.879   92.933    0.240   12.029
  516.699  100.807    0.243   12.710
  517.520  102.014    0.236   15.280
  518.340  106.247    0.231   18.712
  519.160  108.665    0.221   19.407
  519.980  112.290    0.210   19.763
  520.801  106.808    0.218   20.881
  521.621   85.533    0.240   32.501
  522.441   80.659    0.260   57.561
  523.261   67.276    0.287   55.458
  524.081   44.786    0.302   37.634
  524.902   36.874    0.311   31.866
  525.722   36.248    0.313   34.296
  526.542   40.484    0.308   33.653
  527.362   47.758    0.304   34.910
  528.182   59.891    0.300   46.025
  529.003   80.528    0.295   57.411
  529.823   91.446    0.288   53.310
  530.643   92.646    0.274   68.999
  531.463   79.267    0.256  103.499
  532.283   55.559    0.242  146.901
  533.104   36.106    0.230  260.170
  533.924   26.368    0.281  301.426
  534.744   22.097    0.306  269.778
  535.564   20.259    0.320  245.929
  536.385   19.029    0.324  236.927
  537.205   19.014    0.318  212.035
  538.025   18.391    0.315  182.884
  538.845   18.983    0.305  146.520
  539.665   19.575    0.294   70.024
  540.486   21.382    0.290   51.157
  541.306   23.189    0.283   40.982
  542.126   25.603    0.285   36.009
  542.946   28.625    0.285   28.847
  543.766   31.035    0.278   25.342
  544.587   31.628    0.271   24.416
  545.407   31.612    0.263   24.410
  546.227   30.378    0.246   25.320
  547.047   29.759    0.258   28.270
  547.867   25.484    0.281   35.924
  548.688   24.254    0.291   35.913
  549.508   24.239    0.304   29.307
  550.328   26.042    0.304   26.717
  551.148   27.249    0.304   29.830
  551.969   27.234    0.302   26.210
  552.789   27.215    0.298   20.998
  553.609   29.021    0.294   17.455
  554.429   30.825    0.275   14.780
  555.249   32.024    0.271   12.747
  556.070   32.620    0.270   14.235
  556.890   36.245    0.270   16.192
  557.710   41.090    0.269   14.761
  558.530   44.719    0.264   13.960
  559.350   44.096    0.262   16.783
  560.171   41.044    0.264   18.742
  560.991   38.595    0.268   17.403
  561.811   38.575    0.269   15.575
  562.631   38.560    0.271   14.462
  563.451   39.152    0.273   13.427
  564.272   42.174    0.274   13.674
  565.092   45.803    0.273   15.270
  565.912   50.044    0.268   18.699
  566.732   58.532    0.263   27.035
  567.552   74.913    0.242   22.892
  568.373  117.422    0.220   14.428
  569.193  128.947    0.158   19.022
  570.013  115.565    0.111   33.073
  570.833  110.083    0.029   36.257
  571.654  106.423    0.002   29.589
  572.474   94.866   -0.001   25.992
  573.294   81.484   -0.000   24.585
  574.114   71.142    0.002   20.819
  574.934   68.697    0.006   19.692
  575.755   71.719    0.012   25.021
  576.575   78.385    0.019   24.105
  577.395   83.829    0.024   21.571
  578.215   85.033    0.030   17.605
  579.035   85.017    0.033   15.755
  579.856   86.824    0.035   16.645
