~VERSION INFORMATION
 VERS.                 2.0:   CWLS LOG ASCII STANDARD -VERSION 2.0
 WRAP.                  NO:   ONE LINE PER DEPTH STEP
~WELL INFORMATION BLOCK
#MNEM.UNIT           DATA                    DESCRIPTION OF MNEMONIC
#---------    -------------------            -------------------------------
# Generated from Intellog Unique Number	CX_WELLS/WELL/2645
NULL.         -999.25                        : NULL_VALUE
WELL.         ARCO ACI MCMURRAY OV           : Well_name    - WELL              
LOC .         07-26-080-10W4                 : Location     - LOCATION          
UWI .         AA/07-26-080-10W400            : Uwi          - UNIQUE WELL ID    
ENTR.         T                              : Entered      - ENTERED BY        
SRVC.         SCHLUMBERGER                   : Scn          - SERVICE COMPANY   
DATE.         19 JAN 76                      : Date         - LOG DATE
STRT.F        800                            : top_depth    - START DEPTH       
STOP.F        1549.67                        : bot_depth    - STOP DEPTH        
STEP.F        0.82                           : increment    - STEP LENGTH       
~CURVE INFORMATION BLOCK
#MNEM UNIT       ERCB CURVE CODE    CURVE DESCRIPTION
#-----------   ------------------   ----------------------------------
DEPT.F        00 001 00 00         : DEPTH        - DEPTH                       
GR  .API      00 310 00 00         : GR           - GAMMA RAY                   
NPHI.V/V      00 330 00 00         : PHIN         - NEUTRON POROSITY (SANDSTONE)
ILD .OHMM     00 120 00 00         : RESD         - DEEP RESISTIVITY (DIL)      
~PARAMETER INFORMATION       
#MNEM.UNIT           DATA             DESCRIPTION OF MNEMONIC
#---------         -----------     ------------------------------
GL  .F        2280                 : gl           - GROUND LEVEL ELEVATION      
EREF.F        2289                 : kb           - ELEVATION OF DEPTH REFERENCE
DATM.F        2289                 : datum        - DATUM ELEVATION             
TDD .F        1556                 : tdd          - TOTAL DEPTH DRILLER         
RUN .         ONE                  : Run          - RUN NUMBER                  
ENG .         BILL                 : Engineer     - RECORDING ENGINEER          
WIT .         JIM                  : Witness      - WITNESSED BY                
MUD .         GEL                  : Mud_type     - MUD TYPE                    
MATR.         SANDSTONE            : Logunit      - NEUTRON MATRIX              
TMAX.F        77                   : BHT          - MAXIMUM RECORDED TEMPERATURE
BHTD.F        1556                 : BHTDEP       - MAXIMUM RECORDED TEMPERATURE
MATR.         1                    : LOGUNIT      - NEUTRON MATRIX              
RMT .F        77                   : MDTP         - TEMPERATURE OF MUD          
NEUT.         1                    : NEUTRON      - NEUTRON TYPE                
RESI.         0                    : RESIST       - RESISTIVITY TYPE            
RMC .OHMM     6                    : RMC          - RESISTIVITY OF MUD CAKE     
RMF .OHMM     6                    : RMF          - RESISTIVITY OF MUD FILTRATE 
SUFT.F        32                   : SUFT         - SURFACE TEMPERATURE         
~A  DEPTH       GR     PHIN     RESD
# ...
  977.986   90.004    0.420    4.658
  978.806   91.277    0.419    4.506
  979.626   93.197    0.419    4.438
  980.446   93.301    0.417    4.224
  981.266   93.364    0.417    4.012
  982.087   92.842    0.416    3.818
  982.907   91.736    0.416    3.769
  983.727   90.609    0.411    3.854
  984.547   88.272    0.395    4.017
  985.367   86.540    0.360    4.103
  986.188   86.624    0.315    4.196
  987.008   89.128    0.289    4.217
  987.828   91.048    0.284    4.083
  988.648   91.736    0.362    4.022
  989.469   90.609    0.426    3.970
  990.289   90.714    0.436    3.910
  991.109   92.592    0.451    3.930
  991.929   93.281    0.462    3.950
  992.749   89.733    0.460    4.118
  993.570   86.811    0.460    4.279
  994.390   88.731    0.462    4.465
  995.210   91.235    0.467    4.649
  996.030   93.114    0.476    4.673
  996.850   95.618    0.481    4.683
  997.671   96.932    0.487    4.543
  998.491   99.478    0.495    4.170
  999.311   99.520    0.498    3.885
 1000.130   99.624    0.501    3.690
 1000.950   99.708    0.505    3.386
 1001.770   97.976    0.508    3.286
 1002.590   93.823    0.510    3.233
 1003.410   86.644    0.508    3.428
 1004.230   69.762    0.502    4.133
 1005.050   52.275    0.476    4.888
 1005.870   39.670    0.441    6.580
 1006.690   39.149    0.401    7.376
 1007.510   38.627    0.396    7.414
 1008.330   37.479    0.404    7.303
 1009.150   36.352    0.436    7.201
 1009.970   37.646    0.477    7.100
 1010.790   38.961    0.510    7.129
 1011.610   40.276    0.446    7.037
 1012.430   41.569    0.375    7.065
 1013.250   42.905    0.373    7.094
 1014.070   42.947    0.377    7.009
 1014.900   43.030    0.378    7.031
 1015.720   42.508    0.376    7.060
 1016.540   42.008    0.375    6.968
 1017.360   42.112    0.375    6.990
 1018.180   42.195    0.372    7.033
 1019.000   42.905    0.371    7.047
 1019.820   42.947    0.368    7.083
 1020.640   43.030    0.367    7.112
 1021.460   43.155    0.368    7.134
 1022.280   43.865    0.368    7.041
 1023.100   43.948    0.369    7.085
 1023.920   44.658    0.373    7.107
 1024.740   44.720    0.387    7.007
 1025.560   44.783    0.394    7.036
 1026.380   45.472    0.392    6.937
 1027.200   46.765    0.387    6.973
 1028.020   45.033    0.390    6.882
 1028.840   44.553    0.391    6.896
 1029.660   44.616    0.394    6.925
 1030.480   44.720    0.399    6.835
 1031.300   45.409    0.401    6.870
 1032.120   46.703    0.404    6.898
 1032.940   47.392    0.408    6.802
 1033.760   48.080    0.408    6.699
 1034.580   48.790    0.408    6.606
 1035.400   48.873    0.410    6.646
 1036.220   48.351    0.410    6.674
 1037.040   47.224    0.411    6.573
 1037.860   45.534    0.409    6.481
 1038.680   44.971    0.409    6.397
 1039.500   44.449    0.407    6.430
 1040.320   43.927    0.402    6.347
 1041.140   44.637    0.401    6.360
 1041.960   45.952    0.403    6.271
 1042.780   46.619    0.405    6.189
 1043.600   49.165    0.406    6.109
 1044.420   50.480    0.409    6.128
 1045.240   51.127    0.412    6.054
 1046.060   51.210    0.402    6.067
 1046.880   51.294    0.399    6.098
 1047.700   50.814    0.402    6.123
 1048.520   49.708    0.405    6.142
 1049.340   49.144    0.407    6.068
 1050.160   47.433    0.407    6.093
 1050.980   47.517    0.400    6.008
 1051.800   47.642    0.401    6.032
 1052.620   47.684    0.401    6.051
 1053.440   47.767    0.399    6.088
 1054.270   47.851    0.397    6.107
 1055.090   46.745    0.394    6.138
 1055.910   45.618    0.392    6.276
 1056.730   43.907    0.390    6.296
 1057.550   42.780    0.389    6.444
 1058.370   41.048    0.388    6.596
 1059.190   37.479    0.386    6.616
 1060.010   35.768    0.383    6.890
 1060.830   34.620    0.378    7.052
 1061.650   33.514    0.364    7.211
 1062.470   33.577    0.312    7.516
 1063.290   32.492    0.296    7.686
 1064.110   33.201    0.260    7.717
 1064.930   34.474    0.144    7.757
 1065.750   35.747    0.066    7.781
 1066.570   38.877    0.004    7.813
 1067.390   40.776   -0.014    7.703
 1068.210   39.670   -0.002    7.466
 1069.030   37.938    0.003    7.236
 1069.850   36.811    0.255    7.128
 1070.670   36.310    0.382    6.909
 1071.490   36.373    0.387    6.930
 1072.310   36.498    0.390    6.716
 1073.130   36.540    0.392    6.751
 1073.950   36.623    0.392    6.650
 1074.770   36.728    0.393    6.806
 1075.590   37.416    0.393    6.597
 1076.410   38.105    0.393    6.498
 1077.230   38.189    0.393    6.525
 1078.050   38.293    0.392    6.551
 1078.870   38.397    0.392    6.585
 1079.690   38.460    0.392    6.605
 1080.510   39.149    0.393    6.639
 1081.330   39.232    0.395    6.660
 1082.150   38.752    0.399    6.701
 1082.970   38.815    0.404    6.721
 1083.790   38.314    0.411    6.763
 1084.610   38.418    0.413    6.783
 1085.430   39.065    0.414    6.818
 1086.250   39.190    0.415    6.839
 1087.070   39.253    0.415    6.839
 1087.890   38.126    0.415    7.297
 1088.710   37.604    0.414    7.446
 1089.530   37.709    0.415    7.484
 1090.350   38.418    0.415    7.653
 1091.170   39.733    0.415    7.833
 1091.990   41.006    0.415    8.010
 1092.810   42.300    0.415    8.043
 1093.640   43.009    0.414    8.076
 1094.460   43.093    0.412    8.109
 1095.280   43.176    0.411    8.292
 1096.100   42.675    0.411    8.326
 1096.920   42.154    0.411    8.377
 1097.740   42.258    0.412    8.411
 1098.560   42.300    0.413    8.293
 1099.380   42.383    0.415    8.177
 1100.200   42.508    0.417    8.063
 1101.020   43.218    0.418    7.942
 1101.840   43.865    0.420    7.713
 1102.660   43.948    0.424    7.590
 1103.480   45.263    0.425    7.484
 1104.300   46.578    0.427    7.122
 1105.120   47.245    0.427    7.023
 1105.940   47.934    0.427    6.932
 1106.760   48.017    0.424    6.828
 1107.580   48.143    0.421    6.739
 1108.400   48.205    0.420    6.638
 1109.220   48.331    0.423    6.545
 1110.040   48.998    0.426    6.460
 1110.860   49.666    0.429    6.369
 1111.680   50.981    0.431    6.389
 1112.500   52.316    0.430    6.306
 1113.320   52.963    0.430    6.218
 1114.140   54.904    0.430    6.250
 1114.960   56.803    0.430    6.175
 1115.780   59.307    0.435    6.194
 1116.600   63.022    0.440    6.095
 1117.420   67.341    0.446    6.120
 1118.240   74.124    0.452    5.616
 1119.060   78.464    0.457    4.871
 1119.880   80.321    0.459    3.652
 1120.700   85.267    0.461    2.741
 1121.520   87.166    0.462    2.297
 1122.340   88.502    0.463    2.144
 1123.160   88.606    0.465    2.072
 1123.980   88.669    0.471    2.160
 1124.800   88.147    0.475    2.290
 1125.620   87.625    0.485    2.476
 1126.440   87.103    0.498    2.628
 1127.260   87.208    0.504    2.687
 1128.080   87.291    0.495    2.698
 1128.900   88.606    0.491    2.712
 1129.720   89.274    0.490    2.723
 1130.540   89.378    0.496    2.682
 1131.360   85.810    0.500    2.459
 1132.190   80.447    0.504    2.255
 1133.010   77.504    0.503    2.032
 1133.830   74.562    0.496    1.897
 1134.650   72.830    0.486    1.837
 1135.470   71.118    0.474    1.843
 1136.290   71.202    0.458    1.884
 1137.110   71.870    0.426    2.074
 1137.930   75.000    0.417    2.409
 1138.750   78.109    0.390    3.123
 1139.570   83.055    0.362    3.635
 1140.390   87.396    0.331    3.152
 1141.210   90.526    0.260    2.787
 1142.030   92.404    0.091    2.422
 1142.850   94.929    0.032    2.340
 1143.670   96.223    0.067    2.145
 1144.490   98.748    0.103    2.040
 1145.310  100.021    0.517    1.941
 1146.130  101.941    0.518    1.881
 1146.950  103.840    0.522    1.789
 1147.770  105.760    0.525    1.762
 1148.590  107.053    0.531    1.650
 1149.410  107.137    0.539    1.624
 1150.230  106.010    0.543    1.544
 1151.050  104.925    0.550    1.495
 1151.870  104.382    0.553    1.447
 1152.690  103.255    0.558    1.400
 1153.510  102.734    0.560    1.407
 1154.330  101.023    0.561    1.440
 1155.150   99.916    0.562    1.500
