~Version : LASO    vs 4.00
VERS.                2.00:   CWLS Log ASCII Standard -VERSION 2.0
WRAP.                  NO:
~Well Information Block
#MNEM.UNIT       Data                        Description of Mnemonic
#----.----      -------------------------- : -----------------------------
STRT.M            13.0000:
STOP.M           191.0000:
STEP.M             0.2000:
NULL.           -999.2500:
COMP.  MOBIL OIL OF CANADA          :COMPANY
WELL.  MOBIL CLARKE OV 4-1          :WELL
FLD.                                :FIELD
LOC.   04-01-091-08W4               :LOCATION
CTRY.  CANADA                       :COUNTRY
PROV.  ALBERTA                      :PROVINCE
SRVC.  SCHLUMBERGER                 :SERVICE COMPANY
DATE.  12-FEB-81                    :LOG DATE
UWI.   AA/04-01-091-08W400          :UNIQUE WELL ID
~Parameter Information Block
#MNEM.UNIT       Data                        Description of Mnemonic
#----.----      -------------------------- : -----------------------------
RUN .                   1                 : Run Number
GL  .M           444.1000                 : Ground Level Elevation
DREF.                  GD                 : Depth Reference
EREF.M           444.1000                 : Elevation of Depth Reference
TDL .M           191.5000                 : Total Depth Logger
TDD .M           192.0000                 : Total Depth Driller
CSGL.M            15.0000                 : Casing Bottom Logger
CSGD.M            15.0000                 : Casing Bottom Driller
CSGS.MM          179.0000                 : Casing Size
CSGW.KG/M          0.0000                 : Casing Weight
BHT .DEGC         12.0000                 : Bottom Hole Temperature
BS  .MM          158.0000                 : Bit Size
DFD .           1080.0000                 : Mud Weight (Density)
DFV .             85.0000                 : Mud Viscosity
DFPH.             12.6000                 : Mud pH
~Curve Information Block
#MNEM.UNIT        API CODE    Curve Description
#---------    ------------    -------------------------------------------
DEPT.M                    :   DEPTH
CALI.MM       42 280  1  1:   3 DENSITY CALIPER
DPHI.V/V                  :   DPHI
DT  .US/M     60 520  0  1:   2 SONIC INTERVAL TRANSIT TIME (COMPENSATED)
GR  .GAPI     42 310  1  1:   4 GAMMA RAY
ILD .OHMM      5 120 46  1:   7 DEEP INDUCTION
ILM .OHMM      5 120 44  1:   8 MEDIUM INDUCTION
NPHI.V/V      42 890  3  1:   5 NEUTRON POROSITY (SANDSTONE)
RHOB.K/M3     42 350  1  1:   6 BULK DENSITY
SFLU.OHMM      5 220  1  1:   9 FOCUSSED RESISTIVITY
SP  .MV        5  10  1  1:   10 SPONTANEOUS POTENTIAL
~A  Depth           CALI        DPHI          DT          GR         ILD         ILM        NPHI        RHOB        SFLU          SP
# ...
74.0000         174.7000      0.1937    518.1600    100.8450      5.4933    410.2324      0.5513   2365.3000      5.4933    -63.2100
74.2000         174.7000      0.1901    513.0800    102.8550      5.6472    381.0921      0.5299   2320.7000      6.4838    -64.2150
74.4000         174.7000      0.1803    507.6800    102.7500      5.7521    391.7689      0.5171   2314.8000      6.7894    -64.2150
74.6000         175.9250      0.1988    502.0400    100.9500      5.8591    425.6277      0.5097   2356.3999      6.6043    -64.2150
74.8000         177.1750      0.2074    499.6400     99.1500      6.0232    417.8592      0.5052   2324.7000      5.5954    -63.9750
75.0000         178.4250      0.1962    504.6000     99.2550      6.0790    402.7448      0.5261   2291.0000      5.3436    -63.7200
75.2000         183.3750      0.2069    509.2400     99.1500      6.1920    399.0524      0.5344   2287.1001      5.4933    -63.4650
75.4000         184.6000      0.2211    510.6000     97.5450      6.4244    437.5522      0.4974   2306.8999      6.9156    -63.9750
75.6000         180.9000      0.2206    509.6800     95.2500      6.4244    410.2324      0.5015   2316.8000      7.5828    -64.4700
75.8000         175.9250      0.2163    507.9600     95.2500      6.4244    395.3939      0.4982   2336.6001      8.3144    -64.7250
76.0000         183.3750      0.2103    504.7200    100.7550      6.3071    381.0921      0.4963   2338.6001      7.8674    -63.4650
76.2000         182.1250      0.2008    504.1200    104.4600      6.0790    399.0524      0.5011   2328.7000      6.7271    -63.2100
76.4000         180.9000      0.1953    504.5200    109.8600      5.8591    417.8592      0.5052   2341.5000      5.8054    -63.2100
76.6000         178.4250      0.1984    507.2800    112.6650      5.5954    402.7448      0.5114   2354.3999      4.9640    -63.2100
76.8000         179.6500      0.1877    515.4000    106.4550      5.2946    414.0282      0.5344   2321.7000      4.9640    -63.2100
77.0000         179.6500      0.1914    516.7200    101.6550      5.4429    395.3939      0.5352   2320.7000      4.6971    -63.2100
77.2000         178.4250      0.2005    518.2000     96.6450      5.7521    402.7448      0.5315   2336.6001      3.9795    -63.7200
77.4000         177.1750      0.1998    521.5200     90.7350      6.1352    410.2324      0.5136   2322.7000      5.1503    -65.4750
77.6000         177.1750      0.1986    521.1600     88.8300      6.3071    406.4713      0.4873   2301.8999      8.7062    -66.4800
77.8000         172.2250      0.2069    517.9600     88.9350      6.4244    402.7448      0.4673   2312.8000     12.4690    -67.4850
78.0000         174.7000      0.2139    500.4000     93.4350      7.0442    388.1771      0.4645   2354.3999      7.8674    -64.9650
78.2000         175.9250      0.1962    492.4800     94.6500      7.2415    410.2324      0.4789   2382.1001      5.8054    -63.7200
78.4000         177.1750      0.1694    488.9200     94.4400      7.3085    410.2324      0.4921   2401.8999      5.2946    -63.9750
78.6000         173.4500      0.1645    494.0800     94.2450      7.1751    402.7448      0.4737   2326.7000      7.2415    -65.4750
78.8000         170.9750      0.1810    495.0000     94.6500      7.3085    399.0524      0.4719   2306.8999      7.8674    -65.9700
79.0000         170.9750      0.1999    494.0000     94.7400      7.4444    414.0282      0.4801   2323.7000      8.3913    -66.2250
79.2000         170.9750      0.1961    485.4800     95.7450      7.4444    410.2324      0.4659   2320.7000     10.0886    -66.4800
79.4000         170.9750      0.2038    484.2800     99.4500      7.3762    406.4713      0.4626   2325.7000     10.0886    -65.4750
79.6000         170.9750      0.2027    485.2000     99.9450      7.3762    421.7256      0.4712   2315.8000      8.0878    -64.4700
79.8000         172.2250      0.2086    488.8800     98.2500      7.4444    381.0921      0.4842   2316.8000      6.3655    -62.9700
80.0000         170.9750      0.2128    506.4400     93.7500      7.7952    417.8592      0.5183   2299.0000      5.6994    -63.4650
80.2000         172.2250      0.2167    508.0800     88.4400      8.0878    425.6277      0.5163   2301.8999      5.9680    -64.9650
80.4000         170.9750      0.2196    507.6800     83.4300      8.3913    406.4713      0.5015   2288.1001      7.5133    -67.2300
80.6000         170.9750      0.2213    500.8800     80.6250      9.3720    399.0524      0.4764   2291.0000     19.2234    -70.7400
80.8000         170.9750      0.2269    497.4000     82.0350      9.9961    410.2324      0.4797   2291.0000     22.8997    -70.7400
81.0000         170.9750      0.2221    493.8400     83.4300     10.8600    406.4713      0.4914   2293.0000     17.8579    -69.7350
81.2000         169.7500      0.2149    498.2800     84.6300     11.5832    395.3939      0.5046   2312.8000     10.4672    -69.2400
81.4000         169.7500      0.2166    502.2800     86.4300     11.5832    402.7448      0.5000   2293.0000     12.7008    -69.7350
81.6000         169.7500      0.2244    503.5200     86.8350     11.5832    381.0921      0.4849   2281.1001     16.4373    -69.9900
81.8000         168.5000      0.2261    499.6800     81.8250     12.2414    406.4713      0.4856   2293.0000     13.1774    -68.9850
82.0000         169.7500      0.2212    495.9200     79.4250     12.7008    410.2324      0.4850   2304.8999     14.7174    -68.9850
82.2000         169.7500      0.2237    489.7200     77.7300     13.1774    414.0282      0.4705   2354.3999     18.6995    -68.9850
82.4000         170.9750      0.2372    451.7600     81.9300     13.2993    399.0524      0.4634   2469.3000     18.1899    -70.2300
82.6000         170.9750      0.2494    434.6800     81.2250     12.8183    399.0524      0.4793   2344.5000     17.2119    -70.9950
82.8000         169.7500      0.2570    438.6400     82.9350     11.5832    414.0282      0.4789   2218.8000     18.6995    -71.2350
83.0000         169.7500      0.2638    464.6800     88.5300     10.3712    406.4713      0.4690   2223.7000     21.6686    -70.7400
83.2000         170.9750      0.2704    506.9200     97.5450      8.4690    417.8592      0.4805   2255.3999      9.9961    -65.4750
83.4000         174.7000      0.2430    508.3600    100.6500      7.7238    381.0921      0.4941   2309.8000      6.3071    -62.7150
83.6000         178.4250      0.2276    510.4400    103.0500      6.9796    388.1771      0.5105   2322.7000      5.5441    -61.4550
83.8000         179.6500      0.2058    521.6000    104.4600      5.7521    402.7448      0.5301   2316.8000      5.6472    -61.4550
84.0000         178.4250      0.2091    522.8800    105.8550      5.3930    402.7448      0.5395   2319.7000      5.8591    -61.4550
84.2000         177.1750      0.2149    523.0000    105.8550      5.1979    417.8592      0.5418   2310.8000      5.2946    -61.2150
84.4000         175.9250      0.2163    524.2800    106.5600      5.0563    417.8592      0.5813   2302.8999      4.2056    -60.9600
84.6000         177.1750      0.2141    526.6801    106.1550      5.1031    433.5407      0.5710   2314.8000      4.4446    -60.9600
84.8000         179.6500      0.2110    528.0000    105.5550      5.1503    417.8592      0.5459   2314.8000      4.6114    -61.2150
85.0000         178.4250      0.2161    527.9600     98.2500      5.4429    425.6277      0.5375   2308.8999      5.1031    -61.4550
85.2000         178.4250      0.2226    526.2800     94.6500      5.6472    377.5982      0.5504   2298.0000      5.9680    -62.4600
85.4000         177.1750      0.2295    524.0000     93.5400      5.9133    391.7689      0.5430   2283.1001      7.2415    -62.9700
85.6000         174.7000      0.2383    519.3600     93.4350      6.6043    410.2324      0.5309   2255.3999      6.2493    -63.7200
85.8000         173.4500      0.2385    518.6400     92.7450      6.7894    399.0524      0.5326   2255.3999      6.4244    -64.9650
86.0000         170.9750      0.2374    519.0800     92.3400      6.9156    395.3939      0.5266   2258.3999      7.5828    -65.9700
