~Version : LASO    vs 4.00
VERS.                2.00:   CWLS Log ASCII Standard -VERSION 2.0
WRAP.                  NO:
~Well Information Block
#MNEM.UNIT       Data                        Description of Mnemonic
#----.----      -------------------------- : -----------------------------
STRT.M            15.0000:
STOP.M           186.3750:
STEP.M             0.1250:
NULL.           -999.2500:
COMP.  MOBIL OIL OF CANADA                :COMPANY
WELL.  MOBIL CLARKE OV 2-19               :WELL
FLD.                                      :FIELD
LOC.   02-19-090-07W4                     :LOCATION
CTRY.  CANADA                             :COUNTRY
PROV.  ALBERTA                            :PROVINCE
SRVC.  DRESSER ATLAS                      :SERVICE COMPANY
DATE.  24-FEB-81                          :LOG DATE
UWI.   AA/02-19-090-07W400                :UNIQUE WELL ID
~Parameter Information Block
#MNEM.UNIT       Data                        Description of Mnemonic
#----.----      -------------------------- : -----------------------------
RUN .                   1                 : Run Number
GL  .M           444.6000                 : Ground Level Elevation
DREF.                  KB                 : Depth Reference
EREF.M           444.6000                 : Elevation of Depth Reference
TDL .M           186.3000                 : Total Depth Logger
TDD .M           185.0000                 : Total Depth Driller
CSGL.M            14.7000                 : Casing Bottom Logger
CSGD.M            14.7000                 : Casing Bottom Driller
CSGS.MM          219.0000                 : Casing Size
CSGW.KG/M          0.0000                 : Casing Weight
BHT .DEGC         20.0000                 : Bottom Hole Temperature
BS  .MM          159.0000                 : Bit Size
DFD .           9999.0000                 : Mud Weight (Density)
DFV .             90.0000                 : Mud Viscosity
RM  .OHMM          2.5000                 : Mud Resistivity
RMT .DEGC         20.0000                 : Mud Resistivity Temperature
~Curve Information Block
#MNEM.UNIT        API CODE    Curve Description
#---------    ------------    -------------------------------------------
DEPT.M                    :   DEPTH
CALI.MM       42 280  1  1:   3 DENSITY CALIPER
DPHI.V/V                  :   DPHI
DT  .US/M     60 520 32  1:   2 SONIC INTERVAL TRANSIT TIME (COMPENSATED)
GR  .GAPI     42 310  1  1:   4 GAMMA RAY
ILD .OHMM      5 120 45  1:   7 DEEP INDUCTION
NPHI.V/V      42 890  3  1:   5 NEUTRON POROSITY (SANDSTONE)
RHOB.K/M3     42 350  1  1:   6 BULK DENSITY
SN  .OHMM      5  40 16  1:   8 SHORT NORMAL
SP  .MV        5  10  1  1:   9 SPONTANEOUS POTENTIAL
~A  Depth           CALI        DPHI          DT          GR         ILD        NPHI        RHOB          SN          SP
# ...
65.2500         223.5250      0.2396    614.6400     79.8000     10.2650      0.3506   2235.3999     15.0150    -50.1750
65.3750         224.1250      0.2462    617.9200     81.4500      9.2350      0.3634   2250.7000     15.7450    -50.5500
65.5000         225.6250      0.2413    618.3200     83.8050      8.3300      0.3653   2265.8999     15.7450    -50.8350
65.6250         226.8500      0.2360    621.0800     84.5400      8.0050      0.3717   2272.6001     16.6000    -50.8650
65.7500         226.5500      0.2333    623.2400     85.2750      7.9400      0.3754   2253.1001     16.1700    -50.9100
65.8750         225.0250      0.2404    617.3200     86.4750      7.9400      0.4096   2226.3000     14.4050    -51.4350
66.0000         222.3250      0.2546    608.6000     86.3100      7.9400      0.4400   2169.6001     13.1850    -51.5700
66.1250         221.4250      0.2736    585.7600     86.1600      8.0050      0.4655   2134.2000     13.3650    -52.2000
66.2500         219.9250      0.3001    605.3200     85.9950      8.1350      0.4715   2142.1001     13.4900    -52.8450
66.3750         219.9250      0.3040    653.0400     88.0950      8.3300      0.4688   2136.6001     13.6100    -52.9350
66.5000         219.6250      0.3029    653.5200     89.4750      8.7800      0.4730   2130.5000     14.1000    -53.5050
66.6250         219.9250      0.2993    645.2800     90.9750      9.3600      0.4741   2146.3999     14.3400    -53.5350
66.7500         219.6250      0.3069    622.4400     90.6150     10.3950      0.4816   2158.0000     15.0750    -54.1800
66.8750         219.6250      0.3073    659.0400     90.2100     11.2350      0.4718   2167.7000     15.8650    -54.4350
67.0000         219.9250      0.3032    652.5200     89.8050     12.0100      0.4745   2161.0000     16.6000    -55.4400
67.1250         219.9250      0.3053    645.2000     88.8000     12.9750      0.4730   2148.8000     18.7950    -55.4700
67.2500         220.5250      0.3117    690.0000     86.2350     14.1400      0.4621   2137.8999     22.2700    -55.5150
67.3750         221.7250      0.3214    729.8000     83.6700     14.7850      0.4673   2119.6001     23.6100    -55.1700
67.5000         222.0250      0.3279    748.9200     81.1050     15.0450      0.4655   2095.8000     23.1250    -55.5750
67.6250         221.7250      0.3361    751.2000     76.6350     15.0450      0.4617   2087.2000     27.5150    -57.3000
67.7500         221.1250      0.3422    751.6400     72.2850     14.7850      0.4471   2086.6001     35.9900    -58.0500
67.8750         219.3250      0.3463    763.3200     68.8650     14.4000      0.4336   2090.3000     36.2950    -57.4950
68.0000         216.6000      0.3537    782.5200     65.1600     14.1400      0.4250   2079.3000     27.8800    -55.0950
68.1250         214.8000      0.3574    805.9200     61.3350     13.9450      0.4175   2080.5000     20.0750    -51.6300
68.2500         213.9000      0.3487    829.2800     62.0250     13.8800      0.4152   2063.5000     15.9250    -50.3400
68.3750         211.1750      0.3444    844.0000     62.9100     13.9450      0.3987   2050.7000     17.1450    -50.3700
68.5000         211.1750      0.3405    847.7200     65.8800     14.3350      0.3953   2062.2000     18.1250    -50.4150
68.6250         210.5750      0.3391    852.1600     69.1800     15.0450      0.3871   2082.3999     17.7550    -50.7450
68.7500         209.9750      0.3348    866.6800     73.7400     15.9450      0.3781   2102.5000     18.7300    -51.4050
68.8750         211.1750      0.3325    872.3200     76.8600     16.9150      0.3713   2110.3999     21.4750    -52.4100
69.0000         214.2000      0.3301    879.3600     78.3450     18.1400      0.3758   2097.0000     29.8900    -54.8550
69.1250         216.0000      0.3258    892.0800     74.6700     19.8850      0.3754   2106.2000     46.7800    -56.8650
69.2500         217.5000      0.3217    866.9600     73.4400     22.4700      0.3706   2113.5000     62.8000    -58.1700
69.3750         218.1000      0.3229    865.6000     69.6150     24.2750      0.3451   2111.6001     66.2000    -58.4700
69.5000         217.8000      0.3394    874.8800     64.2000     26.5350      0.3346   2104.8999     62.7500    -58.9200
69.6250         217.5000      0.3597    881.4800     56.4750     28.6000      0.3176   2071.3999     48.9750    -58.0950
69.7500         217.2000      0.4022    893.2400     51.2400     29.5700      0.3030   2026.9000     39.0350    -57.3600
69.8750         215.4000      0.4183    897.9200     48.3450     29.8300      0.2678   1991.0000     34.6450    -57.3900
70.0000         213.9000      0.4223    846.0800     49.5000     29.3750      0.2546   1958.6001     34.9500    -57.4200
70.1250         213.6000      0.4191    835.7200     50.5350     26.8600      0.2482   1944.6001     34.7700    -56.9100
70.2500         213.6000      0.4093    822.0800     51.5700     22.4700      0.2471   1954.9000     32.1450    -56.2800
70.3750         214.2000      0.3891    789.7600     52.6350     17.6250      0.2681   1964.7000     28.2450    -54.5550
70.5000         214.5000      0.3755    786.6800     53.8050     14.9800      0.2839   1976.9000     28.0000    -53.9400
70.6250         214.5000      0.3637    801.2000     54.8400     13.0400      0.3071   1997.7000     27.2100    -52.7850
70.7500         214.5000      0.3486    811.3600     55.7700     11.5550      0.3236   2031.8000     25.6250    -52.2000
70.8750         214.5000      0.3330    835.5200     57.1500     11.2350      0.3571   2083.6001     23.7300    -52.2300
71.0000         214.5000      0.3146    755.5200     58.6200     11.8800      0.3664   2119.6001     21.9650    -52.8600
71.1250         214.2000      0.3047    737.7200     60.0600     11.6850      0.3709   2136.0000     15.9250    -52.7850
71.2500         214.5000      0.3013    708.4800     60.7650     11.2350      0.3762   2140.3000     13.1850    -51.1200
71.3750         214.5000      0.2962    660.6800     61.4400     10.8450      0.3769   2139.7000     18.2450    -49.9500
71.5000         215.1000      0.3019    626.3200     62.1150     10.7200      0.3743   2152.5000     22.4500    -49.2600
71.6250         215.1000      0.3037    624.8800     62.7900     10.5900      0.3807   2159.2000     21.3550    -48.8100
71.7500         214.5000      0.3020    623.1200     63.4650     10.6550      0.3904   2158.6001     21.5350    -48.8400
71.8750         213.3000      0.2996    626.2000     65.3400     11.6850      0.4118   2153.1001     21.9050    -50.0700
72.0000         213.6000      0.3000    627.9600     66.8700     13.5600      0.4212   2148.8000     21.4150    -52.5750
72.1250         213.6000      0.2991    645.7200     68.0250     14.6550      0.4220   2146.3999     19.7700    -56.4750
72.2500         213.0000      0.2988    674.6400     68.6250     15.5600      0.4313   2151.3000     18.7300    -59.1600
72.3750         214.2000      0.3004    684.0800     59.9700     16.4650      0.4381   2156.2000     21.7200    -61.6500
72.5000         216.3000      0.3016    680.9600     53.1450     17.6250      0.4381   2158.0000     36.1700    -62.3850
72.6250         217.2000      0.3059    660.8000     46.3200     19.1100      0.4385   2161.6001     42.6350    -63.0600
72.7500         217.2000      0.3102    664.9200     43.7850     23.6950      0.4351   2157.3999     44.2200    -63.7500
72.8750         214.8000      0.3193    674.0000     41.4450     31.5050      0.4186   2140.8999     45.7450    -64.4400
73.0000         214.2000      0.3270    680.7600     38.7450     38.7400      0.4088   2123.2000     46.1700    -64.8150
73.1250         214.8000      0.3338    682.7200     39.4500     45.5150      0.3946   2104.3000     46.7200    -64.2450
73.2500         215.7000      0.3394    686.0800     40.2900     53.4500      0.3882   2086.6001     47.3900    -62.7750
73.3750         214.5000      0.3384    682.8400     41.1300     56.9000      0.3818   2075.1001     45.3800    -60.4200
73.5000         212.0750      0.3297    660.2400     42.4650     53.1000      0.3781   2079.8999     42.8200    -60.1350
