~VERSION INFORMATION
 VERS.                 2.0:   CWLS LOG ASCII STANDARD -VERSION 2.0
 WRAP.                  NO:   ONE LINE PER DEPTH STEP
~WELL INFORMATION BLOCK
#MNEM.UNIT           DATA                    DESCRIPTION OF MNEMONIC
#---------    -------------------            -------------------------------
# Generated from Intellog Unique Number	CC_84_87/WELL/1164
NULL.         -999.25                        : NULL_VALUE
WELL.         SUN CHEECHAM CH 25             : Well_name    - WELL              
LOC .         07-23-086-07W4                 : Location     - LOCATION          
UWI .         AA/07-23-086-07W400            : Uwi          - UNIQUE WELL ID    
ENTR.         RJA                            : Entered      - ENTERED BY        
SRVC.         SCHLUMBERGER                   : Scn          - SERVICE COMPANY   
DATE.         18 MAR 80                      : Date         - LOG DATE
STRT.M        55                             : top_depth    - START DEPTH       
STOP.M        240.102                        : bot_depth    - STOP DEPTH        
STEP.M        0.3                            : increment    - STEP LENGTH       
~CURVE INFORMATION BLOCK
#MNEM UNIT       ERCB CURVE CODE    CURVE DESCRIPTION
#-----------   ------------------   ----------------------------------
DEPT.M        00 001 00 00         : DEPTH        - DEPTH                       
DPHI.V/V      00 890 00 00         : PHID         - DENSITY POROSITY (LIMESTONE)
NPHI.V/V      00 330 00 00         : PHIN         - NEUTRON POROSITY (LIMESTONE)
GR  .API      00 310 00 00         : GR           - GAMMA RAY                   
ILD .OHMM     00 120 00 00         : RESD         - DEEP RESISTIVITY (DIL)      
~PARAMETER INFORMATION       
#MNEM.UNIT           DATA             DESCRIPTION OF MNEMONIC
#---------         -----------     ------------------------------
GL  .M        481.7                : gl           - GROUND LEVEL ELEVATION      
EREF.M        483.76               : kb           - ELEVATION OF DEPTH REFERENCE
DATM.M        483.76               : datum        - DATUM ELEVATION             
TDD .M        245                  : tdd          - TOTAL DEPTH DRILLER         
RUN .         ONE                  : Run          - RUN NUMBER                  
ENG .         BILL                 : Engineer     - RECORDING ENGINEER          
WIT .         JIM                  : Witness      - WITNESSED BY                
MUD .         GEL                  : Mud_type     - MUD TYPE                    
MATR.         LIMESTONE            : Logunit      - NEUTRON MATRIX              
TMAX.C        18                   : BHT          - MAXIMUM RECORDED TEMPERATURE
BHTD.M        245                  : BHTDEP       - MAXIMUM RECORDED TEMPERATURE
MATR.         1                    : LOGUNIT      - NEUTRON MATRIX              
RMT .C        25                   : MDTP         - TEMPERATURE OF MUD          
NEUT.         1                    : NEUTRON      - NEUTRON TYPE                
RESI.         0                    : RESIST       - RESISTIVITY TYPE            
RMC .OHMM     0.25                 : RMC          - RESISTIVITY OF MUD CAKE     
RMF .OHMM     0.25                 : RMF          - RESISTIVITY OF MUD FILTRATE 
SUFT.C        15                   : SUFT         - SURFACE TEMPERATURE         
~A  DEPTH     PHID     PHIN       GR     RESD
# ...
  159.401    0.264    0.440   95.320    3.688
  159.701    0.247    0.496   99.673    4.212
  160.001    0.271    0.519   93.461    4.594
  160.301    0.266    0.540   92.209    4.635
  160.601    0.263    0.522   96.992    4.153
  160.901    0.276    0.491   92.922    3.862
  161.201    0.281    0.441   87.755    3.565
  161.501    0.269    0.445   88.080    3.719
  161.801    0.283    0.466   95.791    4.224
  162.101    0.258    0.523  102.281    4.834
  162.401    0.230    0.538  105.296    5.099
  162.701    0.274    0.539  100.556    4.646
  163.001    0.282    0.521  104.662    3.997
  163.301    0.278    0.505  104.624    3.615
  163.601    0.282    0.519  108.066    3.438
  163.901    0.297    0.543  105.463    3.336
  164.201    0.316    0.537  104.994    3.341
  164.501    0.278    0.517  109.163    3.339
  164.801    0.248    0.510  109.976    3.271
  165.101    0.244    0.548  109.020    3.098
  165.401    0.248    0.563  107.152    3.007
  165.701    0.273    0.544  104.182    3.000
  166.001    0.265    0.494   96.748    3.095
  166.301    0.265    0.484   96.594    3.344
  166.601    0.266    0.460   98.077    3.620
  166.901    0.261    0.482   92.231    3.875
  167.201    0.253    0.474   85.588    3.830
  167.501    0.285    0.429   79.995    3.901
  167.801    0.301    0.344   75.509    4.191
  168.101    0.300    0.347   77.552    4.868
  168.401    0.302    0.329   80.991    5.944
  168.701    0.299    0.340   77.654    7.729
  169.001    0.275    0.362   80.970    9.161
  169.301    0.234    0.339   80.686   10.028
  169.601    0.117    0.330   76.430    9.785
  169.901    0.167    0.377   85.614    9.252
  170.201    0.258    0.397   86.978    9.404
  170.501    0.260    0.416   91.639    9.160
  170.801    0.289    0.438   91.841    7.721
  171.101    0.314    0.384   79.231    6.594
  171.401    0.347    0.337   63.191    5.663
  171.701    0.327    0.324   61.145    5.217
  172.001    0.342    0.319   61.161    5.323
  172.301    0.316    0.314   57.582    5.891
  172.601    0.330    0.338   66.148    6.100
  172.901    0.334    0.374   73.068    6.120
  173.201    0.315    0.390   77.237    6.256
  173.501    0.322    0.400   77.690    7.158
  173.801    0.292    0.389   80.999    8.485
  174.101    0.271    0.382   87.006    9.710
  174.401    0.283    0.386   91.240    9.869
  174.701    0.249    0.410  102.982    8.993
  175.001    0.246    0.439  107.032    7.794
  175.301    0.244    0.425   90.869    6.656
  175.601    0.266    0.373   75.212    5.663
  175.901    0.312    0.347   63.329    5.661
  176.201    0.303    0.352   57.242    6.773
  176.501    0.287    0.361   61.113    9.328
  176.801    0.287    0.355   77.248   12.917
  177.101    0.233    0.404   86.728   15.512
  177.401    0.201    0.423   91.139   15.884
  177.701    0.234    0.438   90.799   11.355
  178.001    0.231    0.441   89.103    8.987
  178.301    0.266    0.396   87.725    7.590
  178.601    0.281    0.347   82.014    7.311
  178.901    0.242    0.374   88.378    7.841
  179.201    0.222    0.409   91.694    8.792
  179.501    0.243    0.432   93.611    8.936
  179.801    0.235    0.410   91.742    8.233
  180.101    0.211    0.394   92.429    6.902
  180.401    0.248    0.395   93.491    6.208
  180.701    0.260    0.392   92.597    6.070
  181.001    0.279    0.368   86.088    6.226
  181.301    0.282    0.354   79.024    6.942
  181.601    0.293    0.356   71.238    7.813
  181.901    0.310    0.298   69.059    9.297
  182.201    0.296    0.332   81.167   14.549
  182.501    0.255    0.362   85.338   19.669
  182.801    0.226    0.421   94.328   19.589
  183.101    0.242    0.423   88.616   15.882
  183.401    0.263    0.393   85.942   11.631
  183.701    0.273    0.379   83.526    9.155
  184.001    0.276    0.326   82.389    8.203
  184.301    0.232    0.351   89.055    8.140
  184.601    0.201    0.361   87.423    8.779
  184.901    0.252    0.361   80.487    9.538
  185.201    0.263    0.367   80.821    9.821
  185.501    0.245    0.361   82.737    9.583
  185.801    0.283    0.384   74.392    9.334
  186.101    0.277    0.375   64.826    9.261
  186.401    0.299    0.380   61.498    9.502
  186.701    0.292    0.381   65.667   11.098
  187.001    0.278    0.377   80.465   13.155
  187.301    0.274    0.410   87.262   14.914
  187.601    0.305    0.383   66.645   14.743
  187.901    0.313    0.346   57.020   14.521
  188.201    0.306    0.368   60.651   14.488
  188.501    0.293    0.386   57.858   14.891
  188.801    0.315    0.385   51.472   18.350
  189.101    0.309    0.385   48.563   44.055
  189.401    0.308    0.382   57.131   64.859
  189.701    0.282    0.365   78.577   66.414
  190.001    0.224    0.379   85.252   35.167
  190.301    0.288    0.382   66.405   22.000
  190.601    0.315    0.353   57.582   15.992
  190.901    0.310    0.343   63.037   12.152
  191.201    0.312    0.360   63.654   11.032
  191.501    0.319    0.360   63.930   11.466
  191.801    0.324    0.361   61.267   14.288
  192.101    0.337    0.370   57.749   21.072
  192.401    0.316    0.375   57.819   30.174
  192.701    0.262    0.339   72.561   37.530
  193.001    0.236    0.373   82.772   35.949
  193.301    0.231    0.391   86.391   30.305
  193.601    0.227    0.396   88.858   22.690
  193.901    0.204    0.388   92.479   15.688
  194.201    0.217    0.401  100.925   12.327
  194.501    0.203    0.411  101.548   10.106
  194.801    0.207    0.405   95.225    9.157
  195.101    0.236    0.386   86.586    8.870
  195.401    0.263    0.393   74.399    8.999
  195.701    0.306    0.407   51.708    9.509
  196.001    0.315    0.403   45.442   10.332
  196.301    0.335    0.369   45.040   12.780
  196.601    0.318    0.378   54.279   16.681
  196.901    0.318    0.404   62.174   26.008
  197.201    0.317    0.408   52.608   36.558
  197.501    0.324    0.383   43.903   51.383
  197.801    0.315    0.377   37.569   71.031
  198.101    0.291    0.368   37.352   77.459
  198.401    0.308    0.385   39.511   69.672
  198.701    0.324    0.415   40.500   59.717
  199.001    0.326    0.403   39.052   53.615
  199.301    0.342    0.389   40.121   50.697
  199.601    0.319    0.388   43.686   47.406
  199.901    0.341    0.401   45.170   45.920
  200.201    0.372    0.409   43.421   46.326
  200.501    0.374    0.395   41.182   44.541
  200.801    0.343    0.398   40.955   42.194
  201.101    0.348    0.412   38.906   42.889
  201.401    0.357    0.422   38.254   48.805
  201.701    0.369    0.406   41.690   59.041
  202.001    0.332    0.400   44.760   73.031
  202.301    0.330    0.420   45.146   91.511
  202.601    0.319    0.429   46.518  111.740
  202.901    0.328    0.436   48.174  132.445
  203.201    0.350    0.420   43.388  152.407
  203.501    0.362    0.430   38.160  165.906
  203.801    0.351    0.432   56.004  170.515
  204.101    0.322    0.414   61.027  163.945
  204.401    0.348    0.433   55.374  149.941
  204.701    0.339    0.419   64.610  128.752
  205.001    0.312    0.404   70.554   86.744
  205.301    0.291    0.424   65.260   58.769
  205.601    0.315    0.420   53.622   42.323
  205.901    0.334    0.413   57.067   33.189
  206.201    0.309    0.423   62.642   27.415
  206.501    0.325    0.478   54.541   23.938
  206.801    0.346    0.415   45.715   23.973
  207.101    0.376    0.420   39.747   28.948
  207.401    0.390    0.458   41.906   37.572
  207.701    0.409    0.485   44.862   40.148
  208.001    0.402    0.451   40.485   35.911
  208.301    0.338    0.385   42.030   28.476
  208.601    0.336    0.397   43.630   25.004
  208.901    0.339    0.413   40.661   23.209
  209.201    0.338    0.395   36.657   28.233
  209.501    0.341    0.394   33.940   31.951
  209.801    0.340    0.398   37.195   34.456
  210.101    0.344    0.404   37.149   35.614
  210.401    0.325    0.406   41.384   36.398
  210.701    0.328    0.402   42.614   36.995
  211.001    0.338    0.401   43.311   39.024
  211.301    0.336    0.406   43.340   40.630
