~VERSION INFORMATION
 VERS.                 2.0:   CWLS LOG ASCII STANDARD -VERSION 2.0
 WRAP.                  NO:   ONE LINE PER DEPTH STEP
~WELL INFORMATION BLOCK
#MNEM.UNIT           DATA                    DESCRIPTION OF MNEMONIC
#---------    -------------------            -------------------------------
# Generated from Intellog Unique Number	CN_94_101/WELL/2377
WELL.         02-06-099-12W4                 : Well_name    - WELL
LOC .         AA/02-06-099-12W4/0            : Location     - LOCATION
UWI .         AA/02-06-099-12W400            : Uwi          - UNIQUE WELL ID
ENTR.         TOP                            : Entered      - ENTERED BY
SRVC.         SCHLUMBERGER                   : Scn          - SERVICE COMPANY
DATE.         08/11/92                       : Date         - LOG DATE
STRT.M        360                            : top_depth    - START DEPTH
STOP.M        585                            : bot_depth    - STOP DEPTH
STEP.M        0.25                           : increment    - STEP LENGTH
 NULL. -999.2500:NULL Value
~CURVE INFORMATION BLOCK
#MNEM UNIT       ERCB CURVE CODE    CURVE DESCRIPTION
#-----------   ------------------   ----------------------------------
DEPT.M        00 001 00 00         : DEPTH        - DEPTH
DPHI.V/V      00 890 00 00         : PHID         - DENSITY POROSITY (SANDSTONE)
NPHI.V/V      00 330 00 00         : PHIN         - NEUTRON POROSITY (SANDSTONE)
ILD .OHMM     00 120 00 00         : RESD         - DEEP RESISTIVITY (DIL)
GR  .API      00 310 00 00         : GR           - GAMMA RAY
~PARAMETER INFORMATION
#MNEM.UNIT           DATA             DESCRIPTION OF MNEMONIC
#---------         -----------     ------------------------------
GL  .M        823.03               : gl           - GROUND LEVEL ELEVATION
EREF.M        826.26               : kb           - ELEVATION OF DEPTH REFERENCE
DATM.M        826.26               : datum        - DATUM ELEVATION
TDD .M        590                  : tdd          - TOTAL DEPTH DRILLER
RUN .         ONE                  : Run          - RUN NUMBER
ENG .         JO                   : Engineer     - RECORDING ENGINEER
WIT .         TIM                  : Witness      - WITNESSED BY
MUD .         GEL                  : Mud_type     - MUD TYPE
MATR.         SANDSTONE            : Logunit      - NEUTRON MATRIX
TMAX.C        25                   : BHT          - MAXIMUM RECORDED TEMPERATURE
BHTD.M        590                  : BHTDEP       - MAXIMUM RECORDED TEMPERATURE
RMT .C        25                   : MDTP         - TEMPERATURE OF MUD
MUDD.KG/M     1050                 : MWT          - MUD DENSITY
NEUT.         1                    : NEUTRON      - NEUTRON TYPE
RESI.         0                    : RESIST       - RESISTIVITY TYPE
RM  .OHMM     9                    : RM           - RESISTIVITY OF MUD
RMC .OHMM     9                    : RMC          - RESISTIVITY OF MUD CAKE
RMF .OHMM     9                    : RMF          - RESISTIVITY OF MUD FILTRATE
SUFT.C        4                    : SUFT         - SURFACE TEMPERATURE
~A  DEPTH     PHID     PHIN     RESD       GR
  360.000    0.269    0.506    5.143   98.958
  360.250    0.274    0.512    4.957   99.586
  360.500    0.277    0.516    4.869  100.844
  360.750    0.277    0.521    4.696  101.490
  361.000    0.276    0.515    4.700  101.527
  361.250    0.276    0.504    4.704  100.952
  361.500    0.276    0.511    4.893  100.396
  361.750    0.282    0.512    5.087   99.803
  362.000    0.287    0.501    5.191   99.858
  362.250    0.281    0.496    5.296   99.894
  362.500    0.277    0.506    5.407   99.921
  362.750    0.284    0.515    5.518   99.948
  363.000    0.278    0.521    5.524  100.002
  363.250    0.269    0.521    5.529   99.428
  363.500    0.258    0.518    5.433   99.455
  363.750    0.260    0.509    5.336   98.872
  364.000    0.267    0.498    5.342   98.306
  364.250    0.269    0.490    5.451   98.333
  364.500    0.268    0.483    5.891   98.379
  364.750    0.264    0.480    6.123   97.795
  365.000    0.266    0.480    6.742   97.221
  365.250    0.281    0.481    7.012   94.824
  365.500    0.287    0.484    7.020   93.028
  365.750    0.289    0.489    7.163   93.675
  366.000    0.292    0.511    6.904   93.100
  366.250    0.301    0.529    6.530   92.517
  366.500    0.309    0.540    6.061   91.332
  366.750    0.317    0.549    5.953   88.926
  367.000    0.321    0.543    5.848   84.087
  367.250    0.328    0.511    5.965   81.671
  367.500    0.340    0.473    6.205   78.655
  367.750    0.344    0.454    6.331   74.426
  368.000    0.335    0.437    6.220   75.073
  368.250    0.320    0.436    5.995   76.330
  368.500    0.309    0.443    6.002   76.977
  368.750    0.318    0.464    6.008   79.455
  369.000    0.326    0.485    5.685   81.323
  369.250    0.309    0.482    5.478   83.191
  369.500    0.303    0.477    5.084   85.059
  369.750    0.321    0.478    4.809   85.715
  370.000    0.338    0.483    4.722   85.751
  370.250    0.346    0.496    4.818   85.176
  370.500    0.338    0.506    4.917   85.213
  370.750    0.337    0.517    5.016   84.638
  371.000    0.343    0.527    5.024   85.294
  371.250    0.358    0.533    4.845   85.312
  371.500    0.375    0.543    4.758   84.747
  371.750    0.394    0.550    4.586   83.562
  372.000    0.404    0.557    4.421   84.209
  372.250    0.398    0.560    4.343   86.687
  372.500    0.372    0.552    4.266   88.555
  372.750    0.356    0.528    4.113   89.192
  373.000    0.329    0.532    4.038   90.450
  373.250    0.362    0.538    3.894   90.495
  373.500    0.391    0.536    3.824   89.301
  373.750    0.368    0.530    3.830   88.736
  374.000    0.371    0.527    3.906   88.170
  374.250    0.407    0.532    4.221   88.188
  374.500    0.424    0.536    4.388   88.243
  374.750    0.435    0.539    5.213   87.659
  375.000    0.443    0.543    5.423   87.076
  375.250    0.440    0.544    5.530   84.679
  375.500    0.425    0.527    5.436   82.883
  375.750    0.414    0.502    5.337   83.530
  376.000    0.376    0.470    4.952   86.008
  376.250    0.345    0.468    4.684   88.487
  376.500    0.344    0.498    4.346   89.744
  376.750    0.330    0.529    4.191   90.382
  377.000    0.314    0.556    4.196   91.038
  377.250    0.326    0.564    4.280   90.463
  377.500    0.351    0.564    4.536   89.278
  377.750    0.357    0.519    4.719   89.314
  378.000    0.381    0.519    4.815   89.341
  378.250    0.387    0.537    4.822   89.378
  378.500    0.398    0.558    4.825   88.812
  378.750    0.411    0.566    4.652   88.849
  379.000    0.428    0.580    4.156   88.274
  379.250    0.439    0.589    3.929   88.319
  379.500    0.446    0.592    3.578   87.727
  379.750    0.451    0.592    3.449   86.542
  380.000    0.449    0.582    3.520   85.357
  380.250    0.440    0.574    3.731   83.570
  380.500    0.426    0.562    4.108   81.775
  380.750    0.400    0.536    4.611   80.590
  381.000    0.421    0.504    4.884   80.617
  381.250    0.432    0.486    5.693   80.671
  381.500    0.427    0.473    5.807   80.689
  381.750    0.394    0.464    5.706   80.735
  382.000    0.348    0.461    5.823   80.762
  382.250    0.347    0.461    6.289   80.187
  382.500    0.354    0.458    6.924   79.622
  382.750    0.363    0.455    7.766   79.649
  383.000    0.366    0.451    9.583   79.102
  383.250    0.372    0.450   11.382   78.509
  383.500    0.380    0.445   13.019   76.103
  383.750    0.388    0.441   14.063   74.299
  384.000    0.387    0.437   14.904   72.512
  384.250    0.382    0.433   15.208   72.548
  384.500    0.382    0.431   15.221   75.036
  384.750    0.389    0.427   14.133   77.514
  385.000    0.387    0.422   12.861   80.594
  385.250    0.363    0.423    9.150   84.904
  385.500    0.342    0.428    7.872   89.215
  385.750    0.331    0.440    8.184   88.039
  386.000    0.334    0.454    9.358   85.632
  386.250    0.345    0.451   10.503   83.235
  386.500    0.358    0.444   11.341   81.431
  386.750    0.363    0.436   12.020   79.626
  387.000    0.353    0.433   12.034   78.450
  387.250    0.338    0.430   11.826   77.867
  387.500    0.327    0.429   10.764   78.514
  387.750    0.320    0.430    8.746   80.992
  388.000    0.326    0.436    7.667   83.480
  388.250    0.333    0.438    6.595   86.578
  388.500    0.337    0.447    5.672   87.206
  388.750    0.330    0.453    5.265   89.703
  389.000    0.323    0.463    5.074   89.721
  389.250    0.325    0.471    4.623   90.368
  389.500    0.331    0.482    4.540   90.413
  389.750    0.335    0.496    4.458   90.458
  390.000    0.340    0.508    4.380   89.866
  390.250    0.346    0.517    4.385   88.097
  390.500    0.351    0.526    4.390   87.514
  390.750    0.358    0.534    4.481   86.921
  391.000    0.349    0.533    4.660   85.745
  391.250    0.342    0.525    5.033   85.781
  391.500    0.334    0.488    5.435   85.216
  391.750    0.331    0.468    6.100   84.624
  392.000    0.334    0.454    6.587   82.236
  392.250    0.339    0.453    7.678   80.422
  392.500    0.345    0.444    9.120   75.583
  392.750    0.350    0.426   10.831   71.946
  393.000    0.363    0.374   14.421   66.487
  393.250    0.398    0.347   17.450   60.418
  393.500    0.422    0.238   24.594   56.189
  393.750    0.432    0.232   28.131   54.385
  394.000    0.446    0.241   28.156   51.978
  394.250    0.450    0.254   27.667   52.625
  394.500    0.448    0.264   26.668   55.104
  394.750    0.446    0.280   24.290   57.582
  395.000    0.441    0.298   22.959   59.459
  395.250    0.436    0.321   19.747   60.707
  395.500    0.424    0.341   15.743   61.974
  395.750    0.405    0.361   13.033   63.222
  396.000    0.393    0.378    9.818   65.727
  396.250    0.376    0.398    8.937   66.356
  396.500    0.359    0.413    7.834   67.604
  396.750    0.352    0.426    7.272   69.490
  397.000    0.367    0.435    6.749   71.969
  397.250    0.365    0.452    6.261   73.837
  397.500    0.355    0.474    5.923   73.882
  397.750    0.346    0.497    6.277   72.679
  398.000    0.356    0.516    6.779   69.052
  398.250    0.370    0.527    7.900   62.982
  398.500    0.376    0.487    9.382   58.134
  398.750    0.386    0.446   10.937   56.329
  399.000    0.386    0.424   12.275   55.144
  399.250    0.386    0.412   12.525   53.977
  399.500    0.391    0.408   12.776   54.004
  399.750    0.401    0.408   12.799   53.430
  400.000    0.405    0.408   12.810   52.846
  400.250    0.405    0.409   12.822   51.661
  400.500    0.400    0.409   12.837   50.477
  400.750    0.398    0.410   12.373   50.513
  401.000    0.398    0.410   12.159   51.779
  401.250    0.398    0.411   12.173   53.656
  401.500    0.396    0.411   12.184   54.303
  401.750    0.393    0.411   11.976   53.719
  402.000    0.391    0.411   11.987   52.543
  402.250    0.385    0.410   11.772   51.978
  402.500    0.385    0.405   11.350   51.996
  402.750    0.386    0.399   11.146   51.431
  403.000    0.382    0.390   10.747   52.697
  403.250    0.375    0.398   10.359   52.715
