~VERSION INFORMATION
 VERS.                 2.0:   CWLS LOG ASCII STANDARD -VERSION 2.0
 WRAP.                  NO:   ONE LINE PER DEPTH STEP
~WELL INFORMATION BLOCK
#MNEM.UNIT           DATA                    DESCRIPTION OF MNEMONIC
#---------    -------------------            -------------------------------
# Generated from Intellog Unique Number	CN_94_101/WELL/2730
WELL.         05-01-094-12W4                 : Well_name    - WELL
LOC .         AA/05-01-094-12W4/0            : Location     - LOCATION
UWI .         AA/05-01-094-12W400            : Uwi          - UNIQUE WELL ID
ENTR.         JOETTE                         : Entered      - ENTERED BY
SRVC.         SCHLUMBERGER                   : Scn          - SERVICE COMPANY
DATE.         06/19/92                       : Date         - LOG DATE
STRT.M        20                             : top_depth    - START DEPTH
STOP.M        110                            : bot_depth    - STOP DEPTH
STEP.M        0.25                           : increment    - STEP LENGTH
 NULL. -999.2500:NULL Value
~CURVE INFORMATION BLOCK
#MNEM UNIT       ERCB CURVE CODE    CURVE DESCRIPTION
#-----------   ------------------   ----------------------------------
DEPT.M        00 001 00 00         : DEPTH        - DEPTH
GR  .API      00 310 00 00         : GR           - GAMMA RAY
ILD .OHMM     00 120 00 00         : RESD         - DEEP RESISTIVITY (DIL)
RHOB.KG/M3    00 350 00 00         : DENS         - BULK DENSITY
DPHI.V/V      00 890 00 00         : PHID         - DENSITY POROSITY (SANDSTONE)
~PARAMETER INFORMATION
#MNEM.UNIT           DATA             DESCRIPTION OF MNEMONIC
#---------         -----------     ------------------------------
GL  .M        333.8                : gl           - GROUND LEVEL ELEVATION
EREF.M        333.8                : kb           - ELEVATION OF DEPTH REFERENCE
DATM.M        333.8                : datum        - DATUM ELEVATION
TDD .M        125                  : tdd          - TOTAL DEPTH DRILLER
RUN .         ONE                  : Run          - RUN NUMBER
ENG .         JO                   : Engineer     - RECORDING ENGINEER
WIT .         TIM                  : Witness      - WITNESSED BY
MUD .         GEL                  : Mud_type     - MUD TYPE
MATR.         SANDSTONE            : Logunit      - NEUTRON MATRIX
TMAX.C        12                   : BHT          - MAXIMUM RECORDED TEMPERATURE
BHTD.M        125                  : BHTDEP       - MAXIMUM RECORDED TEMPERATURE
RMT .C        5                    : MDTP         - TEMPERATURE OF MUD
MUDD.KG/M     1110                 : MWT          - MUD DENSITY
NEUT.         1                    : NEUTRON      - NEUTRON TYPE
RESI.         0                    : RESIST       - RESISTIVITY TYPE
RM  .OHMM     7                    : RM           - RESISTIVITY OF MUD
RMC .OHMM     7                    : RMC          - RESISTIVITY OF MUD CAKE
RMF .OHMM     7                    : RMF          - RESISTIVITY OF MUD FILTRATE
SUFT.C        4                    : SUFT         - SURFACE TEMPERATURE
~A  DEPTH       GR     RESD     DENS     PHID
# ...
   63.500   41.052   33.252 2089.330    0.340
   63.750   42.984   32.368 2075.380    0.348
   64.000   43.055   29.789 2079.650    0.346
   64.250   40.026   27.818 2073.800    0.349
   64.500   37.634   27.867 2072.000    0.350
   64.750   36.465   32.155 2076.270    0.348
   65.000   37.157   34.570 2084.590    0.343
   65.250   39.107   31.802 2092.910    0.338
   65.500   39.763   27.671 2095.160    0.336
   65.750   40.454   25.444 2089.310    0.340
   66.000   40.544   23.088 2085.530    0.342
   66.250   38.116   20.665 2085.760    0.342
   66.500   38.188   20.711 2087.950    0.341
   66.750   37.657   21.024 2092.220    0.338
   67.000   35.867   23.919 2092.500    0.338
   67.250   33.440   26.465 2086.650    0.341
   67.500   32.909   25.065 2078.770    0.346
   67.750   37.925   25.478 2079.050    0.346
   68.000   38.652   25.501 2085.230    0.342
   68.250   37.465   24.496 2097.660    0.335
   68.500   35.658   23.511 2099.850    0.333
   68.750   35.747   22.584 2100.080    0.333
   69.000   35.819   22.614 2094.220    0.337
   69.250   35.270   22.977 2094.500    0.337
   69.500   35.341   23.345 2092.700    0.338
   69.750   36.033   24.769 2084.820    0.343
   70.000   37.345   25.513 2077.000    0.347
   70.250   39.933   27.045 2075.090    0.348
   70.500   41.227   24.186 2075.310    0.348
   70.750   41.901   19.591 2079.580    0.346
   71.000   37.631   17.281 2085.930    0.342
   71.250   37.082   17.069 2082.050    0.344
   71.500   41.513   18.351 2076.250    0.348
   71.750   43.445   18.384 2086.660    0.341
   72.000   43.499   18.158 2092.950    0.338
   72.250   42.330   17.935 2087.050    0.341
   72.500   41.161   17.967 2079.110    0.346
   72.750   41.232   19.054 2079.390    0.346
   73.000   41.924   20.476 2087.660    0.341
   73.250   43.856   20.805 2089.910    0.339
   73.500   48.889   19.428 2075.950    0.348
   73.750   55.801   19.454 2078.200    0.347
   74.000   62.075   19.774 2102.720    0.332
   74.250   70.210   20.962 2133.370    0.313
   74.500   82.083   22.537 2157.900    0.298
   74.750   78.433   24.575 2216.900    0.262
   75.000   78.523   23.607 2300.190    0.212
   75.250   81.695   22.339 2318.640    0.201
   75.500   86.711   21.449 2251.990    0.241
   75.750   94.863   21.186 2219.810    0.261
   76.000  100.517   21.233 2226.110    0.257
   76.250  101.847   20.962 2238.530    0.249
   76.500   96.336   20.705 2248.830    0.243
   76.750   92.668   19.889 2255.120    0.239
   77.000   90.276   19.097 2263.450    0.234
   77.250   89.728   19.386 2277.900    0.226
   77.500   91.660   20.861 2261.920    0.235
   77.750   93.610   21.196 2264.110    0.234
   78.000   94.886   20.361 2280.590    0.224
   78.250   96.198   20.379 2284.920    0.221
   78.500   92.548   20.706 2275.070    0.227
   78.750   83.298   21.641 2267.080    0.232
   79.000   73.446   20.487 2244.980    0.245
   79.250   69.814   20.524 2186.420    0.281
   79.500   71.746   21.756 2140.070    0.309
   79.750   74.918   21.488 2136.240    0.311
   80.000   71.871   18.955 2152.720    0.301
   80.250   68.221   18.460 2144.840    0.306
   80.500   66.449   19.568 2147.030    0.305
   80.750   65.280   21.651 2161.430    0.296
   81.000   65.954   21.988 2171.890    0.290
   81.250   62.304   21.113 2167.950    0.292
   81.500   58.636   19.716 2143.880    0.307
   81.750   56.227   20.317 2136.110    0.311
   82.000   59.417   21.537 2140.270    0.309
   82.250   61.987   22.184 2152.700    0.301
   82.500   60.216   22.549 2167.040    0.293
   82.750   59.632   22.579 2183.570    0.283
   83.000   60.323   21.386 2179.630    0.285
   83.250   60.431   21.113 2165.740    0.293
   83.500   58.588   21.160 2155.780    0.300
   83.750   52.457   20.891 2137.780    0.310
   84.000   48.842   21.245 2107.570    0.329
   84.250   49.498   21.263 2099.690    0.334
   84.500   48.950   22.540 2116.170    0.324
   84.750   42.819   35.510 2092.040    0.338
   85.000   34.207   54.383 2051.760    0.363
   85.250   28.076   69.307 2074.260    0.349
   85.500   24.426  155.601 2076.510    0.348
   85.750   26.978  167.217 2074.760    0.349
   86.000   29.531  195.691 2081.000    0.345
   86.250   30.843  216.426 2095.450    0.336
   86.500   30.914  147.962 2091.630    0.338
   86.750   31.003  180.817 2083.690    0.343
   87.000   31.039  205.619 2063.670    0.355
   87.250   31.110  247.642 2049.660    0.364
   87.500   30.562  273.881 2029.630    0.376
   87.750   25.671  290.325 2015.680    0.384
   88.000   23.297  330.293 2005.780    0.390
   88.250   23.333  484.839 2012.080    0.387
   88.500   23.422  592.239 2020.450    0.382
   88.750   23.476  673.770 2010.500    0.388
   89.000   23.548  611.651 2004.640    0.391
   89.250   24.275  587.037 2011.000    0.387
   89.500   24.949  677.359 2017.290    0.383
   89.750   25.002  838.811 2011.440    0.387
   90.000   25.694 1069.000 2017.680    0.383
   90.250   25.145 1504.050 2042.200    0.368
   90.500   20.255 2303.440 2052.610    0.362
   90.750   17.845 2476.490 2054.850    0.361
   91.000   19.157 2123.650 2063.120    0.356
   91.250   21.089 1899.120 2059.290    0.358
   91.500   21.781 1902.490 2047.370    0.365
   91.750   21.870 1906.700 2035.440    0.372
   92.000   21.322 1856.840 2025.590    0.378
   92.250   20.170 1782.910 2035.880    0.372
   92.500   20.206 1663.460 2038.130    0.371
   92.750   19.675 1220.520 2032.280    0.374
   93.000   19.765  357.179 2026.480    0.378
   93.250   21.076  281.261 2024.680    0.379
   93.500   26.092  231.175 2028.950    0.376
   93.750   31.763  192.713 2029.180    0.376
   94.000   24.994  195.716 2009.090    0.388
   94.250   21.326  566.700 2001.220    0.393
   94.500   18.935 1042.960 2007.510    0.389
   94.750   20.247 1690.180 2021.910    0.381
   95.000   21.559 2378.030 2036.360    0.372
   95.250   22.268 2782.970 2038.610    0.371
   95.500   22.322 2994.710 2038.940    0.370
   95.750   22.393 3000.020 2039.050    0.370
   96.000   22.500 2921.570 2039.330    0.370
   96.250   22.554 2727.050 2041.470    0.369
   96.500   23.246 2543.230 2045.800    0.366
   96.750   23.937 2120.090 2047.990    0.365
   97.000   25.870 1646.040 2054.290    0.361
   97.250   29.024  474.944 2060.580    0.357
   97.500   33.455  324.700 2056.760    0.360
   97.750   39.729  206.837 2054.950    0.361
   98.000   47.864  111.153 2061.310    0.357
   98.250   69.041   58.921 2073.620    0.349
   98.500   82.155   43.847 2106.300    0.330
   98.750   66.083   42.719 2155.120    0.300
   99.000   49.390   44.649 2206.020    0.269
   99.250   43.879   50.105 2208.270    0.268
   99.500   48.292   53.845 2186.220    0.281
   99.750   56.427   51.701 2154.040    0.301
  100.000   67.060   43.693 2131.930    0.314
  100.250   72.094   45.707 2120.010    0.321
  100.500   68.461   49.819 2134.400    0.312
  100.750   63.553   55.882 2146.770    0.305
  101.000   56.802   76.466 2169.270    0.291
  101.250   48.172   97.364 2220.170    0.261
  101.500   33.978  215.428 2244.800    0.246
  101.750   24.728  329.926 2192.270    0.277
  102.000   19.218  877.246 2095.180    0.336
  102.250   18.687 1758.160 2010.300    0.388
  102.500   18.740 1761.270 2020.650    0.381
  102.750   20.708 1644.000 2031.050    0.375
  103.000   22.622 1646.920 2025.150    0.379
  103.250   27.053 2522.240 2023.340    0.380
  103.500   28.329 3212.980 2041.850    0.369
  103.750   27.799 3503.550 2058.270    0.359
  104.000   25.389 3561.290 2062.540    0.356
  104.250   24.822 3468.160 2056.690    0.360
  104.500   24.291 3237.250 2050.830    0.363
  104.750   24.345 3020.380 2057.130    0.359
  105.000   26.313 2248.660 2071.530    0.351
  105.250   30.088 1603.900 2085.980    0.342
  105.500   35.742  874.198 2084.120    0.343
  105.750   42.636  364.261 2058.020    0.359
  106.000   50.788   87.422 2038.000    0.371
  106.250   57.062   58.928 2038.220    0.371
  106.500   61.475   43.256 2064.760    0.355
  106.750   59.686   43.333 2077.140    0.347
