~VERSION INFORMATION
 VERS.                 2.0:   CWLS LOG ASCII STANDARD -VERSION 2.0
 WRAP.                  NO:   ONE LINE PER DEPTH STEP
~WELL INFORMATION BLOCK
#MNEM.UNIT           DATA                    DESCRIPTION OF MNEMONIC
#---------    -------------------            -------------------------------
# Generated from Intellog Unique Number	CN_94_101/WELL/3216
WELL.         01-01-096-07W4                 : Well_name    - WELL
LOC .         AA/01-01-096-07W4/0            : Location     - LOCATION
UWI .         AA/01-01-096-07W400            : Uwi          - UNIQUE WELL ID
ENTR.         JOETTE                         : Entered      - ENTERED BY
SRVC.         SCHLUMBERGER                   : Scn          - SERVICE COMPANY
DATE.         07/20/92                       : Date         - LOG DATE
STRT.M        25                             : top_depth    - START DEPTH
STOP.M        205                            : bot_depth    - STOP DEPTH
STEP.M        0.25                           : increment    - STEP LENGTH
 NULL. -999.2500:NULL Value
~CURVE INFORMATION BLOCK
#MNEM UNIT       ERCB CURVE CODE    CURVE DESCRIPTION
#-----------   ------------------   ----------------------------------
DEPT.M        00 001 00 00         : DEPTH        - DEPTH
ILD .OHMM     00 120 00 00         : RESD         - DEEP RESISTIVITY (DIL)
GR  .API      00 310 00 00         : GR           - GAMMA RAY
NPHI.V/V      00 330 00 00         : PHIN         - NEUTRON POROSITY (SANDSTONE)
DPHI.V/V      00 890 00 00         : PHID         - DENSITY POROSITY (SANDSTONE)
~PARAMETER INFORMATION
#MNEM.UNIT           DATA             DESCRIPTION OF MNEMONIC
#---------         -----------     ------------------------------
GL  .M        488.01               : gl           - GROUND LEVEL ELEVATION
EREF.M        490.01               : kb           - ELEVATION OF DEPTH REFERENCE
DATM.M        490.01               : datum        - DATUM ELEVATION
TDD .M        205                  : tdd          - TOTAL DEPTH DRILLER
RUN .         ONE                  : Run          - RUN NUMBER
ENG .         JO                   : Engineer     - RECORDING ENGINEER
WIT .         TIM                  : Witness      - WITNESSED BY
MUD .         GEL                  : Mud_type     - MUD TYPE
MATR.         SANDSTONE            : Logunit      - NEUTRON MATRIX
TMAX.C        13                   : BHT          - MAXIMUM RECORDED TEMPERATURE
BHTD.M        205                  : BHTDEP       - MAXIMUM RECORDED TEMPERATURE
RMT .C        13                   : MDTP         - TEMPERATURE OF MUD
MUDD.KG/M     1110                 : MWT          - MUD DENSITY
NEUT.         1                    : NEUTRON      - NEUTRON TYPE
RESI.         0                    : RESIST       - RESISTIVITY TYPE
RM  .OHMM     4.23                 : RM           - RESISTIVITY OF MUD
RMC .OHMM     4.23                 : RMC          - RESISTIVITY OF MUD CAKE
RMF .OHMM     4.23                 : RMF          - RESISTIVITY OF MUD FILTRATE
SUFT.C        4                    : SUFT         - SURFACE TEMPERATURE
~A  DEPTH     RESD       GR     PHIN     PHID
   25.000   15.220  127.247    0.464    0.275
   25.250   14.974  129.777    0.472    0.286
   25.500   13.936  132.286    0.504    0.281
   25.750   13.206  132.373    0.525    0.287
   26.000   12.985  130.628    0.537    0.307
   26.250   12.776  132.592    0.517    0.306
   26.500   12.808  132.068    0.504    0.307
   26.750   13.083  131.523    0.493    0.321
   27.000   14.147  129.777    0.480    0.343
   27.250   14.174  129.254    0.475    0.312
   27.500   14.209  130.563    0.485    0.301
   27.750   13.720  131.283    0.496    0.315
   28.000   13.248  132.592    0.495    0.318
   28.250   13.043  133.879    0.494    0.304
   28.500   12.817  134.577    0.503    0.306
   28.750   12.610  135.275    0.504    0.337
   29.000   12.642  136.584    0.493    0.329
   29.250   12.914  135.449    0.479    0.319
   29.500   13.441  127.596    0.479    0.308
   29.750   13.730  125.851    0.487    0.294
   30.000   13.508  127.182    0.494    0.290
   30.250   12.809  128.490    0.498    0.293
   30.500   12.841  129.188    0.488    0.302
   30.750   13.117  128.665    0.485    0.313
   31.000   13.399  128.730    0.485    0.306
   31.250   13.433  128.250    0.491    0.299
   31.500   13.458  128.294    0.503    0.297
   31.750   13.501  128.403    0.513    0.316
   32.000   13.044  129.712    0.512    0.309
   32.250   12.826  131.632    0.495    0.299
   32.500   12.850  131.108    0.503    0.318
   32.750   12.635  126.942    0.516    0.328
   33.000   12.675  124.564    0.522    0.357
   33.250   12.707  124.040    0.508    0.356
   33.500   13.234  126.592    0.509    0.370
   33.750   13.510  129.734    0.508    0.344
   34.000   13.800  131.654    0.513    0.307
   34.250   13.826  132.330    0.525    0.311
   34.500   13.869  133.050    0.527    0.311
   34.750   13.896  134.380    0.510    0.309
   35.000   13.671  135.079    0.497    0.309
   35.250   13.723  132.701    0.496    0.305
   35.500   13.493  128.512    0.491    0.295
   35.750   13.792  128.578    0.483    0.282
   36.000   13.809  130.541    0.478    0.281
   36.250   14.382  130.628    0.480    0.280
   36.500   14.427  129.494    0.486    0.278
   36.750   14.728  130.192    0.486    0.283
   37.000   14.756  130.868    0.482    0.289
   37.250   14.811  130.345    0.471    0.284
   37.500   14.839  129.232    0.464    0.278
   37.750   14.858  128.098    0.470    0.276
   38.000   14.905  128.818    0.474    0.287
   38.250   14.933  129.472    0.481    0.299
   38.500   14.970  132.003    0.492    0.315
   38.750   14.473  132.090    0.510    0.310
   39.000   14.231  128.512    0.521    0.314
   39.250   13.742  129.843    0.510    0.322
   39.500   13.520  131.741    0.502    0.312
   39.750   13.811  133.050    0.509    0.286
   40.000   14.099  136.213    0.510    0.286
   40.250   14.952  133.246    0.510    0.284
   40.500   14.999  128.425    0.510    0.295
   40.750   14.483  124.891    0.502    0.296
   41.000   13.985  124.935    0.487    0.295
   41.250   14.011  127.465    0.478    0.290
   41.500   14.046  128.818    0.483    0.286
   41.750   14.620  126.440    0.474    0.292
   42.000   14.934  127.138    0.455    0.286
   42.250   14.962  131.523    0.466    0.293
   42.500   14.721  130.367    0.471    0.290
   42.750   14.484  126.811    0.481    0.299
   43.000   14.538  128.098    0.478    0.310
   43.250   14.832  128.207    0.474    0.305
   43.500   14.870  127.661    0.464    0.287
   43.750   14.907  125.305    0.458    0.296
   44.000   14.666  124.193    0.475    0.298
   44.250   14.439  124.302    0.488    0.303
   44.500   14.207  125.567    0.509    0.308
   44.750   14.251  129.363    0.508    0.316
   45.000   14.269  133.115    0.501    0.305
   45.250   14.861  136.846    0.503    0.306
   45.500   15.190  140.620    0.512    0.298
   45.750   15.209  135.209    0.511    0.310
   46.000   14.973  132.221    0.477    0.345
   46.250   14.741  128.032    0.462    0.350
   46.500   14.485  126.287    0.449    0.294
   46.750   14.252  129.428    0.462    0.286
   47.000   14.288  130.127    0.458    0.273
   47.250   14.595  127.792    0.454    0.276
   47.500   14.622  127.269    0.469    0.276
   47.750   14.936  127.967    0.482    0.285
   48.000   14.974  128.054    0.498    0.295
   48.250   14.732  126.920    0.494    0.291
   48.500   14.495  128.207    0.484    0.294
   48.750   14.005  126.483    0.475    0.316
   49.000   13.780  125.349    0.477    0.311
   49.250   14.076  126.636    0.475    0.304
   49.500   14.659  129.167    0.468    0.309
   49.750   14.956  130.541    0.466    0.304
   50.000   15.003  131.195    0.469    0.291
   50.250   14.770  131.894    0.478    0.301
   50.500   14.514  135.057    0.485    0.295
   50.750   14.569  136.955    0.496    0.301
   51.000   14.316  136.453    0.516    0.313
   51.250   14.076  134.075    0.510    0.332
   51.500   13.850  131.108    0.503    0.330
   51.750   13.635  127.531    0.493    0.304
   52.000   13.928  127.618    0.479    0.304
   52.250   14.227  133.202    0.464    0.295
   52.500   14.272  136.976    0.475    0.287
   52.750   13.772  134.010    0.467    0.297
   53.000   13.798  131.632    0.476    0.294
   53.250   14.371  131.719    0.502    0.303
   53.500   14.679  128.752    0.486    0.331
   53.750   14.443  125.175    0.466    0.325
   54.000   14.210  124.040    0.468    0.313
   54.250   14.246  123.517    0.504    0.308
   54.500   14.552  124.215    0.512    0.292
   54.750   14.579  124.302    0.517    0.291
   55.000   14.893  127.465    0.503    0.282
   55.250   14.939  125.087    0.496    0.278
   55.500   14.958  124.564    0.493    0.274
   55.750   15.005  126.527    0.490    0.295
   56.000   15.052  125.393    0.484    0.285
   56.250   15.071  124.236    0.478    0.288
   56.500   14.847  122.513    0.482    0.276
   56.750   14.865  121.379    0.480    0.313
   57.000   14.372  124.520    0.482    0.313
   57.250   14.390  128.250    0.489    0.311
   57.500   13.645  132.635    0.495    0.309
   57.750   13.168  133.333    0.500    0.338
   58.000   12.486  135.886    0.504    0.339
   58.250   12.049  135.973    0.492    0.334
   58.500   11.863  132.984    0.511    0.338
   58.750   11.878  129.385    0.523    0.321
   59.000   11.922  128.861    0.524    0.314
   59.250   11.960  134.511    0.530    0.321
   59.500   11.982  135.777    0.536    0.330
   59.750   11.997  137.086    0.525    0.354
   60.000   12.035  136.562    0.515    0.348
   60.250   12.073  135.428    0.527    0.356
   60.500   12.317  136.126    0.538    0.356
   60.750   12.828  136.846    0.525    0.372
   61.000   13.095  131.414    0.453    0.342
   61.250   12.410  121.117    0.407    0.287
   61.500   11.990  113.853    0.394    0.280
   61.750   12.708  101.702    0.383    0.266
   62.000   15.956   95.092    0.390    0.252
   62.250   20.033   94.546    0.395    0.267
   62.500   21.661   97.077    0.390    0.258
   62.750   21.716  101.462    0.385    0.261
   63.000   21.379  104.603    0.379    0.269
   63.250   21.419  101.047    0.382    0.263
   63.500   21.460   98.058    0.382    0.252
   63.750   21.527   93.870    0.371    0.234
   64.000   21.581   90.881    0.359    0.239
   64.250   21.622   87.304    0.354    0.234
   64.500   21.703   88.002    0.360    0.194
   64.750   21.730   90.532    0.368    0.250
   65.000   21.799   94.306    0.366    0.251
   65.250   20.658   93.783    0.357    0.219
   65.500   20.325   92.648    0.332    0.193
   65.750   20.762   87.849    0.324    0.196
   66.000   21.609   81.195    0.294    0.207
   66.250   23.337   78.229    0.288    0.175
   66.500   27.182   82.592    0.286    0.164
   66.750   30.496   90.641    0.281    0.154
   67.000   31.741   93.805    0.283    0.154
   67.250   30.650   93.281    0.289    0.170
   67.500   28.524   91.536    0.300    0.167
   67.750   28.595   89.791    0.300    0.181
   68.000   29.763   88.656    0.291    0.178
   68.250   30.402   88.111    0.280    0.194
