~VERSION INFORMATION
 VERS.                 2.0:   CWLS LOG ASCII STANDARD -VERSION 2.0
 WRAP.                  NO:   ONE LINE PER DEPTH STEP
~WELL INFORMATION BLOCK
#MNEM.UNIT           DATA                    DESCRIPTION OF MNEMONIC
#---------    -------------------            -------------------------------
# Generated from Intellog Unique Number	CN_91_93/WELL/2652
WELL.         06-16-091-13W4                 : Well_name    - WELL
LOC .         AA/06-16-091-13W4/0            : Location     - LOCATION
UWI .         AA/06-16-091-13W400            : Uwi          - UNIQUE WELL ID
ENTR.         joette                         : Entered      - ENTERED BY
SRVC.         WESTERN ATLAS                  : Scn          - SERVICE COMPANY
DATE.         02/05/92                       : Date         - LOG DATE
STRT.M        100                            : top_depth    - START DEPTH
STOP.M        165                            : bot_depth    - STOP DEPTH
STEP.M        0.25                           : increment    - STEP LENGTH
 NULL. -999.2500:NULL Value
~CURVE INFORMATION BLOCK
#MNEM UNIT       ERCB CURVE CODE    CURVE DESCRIPTION
#-----------   ------------------   ----------------------------------
DEPT.M        00 001 00 00         : DEPTH        - DEPTH
GR  .API      00 310 00 00         : GR           - GAMMA RAY
CALI.MM       00 280 01 00         : CAL          - CALIPER
NPHI.V/V      00 330 00 00         : PHIN         - NEUTRON POROSITY (SANDSTONE)
DPHI.V/V      00 890 00 00         : PHID         - DENSITY POROSITY (SANDSTONE)
ILD .OHMM     00 120 00 00         : RESD         - DEEP RESISTIVITY (DIL)
~PARAMETER INFORMATION
#MNEM.UNIT           DATA             DESCRIPTION OF MNEMONIC
#---------         -----------     ------------------------------
GL  .M        445.95               : gl           - GROUND LEVEL ELEVATION
EREF.M        449.32               : kb           - ELEVATION OF DEPTH REFERENCE
DATM.M        449.32               : datum        - DATUM ELEVATION
TDD .M        175                  : tdd          - TOTAL DEPTH DRILLER
RUN .         ONE                  : Run          - RUN NUMBER
ENG .         JO                   : Engineer     - RECORDING ENGINEER
WIT .         TIM                  : Witness      - WITNESSED BY
MUD .         GEL                  : Mud_type     - MUD TYPE
MATR.         SANDSTONE            : Logunit      - NEUTRON MATRIX
TMAX.C        17                   : BHT          - MAXIMUM RECORDED TEMPERATURE
BHTD.M        175                  : BHTDEP       - MAXIMUM RECORDED TEMPERATURE
RMT .C        16                   : MDTP         - TEMPERATURE OF MUD
MUDD.KG/M     1400                 : MWT          - MUD DENSITY
NEUT.         1                    : NEUTRON      - NEUTRON TYPE
RESI.         0                    : RESIST       - RESISTIVITY TYPE
RM  .OHMM     2                    : RM           - RESISTIVITY OF MUD
RMC .OHMM     2.4                  : RMC          - RESISTIVITY OF MUD CAKE
RMF .OHMM     1.3                  : RMF          - RESISTIVITY OF MUD FILTRATE
SUFT.C        4                    : SUFT         - SURFACE TEMPERATURE
~A  DEPTH       GR      CAL     PHIN     PHID     RESD
# ...
  136.500   28.788  161.364    0.369    0.299   25.289
  136.750   23.333  161.364    0.383    0.302   22.874
  137.000   22.121  161.364    0.380    0.312   23.111
  137.250   24.546  161.364    0.377    0.312   24.701
  137.500   25.454  161.364    0.379    0.307   27.644
  137.750   22.121  161.364    0.377    0.309   35.577
  138.000   19.394  161.364    0.378    0.318   40.568
  138.250   21.818  161.364    0.393    0.319   44.990
  138.500   21.818  161.364    0.394    0.326   48.532
  138.750   20.909  161.364    0.396    0.310   51.400
  139.000   20.606  161.869    0.392    0.321   53.399
  139.250   18.788  161.364    0.392    0.324   56.022
  139.500   18.485  161.364    0.391    0.311   57.673
  139.750   19.091  161.869    0.393    0.309   58.301
  140.000   21.515  163.384    0.391    0.316   58.381
  140.250   19.697  164.899    0.411    0.320   58.472
  140.500   19.697  165.404    0.390    0.320   57.992
  140.750   21.515  165.404    0.387    0.324   57.024
  141.000   19.697  164.394    0.390    0.319   56.555
  141.250   21.515  163.384    0.382    0.314   53.566
  141.500   18.182  162.879    0.387    0.312   49.342
  141.750   22.121  161.869    0.403    0.322   44.623
  142.000   20.303  160.859    0.394    0.318   41.097
  142.250   19.091  160.354    0.402    0.310   34.195
  142.500   21.818  159.343    0.403    0.308   29.777
  142.750   18.788  156.818    0.380    0.323   25.235
  143.000   20.303  154.293    0.371    0.314   21.185
  143.250   20.303  153.283    0.378    0.314   20.066
  143.500   20.606  152.273    0.372    0.305   18.829
  143.750   26.061  151.768    0.368    0.297   17.997
  144.000   26.970  151.263    0.379    0.307   17.369
  144.250   29.697  151.263    0.396    0.310   17.229
  144.500   32.424  151.263    0.366    0.308   17.096
  144.750   23.333  151.768    0.367    0.307   17.120
  145.000   17.273  153.788    0.367    0.293   16.985
  145.250   19.091  153.788    0.374    0.297   16.849
  145.500   17.576  153.283    0.376    0.289   16.716
  145.750   18.182  152.273    0.376    0.296   16.282
  146.000   22.424  151.263    0.363    0.308   15.711
  146.250   21.515  150.758    0.353    0.302   15.446
  146.500   17.576  150.253    0.358    0.296   15.185
  146.750   14.848  150.253    0.365    0.301   15.201
  147.000   14.242  150.758    0.365    0.309   14.942
  147.250   17.879  151.263    0.366    0.308   14.688
  147.500   24.546  151.768    0.374    0.302   13.658
  147.750   23.636  151.768    0.373    0.305   12.816
  148.000   21.212  152.273    0.379    0.294   12.139
  148.250   28.485  152.778    0.391    0.277   11.820
  148.500   36.364  154.293    0.413    0.267   11.621
  148.750   45.758  156.313    0.425    0.284   12.187
  149.000   37.576  159.848    0.435    0.323   15.113
  149.250   35.758  161.869    0.418    0.315   16.916
  149.500   21.818  163.889    0.394    0.299   19.109
  149.750   16.970  164.899    0.386    0.300   23.041
  150.000   20.909  164.899    0.398    0.309   25.321
  150.250   24.849  164.899    0.404    0.317   23.987
  150.500   18.788  164.899    0.388    0.315   23.137
  150.750   16.667  164.394    0.382    0.312   23.169
  151.000   20.606  163.384    0.400    0.309   24.311
  151.250   25.151  161.364    0.411    0.292   25.496
  151.500   25.454  160.859    0.423    0.289   27.504
  151.750   23.030  160.859    0.417    0.292   29.664
  152.000   19.394  160.859    0.404    0.297   31.110
  152.250   14.848  161.364    0.402    0.301   32.949
  152.500   16.970  161.869    0.405    0.274   32.088
  152.750   24.849  160.354    0.410    0.252   29.285
  153.000   22.121  159.343    0.407    0.238   23.906
  153.250   18.788  158.838    0.396    0.186   21.817
  153.500   16.364  158.838    0.405    0.222   18.483
  153.750   15.758  160.354    0.410    0.250   16.874
  154.000   15.758  160.859    0.431    0.296   15.977
  154.250   16.667  160.859    0.437    0.298   15.276
  154.500   15.758  160.354    0.435    0.302   15.295
  154.750   14.242  158.838    0.449    0.300   15.603
  155.000   13.939  156.818    0.437    0.294   16.215
  155.250   14.546  154.798    0.423    0.306   17.015
  155.500   15.152  153.788    0.406    0.302   17.847
  155.750   19.394  153.283    0.388    0.303   18.373
  156.000   23.333  153.283    0.376    0.305   18.229
  156.250   26.364  154.293    0.381    0.306   17.106
  156.500   32.424  154.798    0.370    0.289   16.202
  156.750   36.364  155.808    0.366    0.245   15.926
  157.000   43.333  156.818    0.374    0.190   15.926
  157.250   52.424  156.818    0.379    0.201   16.130
  157.500   60.909  156.818    0.388    0.208   16.446
  157.750   47.576  155.808    0.389    0.229   16.936
  158.000   49.091  154.798    0.370    0.225   17.445
  158.250   59.091  154.293    0.387    0.231   17.625
  158.500   52.121  153.283    0.376    0.230   17.980
  158.750   46.970  153.283    0.367    0.228   18.339
  159.000   46.970  153.283    0.362    0.224   19.059
  159.250   50.606  153.283    0.367    0.219   19.807
  159.500   51.515  153.283    0.376    0.216   20.592
  159.750   53.030  152.273    0.380    0.224   21.006
  160.000   37.879  151.263    0.373    0.238   21.032
  160.250   46.061  151.263    0.376    0.247   20.674
  160.500   50.000  151.263    0.374    0.241   19.221
  160.750   53.939  151.263    0.368    0.241   18.205
  161.000   44.849  151.263    0.359    0.240   17.566
  161.250   48.485  151.263    0.355    0.235   17.267
  161.500   47.576  152.273    0.350    0.237   16.973
  161.750   52.424  152.273    0.341    0.240   13.109
  162.000   53.030  151.768    0.326    0.226    9.487
  162.250   49.394  151.768    0.316    0.217    8.575
  162.500   48.182  151.768    0.232    0.202    8.429
  162.750   44.545  152.273    0.201    0.028   11.152
  163.000   36.364  152.273    0.184    0.004   14.616
  163.250   26.364  152.273    0.185    0.005   19.521
  163.500   29.091  152.778    0.181    0.004   25.585
  163.750   28.485  152.778    0.181    0.006   33.222
  164.000   24.849  152.778    0.195    0.009   34.526
  164.250   24.849  152.778    0.190    0.006   34.902
  164.500   31.212  152.778    0.170    0.006   33.677
  164.750   30.606  152.778    0.159    0.005   36.661
  165.000   24.546  152.778    0.147    0.005   40.281
