~VERSION INFORMATION
 VERS.                 2.0:   CWLS LOG ASCII STANDARD -VERSION 2.0
 WRAP.                  NO:   ONE LINE PER DEPTH STEP
~WELL INFORMATION BLOCK
#MNEM.UNIT           DATA                    DESCRIPTION OF MNEMONIC
#---------    -------------------            -------------------------------
# Generated from Intellog Unique Number	CN_94_101/WELL/4985
WELL.         06-30-097-09W4                 : Well_name    - WELL
LOC .         AA/06-30-097-09W4/0            : Location     - LOCATION
UWI .         AA/06-30-097-09W400            : Uwi          - UNIQUE WELL ID
ENTR.         JOETTE                         : Entered      - ENTERED BY
SRVC.         SCHLUMBERGER                   : Scn          - SERVICE COMPANY
DATE.         08/13/92                       : Date         - LOG DATE
STRT.M        30                             : top_depth    - START DEPTH
STOP.M        112.5                          : bot_depth    - STOP DEPTH
STEP.M        0.25                           : increment    - STEP LENGTH
 NULL. -999.2500:NULL Value
~CURVE INFORMATION BLOCK
#MNEM UNIT       ERCB CURVE CODE    CURVE DESCRIPTION
#-----------   ------------------   ----------------------------------
DEPT.M        00 001 00 00         : DEPTH        - DEPTH
GR  .API      00 310 00 00         : GR           - GAMMA RAY
ILD .OHMM     00 120 00 00         : RESD         - DEEP RESISTIVITY (DIL)
NPHI.V/V      00 330 00 00         : PHIN         - NEUTRON POROSITY (SANDSTONE)
DPHI.V/V      00 890 00 00         : PHID         - DENSITY POROSITY (SANDSTONE)
~PARAMETER INFORMATION
#MNEM.UNIT           DATA             DESCRIPTION OF MNEMONIC
#---------         -----------     ------------------------------
GL  .M        299.6                : gl           - GROUND LEVEL ELEVATION
EREF.M        299.6                : kb           - ELEVATION OF DEPTH REFERENCE
DATM.M        299.6                : datum        - DATUM ELEVATION
TDD .M        117                  : tdd          - TOTAL DEPTH DRILLER
RUN .         ONE                  : Run          - RUN NUMBER
ENG .         JO                   : Engineer     - RECORDING ENGINEER
WIT .         TIM                  : Witness      - WITNESSED BY
MUD .         GEL                  : Mud_type     - MUD TYPE
MATR.         SANDSTONE            : Logunit      - NEUTRON MATRIX
TMAX.C        0                    : BHT          - MAXIMUM RECORDED TEMPERATURE
BHTD.M        117                  : BHTDEP       - MAXIMUM RECORDED TEMPERATURE
RMT .C        0                    : MDTP         - TEMPERATURE OF MUD
MUDD.KG/M     1020                 : MWT          - MUD DENSITY
NEUT.         1                    : NEUTRON      - NEUTRON TYPE
RESI.         0                    : RESIST       - RESISTIVITY TYPE
RM  .OHMM     13.8                 : RM           - RESISTIVITY OF MUD
RMC .OHMM     13.8                 : RMC          - RESISTIVITY OF MUD CAKE
RMF .OHMM     13.8                 : RMF          - RESISTIVITY OF MUD FILTRATE
SUFT.C        4                    : SUFT         - SURFACE TEMPERATURE
~A  DEPTH       GR     RESD     PHIN     PHID
# ...
   73.500  131.236    6.459    0.542    0.476
   73.750  117.665    7.048    0.553    0.496
   74.000  110.070    7.370    0.563    0.443
   74.250   94.117    6.577    0.558    0.516
   74.500  103.798    7.099    0.559    0.503
   74.750   94.416    6.335    0.570    0.519
   75.000   82.037    7.600    0.576    0.617
   75.250   87.585    7.781    0.573    0.513
   75.500   97.247    6.656    0.569    0.422
   75.750  108.753    6.601    0.563    0.370
   76.000  140.494    6.345    0.559    0.324
   76.250  129.902    6.225    0.554    0.321
   76.500  146.155    6.240    0.557    0.317
   76.750  157.660    6.255    0.550    0.340
   77.000  150.661    6.339    0.556    0.351
   77.250  151.388    6.421    0.562    0.687
   77.500  121.714    6.931    0.566    0.775
   77.750  119.480    8.056    0.561    0.840
   78.000   82.677    7.342    0.566    0.879
   78.250   65.532    9.192    0.576    0.887
   78.500   79.383    9.511    0.563    0.477
   78.750  103.398    7.636    0.552    0.399
   79.000   96.380    7.181    0.538    0.450
   79.250   77.448    8.896    0.529    0.568
   79.500   64.492    8.458    0.546    0.276
   79.750   93.273    6.439    0.487    0.241
   80.000  102.359    8.233    0.392    0.236
   80.250   99.548    8.341    0.427    0.236
   80.500   94.932    8.449    0.432    0.240
   80.750   98.041    8.386    0.425    0.246
   81.000  105.340    8.225    0.440    0.254
   81.250   74.493    8.163    0.446    0.298
   81.500   83.578    8.182    0.448    0.313
   81.750   90.299    8.289    0.438    0.310
   82.000   78.516    8.309    0.432    0.293
   82.250   75.706    8.243    0.429    0.277
   82.500   84.214    8.261    0.424    0.267
   82.750   90.898    7.769    0.437    0.265
   83.000  102.980    7.706    0.448    0.279
   83.250  102.534    8.063    0.434    0.286
   83.500  103.298    8.080    0.440    0.277
   83.750   93.879    8.182    0.461    0.291
   84.000   90.454    7.780    0.453    0.319
   84.250   66.774    7.884    0.452    0.319
   84.500   69.884    7.986    0.463    0.280
   84.750  138.020    6.687    0.479    0.263
   85.000  148.911    6.293    0.471    0.258
   85.250  141.894    7.088    0.501    0.251
   85.500  134.894    7.650    0.508    0.242
   85.750  131.470    7.586    0.507    0.243
   86.000  135.808    7.447    0.519    0.242
   86.250  113.897    7.705    0.521    0.240
   86.500  117.006    8.057    0.514    0.245
   86.750  119.558    7.822    0.505    0.236
   87.000  116.151    7.598    0.507    0.229
   87.250  132.367    7.146    0.517    0.225
   87.500  148.024    6.379    0.528    0.233
   87.750  136.259    7.182    0.536    0.241
   88.000  158.469    7.276    0.534    0.244
   88.250  146.704    7.215    0.517    0.240
   88.500  148.045    7.708    0.508    0.238
   88.750  133.301    8.232    0.469    0.246
   89.000  106.606    7.829    0.458    0.244
   89.250  106.755    7.681    0.446    0.248
   89.500  114.649    7.702    0.460    0.262
   89.750   98.100    8.311    0.473    0.271
   90.000   70.251    8.696    0.474    0.260
   90.250   92.442    8.900    0.450    0.258
   90.500   89.017    9.215    0.449    0.264
   90.750   86.207    9.329    0.445    0.276
   91.000   85.146    9.557    0.446    0.287
   91.250   82.317    9.782    0.460    0.315
   91.500   74.722   10.012    0.471    0.317
   91.750   70.124    9.029    0.477    0.305
   92.000   64.875    8.770    0.457    0.303
   92.250   65.639    8.885    0.456    0.317
   92.500   67.576    9.389    0.442    0.315
   92.750   66.534    9.412    0.428    0.281
   93.000   80.981    9.140    0.447    0.282
   93.250   87.702    9.259    0.475    0.287
   93.500   95.596   10.429    0.473    0.290
   93.750   91.575   10.787    0.475    0.305
   94.000   61.920   11.044    0.466    0.321
   94.250   53.115   10.958    0.452    0.327
   94.500   68.176   11.104    0.428    0.340
   94.750   37.330   11.486    0.424    0.331
   95.000   26.142   11.513    0.425    0.334
   95.250   34.650   11.540    0.424    0.336
   95.500   38.374   11.568    0.417    0.337
   95.750   41.502   12.225    0.436    0.330
   96.000   39.269   14.068    0.409    0.323
   96.250   50.755   14.707    0.387    0.324
   96.500   30.632   15.221    0.370    0.327
   96.750   38.526   15.420    0.404    0.322
   97.000   38.694   15.457    0.390    0.317
   97.250   41.841   15.005    0.373    0.308
   97.500   35.995   14.887    0.374    0.307
   97.750   38.528   14.762    0.375    0.311
   98.000   32.720   14.339    0.394    0.310
   98.250   22.742   13.212    0.397    0.313
   98.500   29.445   13.240    0.387    0.319
   98.750   35.570   11.564    0.403    0.323
   99.000   44.079   11.469    0.412    0.322
   99.250   40.058   11.379    0.393    0.322
   99.500   32.445   11.406    0.400    0.320
   99.750   46.333   11.437    0.393    0.319
  100.000   41.084   11.461    0.416    0.319
  100.250   49.592   11.374    0.431    0.321
  100.500   41.383   11.275    0.424    0.320
  100.750   43.953   11.302    0.402    0.317
  101.000   51.232   11.336    0.419    0.324
  101.250   42.464   11.356    0.417    0.327
  101.500   36.023   11.525    0.409    0.335
  101.750   49.893   11.658    0.412    0.341
  102.000   48.851   11.932    0.453    0.338
  102.250   55.572   11.964    0.441    0.319
  102.500   45.576   11.992    0.433    0.321
  102.750   43.938   12.021    0.405    0.325
  103.000   42.301   12.050    0.410    0.326
  103.250   39.472   12.207    0.420    0.327
  103.500   36.661   12.111    0.421    0.309
  103.750   46.957   11.886    0.413    0.287
  104.000   55.428   11.542    0.389    0.293
  104.250   47.256   10.745    0.360    0.303
  104.500   44.408   10.437    0.371    0.310
  104.750   38.582   10.908    0.398    0.317
  105.000   45.898   11.406    0.423    0.311
  105.250   43.069   11.437    0.393    0.305
  105.500   45.006   11.582    0.384    0.289
  105.750   44.579   11.491    0.379    0.285
  106.000   54.260   11.394    0.362    0.293
  106.250   47.242   11.428    0.378    0.297
  106.500   46.218   11.219    0.415    0.309
  106.750   53.517   11.125    0.429    0.308
  107.000   50.688   10.803    0.429    0.327
  107.250   32.947   10.380    0.410    0.317
  107.500   34.288    9.766    0.412    0.323
  107.750   21.313    9.091    0.413    0.318
  108.000   42.946    8.374    0.422    0.246
  108.250   38.925    7.708    0.465    0.191
  108.500   71.858    6.321    0.490    0.173
  108.750  103.022    5.579    0.485    0.180
  109.000  116.892    7.059    0.473    0.191
  109.250  109.874    8.747    0.467    0.197
  109.500   73.666    9.244    0.446    0.203
  109.750   79.177    9.876    0.380    0.193
  110.000   51.309   11.354    0.319    0.177
  110.250   43.696   13.341    0.227    0.173
  110.500   27.146   13.804    0.096    0.168
  110.750   22.549   12.445    0.082    0.165
  111.000   32.230   12.086    0.098    0.160
  111.250   46.695   11.991    0.138    0.176
  111.500   34.911   11.897    0.162    0.169
  111.750   21.378   11.793    0.154    0.164
  112.000   28.062   12.081    0.116    0.168
  112.250   23.446   13.036    0.101    0.173
  112.500   17.638   13.776    0.100    0.169
