~VERSION INFORMATION
 VERS.                 2.0:   CWLS LOG ASCII STANDARD -VERSION 2.0
 WRAP.                  NO:   ONE LINE PER DEPTH STEP
~WELL INFORMATION BLOCK
#MNEM.UNIT           DATA                    DESCRIPTION OF MNEMONIC
#---------    -------------------            -------------------------------
# Generated from Intellog Unique Number	CX_WELLS/WELL/1073
WELL.         07-23-089-08W4                 : Well_name    - WELL
LOC .         AA/07-23-089-08W4/0            : Location     - LOCATION
UWI .         AA/07-23-089-08W400            : Uwi          - UNIQUE WELL ID
ENTR.         RJA                            : Entered      - ENTERED BY
SRVC.         SCHLUMBERGER                   : Scn          - SERVICE COMPANY
STRT.F        50                             : top_depth    - START DEPTH
STOP.F        579.856                        : bot_depth    - STOP DEPTH
STEP.F        0.8202                         : increment    - STEP LENGTH
 NULL. -999.2500:NULL Value
~CURVE INFORMATION BLOCK
#MNEM UNIT       ERCB CURVE CODE    CURVE DESCRIPTION
#-----------   ------------------   ----------------------------------
DEPT.F        00 001 00 00         : DEPTH        - DEPTH
GR  .API      00 310 00 00         : GR           - GAMMA RAY
DPHI.V/V      00 890 00 00         : PHID         - DENSITY POROSITY (SANDSTONE)
ILD .OHMM     00 120 00 00         : RESD         - DEEP RESISTIVITY (DLL)
~PARAMETER INFORMATION
#MNEM.UNIT           DATA             DESCRIPTION OF MNEMONIC
#---------         -----------     ------------------------------
GL  .M        421.398              : gl           - GROUND LEVEL ELEVATION
EREF.M        422.313              : kb           - ELEVATION OF DEPTH REFERENCE
DATM.M        422.313              : datum        - DATUM ELEVATION
TDD .M        183.49               : tdd          - TOTAL DEPTH DRILLER
RUN .         ONE                  : Run          - RUN NUMBER
ENG .         BILL                 : Engineer     - RECORDING ENGINEER
WIT .         JIM                  : Witness      - WITNESSED BY
MUD .         GEL                  : Mud_type     - MUD TYPE
MATR.         SANDSTONE            : Logunit      - NEUTRON MATRIX
TMAX.C        60                   : BHT          - MAXIMUM RECORDED TEMPERATURE
BHTD.M        183.49               : BHTDEP       - MAXIMUM RECORDED TEMPERATURE
MATR.         1                    : LOGUNIT      - NEUTRON MATRIX
RMT .C        25                   : MDTP         - TEMPERATURE OF MUD
NEUT.         1                    : NEUTRON      - NEUTRON TYPE
RESI.         1                    : RESIST       - RESISTIVITY TYPE
RMC .OHMM     0.25                 : RMC          - RESISTIVITY OF MUD CAKE
RMF .OHMM     0.25                 : RMF          - RESISTIVITY OF MUD FILTRATE
SUFT.C        15                   : SUFT         - SURFACE TEMPERATURE
~A  DEPTH       GR     PHID     RESD
   50.000   72.887    0.345  106.418
   50.820   73.479    0.342  125.599
   51.640   73.464    0.383  148.225
   52.461   72.841    0.414  148.178
   53.281   74.652    0.437  137.594
   54.101   81.918    0.443  123.148
   54.921   78.865    0.446  100.483
   55.742   75.205    0.433   93.313
   56.562   70.335    0.385   91.578
   57.382   58.167    0.398  102.265
   58.202   46.611    0.436 1352.770
   59.022   38.091    0.430 1256.240
   59.843   41.721    0.419 1083.530
   60.663   47.172    0.410  884.247
   61.483   55.049    0.405  645.901
   62.303   61.716    0.384  578.039
   63.123   62.304    0.358  536.793
   63.944   61.681    0.357  462.957
   64.764   58.629    0.379  480.206
   65.584   54.965    0.352  577.312
   66.404   51.309    0.349  850.206
   67.224   50.079    0.345 1003.370
   68.045   54.919    0.340  984.640
   68.865   57.944    0.336  984.484
   69.685   60.359    0.320  984.019
   70.505   59.732    0.309 1002.100
   71.326   56.680    0.306 1001.790
   72.146   51.198    0.305 1020.040
   72.966   45.712    0.316 1097.900
   73.786   43.270    0.323 1138.630
   74.606   40.818    0.332 1000.450
   75.427   39.588    0.344  831.647
   76.247   38.969    0.361  369.214
   77.067   38.946    0.367  204.515
   77.887   38.934    0.367  157.914
   78.707   38.915    0.361  124.202
   79.528   38.900    0.353   94.149
   80.348   38.281    0.348   85.812
   81.168   38.265    0.350   82.678
   81.988   38.246    0.351   82.658
   82.808   37.012    0.356   82.626
   83.629   36.389    0.363   84.144
   84.449   36.982    0.368   87.273
   85.269   36.970    0.367   92.195
   86.089   36.951    0.365   95.645
   86.909   36.939    0.360  106.798
   87.730   36.313    0.355  104.813
   88.550   35.690    0.352  102.857
   89.370   35.067    0.350  100.953
   90.190   34.444    0.350   99.061
   91.010   33.818    0.353   97.227
   91.831   33.803    0.355   97.204
   92.651   34.395    0.355   97.158
   93.471   34.987    0.356   97.135
   94.291   36.790    0.359   95.322
   95.112   37.382    0.360   93.558
   95.932   37.974    0.364   90.140
   96.752   37.351    0.373   85.253
   97.572   34.906    0.378   80.625
   98.392   34.283    0.392   79.133
   99.213   34.876    0.397   74.849
  100.033   35.464    0.391   73.463
  100.853   37.271    0.371   70.774
  101.673   39.685    0.361   68.183
  102.493   42.099    0.359   65.688
  103.314   44.514    0.358   64.477
  104.134   46.321    0.358   64.452
  104.954   48.128    0.358   64.421
  105.774   48.712    0.358   64.411
  106.594   47.478    0.357   64.386
  107.415   45.644    0.354   64.365
  108.235   41.988    0.353   66.763
  109.055   42.580    0.353   70.535
  109.875   43.165    0.357   73.163
  110.696   43.150    0.359   73.146
  111.516   41.919    0.357   74.478
  112.336   40.689    0.355   75.841
  113.156   41.889    0.353   77.229
  113.976   41.869    0.356   77.204
  114.797   41.247    0.358   77.174
  115.617   39.413    0.358   77.150
  116.437   36.357    0.359   77.132
  117.257   35.130    0.362   75.698
  118.077   35.111    0.362   74.285
  118.898   36.311    0.361   72.893
  119.718   37.510    0.359   72.881
  120.538   39.925    0.359   72.858
  121.358   41.120    0.360   72.835
  122.178   42.324    0.361   71.476
  122.999   44.730    0.361   71.453
  123.819   45.930    0.361   71.431
  124.639   46.518    0.361   71.408
  125.459   46.510    0.361   71.374
  126.280   47.102    0.360   71.352
  127.100   47.087    0.356   71.324
  127.920   47.064    0.355   71.307
  128.740   48.264    0.353   71.290
  129.560   48.856    0.350   71.268
  130.381   51.274    0.349   71.229
  131.201   57.940    0.347   69.905
  132.021   65.214    0.347   69.894
  132.841   71.273    0.348   69.872
  133.661   71.857    0.349   69.850
  134.482   73.057    0.349   69.822
  135.302   74.256    0.349   71.100
  136.122   72.419    0.348   73.743
  136.942   68.763    0.348   75.092
  137.762   57.810    0.349   75.075
  138.583   50.505    0.349   75.045
  139.403   45.627    0.349   75.010
  140.223   52.904    0.348   74.992
  141.043   65.037    0.348   74.962
  141.864   63.196    0.349   74.951
  142.684   54.069    0.351   76.316
  143.504   46.761    0.352   77.706
  144.324   45.531    0.353   79.135
  145.144   45.512    0.353   79.097
  145.965   45.500    0.353   79.079
  146.785   45.481    0.353   79.047
  147.605   45.470    0.353   79.016
  148.425   45.454    0.353   78.998
  149.245   47.869    0.352   78.973
  150.066   51.494    0.352   78.948
  150.886   55.731    0.351   78.917
  151.706   61.789    0.351   78.898
  152.526   67.241    0.350   77.432
  153.346   70.870    0.348   73.234
  154.167   74.496    0.347   68.003
  154.987   79.951    0.345   60.863
  155.807   85.402    0.344   50.586
  156.627   87.205    0.340   46.973
  157.448   89.620    0.333   45.260
  158.268   90.819    0.325   45.246
  159.088   92.015    0.313   46.928
  159.908   92.000    0.303   47.787
  160.728   90.769    0.281   46.041
  161.549   85.895    0.238   43.549
  162.369   80.413    0.194   41.955
  163.189   80.397    0.174   40.422
  164.009   77.341    0.163   39.665
  164.829   73.677    0.162   38.927
  165.650   73.662    0.161   38.201
  166.470   74.861    0.162   37.497
  167.290   77.887    0.163   36.800
  168.110   80.301    0.163   35.455
  168.930   81.501    0.162   33.533
  169.751   83.304    0.162   32.311
  170.571   83.892    0.162   31.131
  171.391   81.451    0.163   29.989
  172.211   79.614    0.166   29.982
  173.031   79.598    0.167   29.968
  173.852   80.183    0.167   29.963
  174.672   80.775    0.167   29.953
  175.492   80.759    0.168   29.944
  176.312   80.744    0.169   28.848
  177.133   80.729    0.169   27.794
  177.953   81.317    0.168   25.337
  178.773   81.305    0.168   22.261
  179.593   80.679    0.172   19.197
  180.413   79.449    0.177   18.842
  181.234   78.830    0.187   18.492
  182.054   82.455    0.203   17.816
  182.874   87.903    0.219   17.485
  183.694   98.825    0.237   16.536
  184.514  109.739    0.275   15.932
  185.335  114.587    0.301   15.350
  186.155  120.646    0.309   14.790
  186.975  124.883    0.319   14.249
  187.795  126.690    0.322   13.727
  188.615  126.674    0.322   13.227
  189.436  123.610    0.321   12.511
  190.256  122.995    0.318   11.617
  191.076  118.724    0.312   10.987
  191.896  121.750    0.307   10.783
  192.717  126.594    0.299   10.980
  193.537  128.397    0.296   10.976
  194.357  127.167    0.298   10.771
  195.177  130.188    0.300   10.573
  195.997  131.384    0.300    9.999
  196.818  129.546    0.300    9.634
  197.638  130.746    0.302    8.309
  198.458  131.945    0.306    7.437
  199.278  131.319    0.307    6.533
  200.098  130.696    0.292    6.652
  200.919  132.503    0.284    7.159
  201.739  136.128    0.286    8.451
  202.559  137.943    0.288   10.937
  203.379  138.527    0.291   12.909
  204.199  134.264    0.294   14.684
  205.020  126.352    0.297   14.678
  205.840  119.655    0.300   12.428
  206.660  114.169    0.303    9.774
  207.480  109.898    0.303    9.246
  208.301  108.672    0.301   11.323
  209.121  106.227    0.300   14.384
  209.941  106.819    0.296   13.114
  210.761  111.655    0.291   11.104
  211.581  111.032    0.272   11.732
  212.402  112.843    0.247   13.345
  213.222  119.509    0.231   16.342
  214.042  114.631    0.242   17.587
  214.862  106.719    0.277   16.945
  215.682  101.841    0.280   16.940
  216.503  101.218    0.273   17.898
  217.323  101.202    0.259   15.154
  218.143  105.443    0.241   19.614
  218.963  107.246    0.267   34.737
  219.783  108.445    0.295   38.081
  220.604  106.608    0.296   31.078
  221.424  103.555    0.291   23.558
  222.244   99.896    0.271   10.652
  223.064   97.443    0.195    9.359
  223.885  103.506    0.121    9.017
  224.705  113.816    0.060    8.528
  225.525  122.912    0.063    8.067
  226.345  129.579    0.080    7.917
  227.165  131.382    0.109    8.061
