~VERSION INFORMATION
 VERS.                 2.0:   CWLS LOG ASCII STANDARD -VERSION 2.0
 WRAP.                  NO:   ONE LINE PER DEPTH STEP
~WELL INFORMATION BLOCK
#MNEM.UNIT           DATA                    DESCRIPTION OF MNEMONIC
#---------    -------------------            -------------------------------
# Generated from Intellog Unique Number	CX_WELLS/WELL/3840
WELL.         COSENA                         : Well_name    - WELL
LOC .         AA/06-15-087-07W4/0            : Location     - LOCATION
UWI .         AA/06-15-087-07W400            : Uwi          - UNIQUE WELL ID
ENTR.         T                              : Entered      - ENTERED BY
SRVC.         SCHLUMBERGER                   : Scn          - SERVICE COMPANY
STRT.M        40                             : top_depth    - START DEPTH
STOP.M        195                            : bot_depth    - STOP DEPTH
STEP.M        0.25                           : increment    - STEP LENGTH
 NULL. -999.2500:NULL Value
~CURVE INFORMATION BLOCK
#MNEM UNIT       ERCB CURVE CODE    CURVE DESCRIPTION
#-----------   ------------------   ----------------------------------
DEPT.M        00 001 00 00         : DEPTH        - DEPTH
GR  .API      00 310 00 00         : GR           - GAMMA RAY
NPHI.V/V      00 330 00 00         : PHIN         - NEUTRON POROSITY (SANDSTONE)
DPHI.V/V      00 890 00 00         : PHID         - DENSITY POROSITY (SANDSTONE)
ILD .OHMM     00 120 00 00         : RESD         - DEEP RESISTIVITY (DIL)
~PARAMETER INFORMATION
#MNEM.UNIT           DATA             DESCRIPTION OF MNEMONIC
#---------         -----------     ------------------------------
GL  .M        440.9                : gl           - GROUND LEVEL ELEVATION
EREF.M        442.45               : kb           - ELEVATION OF DEPTH REFERENCE
DATM.M        442.45               : datum        - DATUM ELEVATION
TDD .M        209                  : tdd          - TOTAL DEPTH DRILLER
RUN .         ONE                  : Run          - RUN NUMBER
ENG .         BILL                 : Engineer     - RECORDING ENGINEER
WIT .         JIM                  : Witness      - WITNESSED BY
MUD .         GEL                  : Mud_type     - MUD TYPE
MATR.         SANDSTONE            : Logunit      - NEUTRON MATRIX
TMAX.C        15                   : BHT          - MAXIMUM RECORDED TEMPERATURE
BHTD.M        209                  : BHTDEP       - MAXIMUM RECORDED TEMPERATURE
MATR.         1                    : LOGUNIT      - NEUTRON MATRIX
RMT .C        25                   : MDTP         - TEMPERATURE OF MUD
NEUT.         1                    : NEUTRON      - NEUTRON TYPE
RESI.         9.8                  : RESIST       - RESISTIVITY TYPE
RMC .OHMM     9.8                  : RMC          - RESISTIVITY OF MUD CAKE
RMF .OHMM     9.8                  : RMF          - RESISTIVITY OF MUD FILTRATE
SUFT.C        4                    : SUFT         - SURFACE TEMPERATURE
~A  DEPTH       GR     PHIN     PHID     RESD
# ...
   83.500   72.492    0.446    0.308    7.688
   83.750   70.864    0.472    0.300    7.591
   84.000   70.513    0.482    0.289    7.220
   84.250   71.230    0.489    0.291    7.130
   84.500   74.606    0.459    0.299    7.195
   84.750   77.930    0.450    0.306    6.962
   85.000   78.647    0.441    0.307    6.726
   85.250   80.799    0.440    0.295    6.048
   85.500   80.395    0.439    0.284    5.638
   85.750   80.552    0.442    0.282    5.779
   86.000   81.374    0.457    0.308    6.515
   86.250   83.421    0.474    0.310    7.769
   86.500   84.907    0.490    0.313    8.759
   86.750   87.671    0.507    0.304    8.979
   87.000   87.776    0.509    0.289    8.688
   87.250   86.813    0.502    0.276    7.812
   87.500   84.625    0.493    0.282    6.895
   87.750   84.117    0.484    0.288    6.317
   88.000   84.431    0.501    0.287    5.788
   88.250   84.536    0.498    0.286    5.212
   88.500   82.960    0.458    0.281    5.036
   88.750   81.945    0.450    0.286    4.783
   89.000   83.379    0.459    0.292    4.471
   89.250   86.651    0.542    0.277    4.333
   89.500   92.424    0.545    0.282    4.193
   89.750   90.849    0.542    0.305    3.920
   90.000   90.341    0.546    0.309    3.799
   90.250   91.163    0.574    0.306    3.676
   90.500   93.874    0.585    0.303    3.563
   90.750   95.413    0.596    0.305    3.791
   91.000   95.570    0.606    0.309    4.189
   91.250   95.115    0.597    0.314    4.995
   91.500   95.429    0.592    0.323    6.183
   91.750   96.198    0.591    0.323    7.248
   92.000   96.968    0.595    0.319    7.713
   92.250   95.444    0.585    0.310    8.208
   92.500   93.712    0.547    0.312    8.913
   92.750   89.074    0.533    0.305    9.486
   93.000   87.342    0.530    0.288    9.709
   93.250   84.541    0.515    0.287   10.156
   93.500   84.086    0.502    0.278   10.623
   93.750   84.348    0.499    0.274   11.305
   94.000   85.834    0.499    0.286   11.571
   94.250   85.991    0.500    0.278   12.333
   94.500   86.865    0.486    0.265   13.124
   94.750   87.635    0.479    0.267   14.499
   95.000   89.121    0.471    0.252   17.343
   95.250   91.116    0.463    0.238   18.086
   95.500   95.052    0.436    0.246   19.611
   95.750   99.601    0.417    0.249   17.334
   96.000   96.748    0.403    0.249   16.132
   96.250   93.843    0.387    0.240   15.059
   96.500   90.430    0.382    0.209   14.324
   96.750   88.085    0.372    0.190   13.392
   97.000   82.835    0.363    0.162   12.718
   97.250   80.490    0.396    0.151   11.207
   97.500   84.531    0.429    0.191    9.876
   97.750   86.525    0.456    0.212    8.716
   98.000   87.960    0.469    0.242    8.302
   98.250   86.996    0.469    0.259    8.353
   98.500   85.876    0.473    0.277    9.057
   98.750   84.248    0.479    0.293   10.195
   99.000   87.572    0.489    0.311   12.640
   99.250   90.844    0.499    0.316   14.207
   99.500   93.555    0.497    0.310   16.941
   99.750   94.989    0.498    0.308   16.138
  100.000   95.251    0.495    0.300   14.763
  100.250   94.796    0.472    0.286   13.275
  100.500   91.435    0.436    0.277   11.268
  100.750   89.703    0.432    0.277    9.213
  101.000   87.462    0.423    0.282    8.119
  101.250   85.222    0.415    0.288    7.602
  101.500   82.369    0.420    0.285    7.495
  101.750   86.253    0.424    0.276    7.253
  102.000   88.912    0.431    0.276    6.531
  102.250   90.959    0.433    0.280    5.873
  102.500   91.781    0.510    0.281    5.578
  102.750   91.990    0.530    0.293    5.726
  103.000   86.075    0.505    0.314    6.085
  103.250   83.170    0.500    0.307    6.732
  103.500   88.384    0.498    0.285    7.757
  103.750   91.655    0.507    0.285    7.927
  104.000   91.252    0.516    0.283    7.682
  104.250   89.677    0.516    0.280    7.028
  104.500   87.944    0.512    0.290    5.746
  104.750   86.929    0.506    0.323    4.787
  105.000   85.913    0.504    0.343    4.140
  105.250   82.500    0.505    0.358    4.018
  105.500   80.155    0.498    0.340    4.696
  105.750   79.140    0.492    0.312    5.608
  106.000   81.239    0.474    0.310    6.313
  106.250   84.510    0.477    0.328    7.106
  106.500   90.336    0.481    0.326    7.705
  106.750   93.555    0.478    0.321    8.851
  107.000   93.869    0.475    0.315    8.753
  107.250   91.577    0.473    0.304    8.629
  107.500   88.672    0.475    0.291    8.534
  107.750   85.819    0.478    0.279    8.586
  108.000   85.416    0.478    0.273    8.638
  108.250   85.678    0.478    0.265    8.855
  108.500   84.662    0.477    0.253    8.922
  108.750   82.982    0.475    0.254    8.796
  109.000   81.302    0.470    0.254    9.031
  109.250   79.674    0.466    0.251    9.072
  109.500   79.323    0.461    0.246    9.141
  109.750   79.533    0.453    0.233    9.012
  110.000   79.794    0.447    0.223    8.734
  110.250   80.564    0.435    0.210    8.320
  110.500   81.490    0.407    0.129    8.063
  110.750   82.207    0.385    0.127    7.681
  111.000   84.971    0.388    0.180    7.294
  111.250   86.353    0.412    0.222    7.048
  111.500   89.064    0.417    0.240    6.579
  111.750   89.939    0.425    0.236    4.217
  112.000   90.096    0.451    0.235    3.642
  112.250   89.640    0.458    0.237    3.280
  112.500   89.237    0.462    0.242    3.629
  112.750   87.609    0.463    0.258    4.015
  113.000   85.369    0.465    0.303    4.267
  113.250   83.741    0.494    0.317    4.626
  113.500   83.338    0.520    0.341    5.024
  113.750   79.821    0.542    0.364    5.247
  114.000   73.293    0.557    0.341    5.379
  114.250   72.943    0.558    0.332    5.635
  114.500   73.152    0.537    0.328    5.652
  114.750   72.084    0.512    0.324    5.794
  115.000   72.346    0.482    0.295    5.615
  115.250   73.168    0.459    0.249    4.963
  115.500   74.602    0.460    0.249    4.795
  115.750   75.984    0.483    0.255    4.742
  116.000   77.471    0.487    0.258    5.362
  116.250   78.292    0.486    0.264    5.689
  116.500   77.889    0.482    0.268    6.169
  116.750   78.151    0.472    0.271    6.565
  117.000   78.360    0.467    0.263    6.605
  117.250   78.570    0.466    0.254    5.939
  117.500   78.167    0.459    0.242    5.041
  117.750   77.764    0.429    0.227    4.619
  118.000   77.361    0.402    0.190    4.483
  118.250   77.518    0.403    0.179    4.264
  118.500   77.779    0.428    0.209    4.126
  118.750   77.989    0.457    0.272    4.074
  119.000   77.586    0.510    0.298    4.023
  119.250   77.795    0.548    0.326    3.966
  119.500   79.282    0.506    0.326    4.002
  119.750   80.768    0.502    0.322    4.096
  120.000   80.873    0.523    0.326    4.121
  120.250   81.135    0.525    0.321    4.305
  120.500   80.679    0.514    0.318    4.413
  120.750   79.664    0.538    0.315    4.530
  121.000   79.873    0.541    0.302    4.732
  121.250   81.920    0.526    0.299    4.858
  121.500   84.631    0.516    0.294    5.074
  121.750   86.118    0.515    0.270    5.407
  122.000   86.275    0.507    0.262    5.746
  122.250   86.589    0.502    0.256    6.478
  122.500   86.746    0.494    0.244    7.292
  122.750   86.903    0.477    0.240    8.859
  123.000   87.217    0.463    0.233   10.564
  123.250   83.647    0.460    0.229   12.579
  123.500   78.345    0.455    0.231   15.023
  123.750   76.717    0.451    0.237   15.376
  124.000   75.754    0.446    0.245   16.133
  124.250   75.246    0.407    0.252   16.488
  124.500   73.618    0.399    0.259   16.588
  124.750   71.990    0.373    0.264   15.801
  125.000   70.467    0.367    0.271   14.706
  125.250   69.960    0.361    0.274   12.521
  125.500   68.996    0.350    0.260   12.134
  125.750   69.818    0.350    0.251   11.541
  126.000   69.415    0.351    0.241   10.741
  126.250   70.850    0.353    0.223    8.620
  126.500   70.394    0.357    0.166    7.751
  126.750   68.154    0.357    0.164    8.738
