~VERSION INFORMATION
 VERS.                 2.0:   CWLS LOG ASCII STANDARD -VERSION 2.0
 WRAP.                  NO:   ONE LINE PER DEPTH STEP
~WELL INFORMATION BLOCK
#MNEM.UNIT           DATA                    DESCRIPTION OF MNEMONIC
#---------    -------------------            -------------------------------
# Generated from Intellog Unique Number	CN_94_101/WELL/3176
WELL.         01-09-095-13W4                 : Well_name    - WELL
LOC .         AA/01-09-095-13W4/0            : Location     - LOCATION
UWI .         AA/01-09-095-13W4/0            : Uwi          - UNIQUE WELL ID
ENTR.         JOETTE                         : Entered      - ENTERED BY
SRVC.         SCHLUMBERGER                   : Scn          - SERVICE COMPANY
DATE.         07/16/92                       : Date         - LOG DATE
STRT.F        50                             : top_depth    - START DEPTH
STOP.F        500.295                        : bot_depth    - STOP DEPTH
STEP.F        0.8202                         : increment    - STEP LENGTH
 NULL. -999.2500:NULL Value
~CURVE INFORMATION BLOCK
#MNEM UNIT       ERCB CURVE CODE    CURVE DESCRIPTION
#-----------   ------------------   ----------------------------------
DEPT.F        00 001 00 00         : DEPTH        - DEPTH
ILD .OHMM     00 120 00 00         : RESD         - DEEP RESISTIVITY (DIL)
GR  .API      00 310 00 00         : GR           - GAMMA RAY
DELT.US/F     00 520 00 00         : DELT         - SONIC TRAVEL TIME
~PARAMETER INFORMATION
#MNEM.UNIT           DATA             DESCRIPTION OF MNEMONIC
#---------         -----------     ------------------------------
GL  .M        390.571              : gl           - GROUND LEVEL ELEVATION
EREF.M        390.571              : kb           - ELEVATION OF DEPTH REFERENCE
DATM.M        390.571              : datum        - DATUM ELEVATION
TDD .M        92.6592              : tdd          - TOTAL DEPTH DRILLER
RUN .         ONE                  : Run          - RUN NUMBER
ENG .         JO                   : Engineer     - RECORDING ENGINEER
WIT .         TIM                  : Witness      - WITNESSED BY
MUD .         GEL                  : Mud_type     - MUD TYPE
MATR.         SANDSTONE            : Logunit      - NEUTRON MATRIX
TMAX.F        36                   : BHT          - MAXIMUM RECORDED TEMPERATURE
BHTD.F        509                  : BHTDEP       - MAXIMUM RECORDED TEMPERATURE
RMT .F        36                   : MDTP         - TEMPERATURE OF MUD
MUDD.LB/G     1.11                 : MWT          - MUD DENSITY
NEUT.         1                    : NEUTRON      - NEUTRON TYPE
RESI.         0                    : RESIST       - RESISTIVITY TYPE
RM  .OHMM     3.5                  : RM           - RESISTIVITY OF MUD
RMC .OHMM     3.5                  : RMC          - RESISTIVITY OF MUD CAKE
RMF .OHMM     3.5                  : RMF          - RESISTIVITY OF MUD FILTRATE
SUFT.F        39.2                 : SUFT         - SURFACE TEMPERATURE
~A  DEPTH     RESD       GR     DELT
   50.000    8.227   72.284  158.157
   50.820    9.367   54.158  167.170
   51.640   13.487   49.451  185.152
   52.461   15.479   51.231  195.958
   53.281   17.612   52.147  203.895
   54.101   19.250   50.047  213.625
   54.921   19.752   50.950  209.346
   55.742   20.540   63.121  177.790
   56.562   20.475   67.089  173.161
   57.382   18.849   69.289  168.890
   58.202   15.877   71.947  166.054
   59.022   12.552   69.822  165.012
   59.843   11.920   65.115  170.070
   60.663   10.649   60.408  171.907
   61.483   11.792   57.876  168.712
   62.303   12.151   63.103  163.715
   63.123   12.512   67.491  164.835
   63.944   10.036   65.799  162.708
   64.764   11.177   71.916  161.307
   65.584   11.892   83.223  164.947
   66.404   10.977   70.731  166.408
   67.224   11.692   66.445  164.657
   68.045   12.196   69.522  162.539
   68.865   11.137   79.964  162.574
   69.685    9.868   85.636  165.111
   70.505    9.945   86.576  173.047
   71.326   10.448   83.587  171.288
   72.146    9.602   71.516  165.574
   72.966    9.256   62.039  160.235
   73.786    9.900   56.047  162.422
   74.606   10.757   57.383  163.192
   75.427   10.408   64.797  163.209
   76.247    9.564   72.199  163.243
   77.067    9.428   77.451  161.484
   77.887   11.279   80.962  155.419
   78.707   11.923   88.376  150.422
   79.528   10.370   91.034  147.587
   80.348    8.673   88.044  156.617
   81.168    8.965   83.337  158.078
   81.988    8.830   79.915  158.462
   82.808    8.481   82.573  156.344
   83.629    8.770   91.705  150.997
   84.449    8.280   92.632  142.771
   85.269    8.357   96.142  138.141
   86.089    8.223   97.058  140.687
   86.909    8.653   85.864  140.372
   87.730    8.092   81.577  140.415
   88.550    7.957   78.180  143.670
   89.370    6.971   80.812  149.804
   90.190    7.898   91.687  153.435
   91.010    8.262   90.872  154.913
   91.831    8.268   88.772  154.230
   92.651    8.485   91.405  153.538
   93.471    8.988   94.495  152.855
   94.291   10.342   91.085  154.692
   95.112    9.569   86.799  156.888
   95.932    8.935   83.389  156.555
   96.752    8.447   81.709  151.558
   97.572    8.807   81.327  146.570
   98.392    9.806   79.648  160.606
   99.213   12.790   78.400  169.259
  100.033   14.428   86.680  174.317
  100.853   14.505   88.028  174.360
  101.673   12.316   75.537  159.676
  102.493   12.248   64.330  168.330
  103.314   13.886   55.718  175.907
  104.134   15.311   72.215  177.736
  104.954   14.607   74.873  180.273
  105.774   15.961   76.653  181.025
  106.594   17.529   74.108  173.167
  107.415   20.228   72.873  181.103
  108.235   16.122   74.653  181.496
  109.055   16.128   73.839  179.746
  109.875   14.789   72.147  179.413
  110.696   15.219   71.332  176.586
  111.516   15.226   77.017  175.544
  112.336   15.020   77.932  173.058
  113.156   14.601   76.685  170.949
  113.976   15.174   78.032  168.105
  114.797   14.613   82.840  164.901
  115.617   13.911   84.645  167.815
  116.437   14.555   83.830  172.163
  117.257   15.128   83.868  174.342
  118.077   16.484   83.918  173.659
  118.898   16.844   83.968  171.191
  119.718   17.416   82.721  174.454
  120.538   13.806   78.879  182.749
  121.358   19.556   71.133  191.395
  122.178   21.194   69.453  188.559
  122.999   14.111   70.368  180.333
  123.819   13.122   71.296  174.627
  124.639   12.632   71.791  166.768
  125.459   11.575   67.504  168.597
  126.280   13.638   60.190  168.631
  127.100   13.360   55.483  170.101
  127.920   14.288   62.020  174.091
  128.740   16.068   63.825  176.645
  129.560   19.690   66.458  174.886
  130.381   19.980   72.995  175.630
  131.201   15.661   70.908  175.314
  132.021   17.866   68.771  173.187
  132.841   14.964   66.659  167.122
  133.661    9.938   70.614  167.883
  134.482   10.510   76.719  166.124
  135.302   12.362   79.376  166.150
  136.122   13.217   80.749  168.696
  136.942   14.997   80.774  168.730
  137.762   16.066   78.674  170.926
  138.583   15.009   76.550  169.158
  139.403   14.873   72.695  170.636
  140.223   12.541   69.731  170.671
  141.043   12.689   78.863  167.835
  141.864   13.051   84.560  163.564
  142.684   11.211   84.165  162.881
  143.504   11.998   81.621  162.198
  144.324   11.437   78.631  161.157
  145.144   10.736   70.897  167.290
  145.965   12.371   67.068  180.967
  146.785   12.661   70.133  182.446
  147.605   20.397   84.034  180.678
  148.425   20.191   95.341  170.307
  149.245   12.326  103.621  161.364
  150.066    9.709  100.211  149.559
  150.886    7.516   88.572  147.073
  151.706    8.587   77.366  169.369
  152.526   11.360   71.362  176.947
  153.346   11.648   65.358  175.187
  154.167   13.357   62.368  171.634
  154.987   14.427   81.039  168.790
  155.807   12.873   84.982  158.061
  156.627    7.419   85.477  152.714
  157.448    7.072   85.107  144.847
  158.268    7.291   83.847  140.217
  159.088    7.368   81.735  142.404
  159.908    7.161   79.611  160.386
  160.728    7.382   77.079  163.300
  161.549    8.166   74.522  171.586
  162.369    9.804   68.517  175.217
  163.189   11.795   75.487  173.458
  164.009   16.269   91.996  170.981
  164.829   18.545   90.749  168.863
  165.650   17.345   80.840  168.897
  166.470   13.380   76.133  173.237
  167.290   10.765   69.696  181.532
  168.110   11.337   68.449  185.514
  168.930   14.251   77.606  190.212
  169.751   15.037   78.496  183.789
  170.571   15.326   81.599  178.442
  171.391   18.171   80.784  175.973
  172.211   17.183   79.092  177.443
  173.031   16.055   75.682  177.119
  173.852   16.983   72.273  176.086
  174.672   16.351   71.458  176.111
  175.492   15.932   73.671  176.155
  176.312   18.420   77.181  176.172
  177.133   26.441   82.853  183.749
  177.953   24.886   86.388  190.977
  178.773   23.120   84.721  182.025
  179.593   17.524   83.881  173.807
  180.413   19.376   81.337  172.415
  181.234   19.239   78.792  176.747
  182.054   19.528   77.545  179.293
  182.874   18.684   80.190  174.304
  183.694   16.918   82.847  178.285
  184.514   16.215   80.290  181.916
  185.335   16.576   75.584  182.668
  186.155   17.220   73.484  180.191
  186.975   16.305   77.414  178.073
  187.795   17.162   82.234  180.261
  188.615   17.524   80.987  181.730
  189.436   17.601   79.307  177.818
  190.256   19.095   84.547  172.112
  191.076   17.117   83.745  173.223
  191.896   16.343   82.065  177.213
  192.717   15.356   82.548  178.315
  193.537   18.909   81.733  176.556
  194.357   18.206   78.311  175.514
  195.177   18.212   72.307  180.221
  195.997   18.289   68.465  196.051
  196.818   17.799   65.500  213.674
  197.638   16.388   63.363  242.070
  198.458   15.684   59.521  269.030
  199.278    8.103   60.869  252.193
  200.098    5.414   66.554  240.379
  200.919   13.647   77.441  194.823
  201.739   15.923   79.208  181.941
  202.559   17.204   77.961  176.227
  203.379   18.772   73.254  183.454
  204.199   18.565   69.845  186.350
  205.020   19.138   68.177  184.950
  205.840   18.790   70.390  179.961
  206.660   16.812   69.575  176.776
  207.480   19.229   69.613  175.384
  208.301   18.171   61.447  175.401
  209.121   18.887   53.267  181.552
  209.941   19.035   53.330  180.860
  210.761   18.970   59.867  177.657
  211.581   19.402   67.269  174.822
  212.402   18.628   72.534  178.094
  213.222   16.295   68.247  179.931
  214.042   15.095   65.258  182.109
  214.862   24.108   70.510  188.611
  215.682   27.376   81.817  191.165
  216.503   17.808   86.192  187.603
  217.323   16.397   88.417  181.539
  218.143   13.283   86.292  178.694
  218.963   12.015   83.328  172.271
  219.783   12.445   84.675  174.099
  220.604   12.735   86.456  166.958
  221.424   11.607   86.951  164.481
  222.244   10.691   85.271  168.462
  223.064   10.556   81.849  162.756
  223.885   11.627   78.427  161.723
  224.705   11.918   75.883  161.758
  225.525   11.640   78.973  165.372
  226.345   11.858   79.023  169.011
  227.165   13.850   79.073  167.243
