~Version : LASO    vs 4.00
VERS.                2.00:   CWLS Log ASCII Standard -VERSION 2.0
WRAP.                  NO:
~Well Information Block
#MNEM.UNIT       Data                        Description of Mnemonic
#----.----      -------------------------- : -----------------------------
STRT.M            13.0000:
STOP.M           191.0000:
STEP.M             0.2000:
NULL.           -999.2500:
COMP.  MOBIL OIL OF CANADA          :COMPANY
WELL.  MOBIL CLARKE OV 4-1          :WELL
FLD.                                :FIELD
LOC.   04-01-091-08W4               :LOCATION
CTRY.  CANADA                       :COUNTRY
PROV.  ALBERTA                      :PROVINCE
SRVC.  SCHLUMBERGER                 :SERVICE COMPANY
DATE.  12-FEB-81                    :LOG DATE
UWI.   AA/04-01-091-08W400          :UNIQUE WELL ID
~Parameter Information Block
#MNEM.UNIT       Data                        Description of Mnemonic
#----.----      -------------------------- : -----------------------------
RUN .                   1                 : Run Number
GL  .M           444.1000                 : Ground Level Elevation
DREF.                  GD                 : Depth Reference
EREF.M           444.1000                 : Elevation of Depth Reference
TDL .M           191.5000                 : Total Depth Logger
TDD .M           192.0000                 : Total Depth Driller
CSGL.M            15.0000                 : Casing Bottom Logger
CSGD.M            15.0000                 : Casing Bottom Driller
CSGS.MM          179.0000                 : Casing Size
CSGW.KG/M          0.0000                 : Casing Weight
BHT .DEGC         12.0000                 : Bottom Hole Temperature
BS  .MM          158.0000                 : Bit Size
DFD .           1080.0000                 : Mud Weight (Density)
DFV .             85.0000                 : Mud Viscosity
DFPH.             12.6000                 : Mud pH
~Curve Information Block
#MNEM.UNIT        API CODE    Curve Description
#---------    ------------    -------------------------------------------
DEPT.M                    :   DEPTH
CALI.MM       42 280  1  1:   3 DENSITY CALIPER
DPHI.V/V                  :   DPHI
DT  .US/M     60 520  0  1:   2 SONIC INTERVAL TRANSIT TIME (COMPENSATED)
GR  .GAPI     42 310  1  1:   4 GAMMA RAY
ILD .OHMM      5 120 46  1:   7 DEEP INDUCTION
ILM .OHMM      5 120 44  1:   8 MEDIUM INDUCTION
NPHI.V/V      42 890  3  1:   5 NEUTRON POROSITY (SANDSTONE)
RHOB.K/M3     42 350  1  1:   6 BULK DENSITY
SFLU.OHMM      5 220  1  1:   9 FOCUSSED RESISTIVITY
SP  .MV        5  10  1  1:   10 SPONTANEOUS POTENTIAL
~A  Depth           CALI        DPHI          DT          GR         ILD         ILM        NPHI        RHOB        SFLU          SP
# ...
159.4000        158.6000      0.2142    427.4000     58.9050     25.3647    402.7448      0.4264   2291.0000     46.1137    -71.2350
159.6000        161.0750      0.2120    426.0000     63.0150     25.8363    406.4713      0.4174   2304.8999     31.9029    -70.2300
159.8000        158.6000      0.2036    427.1200     65.2200     26.3166    399.0524      0.4130   2305.8999     32.7967    -70.2300
160.0000        164.7750      0.2124    427.2800     59.1000     27.5569    377.5982      0.4435   2338.6001    194.0126    -75.0000
160.2000        159.8250      0.2447    421.4000     52.9050     28.8556    388.1771      0.4505   2299.0000    366.2941    -76.5000
160.4000        161.0750      0.2671    413.0800     51.1950     33.1306    406.4713      0.4340   2245.5000    175.3194    -75.4950
160.6000        159.8250      0.2609    409.7600     55.2000     39.4666    402.7448      0.4085   2205.8999     96.3452    -75.0000
160.8000        158.6000      0.2478    412.6800     52.6950     40.5723    402.7448      0.4135   2239.6001    216.6855    -78.0150
161.0000        159.8250      0.2433    414.6400     45.6000     41.3266    406.4713      0.4306   2266.3000    981.3635    -81.0150
161.2000        161.0750      0.2515    408.7200     38.6850     42.4844    433.5407      0.4149   2249.5000   2227.5625    -84.7800
161.4000        158.6000      0.2510    402.2000     39.0900     42.8775    406.4713      0.4012   2227.7000   2050.3589    -85.5300
161.6000        161.0750      0.2427    399.0000     40.6950     43.6747    402.7448      0.3960   2251.3999    529.4561    -85.7850
161.8000        161.0750      0.2376    401.5200     38.4900     43.2743    388.1771      0.3929   2257.3999    772.3781    -83.5200
162.0000        157.3500      0.2445    403.0000     34.8900     41.3266    406.4713      0.4077   2234.6001   2332.5442    -81.7650
162.2000        156.1250      0.2501    402.8400     33.2850     38.0391    441.6009      0.4201   2242.5000   2375.9094    -79.0050
162.4000        157.3500      0.2487    396.9600     32.5800     34.0588    441.6009      0.4145   2236.6001   2354.1270    -77.7600
162.6000        161.0750      0.2151    391.0000     37.1850     24.2231    406.4713      0.3845   2293.0000   1096.0488    -78.5100
162.8000        161.0750      0.1968    391.6000     42.3900     21.6885    399.0524      0.3734   2295.0000    140.5497    -78.5100
163.0000        161.0750      0.1807    398.0000     48.1950     19.7802    399.0524      0.3637   2274.2000     48.7338    -76.2600
163.2000        161.0750      0.1658    404.0000     64.5150     17.7105    399.0524      0.3470   2337.6001     20.5036    -76.0050
163.4000        158.6000      0.1639    401.8000     66.9150     17.5481    402.7448      0.3553   2383.1001     22.4817    -80.0100
163.6000        159.8250      0.1717    395.5600     64.2150     18.0397    406.4713      0.3781   2403.8999     27.5315    -85.7850
163.8000        157.3500      0.1707    384.8000     51.1950     21.6885    391.7689      0.3769   2378.2000     51.0305    -91.5450
164.0000        157.3500      0.1763    381.8800     45.9900     24.4472    410.2324      0.3658   2363.3000    124.6895    -91.2900
164.2000        157.3500      0.1981    380.4800     41.3850     28.3289    406.4713      0.3588   2393.0000    397.9513    -91.2900
164.4000        163.5500      0.2107    385.8800     38.6850     36.3270    402.7448      0.3491   2328.7000    846.8957    -92.2950
164.6000        163.5500      0.2320    390.0800     39.8850     39.1048    395.3939      0.3674   2298.0000    343.4234    -91.8000
164.8000        159.8250      0.2428    391.4800     41.3850     40.9477    402.7448      0.3908   2287.1001    420.5619    -92.8050
165.0000        156.1250      0.2536    393.0000     40.4850     40.2004    410.2324      0.4287   2251.3999    456.9092    -95.8050
165.2000        158.6000      0.2545    397.0000     40.2900     40.2004    402.7448      0.4363   2231.6001    319.0288    -95.0550
165.4000        159.8250      0.2474    401.3600     41.0850     40.9477    417.8592      0.4316   2222.7000    376.5563    -94.8000
165.6000        159.8250      0.2492    404.8000     41.4900     41.3266    381.0921      0.4196   2224.7000   1066.1785    -96.5550
165.8000        158.6000      0.2588    407.2800     36.7800     43.6747    406.4713      0.4418   2221.7000    452.7202    -98.0700
166.0000        158.6000      0.2717    407.2000     35.9850     44.8983    410.2324      0.4489   2207.8999    409.1004    -96.8100
166.2000        158.6000      0.2776    406.6400     36.0900     43.6747    402.7448      0.4462   2188.1001    839.1313    -95.3100
166.4000        159.8250      0.2768    408.0000     37.5900     37.3448    421.7256      0.4468   2196.0000   2289.9705    -90.5400
166.6000        161.0750      0.2727    408.0400     38.2800     33.1306    417.8592      0.4390   2210.8000   2332.5442    -88.0350
166.8000        161.0750      0.2708    406.9200     39.1800     28.3289    421.7256      0.4291   2199.0000   2268.9758    -88.2900
167.0000        163.5500      0.2653    407.0400     45.7950     24.0010    414.0282      0.4032   2220.7000    100.8858    -82.0200
167.2000        163.5500      0.2562    411.0000     49.8000     22.2962    406.4713      0.3985   2217.8000     38.0041    -78.5100
167.4000        162.3000      0.2484    415.2000     55.5000     21.0974    381.0921      0.3960   2246.5000     26.0513    -76.0050
167.6000        157.3500      0.2338    420.1200     60.2100     21.2927    410.2324      0.4061   2330.6001     27.2791    -73.7400
167.8000        158.6000      0.2090    421.0400     58.7100     22.9208    410.2324      0.4201   2331.6001     26.7812    -76.2600
168.0000        159.8250      0.2113    421.0400     56.0100     24.6735    410.2324      0.4297   2306.8999     36.2936    -79.2600
168.2000        161.0750      0.2308    420.5200     48.1950     31.9323    402.7448      0.4457   2258.3999    220.7140    -83.5200
168.4000        157.3500      0.2389    419.8400     41.9850     37.0024    406.4713      0.4540   2254.3999   1753.1937    -83.5200
168.6000        157.3500      0.2396    420.5200     37.4850     42.4844    421.7256      0.4501   2231.6001   2227.5625    -83.7750
168.8000        157.3500      0.2441    419.9200     35.4900     47.4493    437.5522      0.4454   2201.8999   2332.5442    -83.7750
169.0000        158.6000      0.2469    416.9200     34.5750     47.8884    406.4713      0.4336   2211.8000   2289.9705    -81.0150
169.2000        158.6000      0.2532    415.2800     35.3850     45.3137    399.0524      0.4277   2237.6001   2332.5442    -78.5100
169.4000        158.6000      0.2571    411.5200     36.9900     42.8775    402.7448      0.4147   2227.7000   2311.1594    -77.2500
169.6000        158.6000      0.2631    405.3600     43.8900     35.6640    402.7448      0.3970   2221.7000    362.9359    -74.7450
169.8000        158.6000      0.2619    404.3200     47.7000     33.1306    402.7448      0.3904   2219.7000    119.0776    -71.4900
170.0000        158.6000      0.2542    404.1200     51.7050     31.9323    402.7448      0.3875   2250.3999     55.9538    -67.4850
170.2000        157.3500      0.2467    399.4800     55.1100     29.1226    410.2324      0.3851   2295.0000     80.8779    -64.9650
170.4000        154.8750      0.2219    393.4800     53.5950     29.1226    414.0282      0.3933   2308.8999    136.7193    -65.9700
170.6000        156.1250      0.2160    385.6800     52.0050     30.4951    406.4713      0.3950   2314.8000    107.6044    -65.4750
170.8000        163.5500      0.2235    380.8000     51.1950     32.5259    417.8592      0.3764   2291.0000     72.4152    -62.9700
171.0000        162.3000      0.2285    385.2000     51.1950     33.1306    381.0921      0.3802   2291.0000    220.7140    -63.4650
171.2000        158.6000      0.2258    389.9200     49.6950     33.1306    391.7689      0.3933   2342.5000   2127.3057    -64.4700
171.4000        162.3000      0.2202    397.3200     48.9000     31.6395    410.2324      0.3748   2287.1001    172.1194    -64.2150
