~VERSION INFORMATION
 VERS.                 2.0:   CWLS LOG ASCII STANDARD -VERSION 2.0
 WRAP.                  NO:   ONE LINE PER DEPTH STEP
~WELL INFORMATION BLOCK
#MNEM.UNIT           DATA                    DESCRIPTION OF MNEMONIC
#---------    -------------------            -------------------------------
# Generated from Intellog Unique Number	CN_94_101/WELL/4984
WELL.         06-29-101-14W4                 : Well_name    - WELL
LOC .         AA/06-29-101-14W4/0            : Location     - LOCATION
UWI .         AA/06-29-101-14W400            : Uwi          - UNIQUE WELL ID
ENTR.         TIM                            : Entered      - ENTERED BY
SRVC.         SCHLUMBERGER                   : Scn          - SERVICE COMPANY
DATE.         08/11/92                       : Date         - LOG DATE
STRT.M        350                            : top_depth    - START DEPTH
STOP.M        540                            : bot_depth    - STOP DEPTH
STEP.M        0.25                           : increment    - STEP LENGTH
NULL. -999.2500:NULL Value
~CURVE INFORMATION BLOCK
#MNEM UNIT       ERCB CURVE CODE    CURVE DESCRIPTION
#-----------   ------------------   ----------------------------------
DEPT.M        00 001 00 00         : DEPTH        - DEPTH
GR  .API      00 310 00 00         : GR           - GAMMA RAY
ILD .OHMM     00 120 00 00         : RESD         - DEEP RESISTIVITY (DIL)
NPHI.V/V      00 330 00 00         : PHIN         - NEUTRON POROSITY (SANDSTONE)
DPHI.V/V      00 890 00 00         : PHID         - DENSITY POROSITY (SANDSTONE)
~PARAMETER INFORMATION
#MNEM.UNIT           DATA             DESCRIPTION OF MNEMONIC
#---------         -----------     ------------------------------
GL  .M        774.8                : gl           - GROUND LEVEL ELEVATION
EREF.M        778                  : kb           - ELEVATION OF DEPTH REFERENCE
DATM.M        778                  : datum        - DATUM ELEVATION
TDD .M        545                  : tdd          - TOTAL DEPTH DRILLER
RUN .         ONE                  : Run          - RUN NUMBER
ENG .         JO                   : Engineer     - RECORDING ENGINEER
WIT .         TIM                  : Witness      - WITNESSED BY
MUD .         GEL                  : Mud_type     - MUD TYPE
MATR.         SANDSTONE            : Logunit      - NEUTRON MATRIX
TMAX.C        17                   : BHT          - MAXIMUM RECORDED TEMPERATURE
BHTD.M        545                  : BHTDEP       - MAXIMUM RECORDED TEMPERATURE
RMT .C        10                   : MDTP         - TEMPERATURE OF MUD
MUDD.KG/M     1130                 : MWT          - MUD DENSITY
NEUT.         1                    : NEUTRON      - NEUTRON TYPE
RESI.         0                    : RESIST       - RESISTIVITY TYPE
RM  .OHMM     0.8                  : RM           - RESISTIVITY OF MUD
RMC .OHMM     0.8                  : RMC          - RESISTIVITY OF MUD CAKE
RMF .OHMM     0.8                  : RMF          - RESISTIVITY OF MUD FILTRATE
SUFT.C        4                    : SUFT         - SURFACE TEMPERATURE
~A  DEPTH       GR     RESD     PHIN     PHID
  350.000  105.765    3.809    0.516    0.273
  350.250  103.904    4.193    0.517    0.270
  350.500  102.042    4.443    0.510    0.269
  350.750  100.182    4.797    0.502    0.276
  351.000  100.185    4.985    0.496    0.272
  351.250  100.190    4.984    0.490    0.261
  351.500   99.575    4.889    0.486    0.260
  351.750   98.955    4.795    0.481    0.263
  352.000   97.717    5.178    0.476    0.264
  352.250   96.477    5.701    0.473    0.264
  352.500   92.750    6.398    0.471    0.260
  352.750   89.643    7.043    0.470    0.256
  353.000   87.162    7.042    0.471    0.254
  353.250   87.164    7.042    0.471    0.256
  353.500   87.791    6.906    0.470    0.250
  353.750   89.041    6.774    0.470    0.245
  354.000   89.668    6.643    0.471    0.244
  354.250   90.918    6.771    0.479    0.250
  354.500   91.544    6.770    0.497    0.253
  354.750   92.795    6.641    0.495    0.260
  355.000   94.666    6.147    0.489    0.266
  355.250   95.915    5.268    0.482    0.262
  355.500   98.411    5.069    0.485    0.258
  355.750   99.036    4.603    0.496    0.262
  356.000  102.151    4.428    0.507    0.249
  356.250  104.646    4.179    0.508    0.246
  356.500  104.028    4.178    0.507    0.255
  356.750  100.301    4.259    0.536    0.262
  357.000   94.085    4.511    0.543    0.274
  357.250   89.111    4.967    0.549    0.286
  357.500   83.517    7.024    0.554    0.297
  357.750   77.302    9.197    0.507    0.312
  358.000   72.329   10.124    0.479    0.308
  358.250   68.601   10.321    0.463    0.265
  358.500   71.095   10.932    0.449    0.250
  358.750   74.833   10.518    0.448    0.266
  359.000   78.570    9.736    0.449    0.333
  359.250   84.798    9.367    0.451    0.330
  359.500   86.667    9.012    0.458    0.283
  359.750   87.919    8.839    0.460    0.267
  360.000   88.543    8.838    0.459    0.255
  360.250   87.926    8.502    0.453    0.246
  360.500   84.823    8.179    0.446    0.239
  360.750   83.583    7.869    0.444    0.235
  361.000   83.588    7.426    0.440    0.256
  361.250   85.461    7.009    0.439    0.267
  361.500   86.086    6.007    0.441    0.264
  361.750   87.335    5.249    0.450    0.267
  362.000   87.965    4.675    0.461    0.267
  362.250   87.968    4.245    0.485    0.268
  362.500   87.973    3.930    0.492    0.281
  362.750   88.600    3.854    0.517    0.289
  363.000   91.094    3.929    0.544    0.284
  363.250   92.964    4.082    0.551    0.278
  363.500   94.837    4.242    0.522    0.286
  363.750   96.085    4.324    0.514    0.284
  364.000   97.334    4.670    0.507    0.275
  364.250   96.094    5.043    0.497    0.267
  364.500   91.745    5.446    0.492    0.270
  364.750   86.151    5.659    0.485    0.277
  365.000   85.533    5.658    0.488    0.256
  365.250   88.650    5.549    0.513    0.249
  365.500   92.386    4.943    0.513    0.242
  365.750   96.126    4.076    0.512    0.233
  366.000   97.375    3.362    0.514    0.209
  366.250   98.624    3.297    0.519    0.208
  366.500   98.628    3.234    0.530    0.235
  366.750   95.523    3.172    0.541    0.256
  367.000   91.794    3.110    0.551    0.266
  367.250   89.310    3.171    0.535    0.262
  367.500   87.451    3.424    0.520    0.261
  367.750   86.213    3.490    0.546    0.258
  368.000   85.595    3.558    0.554    0.255
  368.250   85.599    3.626    0.553    0.263
  368.500   88.093    3.625    0.503    0.277
  368.750   90.586    3.695    0.501    0.287
  369.000   90.591    3.767    0.527    0.279
  369.250   88.730    3.839    0.548    0.272
  369.500   87.490    3.990    0.544    0.278
  369.750   85.631    4.146    0.496    0.289
  370.000   85.014    4.308    0.483    0.304
  370.250   83.773    4.564    0.471    0.283
  370.500   83.157    4.651    0.466    0.269
  370.750   83.783    4.651    0.472    0.261
  371.000   84.409    4.650    0.478    0.262
  371.250   85.659    4.650    0.503    0.258
  371.500   86.910    4.560    0.509    0.263
  371.750   87.536    4.560    0.519    0.272
  372.000   88.784    4.559    0.534    0.282
  372.250   90.656    4.558    0.519    0.273
  372.500   91.904    4.558    0.498    0.264
  372.750   95.642    4.557    0.497    0.252
  373.000  100.003    4.556    0.502    0.236
  373.250  103.119    4.469    0.504    0.226
  373.500  105.611    4.137    0.508    0.219
  373.750  106.242    3.904    0.510    0.232
  374.000  106.244    3.545    0.512    0.267
  374.250  106.252    3.281    0.512    0.277
  374.500  106.255    3.281    0.518    0.259
  374.750  106.260    3.344    0.521    0.246
  375.000  105.021    3.543    0.519    0.227
  375.250  103.783    3.682    0.519    0.240
  375.500  103.166    3.826    0.520    0.252
  375.750  103.168    4.052    0.523    0.248
  376.000  103.173    4.131    0.518    0.248
  376.250  103.178    4.376    0.509    0.252
  376.500  102.562    4.460    0.500    0.254
  376.750  101.322    4.635    0.500    0.256
  377.000   99.461    4.816    0.498    0.248
  377.250   97.601    4.909    0.494    0.247
  377.500   96.981    5.004    0.493    0.247
  377.750   95.120    5.100    0.490    0.247
  378.000   93.881    5.199    0.485    0.246
  378.250   94.510    5.198    0.481    0.246
  378.500   95.137    5.197    0.478    0.246
  378.750   96.385    5.097    0.481    0.246
  379.000   98.257    5.097    0.488    0.246
  379.250   99.506    4.998    0.498    0.249
  379.500  100.754    4.902    0.510    0.253
  379.750  102.626    4.716    0.520    0.268
  380.000  105.121    4.283    0.546    0.270
  380.250  106.370    3.965    0.551    0.258
  380.500  107.618    3.670    0.541    0.252
  380.750  108.870    3.464    0.519    0.239
  381.000  109.496    3.397    0.521    0.231
  381.250  108.879    3.397    0.525    0.237
  381.500  108.260    3.462    0.535    0.249
  381.750  108.265    3.668    0.545    0.251
  382.000  107.651    3.738    0.540    0.256
  382.250  107.653    3.884    0.522    0.263
  382.500  105.792    4.115    0.511    0.269
  382.750  103.308    4.359    0.500    0.270
  383.000   99.580    4.799    0.488    0.263
  383.250   95.231    4.892    0.479    0.264
  383.500   95.236    4.797    0.484    0.269
  383.750   95.240    4.441    0.485    0.273
  384.000   96.489    4.191    0.490    0.276
  384.250   97.116    4.110    0.496    0.281
  384.500   95.255    4.190    0.505    0.284
  384.750   93.393    4.271    0.516    0.280
  385.000   90.911    4.438    0.521    0.269
  385.250   90.916    4.611    0.524    0.264
  385.500   91.542    4.792    0.540    0.257
  385.750   92.169    4.979    0.527    0.247
  386.000   91.552    4.979    0.504    0.221
  386.250   89.068    4.978    0.498    0.192
  386.500   92.807    4.882    0.494    0.218
  386.750   98.412    4.788    0.494    0.234
  387.000   99.660    4.788    0.495    0.248
  387.250   97.178    4.787    0.495    0.250
  387.500   95.317    4.880    0.498    0.254
  387.750   95.320    4.974    0.507    0.258
  388.000   96.571    4.973    0.519    0.263
  388.250   96.575    5.069    0.525    0.266
  388.500   95.957    5.068    0.532    0.266
  388.750   92.852    4.970    0.541    0.263
  389.000   90.990    4.875    0.553    0.254
  389.250   90.995    4.690    0.548    0.245
  389.500   92.244    4.600    0.520    0.254
  389.750   92.871    4.426    0.515    0.266
  390.000   94.744    4.425    0.506    0.275
  390.250   95.992    4.510    0.511    0.278
  390.500   99.730    4.687    0.509    0.278
  390.750   98.493    4.965    0.501    0.279
  391.000   97.252    5.259    0.493    0.280
  391.250   96.634    5.465    0.485    0.282
  391.500   95.395    5.464    0.478    0.286
  391.750   95.402    5.257    0.474    0.289
  392.000   95.405    5.058    0.474    0.276
  392.250   98.521    4.505    0.481    0.271
  392.500  102.881    4.252    0.506    0.271
  392.750  106.619    3.787    0.517    0.266
  393.000  110.357    3.506    0.533    0.263
  393.250  110.362    3.505    0.553    0.259
