~VERSION INFORMATION
 VERS.                 2.0:   CWLS LOG ASCII STANDARD -VERSION 2.0
 WRAP.                  NO:   ONE LINE PER DEPTH STEP
~WELL INFORMATION BLOCK
#MNEM.UNIT           DATA                    DESCRIPTION OF MNEMONIC
#---------    -------------------            -------------------------------
# Generated from Intellog Unique Number	CW_82_90/WELL/3432
WELL.         UNION MCLEAN OV                : Well_name    - WELL
LOC .         AA/07-28-088-19W4/0            : Location     - LOCATION
UWI .         AA/07-28-088-19W400            : Uwi          - UNIQUE WELL ID
ENTR.         MAX                            : Entered      - ENTERED BY
SRVC.         SCHLUMBERGER                   : Scn          - SERVICE COMPANY
STRT.M        200                            : top_depth    - START DEPTH
STOP.M        258                            : bot_depth    - STOP DEPTH
STEP.M        0.25                           : increment    - STEP LENGTH
 NULL. -999.2500:NULL Value
~CURVE INFORMATION BLOCK
#MNEM UNIT       ERCB CURVE CODE    CURVE DESCRIPTION
#-----------   ------------------   ----------------------------------
DEPT.M        00 001 00 00         : DEPTH        - DEPTH
ILD .OHMM     00 120 00 00         : RESD         - DEEP RESISTIVITY (DIL)
NPHI.V/V      00 330 00 00         : PHIN         - NEUTRON POROSITY (SANDSTONE)
DPHI.V/V      00 890 00 00         : PHID         - DENSITY POROSITY (SANDSTONE)
CALI.MM       00 280 01 00         : CAL          - CALIPER
GR  .API      00 310 00 00         : GR           - GAMMA RAY
~PARAMETER INFORMATION
#MNEM.UNIT           DATA             DESCRIPTION OF MNEMONIC
#---------         -----------     ------------------------------
GL  .M        517.1                : gl           - GROUND LEVEL ELEVATION
EREF.M        521.7                : kb           - ELEVATION OF DEPTH REFERENCE
DATM.M        517.1                : datum        - DATUM ELEVATION
TDD .M        352                  : tdd          - TOTAL DEPTH DRILLER
RUN .         ONE                  : Run          - RUN NUMBER
ENG .         BILL                 : Engineer     - RECORDING ENGINEER
WIT .         JIM                  : Witness      - WITNESSED BY
MUD .         GEL                  : Mud_type     - MUD TYPE
MATR.         SANDSTONE            : Logunit      - NEUTRON MATRIX
TMAX.C        23.3                 : BHT          - MAXIMUM RECORDED TEMPERATURE
BHTD.M        352                  : BHTDEP       - MAXIMUM RECORDED TEMPERATURE
MATR.         1                    : LOGUNIT      - NEUTRON MATRIX
RMT .C        14                   : MDTP         - TEMPERATURE OF MUD
NEUT.         1                    : NEUTRON      - NEUTRON TYPE
RESI.         0                    : RESIST       - RESISTIVITY TYPE
RMC .OHMM     3                    : RMC          - RESISTIVITY OF MUD CAKE
RMF .OHMM     3                    : RMF          - RESISTIVITY OF MUD FILTRATE
SUFT.C        -5                   : SUFT         - SURFACE TEMPERATURE
~A  DEPTH     RESD     PHIN     PHID      CAL       GR
  200.000   18.509    0.527    0.426  319.434   77.677
  200.250   17.014    0.525    0.407  297.136   77.092
  200.500   15.787    0.539    0.390  303.105   81.866
  200.750   14.649    0.538    0.449  307.590   83.364
  201.000   12.736    0.535    0.402  322.985   85.161
  201.250   11.707    0.541    0.330  335.404   86.960
  201.500   12.723    0.544    0.394  313.103   88.458
  201.750   14.893    0.517    0.338  315.106   89.069
  202.000   15.024    0.490    0.259  320.085   88.482
  202.250   13.684    0.481    0.286  318.616   86.114
  202.500   12.233    0.510    0.327  318.139   83.447
  202.750   10.059    0.535    0.385  354.864   81.377
  203.000   10.730    0.594    0.497  332.070   81.684
  203.250   14.710    0.591    0.384  327.129   87.051
  203.500   15.983    0.531    0.298  321.695   87.955
  203.750   15.829    0.499    0.248  323.696   86.480
  204.000   14.688    0.524    0.279  327.187   84.407
  204.250   13.502    0.538    0.333  340.598   82.633
  204.500   13.003    0.551    0.404  357.480   81.454
  204.750   12.639    0.541    0.458  334.681   80.275
  205.000   12.748    0.534    0.505  326.269   79.693
  205.250   13.103    0.572    0.515  337.200   78.218
  205.500   13.468    0.593    0.524  349.621   75.850
  205.750   13.091    0.609    0.507  362.536   73.777
  206.000   14.094    0.616    0.446  370.491   72.894
  206.250   14.085    0.609    0.410  359.102   73.798
  206.500   13.440    0.588    0.380  361.603   75.299
  206.750   13.064    0.572    0.372  365.092   76.799
  207.000   13.179    0.565    0.492  367.596   75.919
  207.250   13.420    0.577    0.539  370.591   74.737
  207.500   12.684    0.606    0.545  372.592   73.558
  207.750   12.329    0.623    0.539  369.139   72.977
  208.000   12.323    0.631    0.540  370.648   72.989
  208.250   12.091    0.613    0.523  371.166   73.594
  208.500   10.809    0.603    0.486  366.716   75.093
  208.750   11.638    0.597    0.452  341.439   79.569
  209.000   23.138    0.511    0.403  318.147   84.341
  209.250   24.002    0.451    0.339  290.388   84.948
  209.500   16.542    0.527    0.298  276.023   81.091
  209.750   11.722    0.585    0.427  297.871   74.853
  210.000   10.775    0.587    0.472  304.831   72.486
  210.250   12.851    0.542    0.418  311.794   79.639
  210.500   17.949    0.503    0.371  311.318   94.828
  210.750   21.404    0.446    0.250  295.465   97.815
  211.000   24.823    0.395    0.201  277.132   90.090
  211.250   70.912    0.334    0.170  263.263   87.124
  211.500   48.420    0.273    0.156  253.861   79.398
  211.750    8.049    0.416    0.234  256.358   68.399
  212.000    7.539    0.528    0.280  278.203   62.756
  212.250   10.928    0.580    0.361  320.381   59.793
  212.500   16.138    0.615    0.450  342.720   72.302
  212.750   18.202    0.602    0.523  328.851   80.051
  213.000   18.192    0.585    0.538  314.983   83.038
  213.250   12.193    0.602    0.494  319.468   80.075
  213.500    9.659    0.608    0.522  341.309   74.731
  213.750   10.209    0.608    0.544  357.202   76.826
  214.000   15.502    0.614    0.567  344.823   78.029
  214.250   11.943    0.610    0.574  331.448   75.956
  214.500   10.193    0.625    0.579  340.398   72.990
  214.750    8.780    0.639    0.573  350.337   68.835
  215.000    8.071    0.639    0.576  342.417   65.275
  215.250    8.067    0.636    0.568  355.828   64.992
  215.500    8.291    0.640    0.561  368.743   72.441
  215.750    8.926    0.646    0.537  370.746   79.594
  216.000   10.162    0.660    0.511  367.298   85.857
  216.250   16.315    0.660    0.466  367.813   90.035
  216.500   20.192    0.471    0.418  346.009   90.939
  216.750   19.996    0.425    0.326  326.679   90.058
  217.000   18.043    0.467    0.365  296.939   87.391
  217.250   14.563    0.517    0.405  275.134   84.129
  217.500   12.201    0.561    0.445  289.041   80.867
  217.750   10.412    0.609    0.489  351.558   72.843
  218.000    9.750    0.636    0.534  345.630   68.987
  218.250    9.656    0.647    0.571  324.817   67.213
  218.500    9.651    0.646    0.591  319.874   66.034
  218.750    8.954    0.650    0.592  335.762   66.343
  219.000    8.704    0.663    0.592  333.797   70.222
  219.250    9.029    0.660    0.598  372.010   76.188
  219.500    9.280    0.665    0.596  371.538   75.009
  219.750    9.449    0.670    0.594  368.579   72.043
  220.000    9.100    0.645    0.588  363.636   69.677
  220.250    8.845    0.632    0.572  358.697   71.173
  220.500    9.261    0.631    0.578  358.716   73.567
  220.750    9.169    0.636    0.577  361.213   75.958
  221.000    8.914    0.633    0.562  354.784   80.731
  221.250    8.584    0.609    0.554  364.227   91.457
  221.500    8.740    0.596    0.534  310.681   99.801
  221.750    9.238    0.582    0.501  295.322  102.789
  222.000   10.038    0.557    0.452  300.797  102.800
  222.250   11.427    0.502    0.371  321.648  101.029
  222.500   14.955    0.482    0.347  332.581   95.087
  222.750   22.290    0.465    0.333  278.535   92.718
  223.000   37.143    0.417    0.211  245.818   84.097
  223.250   40.739    0.407    0.263  257.245   79.050
  223.500   17.807    0.466    0.314  275.120   73.704
  223.750    9.460    0.549    0.356  294.981   71.930
  224.000    9.633    0.591    0.452  332.696   72.242
  224.250   13.833    0.615    0.514  327.259   74.334
  224.500   15.602    0.629    0.540  306.446   83.275
  224.750   14.210    0.612    0.535  279.186   89.536
  225.000    9.524    0.547    0.544  357.574   91.928
  225.250    9.431    0.566    0.553  364.540   96.403
  225.500   12.003    0.561    0.517  343.229  105.045
  225.750   15.563    0.503    0.442  305.550  111.008
  226.000   17.552    0.443    0.185  244.562  110.427
  226.250   20.931    0.360    0.160  237.141  108.354
  226.500   29.506    0.326    0.133  238.648  106.580
  226.750   23.596    0.333    0.119  240.654  109.271
  227.000   16.110    0.383    0.149  241.166  112.555
  227.250   16.101    0.416    0.194  242.177  110.187
  227.500   15.650    0.407    0.204  242.199  106.031
  227.750   16.236    0.426    0.207  240.234  100.090
  228.000   20.855    0.445    0.208  235.295   94.447
  228.250   16.069    0.458    0.276  231.347   87.614
  228.500   10.281    0.476    0.322  228.392   82.864
  228.750    7.632    0.522    0.367  228.902   82.579
  229.000    8.293    0.580    0.412  230.409   81.399
  229.250    7.840    0.616    0.459  232.911   80.220
  229.500    6.880    0.640    0.503  236.898   78.745
  229.750    7.071    0.652    0.532  243.367   78.160
  230.000    7.684    0.654    0.506  247.850   80.254
  230.250    9.079    0.631    0.456  250.345   88.302
  230.500   11.448    0.604    0.437  251.856   96.349
  230.750   12.324    0.569    0.394  250.388  100.826
  231.000   13.024    0.573    0.347  247.431   93.991
  231.250   14.154    0.559    0.324  243.482   87.457
  231.500   14.681    0.526    0.309  240.027   81.217
  231.750   14.139    0.513    0.337  235.088   67.837
  232.000   15.653    0.506    0.398  229.651   64.874
  232.250   16.542    0.537    0.431  226.692   65.182
  232.500   11.087    0.572    0.468  226.215   61.921
  232.750    7.931    0.593    0.513  226.730   58.657
  233.000    5.516    0.615    0.540  252.541   53.907
  233.250    5.939    0.636    0.567  328.945   52.133
  233.500    5.881    0.631    0.575  345.335   52.444
  233.750    5.508    0.626    0.568  357.754   53.943
  234.000    5.505    0.624    0.564  353.309   56.334
  234.250    5.764    0.622    0.561  333.984   62.299
  234.500    5.980    0.608    0.555  321.603   68.857
  234.750    6.319    0.593    0.553  321.129   74.822
  235.000    6.867    0.571    0.545  318.174   77.512
  235.250    7.324    0.563    0.520  307.775   80.200
  235.500    7.527    0.571    0.482  297.376   83.784
  235.750    7.454    0.572    0.456  285.002   87.071
  236.000    9.575    0.539    0.515  273.611   88.570
  236.250   18.344    0.503    0.462  262.714   86.497
