~VERSION INFORMATION
 VERS.                 2.0:   CWLS LOG ASCII STANDARD -VERSION 2.0
 WRAP.                  NO:   ONE LINE PER DEPTH STEP
~WELL INFORMATION BLOCK
#MNEM.UNIT           DATA                    DESCRIPTION OF MNEMONIC
#---------    -------------------            -------------------------------
# Generated from Intellog Unique Number	CN_94_101/WELL/4998
WELL.         09-35-100-14W4                 : Well_name    - WELL
LOC .         AA/09-35-100-14W4/0            : Location     - LOCATION
UWI .         AA/09-35-100-14W400            : Uwi          - UNIQUE WELL ID
ENTR.         TIM                            : Entered      - ENTERED BY
SRVC.         WESTERN ATLAS                  : Scn          - SERVICE COMPANY
DATE.         08/28/92                       : Date         - LOG DATE
STRT.M        289.56                         : top_depth    - START DEPTH
STOP.M        502.81                         : bot_depth    - STOP DEPTH
STEP.M        0.25                           : increment    - STEP LENGTH
 NULL. -999.2500:NULL Value
~CURVE INFORMATION BLOCK
#MNEM UNIT       ERCB CURVE CODE    CURVE DESCRIPTION
#-----------   ------------------   ----------------------------------
DEPT.M        00 001 00 00         : DEPTH        - DEPTH
GR  .API      00 310 00 00         : GR           - GAMMA RAY
ILD .OHMM     00 120 00 00         : RESD         - DEEP RESISTIVITY (DIL)
NPHI.V/V      00 330 00 00         : PHIN         - NEUTRON POROSITY (SANDSTONE)
~PARAMETER INFORMATION
#MNEM.UNIT           DATA             DESCRIPTION OF MNEMONIC
#---------         -----------     ------------------------------
GL  .M        723.29               : gl           - GROUND LEVEL ELEVATION
EREF.M        726.643              : kb           - ELEVATION OF DEPTH REFERENCE
DATM.M        726.643              : datum        - DATUM ELEVATION
TDD .M        506.578              : tdd          - TOTAL DEPTH DRILLER
RUN .         ONE                  : Run          - RUN NUMBER
ENG .         JO                   : Engineer     - RECORDING ENGINEER
WIT .         TIM                  : Witness      - WITNESSED BY
MUD .         GEL                  : Mud_type     - MUD TYPE
MATR.         SANDSTONE            : Logunit      - NEUTRON MATRIX
TMAX.C        32.2222              : BHT          - MAXIMUM RECORDED TEMPERATURE
BHTD.M        506.578              : BHTDEP       - MAXIMUM RECORDED TEMPERATURE
RMT .C        32.2222              : MDTP         - TEMPERATURE OF MUD
MUDD.KG/M     9000                 : MWT          - MUD DENSITY
NEUT.         1                    : NEUTRON      - NEUTRON TYPE
RESI.         0                    : RESIST       - RESISTIVITY TYPE
RM  .OHMM     10.5                 : RM           - RESISTIVITY OF MUD
RMC .OHMM     10.5                 : RMC          - RESISTIVITY OF MUD CAKE
RMF .OHMM     10.5                 : RMF          - RESISTIVITY OF MUD FILTRATE
SUFT.C        4                    : SUFT         - SURFACE TEMPERATURE
~A  DEPTH       GR     RESD     PHIN
  289.560  113.848    2.092    0.485
  289.810  115.458    2.260    0.484
  290.060  116.666    2.442    0.482
  290.310  117.081    2.539    0.482
  290.560  117.505    2.639    0.482
  290.810  117.911    2.640    0.483
  291.060  118.326    2.692    0.484
  291.310  118.344    2.693    0.487
  291.560  117.173    2.642    0.489
  291.810  116.001    2.643    0.491
  292.060  115.236    2.594    0.494
  292.310  116.444    2.545    0.492
  292.560  118.049    2.546    0.491
  292.810  118.860    2.546    0.491
  293.060  119.676    2.597    0.491
  293.310  119.686    2.699    0.492
  293.560  118.528    2.806    0.496
  293.810  118.140    2.862    0.498
  294.060  118.952    2.918    0.502
  294.310  122.937    2.976    0.504
  294.560  124.546    2.920    0.504
  294.810  122.189    2.920    0.499
  295.060  121.018    2.866    0.497
  295.310  119.846    2.812    0.495
  295.560  119.864    2.759    0.495
  295.810  120.289    2.656    0.496
  296.060  120.293    2.709    0.501
  296.310  120.312    2.762    0.506
  296.560  120.740    2.763    0.508
  296.810  120.750    2.764    0.508
  297.060  121.570    2.712    0.506
  297.310  121.584    2.661    0.504
  297.560  121.994    2.561    0.503
  297.810  122.013    2.513    0.503
  298.060  122.432    2.466    0.504
  298.310  122.852    2.467    0.504
  298.560  122.478    2.468    0.504
  298.810  121.694    2.468    0.504
  299.060  119.729    2.469    0.504
  299.310  118.558    2.470    0.504
  299.560  116.607    2.471    0.502
  299.810  115.823    2.471    0.501
  300.060  113.863    2.472    0.501
  300.310  112.696    2.521    0.500
  300.560  112.308    2.571    0.500
  300.810  111.137    2.474    0.498
  301.060  109.177    2.382    0.497
  301.310  107.217    2.383    0.495
  301.560  106.432    2.429    0.488
  301.810  104.477    2.575    0.481
  302.060  104.099    2.729    0.475
  302.310  105.307    2.782    0.470
  302.560  109.287    2.949    0.467
  302.810  110.500    3.007    0.462
  303.060  110.518    3.126    0.460
  303.310  111.334    3.127    0.458
  303.560  111.745    3.128    0.457
  303.810  113.354    3.011    0.458
  304.060  114.562    2.843    0.464
  304.310  115.374    2.736    0.469
  304.560  116.185    2.634    0.475
  304.810  116.213    2.584    0.480
  305.060  115.438    2.585    0.482
  305.310  115.055    2.537    0.482
  305.560  113.884    2.489    0.482
  305.810  113.501    2.396    0.482
  306.060  112.735    2.306    0.484
  306.310  111.167    2.178    0.484
  306.560  106.818    2.096    0.479
  306.810   99.697    2.017    0.472
  307.060   97.732    2.018    0.465
  307.310   97.354    2.138    0.445
  307.560   96.579    2.495    0.441
  307.810   95.804    2.911    0.447
  308.060   94.633    3.206    0.443
  308.310   91.875    3.333    0.435
  308.560   84.759    3.399    0.420
  308.810   82.799    3.466    0.399
  309.060   85.589    3.603    0.368
  309.310   92.350    3.745    0.340
  309.560   95.144    4.046    0.345
  309.810   97.155    4.126    0.388
  310.060   97.169    3.822    0.431
  310.310   97.196    3.406    0.494
  310.560   97.602    2.921    0.510
  310.810   98.418    2.554    0.507
  311.060   99.234    2.458    0.506
  311.310   99.248    2.321    0.505
  311.560   99.271    2.234    0.505
  311.810   98.496    2.151    0.505
  312.060   97.721    2.193    0.507
  312.310   96.554    2.279    0.509
  312.560   95.374    2.324    0.509
  312.810   93.409    2.463    0.503
  313.060   91.845    2.611    0.497
  313.310   92.662    2.767    0.486
  313.560   95.055    2.821    0.472
  313.810   98.647    2.822    0.478
  314.060  100.257    2.665    0.493
  314.310  100.672    2.516    0.505
  314.560  100.294    2.375    0.514
  314.810   99.519    2.037    0.521
  315.060   98.347    1.851    0.529
  315.310   95.981    1.781    0.537
  315.560   91.240    1.782    0.539
  315.810   87.297    1.817    0.541
  316.060   86.522    1.926    0.546
  316.310   88.132    2.002    0.549
  316.560   89.340    2.042    0.553
  316.810   90.548    2.082    0.561
  317.060   92.157    2.123    0.564
  317.310   93.361    2.207    0.563
  317.560   95.768    2.208    0.563
  317.810   96.571    2.251    0.565
  318.060   96.986    2.209    0.570
  318.310   96.607    2.210    0.570
  318.560   91.871    2.210    0.567
  318.810   84.353    2.211    0.566
  319.060   82.389    2.299    0.570
  319.310   80.419    2.344    0.574
  319.560   76.472    2.437    0.578
  319.810   73.322    2.533    0.578
  320.060   72.943    2.633    0.564
  320.310   71.772    2.685    0.529
  320.560   69.812    2.791    0.491
  320.810   67.446    2.958    0.458
  321.060   66.671    3.075    0.425
  321.310   91.685    3.259    0.356
  321.560   93.286    3.260    0.284
  321.810   92.912    3.261    0.250
  322.060   92.142    3.139    0.307
  322.310   91.371    3.080    0.493
  322.560   90.984    2.965    0.532
  322.810   91.002    2.965    0.568
  323.060   91.021    2.966    0.559
  323.310   91.440    2.967    0.550
  323.560   92.252    2.968    0.545
  323.810   94.262    2.912    0.544
  324.060   95.065    2.913    0.542
  324.310   96.282    2.914    0.540
  324.560   96.693    2.915    0.540
  324.810   97.500    2.861    0.545
  325.060   97.919    2.861    0.549
  325.310   98.334    2.808    0.548
  325.560   98.357    2.703    0.547
  325.810   98.371    2.601    0.544
  326.060   98.389    2.504    0.544
  326.310   98.809    2.410    0.544
  326.560   98.827    2.276    0.545
  326.810   98.057    2.149    0.545
  327.060   96.489    2.108    0.544
  327.310   94.925    2.069    0.538
  327.560   94.141    2.030    0.530
  327.810   92.582    2.030    0.522
  328.060   91.803    2.031    0.519
  328.310   91.037    2.032    0.516
  328.560   91.046    2.112    0.514
  328.810   91.069    2.239    0.513
  329.060   91.484    2.327    0.510
  329.310   91.894    2.419    0.509
  329.560   91.917    2.515    0.506
  329.810   89.953    2.564    0.501
  330.060   86.005    2.565    0.493
  330.310   81.660    2.517    0.485
  330.560   81.282    2.567    0.473
  330.810   85.267    2.617    0.458
  331.060   89.251    2.669    0.468
  331.310   92.452    2.940    0.508
  331.560   92.867    3.056    0.563
  331.810   94.079    3.116    0.562
  332.060   94.089    3.117    0.556
  332.310   95.302    3.118    0.548
  332.560   95.716    3.059    0.541
  332.810   94.942    3.060    0.537
  333.060   92.977    3.003    0.537
  333.310   92.599    3.004    0.537
  333.560   92.621    3.005    0.537
  333.810   92.644    3.006    0.542
  334.060   92.658    3.006    0.544
  334.310   92.681    3.007    0.544
  334.560   92.700    3.009    0.543
  334.810   92.317    3.010    0.536
  335.060   92.340    3.010    0.529
  335.310   92.750    3.012    0.527
  335.560   92.773    3.012    0.524
  335.810   93.192    2.956    0.523
  336.060   93.603    2.901    0.523
  336.310   93.621    2.846    0.525
  336.560   94.442    2.792    0.525
  336.810   95.249    2.587    0.525
  337.060   96.457    2.489    0.525
  337.310   98.463    2.396    0.525
  337.560  100.063    2.444    0.525
  337.810  102.065    2.540    0.524
  338.060  104.860    2.541    0.524
  338.310  109.642    2.591    0.526
  338.560  115.610    2.543    0.529
  338.810  121.974    2.495    0.528
  339.060  125.174    2.356    0.527
  339.310  125.193    2.268    0.524
  339.560  123.625    2.268    0.521
  339.810  122.449    2.225    0.520
  340.060  120.484    2.184    0.520
  340.310  117.735    2.184    0.524
  340.560  116.559    2.185    0.532
  340.810  114.995    2.144    0.542
  341.060  113.824    2.145    0.544
  341.310  112.256    2.105    0.548
  341.560  110.291    2.105    0.548
  341.810  108.718    2.106    0.548
  342.060  106.754    2.027    0.545
  342.310  104.392    1.989    0.545
  342.560  101.242    1.878    0.546
  342.810   99.278    1.843    0.551
  343.060   97.317    1.843    0.553
  343.310   96.542    1.880    0.551
  343.560   96.556    1.917    0.545
