~VERSION INFORMATION
 VERS.                 2.0:   CWLS LOG ASCII STANDARD -VERSION 2.0
 WRAP.                  NO:   ONE LINE PER DEPTH STEP
~WELL INFORMATION BLOCK
#MNEM.UNIT           DATA                    DESCRIPTION OF MNEMONIC
#---------    -------------------            -------------------------------
# Generated from Intellog Unique Number	CN_94_101/WELL/4977
WELL.         04-13-098-11W4                 : Well_name    - WELL
LOC .         AA/04-13-098-11W4/0            : Location     - LOCATION
UWI .         AA/04-13-098-11W400            : Uwi          - UNIQUE WELL ID
ENTR.         TIM                            : Entered      - ENTERED BY
SRVC.         SCHLUMBERGER                   : Scn          - SERVICE COMPANY
DATE.         08/11/92                       : Date         - LOG DATE
STRT.M        0                              : top_depth    - START DEPTH
STOP.M        85                             : bot_depth    - STOP DEPTH
STEP.M        0.25                           : increment    - STEP LENGTH
 NULL. -999.2500:NULL Value
~CURVE INFORMATION BLOCK
#MNEM UNIT       ERCB CURVE CODE    CURVE DESCRIPTION
#-----------   ------------------   ----------------------------------
DEPT.M        00 001 00 00         : DEPTH        - DEPTH
NPHI.V/V      00 330 00 00         : PHIN         - NEUTRON POROSITY (SANDSTONE)
ILD .OHMM     00 120 00 00         : RESD         - DEEP RESISTIVITY (DIL)
GR  .API      00 310 00 00         : GR           - GAMMA RAY
DPHI.V/V      00 890 00 00         : PHID         - DENSITY POROSITY (SANDSTONE)
~PARAMETER INFORMATION
#MNEM.UNIT           DATA             DESCRIPTION OF MNEMONIC
#---------         -----------     ------------------------------
GL  .M        283.86               : gl           - GROUND LEVEL ELEVATION
EREF.M        283.86               : kb           - ELEVATION OF DEPTH REFERENCE
DATM.M        283.86               : datum        - DATUM ELEVATION
TDD .M        91.4                 : tdd          - TOTAL DEPTH DRILLER
RUN .         ONE                  : Run          - RUN NUMBER
ENG .         JO                   : Engineer     - RECORDING ENGINEER
WIT .         TIM                  : Witness      - WITNESSED BY
MUD .         GEL                  : Mud_type     - MUD TYPE
MATR.         SANDSTONE            : Logunit      - NEUTRON MATRIX
TMAX.C        5                    : BHT          - MAXIMUM RECORDED TEMPERATURE
BHTD.M        91                   : BHTDEP       - MAXIMUM RECORDED TEMPERATURE
RMT .C        5                    : MDTP         - TEMPERATURE OF MUD
MUDD.KG/M     1000                 : MWT          - MUD DENSITY
NEUT.         1                    : NEUTRON      - NEUTRON TYPE
RESI.         0                    : RESIST       - RESISTIVITY TYPE
RM  .OHMM     5.8                  : RM           - RESISTIVITY OF MUD
RMC .OHMM     5.8                  : RMC          - RESISTIVITY OF MUD CAKE
RMF .OHMM     5.8                  : RMF          - RESISTIVITY OF MUD FILTRATE
SUFT.C        4                    : SUFT         - SURFACE TEMPERATURE
~A  DEPTH     PHIN     RESD       GR     PHID
    0.000    0.609  126.304   49.288    0.270
    0.250    0.609  118.052   48.785    0.271
    0.500    0.609  114.887   48.263    0.272
    0.750    0.608  104.344   47.760    0.271
    1.000    0.608   97.416   47.198    0.266
    1.250    0.598   88.476   46.095    0.252
    1.500    0.594   81.518   45.553    0.231
    1.750    0.602   78.291   44.431    0.224
    2.000    0.609   73.121   43.908    0.211
    2.250    0.600   69.226   51.811    0.201
    2.500    0.586   68.370   57.892    0.214
    2.750    0.596   73.427   54.968    0.249
    3.000    0.610   86.958   50.244    0.270
    3.250    0.625   85.882   46.100    0.282
    3.500    0.636   78.000   39.574    0.286
    3.750    0.643   79.218   33.648    0.291
    4.000    0.627   80.454   31.925    0.297
    4.250    0.661   53.739   31.403    0.349
    4.500    0.686   28.286   30.280    0.371
    4.750    0.693    6.348   28.557    0.417
    5.000    0.612    5.085   26.834    0.471
    5.250    0.600    5.022   26.932    0.472
    5.500    0.574    7.650   29.392    0.465
    5.750    0.551   21.858   30.690    0.457
    6.000    0.526   30.196   30.768    0.446
    6.250    0.546   33.831   30.246    0.451
    6.500    0.557   36.830   30.305    0.454
    6.750    0.554   40.126   30.983    0.457
    7.000    0.558   43.110   32.862    0.455
    7.250    0.526   44.365   38.363    0.440
    7.500    0.573   45.726   47.446    0.423
    7.750    0.589   45.778   56.549    0.395
    8.000    0.617   45.882   66.233    0.366
    8.250    0.628   45.280   61.508    0.452
    8.500    0.570   44.133   54.982    0.467
    8.750    0.552   43.570   48.437    0.470
    9.000    0.537   43.620   41.930    0.468
    9.250    0.520   43.113   44.410    0.475
    9.500    0.543   43.162   48.071    0.480
    9.750    0.573   42.612   57.173    0.477
   10.000    0.598   40.956   63.855    0.411
   10.250    0.613   39.858   68.155    0.387
   10.500    0.602   38.281   64.631    0.378
   10.750    0.581   37.297   62.288    0.402
   11.000    0.576   36.821   70.191    0.426
   11.250    0.575   36.891   72.709    0.449
   11.500    0.574   36.947   72.748    0.466
   11.750    0.571   37.003   72.846    0.463
   12.000    0.549   37.045   69.302    0.457
   12.250    0.515   37.116   65.178    0.438
   12.500    0.503   37.158   64.655    0.437
   12.750    0.575   37.229   64.133    0.422
   13.000    0.579   37.299   63.010    0.416
   13.250    0.538   37.328   60.106    0.441
   13.500    0.490   37.399   57.182    0.450
   13.750    0.467   37.455   54.820    0.459
   14.000    0.522   37.512   48.294    0.426
   14.250    0.549   38.112   47.791    0.416
   14.500    0.561   38.141   47.870    0.446
   14.750    0.570   38.199   46.747    0.466
   15.000    0.564   38.257   44.404    0.474
   15.250    0.538   38.315   43.882    0.469
   15.500    0.523   38.388   42.159    0.465
   15.750    0.520   37.401   39.235    0.460
   16.000    0.516   36.910   39.913    0.458
   16.250    0.528   36.454   47.796    0.454
   16.500    0.546   35.503   58.700    0.450
   16.750    0.590   35.064   65.401    0.443
   17.000    0.612   33.676   66.060    0.415
   17.250    0.624   31.452   69.779    0.421
   17.500    0.628   29.800   71.659    0.425
   17.750    0.621   29.420   74.138    0.420
   18.000    0.613   29.067   75.436    0.377
   18.250    0.553   29.100   74.875    0.380
   18.500    0.565   29.554   72.591    0.383
   18.750    0.561   29.610   71.448    0.385
   19.000    0.515   30.061   68.505    0.376
   19.250    0.536   30.118   64.381    0.342
   19.500    0.564   30.175   72.883    0.340
   19.750    0.579   30.198   70.560    0.332
   20.000    0.557   30.244   68.837    0.331
   20.250    0.544   30.290   68.315    0.326
   20.500    0.550   30.336   68.412    0.320
   20.750    0.560   30.833   68.451    0.319
   21.000    0.594   30.868   69.730    0.327
   21.250    0.607   31.338   71.609    0.345
   21.500    0.618   32.753   71.687    0.352
   21.750    0.586   33.239   71.165    0.366
   22.000    0.592   36.723   71.243    0.375
   22.250    0.589   40.556   81.546    0.392
   22.500    0.576   48.030   86.427    0.405
   22.750    0.573   67.286   88.926    0.405
   23.000    0.536   84.264   93.207    0.400
   23.250    0.526  105.567  101.090    0.397
   23.500    0.531  119.890   98.786    0.395
   23.750    0.538  126.971  103.647    0.392
   24.000    0.548  128.953  120.555    0.389
   24.250    0.556  125.591  126.055    0.387
   24.500    0.553  122.316  115.908    0.385
   24.750    0.547  119.218   99.757    0.383
   25.000    0.533  117.653   89.028    0.379
   25.250    0.515  114.673   79.481    0.377
   25.500    0.524  113.168   77.758    0.378
   25.750    0.532  116.551   86.261    0.386
   26.000    0.531  121.769   79.735    0.390
   26.250    0.534  129.011   82.215    0.398
   26.500    0.537  131.024   89.497    0.397
   26.750    0.546  133.019   91.996    0.398
   27.000    0.557  137.047   87.871    0.402
   27.250    0.543  139.133   88.530    0.403
   27.500    0.544  143.292   87.407    0.395
   27.750    0.541  147.575   83.283    0.391
   28.000    0.536  154.124   77.978    0.398
   28.250    0.533  158.792   81.038    0.409
   28.500    0.532  161.270   84.137    0.412
   28.750    0.529  161.515   81.794    0.411
   29.000    0.530  152.970   78.270    0.407
   29.250    0.558  142.868   78.949    0.410
   29.500    0.560  133.483   74.243    0.419
   29.750    0.539  128.103   71.300    0.422
   30.000    0.545  118.028   69.558    0.420
   30.250    0.545  111.784   73.277    0.420
   30.500    0.518  108.828   75.737    0.419
   30.750    0.543  106.031   75.234    0.419
   31.000    0.553  106.232   72.930    0.420
   31.250    0.568  107.808   70.587    0.418
   31.500    0.557  109.616   68.264    0.414
   31.750    0.552  109.657   65.941    0.411
   32.000    0.560  109.824   62.997    0.412
   32.250    0.592  108.465   60.654    0.416
   32.500    0.598  107.123   61.333    0.419
   32.750    0.561  107.286   60.830    0.418
   33.000    0.557  107.449   58.487    0.416
   33.250    0.575  106.119   56.183    0.413
   33.500    0.543   99.111   57.462    0.414
   33.750    0.531   88.767   58.741    0.416
   34.000    0.541   81.755   60.639    0.417
   34.250    0.543   80.774   61.337    0.414
   34.500    0.550   79.714   61.396    0.411
   34.750    0.557   76.588   61.474    0.411
   35.000    0.527   72.509   65.135    0.411
   35.250    0.529   64.941   71.216    0.402
   35.500    0.535   59.811   73.696    0.387
   35.750    0.540   60.767   69.591    0.398
   36.000    0.550   61.716   67.248    0.412
   36.250    0.562   60.952   64.324    0.410
   36.500    0.532   58.562   62.601    0.409
   36.750    0.536   57.793   63.899    0.408
   37.000    0.542   55.506   63.997    0.402
   37.250    0.538   55.611   64.036    0.393
   37.500    0.543   56.458   64.714    0.384
   37.750    0.552   58.986   62.991    0.400
   38.000    0.554   60.726   59.487    0.414
   38.250    0.539   63.445   57.764    0.411
   38.500    0.538   66.260   59.042    0.416
   38.750    0.553   65.440   60.302    0.441
   39.000    0.525   63.710   60.380    0.444
   39.250    0.542   60.340   61.659    0.419
   39.500    0.560   57.951   65.959    0.411
   39.750    0.558   59.706   67.838    0.413
   40.000    0.537   61.468   61.312    0.414
   40.250    0.532   69.834   58.388    0.414
   40.500    0.542   75.028   57.266    0.412
   40.750    0.545   76.198   58.544    0.412
   41.000    0.545   76.314   61.024    0.413
   41.250    0.556   76.401   60.501    0.414
   41.500    0.562   76.517   58.159    0.414
   41.750    0.556   77.711   55.235    0.415
   42.000    0.563   78.954   52.931    0.416
   42.250    0.573   80.186   54.791    0.418
   42.500    0.581   79.224   62.092    0.419
   42.750    0.569   77.129   66.993    0.419
   43.000    0.560   76.146   68.252    0.418
   43.250    0.565   74.161   70.731    0.411
