~VERSION INFORMATION
 VERS.                 2.0:   CWLS LOG ASCII STANDARD -VERSION 2.0
 WRAP.                  NO:   ONE LINE PER DEPTH STEP
~WELL INFORMATION BLOCK
#MNEM.UNIT           DATA                    DESCRIPTION OF MNEMONIC
#---------    -------------------            -------------------------------
# Generated from Intellog Unique Number	CN_94_101/WELL/4992
WELL.         08-19-098-11W4                 : Well_name    - WELL
LOC .         AA/08-19-098-11W4/0            : Location     - LOCATION
UWI .         AA/08-19-098-11W400            : Uwi          - UNIQUE WELL ID
ENTR.         TIM                            : Entered      - ENTERED BY
SRVC.         SCHLUMBERGER                   : Scn          - SERVICE COMPANY
DATE.         08/11/92                       : Date         - LOG DATE
STRT.M        0                              : top_depth    - START DEPTH
STOP.M        115                            : bot_depth    - STOP DEPTH
STEP.M        0.25                           : increment    - STEP LENGTH
 NULL. -999.2500:NULL Value
~CURVE INFORMATION BLOCK
#MNEM UNIT       ERCB CURVE CODE    CURVE DESCRIPTION
#-----------   ------------------   ----------------------------------
DEPT.M        00 001 00 00         : DEPTH        - DEPTH
GR  .API      00 310 00 00         : GR           - GAMMA RAY
ILD .OHMM     00 120 00 00         : RESD         - DEEP RESISTIVITY (DIL)
NPHI.V/V      00 330 00 00         : PHIN         - NEUTRON POROSITY (SANDSTONE)
DPHI.V/V      00 890 00 00         : PHID         - DENSITY POROSITY (SANDSTONE)
~PARAMETER INFORMATION
#MNEM.UNIT           DATA             DESCRIPTION OF MNEMONIC
#---------         -----------     ------------------------------
GL  .M        333.78               : gl           - GROUND LEVEL ELEVATION
EREF.M        333.78               : kb           - ELEVATION OF DEPTH REFERENCE
DATM.M        333.78               : datum        - DATUM ELEVATION
TDD .M        115.8                : tdd          - TOTAL DEPTH DRILLER
RUN .         ONE                  : Run          - RUN NUMBER
ENG .         JO                   : Engineer     - RECORDING ENGINEER
WIT .         TIM                  : Witness      - WITNESSED BY
MUD .         GEL                  : Mud_type     - MUD TYPE
MATR.         SANDSTONE            : Logunit      - NEUTRON MATRIX
TMAX.C        10                   : BHT          - MAXIMUM RECORDED TEMPERATURE
BHTD.M        115.8                : BHTDEP       - MAXIMUM RECORDED TEMPERATURE
RMT .C        10                   : MDTP         - TEMPERATURE OF MUD
MUDD.KG/M     0                    : MWT          - MUD DENSITY
NEUT.         1                    : NEUTRON      - NEUTRON TYPE
RESI.         0                    : RESIST       - RESISTIVITY TYPE
RM  .OHMM     13.8                 : RM           - RESISTIVITY OF MUD
RMC .OHMM     13.8                 : RMC          - RESISTIVITY OF MUD CAKE
RMF .OHMM     13.8                 : RMF          - RESISTIVITY OF MUD FILTRATE
SUFT.C        4                    : SUFT         - SURFACE TEMPERATURE
~A  DEPTH       GR     RESD     PHIN     PHID
    0.000   59.408    8.667    0.502    0.113
    0.250   59.372    8.666    0.502    0.114
    0.500   59.337    8.305    0.502    0.118
    0.750   60.553    8.188    0.502    0.122
    1.000   58.633    7.847    0.501    0.124
    1.250   56.105    7.736    0.500    0.125
    1.500   57.321    7.735    0.500    0.127
    1.750   61.662    7.843    0.499    0.120
    2.000   64.128    7.842    0.498    0.045
    2.250   61.592    7.840    0.498    0.033
    2.500   63.424    7.839    0.499    0.056
    2.750   69.007    7.838    0.499    0.075
    3.000   70.240    7.837    0.499    0.091
    3.250   72.081    7.947    0.497    0.052
    3.500   72.045    8.058    0.496    0.058
    3.750   68.866    8.287    0.495    0.066
    4.000   66.339    8.404    0.494    0.073
    4.250   62.535    8.402    0.493    0.080
    4.500   62.499    8.402    0.494    0.085
    4.750   64.983    8.400    0.494    0.085
    5.000   64.939    8.399    0.495    0.089
    5.250   64.278    8.516    0.497    0.109
    5.500   66.753    8.515    0.499    0.115
    5.750   71.086    8.514    0.501    0.128
    6.000   72.935    8.393    0.502    0.133
    6.250   71.650    8.274    0.498    0.069
    6.500   69.739    8.273    0.494    0.058
    6.750   67.828    8.272    0.494    0.055
    7.000   67.775    8.270    0.494    0.059
    7.250   70.249    8.269    0.497    0.061
    7.500   68.955    8.268    0.498    0.067
    7.750   66.436    8.266    0.501    0.071
    8.000   62.650    8.265    0.502    0.077
    8.250   57.604    8.264    0.503    0.077
    8.500   55.693    8.033    0.502    0.078
    8.750   61.901    7.808    0.502    0.074
    9.000   65.001    7.483    0.501    0.056
    9.250   64.966    7.377    0.499    0.044
    9.500   66.181    7.272    0.495    0.045
    9.750   70.532    7.170    0.494    0.048
   10.000   71.747    7.168    0.496    0.043
   10.250   68.577    7.269    0.500    0.045
   10.500   62.906    7.268    0.503    0.049
   10.750   60.378    7.370    0.506    0.053
   11.000   67.221    7.369    0.507    0.057
   11.250   75.930    7.367    0.501    0.058
   11.500   73.403    7.366    0.497    0.051
   11.750   70.224    7.365    0.499    0.038
   12.000   70.206    7.363    0.502    0.045
   12.250   77.656    7.362    0.507    0.069
   12.500   76.388    7.362    0.510    0.075
   12.750   73.227    7.360    0.513    0.095
   13.000   70.057    7.256    0.517    0.107
   13.250   71.906    7.255    0.510    0.127
   13.500   70.612    7.253    0.505    0.124
   13.750   69.960    7.252    0.506    0.119
   14.000   71.800    7.354    0.501    0.114
   14.250   71.140    7.353    0.504    0.114
   14.500   67.344    7.351    0.506    0.114
   14.750   64.808    7.351    0.509    0.118
   15.000   64.148    7.145    0.510    0.129
   15.250   64.113    7.044    0.510    0.144
   15.500   77.842    7.142    0.505    0.151
   15.750   90.312    7.243    0.500    0.160
   16.000   98.405    7.242    0.493    0.176
   16.250   96.494    7.241    0.486    0.195
   16.500   97.084    7.240    0.461    0.202
   16.750  100.791    6.651    0.438    0.223
   17.000   97.630    6.374    0.411    0.233
   17.250   97.604    6.024    0.400    0.286
   17.500  104.437    5.773    0.406    0.335
   17.750  100.651    5.533    0.452    0.375
   18.000  105.617    5.378    0.492    0.393
   18.250  103.090    5.302    0.509    0.396
   18.500  101.804    5.227    0.512    0.403
   18.750   99.268    5.300    0.512    0.412
   19.000   96.723    5.607    0.506    0.415
   19.250   94.196    6.101    0.499    0.417
   19.500   86.024    7.025    0.496    0.415
   19.750   82.853    8.087    0.496    0.406
   20.000   82.193    8.925    0.496    0.399
   20.250   82.158    9.309    0.496    0.391
   20.500   81.497    9.308    0.497    0.370
   20.750   78.345    9.438    0.496    0.336
   21.000   74.549    9.571    0.491    0.325
   21.250   68.878    9.570    0.487    0.299
   21.500   68.860    9.568    0.479    0.278
   21.750   68.816    9.433    0.429    0.254
   22.000   68.781    9.431    0.390    0.246
   22.250   71.872    9.297    0.399    0.256
   22.500   72.462    9.166    0.416    0.265
   22.750   70.551    9.164    0.440    0.269
   23.000   73.017    9.425    0.463    0.262
   23.250   75.483    9.557    0.469    0.265
   23.500   73.572    9.829    0.463    0.258
   23.750   71.652   10.398    0.399    0.289
   24.000   70.992   11.638    0.379    0.283
   24.250   70.957   12.664    0.401    0.271
   24.500   70.922   13.780    0.404    0.277
   24.750   72.137   14.785    0.438    0.285
   25.000   72.727   13.972    0.419    0.275
   25.250   87.081   10.536    0.449    0.282
   25.500  100.185    9.956    0.479    0.275
   25.750  101.401    9.954    0.418    0.229
   26.000   96.355    9.952    0.383    0.239
   26.250   95.694    9.674    0.376    0.246
   26.500   97.526    9.142    0.346    0.250
   26.750   94.356    8.399    0.317    0.264
   27.000   95.589    7.608    0.305    0.276
   27.250   98.680    6.989    0.307    0.274
   27.500   99.895    6.605    0.309    0.269
   27.750  105.487    6.330    0.303    0.273
   28.000  109.203    6.240    0.299    0.272
   28.250  107.292    6.239    0.305    0.270
   28.500  105.381    6.238    0.307    0.275
   28.750  105.972    6.599    0.309    0.282
   29.000  103.435    6.981    0.313    0.287
   29.250  100.899    7.180    0.315    0.290
   29.500   97.729    6.979    0.317    0.293
   29.750  101.454    6.595    0.321    0.297
   30.000  110.164    6.145    0.325    0.300
   30.250  105.760    5.807    0.335    0.290
   30.500  101.348    5.565    0.333    0.269
   30.750  101.313    5.334    0.314    0.237
   31.000  100.653    5.409    0.309    0.257
   31.250  103.119    5.722    0.309    0.279
   31.500  105.576    5.257    0.320    0.279
   31.750  101.789    5.182    0.339    0.285
   32.000   96.135    5.639    0.349    0.291
   32.250   90.464    6.136    0.341    0.289
   32.500   97.941    5.637    0.319    0.284
   32.750  112.903    5.179    0.317    0.277
   33.000  111.001    5.178    0.313    0.273
   33.250  106.589    5.177    0.310    0.256
   33.500  100.909    4.962    0.314    0.208
   33.750  102.124    4.823    0.334    0.225
   34.000   99.588    4.822    0.339    0.249
   34.250   97.052    4.959    0.351    0.266
   34.500   95.766    5.029    0.363    0.281
   34.750   97.615    5.028    0.377    0.291
   35.000  100.706    5.099    0.365    0.298
   35.250  106.298    5.548    0.357    0.295
   35.500  116.267    5.953    0.366    0.289
   35.750  106.228    6.663    0.370    0.279
   36.000   98.690    7.149    0.369    0.272
   36.250   93.019    6.661    0.360    0.272
   36.500  100.495    6.206    0.347    0.272
   36.750   99.835    5.702    0.320    0.267
   37.000   90.421    5.313    0.310    0.254
   37.250   87.885    5.387    0.300    0.221
   37.500   85.340    6.115    0.333    0.211
   37.750   84.054    7.040    0.351    0.247
   38.000   86.520    5.943    0.360    0.281
   38.250   86.485    5.538    0.375    0.293
   38.500   83.948    6.466    0.392    0.312
   38.750   82.038    6.465    0.415    0.333
   39.000   88.255    5.774    0.425    0.362
   39.250   86.344    5.380    0.428    0.376
   39.500   83.183    6.107    0.449    0.387
   39.750   83.147    5.936    0.445    0.384
   40.000   84.988    5.610    0.429    0.377
   40.250   84.953    5.851    0.394    0.370
   40.500   84.918    6.018    0.400    0.362
   40.750   83.007    6.548    0.422    0.345
   41.000   81.721    6.456    0.428    0.322
   41.250   84.812    6.015    0.403    0.311
   41.500   84.777    6.099    0.383    0.293
   41.750   80.990    6.098    0.369    0.266
   42.000   74.068    6.097    0.374    0.263
   42.250   80.920    5.446    0.375    0.267
   42.500   94.640    5.074    0.371    0.270
   42.750   97.722    4.662    0.367    0.270
   43.000   95.195    4.283    0.357    0.271
   43.250  102.663    4.343    0.344    0.279
