~VERSION INFORMATION
 VERS.                 2.0:   CWLS LOG ASCII STANDARD -VERSION 2.0
 WRAP.                  NO:   ONE LINE PER DEPTH STEP
~WELL INFORMATION BLOCK
#MNEM.UNIT           DATA                    DESCRIPTION OF MNEMONIC
#---------    -------------------            -------------------------------
# Generated from Intellog Unique Number	CN_94_101/WELL/4994
WELL.         09-05-098-13W4                 : Well_name    - WELL
LOC .         00/09-05-098-13W4/0            : Location     - LOCATION
UWI .         00/09-05-098-13W400            : Uwi          - UNIQUE WELL ID
ENTR.         JOETTE                         : Entered      - ENTERED BY
SRVC.         WESTERN ATLAS                  : Scn          - SERVICE COMPANY
DATE.         08/28/92                       : Date         - LOG DATE
STRT.M        275                            : top_depth    - START DEPTH
STOP.M        480                            : bot_depth    - STOP DEPTH
STEP.M        0.25                           : increment    - STEP LENGTH
 NULL. -999.2500:NULL Value
~CURVE INFORMATION BLOCK
#MNEM UNIT       ERCB CURVE CODE    CURVE DESCRIPTION
#-----------   ------------------   ----------------------------------
DEPT.M        00 001 00 00         : DEPTH        - DEPTH
ILD .OHMM     00 120 00 00         : RESD         - DEEP RESISTIVITY (DIL)
GR  .API      00 310 00 00         : GR           - GAMMA RAY
NPHI.V/V      00 330 00 00         : PHIN         - NEUTRON POROSITY (SANDSTONE)
DPHI.V/V      00 890 00 00         : PHID         - DENSITY POROSITY (SANDSTONE)
~PARAMETER INFORMATION
#MNEM.UNIT           DATA             DESCRIPTION OF MNEMONIC
#---------         -----------     ------------------------------
GL  .M        723.4                : gl           - GROUND LEVEL ELEVATION
EREF.M        726.65               : kb           - ELEVATION OF DEPTH REFERENCE
DATM.M        726.65               : datum        - DATUM ELEVATION
TDD .M        491                  : tdd          - TOTAL DEPTH DRILLER
RUN .         ONE                  : Run          - RUN NUMBER
ENG .         JO                   : Engineer     - RECORDING ENGINEER
WIT .         TIM                  : Witness      - WITNESSED BY
MUD .         GEL                  : Mud_type     - MUD TYPE
MATR.         SANDSTONE            : Logunit      - NEUTRON MATRIX
TMAX.C        20                   : BHT          - MAXIMUM RECORDED TEMPERATURE
BHTD.M        491                  : BHTDEP       - MAXIMUM RECORDED TEMPERATURE
RMT .C        15                   : MDTP         - TEMPERATURE OF MUD
MUDD.KG/M     1150                 : MWT          - MUD DENSITY
NEUT.         1                    : NEUTRON      - NEUTRON TYPE
RESI.         0                    : RESIST       - RESISTIVITY TYPE
RM  .OHMM     6.17                 : RM           - RESISTIVITY OF MUD
RMC .OHMM     5.2                  : RMC          - RESISTIVITY OF MUD CAKE
RMF .OHMM     5.01                 : RMF          - RESISTIVITY OF MUD FILTRATE
SUFT.C        4                    : SUFT         - SURFACE TEMPERATURE
~A  DEPTH     RESD       GR     PHIN     PHID
  275.000    4.360  121.256    0.544    0.204
  275.250    4.375  121.815    0.540    0.196
  275.500    4.302  122.374    0.534    0.193
  275.750    4.234  122.032    0.531    0.200
  276.000    4.021  121.131    0.537    0.212
  276.250    3.955  120.210    0.538    0.220
  276.500    3.886  118.887    0.534    0.228
  276.750    3.827  118.447    0.531    0.229
  277.000    3.835  118.065    0.526    0.227
  277.250    3.921  118.144    0.525    0.227
  277.500    4.322  115.802    0.527    0.222
  277.750    4.584  114.901    0.527    0.201
  278.000    4.959  114.019    0.522    0.200
  278.250    5.159  109.775    0.518    0.201
  278.500    5.371  110.835    0.526    0.198
  278.750    5.592  112.835    0.531    0.194
  279.000    5.603  111.473    0.530    0.189
  279.250    5.729  109.150    0.534    0.206
  279.500    5.641  111.611    0.534    0.218
  279.750    5.544  116.053    0.534    0.217
  280.000    5.164  117.553    0.539    0.215
  280.250    4.981  115.711    0.542    0.210
  280.500    4.550  114.368    0.543    0.214
  280.750    4.154  113.947    0.534    0.213
  281.000    4.012  114.046    0.511    0.207
  281.250    4.253  112.684    0.507    0.200
  281.500    5.145  111.283    0.501    0.191
  281.750    6.113  108.000    0.491    0.192
  282.000    7.127  102.795    0.487    0.192
  282.250    7.415   99.493    0.494    0.188
  282.500    7.576   98.611    0.504    0.186
  282.750    7.052  103.052    0.514    0.196
  283.000    6.434  106.474    0.523    0.219
  283.250    5.657  107.533    0.534    0.220
  283.500    4.971  109.033    0.525    0.213
  283.750    4.624  109.132    0.522    0.215
  284.000    4.637  107.270    0.524    0.222
  284.250    5.015  103.046    0.523    0.233
  284.500    5.320  102.645    0.522    0.240
  284.750    5.755  105.106    0.523    0.252
  285.000    5.771  111.929    0.528    0.261
  285.250    5.470  114.410    0.537    0.264
  285.500    4.901  114.969    0.546    0.268
  285.750    4.471  117.950    0.555    0.267
  286.000    4.156  119.469    0.562    0.263
  286.250    3.724  118.608    0.563    0.258
  286.500    3.529  118.167    0.566    0.253
  286.750    3.348  115.364    0.572    0.249
  287.000    3.294  113.042    0.572    0.240
  287.250    3.303  111.219    0.570    0.244
  287.500    3.375  111.298    0.569    0.250
  287.750    3.788  110.877    0.559    0.264
  288.000    4.413  106.133    0.527    0.278
  288.250    5.339   98.527    0.500    0.279
  288.500    6.105   95.224    0.472    0.277
  288.750    7.674   91.000    0.447    0.270
  289.000   10.389   87.698    0.437    0.261
  289.250   12.343   83.934    0.418    0.226
  289.500   15.215   79.190    0.414    0.222
  289.750   19.123   78.789    0.410    0.249
  290.000   36.321   78.388    0.405    0.296
  290.250   77.206   77.526    0.407    0.311
  290.500  164.228   80.467    0.418    0.339
  290.750  311.920   82.487    0.430    0.332
  291.000 1761.790   81.125    0.437    0.324
  291.250 2525.200   82.645    0.433    0.318
  291.500 2680.600   84.665    0.432    0.322
  291.750 2687.940   82.843    0.430    0.318
  292.000 2452.210   82.402    0.428    0.304
  292.250 1347.840   81.981    0.423    0.290
  292.500  342.736   80.639    0.428    0.265
  292.750   99.456   78.797    0.431    0.253
  293.000   64.724   77.895    0.439    0.232
  293.250   41.338   81.336    0.447    0.225
  293.500   25.928   90.101    0.453    0.220
  293.750   23.215   91.621    0.459    0.225
  294.000   20.413   93.621    0.465    0.228
  294.250   16.978   96.602    0.477    0.229
  294.500   14.651   98.582    0.484    0.227
  294.750   13.357  103.023    0.480    0.224
  295.000   11.109  103.543    0.473    0.223
  295.250    9.762  103.642    0.476    0.221
  295.500    8.752  103.221    0.483    0.220
  295.750    8.441   99.958    0.488    0.226
  296.000    7.858   96.174    0.494    0.233
  296.250    7.727   94.852    0.504    0.234
  296.500    7.329   94.411    0.511    0.234
  296.750    7.344   93.530    0.508    0.234
  297.000    7.364   93.609    0.507    0.233
  297.250    7.667   94.168    0.503    0.238
  297.500    8.940   97.129    0.499    0.239
  297.750   10.229   97.688    0.501    0.236
  298.000   10.445   98.248    0.511    0.240
  298.250    9.716   99.787    0.512    0.241
  298.500    8.543  100.347    0.505    0.242
  298.750    7.101   98.024    0.499    0.238
  299.000    6.478   95.221    0.495    0.238
  299.250    6.261   93.840    0.494    0.240
  299.500    6.637   90.096    0.492    0.237
  299.750    7.595   88.254    0.490    0.231
  300.000    8.690   87.352    0.477    0.225
  300.250    9.387   86.951    0.459    0.217
  300.500    9.793   89.912    0.461    0.224
  300.750    9.992  100.597    0.468    0.232
  301.000   10.202  101.637    0.476    0.250
  301.250   10.230  102.657    0.485    0.258
  301.500   10.074  104.177    0.487    0.266
  301.750    9.542   99.933    0.491    0.276
  302.000    8.240   97.111    0.495    0.288
  302.250    7.106  102.973    0.497    0.286
  302.500    7.826   99.690    0.495    0.283
  302.750   12.555   96.867    0.495    0.283
  303.000   13.828   92.624    0.497    0.285
  303.250   14.947   89.841    0.503    0.284
  303.500   16.473   92.321    0.505    0.285
  303.750   15.614   94.322    0.508    0.286
  304.000   13.980   94.420    0.508    0.289
  304.250   12.292   94.460    0.507    0.286
  304.500   10.411   93.598    0.507    0.280
  304.750    9.321   93.677    0.508    0.277
  305.000    8.676   92.795    0.509    0.278
  305.250    8.380   90.953    0.508    0.278
  305.500    8.562   92.453    0.507    0.278
  305.750    8.908   94.013    0.504    0.274
  306.000   10.393   94.052    0.498    0.272
  306.250   11.439   93.210    0.491    0.276
  306.500   12.837   91.829    0.464    0.287
  306.750   15.540   89.006    0.456    0.289
  307.000   18.450   85.743    0.433    0.287
  307.250   21.098   82.460    0.429    0.292
  307.500   25.066   80.117    0.429    0.296
  307.750   30.898   77.775    0.428    0.292
  308.000   36.683   73.531    0.431    0.287
  308.250   37.480   70.248    0.433    0.285
  308.500   41.309   72.268    0.437    0.290
  308.750   49.973   74.749    0.440    0.288
  309.000   88.110   76.769    0.442    0.287
  309.250   81.962   76.328    0.444    0.286
  309.500   74.774   76.887    0.449    0.289
  309.750   55.493   81.289    0.455    0.291
  310.000   31.668   81.388    0.459    0.291
  310.250   26.339   79.526    0.458    0.293
  310.500   25.920   79.605    0.463    0.294
  310.750   25.508   81.145    0.465    0.298
  311.000   26.062   79.763    0.462    0.299
  311.250   28.151   78.401    0.457    0.302
  311.500   32.801   79.441    0.450    0.309
  311.750   40.461   78.099    0.437    0.308
  312.000   45.438   74.316    0.422    0.307
  312.250   48.201   70.072    0.416    0.299
  312.500   50.147   66.769    0.412    0.298
  312.750   59.578   63.025    0.407    0.294
  313.000  284.213   59.762    0.403    0.289
  313.250  571.072   59.841    0.408    0.288
  313.500  665.398   60.861    0.412    0.291
  313.750  458.733   62.381    0.416    0.297
  314.000  403.086   63.420    0.409    0.305
  314.250  277.702   62.039    0.405    0.305
  314.500  244.015   59.236    0.402    0.306
  314.750  214.415   58.854    0.403    0.310
  315.000  931.239   58.914    0.400    0.315
  315.250 1580.360   59.013    0.395    0.315
  315.500 1987.660   60.532    0.394    0.313
  315.750 1957.380   62.993    0.399    0.307
  316.000 1960.060   69.336    0.401    0.301
  316.250 1857.830   67.033    0.397    0.296
  316.500 1142.850   66.152    0.393    0.296
  316.750  344.083   66.691    0.397    0.292
  317.000  178.769   66.770    0.401    0.293
  317.250  314.983   64.928    0.403    0.297
  317.500 1780.310   63.086    0.403    0.297
  317.750 2194.500   61.244    0.402    0.296
  318.000 2511.150   61.323    0.399    0.293
  318.250 2663.860   60.441    0.397    0.289
