~VERSION INFORMATION
 VERS.                 2.0:   CWLS LOG ASCII STANDARD -VERSION 2.0
 WRAP.                  NO:   ONE LINE PER DEPTH STEP
~WELL INFORMATION BLOCK
#MNEM.UNIT           DATA                    DESCRIPTION OF MNEMONIC
#---------    -------------------            -------------------------------
# Generated from Intellog Unique Number	CW_76_78/WELL/2567
WELL.         06-06-078-25W4                 : Well_name    - WELL
LOC .         AA/06-06-078-25W4/0            : Location     - LOCATION
UWI .         AA/06-06-078-25W4/0            : Uwi          - UNIQUE WELL ID
ENTR.         MAX                            : Entered      - ENTERED BY
SRVC.         SCHLUMBERGER                   : Scn          - SERVICE COMPANY
STRT.M        350                            : top_depth    - START DEPTH
STOP.M        590                            : bot_depth    - STOP DEPTH
STEP.M        0.25                           : increment    - STEP LENGTH
 NULL. -999.2500:NULL Value
~CURVE INFORMATION BLOCK
#MNEM UNIT       ERCB CURVE CODE    CURVE DESCRIPTION
#-----------   ------------------   ----------------------------------
DEPT.M        00 001 00 00         : DEPTH        - DEPTH
ILD .OHMM     00 120 00 00         : RESD         - DEEP RESISTIVITY (DIL)
NPHI.V/V      00 330 00 00         : PHIN         - NEUTRON POROSITY (SANDSTONE)
DPHI.V/V      00 890 00 00         : PHID         - DENSITY POROSITY (SANDSTONE)
CALI.MM       00 280 01 00         : CAL          - CALIPER
GR  .API      00 310 00 00         : GR           - GAMMA RAY
~PARAMETER INFORMATION
#MNEM.UNIT           DATA             DESCRIPTION OF MNEMONIC
#---------         -----------     ------------------------------
GL  .M        645.28               : gl           - GROUND LEVEL ELEVATION
EREF.M        650.03               : kb           - ELEVATION OF DEPTH REFERENCE
DATM.M        645.28               : datum        - DATUM ELEVATION
TDD .M        594                  : tdd          - TOTAL DEPTH DRILLER
RUN .         ONE                  : Run          - RUN NUMBER
ENG .         BILL                 : Engineer     - RECORDING ENGINEER
WIT .         JIM                  : Witness      - WITNESSED BY
MUD .         GEL                  : Mud_type     - MUD TYPE
MATR.         SANDSTONE            : Logunit      - NEUTRON MATRIX
TMAX.C        34.4                 : BHT          - MAXIMUM RECORDED TEMPERATURE
BHTD.M        594                  : BHTDEP       - MAXIMUM RECORDED TEMPERATURE
RMT .C        18                   : MDTP         - TEMPERATURE OF MUD
MUDD.KG/M     8.5                  : MWT          - MUD DENSITY
NEUT.         1                    : NEUTRON      - NEUTRON TYPE
RESI.         0                    : RESIST       - RESISTIVITY TYPE
RM  .OHMM     6.56                 : RM           - RESISTIVITY OF MUD
RMC .OHMM     0.25                 : RMC          - RESISTIVITY OF MUD CAKE
RMF .OHMM     5.94                 : RMF          - RESISTIVITY OF MUD FILTRATE
SUFT.C        -20                  : SUFT         - SURFACE TEMPERATURE
~A  DEPTH     RESD     PHIN     PHID      CAL       GR
# ...
  569.000   10.304    0.383    0.224  220.324   78.614
  569.250   10.418    0.378    0.228  217.833   78.331
  569.500   10.714    0.364    0.214  216.355   74.725
  569.750   13.537    0.352    0.190  216.382   68.706
  570.000   15.869    0.327    0.116  215.910   63.895
  570.250   19.675    0.281    0.082  214.422   59.388
  570.500   24.166    0.152    0.057  212.437   51.861
  570.750   37.450    0.142    0.000  211.459   49.767
  571.000   49.091    0.147    0.010  212.495   50.083
  571.250   51.478    0.164    0.012  213.022   49.798
  571.500   32.974    0.195    0.014  212.546   50.114
  571.750   22.755    0.222    0.013  215.091   57.675
  572.000   18.736    0.276    0.032  214.615   61.916
  572.250   16.012    0.313    0.067  215.145   67.968
  572.500   13.307    0.340    0.160  216.685   74.922
  572.750   12.830    0.363    0.174  212.686   85.197
  573.000   11.067    0.403    0.166  212.713   87.931
  573.250   10.188    0.394    0.183  215.760   90.361
  573.500   10.198    0.348    0.165  214.282   80.724
  573.750   10.402    0.350    0.185  212.291   74.403
  574.000   10.807    0.349    0.204  209.305   71.102
  574.250   11.332    0.342    0.212  208.326   69.909
  574.500   11.663    0.341    0.191  208.856   67.512
  574.750   11.042    0.404    0.133  209.886   68.134
  575.000   11.042    0.427    0.138  212.930   69.958
  575.250   10.370    0.469    0.172  216.984   74.802
  575.500    9.996    0.492    0.197  218.023   81.758
  575.750    9.996    0.497    0.255  219.556   82.981
  576.000    9.562    0.427    0.297  215.564   79.377
  576.250    8.968    0.379    0.275  210.562   69.436
  576.500    8.893    0.362    0.266  209.577   65.231
  576.750    8.739    0.374    0.264  209.108   65.850
  577.000    8.746    0.370    0.263  208.625   67.381
  577.250    8.594    0.365    0.260  207.647   69.807
  577.500    8.443    0.362    0.244  207.677   71.632
  577.750    8.297    0.369    0.228  208.204   72.857
  578.000    8.382    0.372    0.224  209.237   72.876
  578.250    8.629    0.366    0.201  210.773   72.586
  578.500    8.716    0.351    0.177  212.312   72.005
  578.750    8.973    0.344    0.173  213.851   72.922
  579.000    9.065    0.413    0.212  214.378   79.275
  579.250    9.244    0.458    0.242  214.408   82.005
  579.500    9.429    0.478    0.288  215.944   85.947
  579.750    9.525    0.444    0.301  216.974   88.979
  580.000    9.622    0.415    0.194  217.507   94.124
  580.250    9.721    0.383    0.173  217.031   98.968
  580.500    9.917    0.374    0.161  216.050  105.019
  580.750   10.017    0.371    0.146  215.078  108.962
  581.000   10.120    0.356    0.137  215.608  111.692
  581.250   10.226    0.350    0.149  215.638  114.725
  581.500   10.331    0.356    0.145  215.662  115.647
  581.750   10.341    0.374    0.134  215.693  109.327
  582.000   10.351    0.366    0.110  215.713  104.821
  582.250   10.363    0.356    0.093  215.747  104.834
  582.500   10.277    0.354    0.137  217.276  106.966
  582.750   10.096    0.353    0.166  218.309  111.204
  583.000    9.560    0.357    0.166  218.336  107.296
  583.250    8.964    0.372    0.161  219.373   98.261
  583.500    7.804    0.411    0.149  220.406   91.941
  583.750    7.054    0.427    0.160  222.441   89.242
  584.000    6.802    0.429    0.162  223.983   85.638
  584.250    6.808    0.417    0.134  223.504   81.132
  584.500    6.816    0.414    0.150  218.000   78.731
  584.750    6.821    0.429    0.136  217.528   77.842
  585.000    6.703    0.448    0.131  219.067   78.464
  585.250    6.463    0.424    0.144  218.082   79.083
  585.500    5.951    0.415    0.111  218.612   78.496
  585.750    5.479    0.401    0.093  216.627   76.403
  586.000    5.138    0.390    0.145  216.152   74.908
  586.250    4.819    0.374    0.140  217.691   73.416
  586.500    4.647    0.376    0.125  216.209   72.225
  586.750    4.524    0.379    0.120  215.227   71.640
  587.000    4.571    0.371    0.119  214.755   71.053
  587.250    4.749    0.350    0.121  211.765   70.770
  587.500    4.980    0.340    0.152  209.778   69.879
  587.750    5.174    0.349    0.162  209.811   69.591
  588.000    5.174    0.342    0.141  213.355   69.608
  588.250    5.432    0.341    0.130  211.874   69.628
  588.500    5.965    0.363    0.117  217.433   69.640
  588.750    5.973    0.383    0.133  218.469   69.960
  589.000    5.813    0.378    0.122  216.984   70.578
  589.250    6.040    0.379    0.108  212.992   70.898
  589.500    6.101    0.381    0.084  207.484   70.917
  589.750    9.026    0.382    0.030  204.497   70.933
  590.000   13.990    0.382    0.059  204.018   71.249
