~VERSION INFORMATION
 VERS.                 2.0:   CWLS LOG ASCII STANDARD -VERSION 2.0
 WRAP.                  NO:   ONE LINE PER DEPTH STEP
~WELL INFORMATION BLOCK
#MNEM.UNIT           DATA                    DESCRIPTION OF MNEMONIC
#---------    -------------------            -------------------------------
# Generated from Intellog Unique Number	CN_91_93/WELL/2675
WELL.         07-02-091-17W4                 : Well_name    - WELL
LOC .         AA/07-02-091-17W4/0            : Location     - LOCATION
UWI .         AA/07-02-091-17W400            : Uwi          - UNIQUE WELL ID
ENTR.         JOETTE                         : Entered      - ENTERED BY
SRVC.         SCHLUMBERGER                   : Scn          - SERVICE COMPANY
DATE.         02/11/92                       : Date         - LOG DATE
STRT.M        75                             : top_depth    - START DEPTH
STOP.M        240                            : bot_depth    - STOP DEPTH
STEP.M        0.25                           : increment    - STEP LENGTH
 NULL. -999.2500:NULL Value
~CURVE INFORMATION BLOCK
#MNEM UNIT       ERCB CURVE CODE    CURVE DESCRIPTION
#-----------   ------------------   ----------------------------------
DEPT.M        00 001 00 00         : DEPTH        - DEPTH
GR  .API      00 310 00 00         : GR           - GAMMA RAY
CALI.MM       00 280 01 00         : CAL          - CALIPER
NPHI.V/V      00 330 00 00         : PHIN         - NEUTRON POROSITY (SANDSTONE)
DPHI.V/V      00 890 00 00         : PHID         - DENSITY POROSITY (SANDSTONE)
ILD .OHMM     00 120 00 00         : RESD         - DEEP RESISTIVITY (DIL)
~PARAMETER INFORMATION
#MNEM.UNIT           DATA             DESCRIPTION OF MNEMONIC
#---------         -----------     ------------------------------
GL  .M        501                  : gl           - GROUND LEVEL ELEVATION
EREF.M        504.29               : kb           - ELEVATION OF DEPTH REFERENCE
DATM.M        504.29               : datum        - DATUM ELEVATION
TDD .M        241                  : tdd          - TOTAL DEPTH DRILLER
RUN .         ONE                  : Run          - RUN NUMBER
ENG .         JO                   : Engineer     - RECORDING ENGINEER
WIT .         TIM                  : Witness      - WITNESSED BY
MUD .         GEL                  : Mud_type     - MUD TYPE
MATR.         SANDSTONE            : Logunit      - NEUTRON MATRIX
TMAX.C        1.66667              : BHT          - MAXIMUM RECORDED TEMPERATURE
BHTD.M        241                  : BHTDEP       - MAXIMUM RECORDED TEMPERATURE
RMT .C        18                   : MDTP         - TEMPERATURE OF MUD
MUDD.KG/M     1000                 : MWT          - MUD DENSITY
NEUT.         1                    : NEUTRON      - NEUTRON TYPE
RESI.         0                    : RESIST       - RESISTIVITY TYPE
RM  .OHMM     7.3                  : RM           - RESISTIVITY OF MUD
RMC .OHMM     7.3                  : RMC          - RESISTIVITY OF MUD CAKE
RMF .OHMM     7.3                  : RMF          - RESISTIVITY OF MUD FILTRATE
SUFT.C        4                    : SUFT         - SURFACE TEMPERATURE
~A  DEPTH       GR      CAL     PHIN     PHID     RESD
# ...
  221.000   59.069  172.217    0.447    0.278   28.285
  221.250   57.614  173.298    0.446    0.293   29.628
  221.500   56.149  172.381    0.426    0.309   30.468
  221.750   58.304  171.947    0.440    0.300   31.047
  222.000   59.856  171.531    0.463    0.295   30.784
  222.250   57.794  171.531    0.467    0.325   30.248
  222.500   55.141  172.178    0.457    0.315   30.828
  222.750   53.970  173.279    0.420    0.304   32.289
  223.000   57.330  173.356    0.421    0.312   32.900
  223.250   62.498  172.921    0.418    0.298   32.036
  223.500   66.466  172.989    0.434    0.316   27.440
  223.750   70.428  173.066    0.460    0.301   22.664
  224.000   85.242  173.664    0.461    0.290   19.416
  224.250   87.704  174.755    0.382    0.261   18.733
  224.500   88.045  174.813    0.387    0.247   20.351
  224.750   86.892  174.398    0.388    0.222   24.225
  225.000   86.643  174.977    0.382    0.207   24.910
  225.250   87.292  176.551    0.384    0.214   25.619
  225.500   87.935  177.130    0.392    0.223   26.349
  225.750   90.397  177.207    0.393    0.226   26.370
  226.000   94.052  176.802    0.386    0.239   26.382
  226.250  101.027  175.855    0.385    0.241   26.411
  226.500  111.322  175.933    0.386    0.246   25.699
  226.750  114.079  176.531    0.362    0.232   23.259
  227.000  113.529  178.095    0.359    0.236   21.241
  227.250  106.038  181.195    0.382    0.253   20.678
  227.500   97.047  176.241    0.414    0.256   21.660
  227.750   88.653  172.814    0.445    0.312   24.857
  228.000   85.687  174.397    0.381    0.251   30.973
  228.250   84.227  174.532    0.381    0.242   34.269
  228.500   85.484  175.063    0.385    0.251   36.219
  228.750   93.067  175.063    0.371    0.267   31.601
  229.000  101.241  176.250    0.329    0.266   25.628
  229.250  115.150  177.303    0.317    0.248   20.040
  229.500  137.495  177.390    0.317    0.227   18.638
  229.750  171.605  177.448    0.323    0.201   16.560
  230.000  168.030  177.525    0.333    0.201   14.582
  230.250  144.568  177.602    0.356    0.221   13.196
  230.500  132.257  180.189    0.390    0.249   12.501
  230.750  125.074  186.793    0.427    0.279   12.280
  231.000  125.120  206.461    0.466    0.339   12.288
  231.250  125.468  191.978    0.527    0.376   12.523
  231.500  122.513  186.021    0.550    0.378   13.236
  231.750  123.162  179.079    0.476    0.321   14.645
  232.000  123.504  175.139    0.448    0.323   15.911
  232.250  118.122  173.208    0.389    0.229   16.067
  232.500  111.234  172.783    0.372    0.215   15.502
  232.750   99.531  173.353    0.356    0.215   14.684
  233.000   90.836  174.936    0.355    0.199   14.037
  233.250   49.010  179.551    0.349    0.195   13.542
  233.500   67.130  179.117    0.340    0.219   13.304
  233.750   84.347  183.722    0.368    0.190   13.684
  234.000   94.949  179.783    0.387    0.216   14.462
  234.250   94.398  175.341    0.372    0.203   17.858
  234.500   94.132  170.388    0.361    0.219   18.873
  234.750   94.190  168.959    0.363    0.211   22.262
  235.000   94.839  169.538    0.370    0.222   23.104
  235.250   96.084  171.633    0.368    0.229   20.908
  235.500   97.028  172.213    0.367    0.243   15.335
  235.750   94.364  171.788    0.371    0.218   14.264
  236.000   92.909  169.876    0.397    0.175   13.635
  236.250   93.552  169.934    0.421    0.160   13.154
  236.500   96.020  170.001    0.431    0.179   13.045
  236.750   97.266  170.078    0.431    0.185   13.045
  237.000   97.016  170.165    0.431    0.188   13.060
  237.250   96.153  168.224    0.433    0.231   13.555
  237.500   95.597  167.307    0.433    0.255   13.563
  237.750   95.047  169.383    0.431    0.267   13.325
  238.000   95.695  169.972    0.432    0.260   12.623
  238.250   97.248  169.557    0.441    0.223   12.289
  238.500   99.704  169.614    0.447    0.189   12.298
  238.750  101.552  169.701    0.441    0.156   12.298
  239.000  101.297  168.272    0.429    0.132   12.316
  239.250   98.638  166.331    0.431    0.096   12.432
  239.500   98.679  166.428    0.432    0.031   12.441
  239.750   99.930  166.997    0.426    0.019   12.111
  240.000   98.470  165.057    0.424    0.015   11.899
