~Version : LASO    vs 4.00 
VERS.                2.00:   CWLS Log ASCII Standard -VERSION 2.0
WRAP.                  NO:
~Well Information Block
#MNEM.UNIT       Data                        Description of Mnemonic
#----.----      -------------------------- : -----------------------------
STRT.M            15.0000:
STOP.M           207.0000:
STEP.M             0.2000:
NULL.           -999.2500:
COMP.  MOBIL OIL CANADA                   :COMPANY
WELL.  MOBIL CLARKE OV 1-2                :WELL
FLD.                                      :FIELD
LOC.   01-02-090-08W4                     :LOCATION
CTRY.  CANADA                             :COUNTRY
PROV.  ALBERTA                            :PROVINCE
SRVC.  SCHLUMBERGER                       :SERVICE COMPANY
DATE.  05-MAR-81                          :LOG DATE
UWI.   AA/01-02-090-08W400                :UNIQUE WELL ID
~Parameter Information Block
#MNEM.UNIT       Data                        Description of Mnemonic
#----.----      -------------------------- : -----------------------------
RUN .                   1                 : Run Number
GL  .M           444.4000                 : Ground Level Elevation
DREF.                  KB                 : Depth Reference
EREF.M           444.4000                 : Elevation of Depth Reference
TDL .M           207.0000                 : Total Depth Logger
TDD .M           206.0000                 : Total Depth Driller
CSGL.M            27.0000                 : Casing Bottom Logger
CSGD.M            26.4000                 : Casing Bottom Driller
CSGS.MM          219.0000                 : Casing Size
CSGW.KG/M          0.0000                 : Casing Weight
BS  .MM          159.0000                 : Bit Size
DFD .           9999.0000                 : Mud Weight (Density)
~Curve Information Block
#MNEM.UNIT        API CODE    Curve Description
#---------    ------------    -------------------------------------------
DEPT.M                    :   DEPTH
CALI.MM       42 280  1  1:   3 DENSITY CALIPER
DPHI.V/V                  :   DPHI
DT  .US/M     60 520  0  1:   2 SONIC INTERVAL TRANSIT TIME (COMPENSATED)
GR  .GAPI     42 310  1  1:   4 GAMMA RAY
ILD .OHMM      5 120 46  1:   7 DEEP INDUCTION
ILM .OHMM      5 120 44  1:   8 MEDIUM INDUCTION
NPHI.V/V      42 890  3  1:   5 NEUTRON POROSITY (SANDSTONE)
RHOB.K/M3     42 350  1  1:   6 BULK DENSITY
SFLU.OHMM      5 220  1  1:   9 FOCUSSED RESISTIVITY
SP  .MV        5  10  1  1:   10 SPONTANEOUS POTENTIAL
~A  Depth           CALI        DPHI          DT          GR         ILD         ILM        NPHI        RHOB        SFLU          SP
# ...
112.6000        186.0750      0.2201    474.8000     67.3950      4.4079      4.7058      0.4944   2285.0000      8.5473    121.0650
112.8000        184.8000      0.2246    467.5600     68.4900      4.0948      4.0237      0.4970   2282.0000      5.8591    110.2650
113.0000        186.0750      0.2296    462.1600     67.8900      3.8746      3.5697      0.5006   2281.0000      3.3100    114.1050
113.2000        186.0750      0.2364    475.9200     67.3950      3.5664      3.1962      0.5168   2272.8999      2.2276    116.2650
113.4000        186.0750      0.2449    491.5200     66.9900      3.5013      3.1669      0.5346   2265.0000      2.1273    123.2700
113.6000        183.5250      0.2507    506.4400     65.7900      3.5664      3.2556      0.5364   2249.0000      2.2482    121.3200
113.8000        183.5250      0.2463    516.1200     65.2950      3.9832      3.7037      0.5384   2229.0000      3.4342    114.5700
114.0000        186.0750      0.2468    511.0400     67.0950      4.4487      3.9869      0.5130   2250.0000      4.4038    120.4200
114.2000        186.0750      0.2513    501.8000     67.9950      4.8779      4.2917      0.4872   2228.0000      4.8734    115.9200
114.4000        186.0750      0.2443    493.0000     66.0900      5.4479      4.7493      0.4628   2268.0000      4.9640    114.6150
114.6000        183.5250      0.2163    473.8000     64.6950      6.4303      5.8161      0.4476   2306.0000      5.5954    112.3050
114.8000        186.0750      0.2066    460.8400     63.6900      6.9860      6.5559      0.4418   2305.0000      6.5438    106.6050
115.0000        187.3250      0.1966    447.7200     63.0900      7.5202      7.1817      0.4328   2307.8999      7.6530    116.6100
115.2000        178.4500      0.1732    397.2000     62.7900      8.8763      8.8763      0.4290   2340.8999      7.7952    121.1100
115.4000        178.4500      0.1461    364.7200     60.9900      9.1249     10.2856      0.4168   2350.0000      9.1165    115.0200
115.6000        178.4500      0.1370    352.2800     57.5850      9.1249     10.6716      0.4158   2393.0000     17.8579    116.0100
115.8000        177.1750      0.1291    347.5200     57.2850      9.0413      8.8763      0.3978   2437.0000     12.0179    115.9650
116.0000        175.9000      0.1173    333.0800     60.1800      8.9584      8.3990      0.3874   2436.0000      7.3085    115.3650
116.2000        177.1750      0.0926    342.1200     62.0850      8.5552      8.1701      0.4108   2456.0000      6.3655    114.7650
116.4000        177.1750      0.0919    421.6400     63.8850      7.7309      7.5898      0.4298   2545.0000      6.9156    111.2550
116.6000        178.4500      0.1294    461.3200     64.4850      7.4513      7.3830      0.4456   2488.0000      7.2415    117.6150
116.8000        179.7250      0.1720    469.2000     64.5900      7.3153      7.1817      0.4456   2346.0000      7.4444    112.0050
117.0000        184.8000      0.2162    461.3200     63.9900      7.3153      6.9860      0.4454   2272.0000      7.5828    110.4600
117.2000        186.0750      0.2276    460.3600     63.4800      7.3830      6.9220      0.4456   2257.0000      7.2415    119.1150
117.4000        183.5250      0.2172    461.8400     63.9900      7.3153      6.9860      0.4460   2268.0000      6.6655    120.9600
117.6000        188.6000      0.2079    460.5200     66.8850      7.3153      7.1159      0.4488   2285.8999      6.6655    120.7200
117.8000        183.5250      0.2009    455.9200     66.6900      7.0507      7.3153      0.4510   2315.0000      7.3762    115.1100
118.0000        183.5250      0.1964    451.3200     65.8950      6.5498      7.2482      0.4334   2322.0000      8.0136    111.4050
118.2000        179.7250      0.1967    448.7200     63.9900      5.8645      6.7395      0.4208   2307.0000      8.3913    106.6650
118.4000        183.5250      0.1911    443.1200     60.9900      4.2878      4.7932      0.4316   2318.8999      6.6655    120.3150
118.6000        184.8000      0.1941    444.6000     58.7850      3.7345      3.9141      0.4678   2333.0000      4.9640    113.2650
118.8000        178.4500      0.2026    446.7200     58.3800      3.3437      3.2556      0.4732   2328.0000      3.1903    102.8100
119.0000        177.1750      0.2198    462.4800     58.6800      2.7812      2.7079      0.4790   2326.0000      1.6743    103.5600
119.2000        186.0750      0.2438    480.6800     59.0850      2.6075      2.5623      0.5380   2288.0000      1.7212    119.1600
119.4000        187.3250      0.2606    501.8000     58.1850      2.5132      2.4696      0.5562   2263.0000      1.9223    124.4700
119.6000        192.4250      0.2775    525.9600     55.3800      2.5365      2.4245      0.5574   2190.0000      2.4651    113.9100
119.8000        191.1500      0.2843    524.6400     55.0800      2.6075      2.4470      0.5204   2179.0000      2.4651    122.3100
120.0000        194.9500      0.2814    519.2400     54.5850      2.7054      2.5155      0.5096   2169.0000      2.2690    119.9100
120.2000        206.3750      0.2745    514.0000     55.6800      2.9123      2.7837      0.5064   2192.0000      2.7532    115.9200
120.4000        196.2250      0.2670    508.2400     58.4850      3.0777      2.8882      0.5160   2210.0000      3.0188    118.4700
120.6000        202.5750      0.2719    506.2800     59.9850      3.2827      3.0243      0.5278   2207.0000      3.1033    115.8150
120.8000        193.6750      0.2758    504.1600     58.1850      3.5337      3.2257      0.5166   2186.0000      2.7532    118.5600
121.0000        186.0750      0.2525    497.0800     57.0900      3.9832      3.9869      0.5006   2257.0000      3.2198    105.4650
121.2000        186.0750      0.2392    492.4800     56.3850      4.1327      4.2917      0.4846   2264.0000      4.9185    114.6150
121.4000        186.0750      0.2283    483.4800     56.3850      4.2484      4.3314      0.4724   2274.0000      6.4838    117.0150
121.6000        187.3250      0.2229    459.6800     59.0850      4.6156      4.1747      0.4646   2285.0000      4.8734    113.1600
121.8000        182.2500      0.2239    450.3600     60.6900      4.7888      4.1365      0.4682   2277.0000      3.5631    121.0200
122.0000        178.4500      0.2251    451.0000     61.2900      4.8331      4.2524      0.4794   2263.0000      3.1321    121.6200
122.2000        175.9000      0.2163    470.3600     59.1900      4.9230      4.6626      0.4842   2298.0000      3.9795    121.0200
122.4000        175.9000      0.2062    475.9200     58.0800      5.0609      4.8824      0.4672   2318.8999      4.9185    122.0100
122.6000        175.9000      0.2246    474.4400     57.7800      5.3485      5.0656      0.4566   2285.0000      5.6472    113.8650
122.8000        175.9000      0.2329    459.8400     57.5850      6.1409      5.7628      0.4496   2258.0000      6.1352    107.0550
123.0000        175.9000      0.2214    452.3200     56.6850      6.1977      6.2608      0.4508   2256.0000      6.1920    113.2050
123.2000        175.9000      0.2070    447.2400     55.6800      5.8645      6.6165      0.4512   2281.0000      7.0442    116.1600
123.4000        179.7250      0.1773    427.7200     57.2850      4.9686      5.2075      0.4468   2326.0000      8.4690    118.8600
123.6000        182.2500      0.1576    412.8000     60.1800      4.7014      4.3715      0.4626   2350.0000      5.6472    110.7150
123.8000        189.8750      0.1428    399.8400     63.0900      4.4079      3.9503      0.4774   2404.0000      3.1033    124.2150
124.0000        191.1500      0.1288    399.1600     67.1850      4.0948      3.7725      0.4940   2460.0000      2.3541    125.0700
124.2000        194.9500      0.1597    455.9200     66.9900      3.5664      3.5045      0.5066   2403.0000      3.1321    124.6650
124.4000        192.4250      0.1882    480.5200     67.3950      3.4692      3.3778      0.5046   2349.0000      3.5631    126.5700
124.6000        182.2500      0.2067    491.8400     67.9950      3.5013      3.3161      0.4990   2278.0000      3.6294    124.1700
