~Version : LASO    vs 4.00 
VERS.                2.00:   CWLS Log ASCII Standard -VERSION 2.0
WRAP.                  NO:
~Well Information Block
#MNEM.UNIT       Data                        Description of Mnemonic
#----.----      -------------------------- : -----------------------------
STRT.M            15.0000:
STOP.M           207.0000:
STEP.M             0.2000:
NULL.           -999.2500:
COMP.  MOBIL OIL CANADA                   :COMPANY
WELL.  MOBIL CLARKE OV 1-2                :WELL
FLD.                                      :FIELD
LOC.   01-02-090-08W4                     :LOCATION
CTRY.  CANADA                             :COUNTRY
PROV.  ALBERTA                            :PROVINCE
SRVC.  SCHLUMBERGER                       :SERVICE COMPANY
DATE.  05-MAR-81                          :LOG DATE
UWI.   AA/01-02-090-08W400                :UNIQUE WELL ID
~Parameter Information Block
#MNEM.UNIT       Data                        Description of Mnemonic
#----.----      -------------------------- : -----------------------------
RUN .                   1                 : Run Number
GL  .M           444.4000                 : Ground Level Elevation
DREF.                  KB                 : Depth Reference
EREF.M           444.4000                 : Elevation of Depth Reference
TDL .M           207.0000                 : Total Depth Logger
TDD .M           206.0000                 : Total Depth Driller
CSGL.M            27.0000                 : Casing Bottom Logger
CSGD.M            26.4000                 : Casing Bottom Driller
CSGS.MM          219.0000                 : Casing Size
CSGW.KG/M          0.0000                 : Casing Weight
BS  .MM          159.0000                 : Bit Size
DFD .           9999.0000                 : Mud Weight (Density)
~Curve Information Block
#MNEM.UNIT        API CODE    Curve Description
#---------    ------------    -------------------------------------------
DEPT.M                    :   DEPTH
CALI.MM       42 280  1  1:   3 DENSITY CALIPER
DPHI.V/V                  :   DPHI
DT  .US/M     60 520  0  1:   2 SONIC INTERVAL TRANSIT TIME (COMPENSATED)
GR  .GAPI     42 310  1  1:   4 GAMMA RAY
ILD .OHMM      5 120 46  1:   7 DEEP INDUCTION
ILM .OHMM      5 120 44  1:   8 MEDIUM INDUCTION
NPHI.V/V      42 890  3  1:   5 NEUTRON POROSITY (SANDSTONE)
RHOB.K/M3     42 350  1  1:   6 BULK DENSITY
SFLU.OHMM      5 220  1  1:   9 FOCUSSED RESISTIVITY
SP  .MV        5  10  1  1:   10 SPONTANEOUS POTENTIAL
~A  Depth           CALI        DPHI          DT          GR         ILD         ILM        NPHI        RHOB        SFLU          SP
# ...
51.6000         194.9500      0.1387    395.5600     35.9700     31.3206     28.3289      0.3130   2391.0000     18.8725     73.7550
51.8000         196.2250      0.1484    429.3600     34.5750     34.3423     36.3270      0.2692   2461.0000     38.3557     73.3500
52.0000         200.0250      0.1339    440.6800     34.2750     36.6294     38.0041      0.2584   2501.0000     50.5627     72.9600
52.2000         200.0250      0.1139    428.5200     34.5750     39.7951     39.7951      0.2598   2473.0000     51.0305     73.0500
52.4000         197.5000      0.1021    410.4800     33.9750     43.6345     43.2345      0.2700   2470.0000     43.6345     72.9600
52.6000         196.2250      0.0960    407.5200     33.7800     44.0382     44.0382      0.2664   2504.0000     39.0688     72.8550
52.8000         193.6750      0.1068    407.7200     33.7800     43.6345     44.4457      0.2580   2504.0000     39.0688     73.2600
53.0000         194.9500      0.0990    408.2000     33.0750     44.0382     44.4457      0.2464   2501.8999     45.2720     74.5500
53.2000         193.6750      0.0988    413.1200     33.0750     44.8570     44.4457      0.2492   2497.0000     47.8443     74.5050
53.4000         196.2250      0.0987    411.9600     34.3800     46.1137     44.8570      0.2502   2512.8999     48.7338     73.5600
53.6000         192.4250      0.0976    415.5600     34.5750     47.4056     47.4056      0.2510   2469.0000     48.7338     75.6600
53.8000         192.4250      0.1038    411.4800     33.9750     47.8443     48.7338      0.2500   2500.0000     49.6398     79.0050
54.0000         192.4250      0.1184    408.2000     34.0800     47.8443     49.1847      0.2452   2516.0000     50.5627     84.5100
54.2000         192.4250      0.1087    406.2400     33.7800     48.2870     49.6398      0.2414   2512.0000     51.0305     78.7500
54.4000         189.8750      0.0938    404.2400     34.2750     48.2870     49.6398      0.2468   2496.0000     50.0991     85.1100
54.6000         189.8750      0.0851    405.5600     35.0700     48.7338     49.6398      0.2528   2506.0000     50.0991     86.1600
54.8000         188.6000      0.0888    408.6800     35.1750     48.7338     50.0991      0.2592   2493.0000     51.0305     84.1050
55.0000         186.0750      0.0916    407.8800     34.9800     49.6398     51.0305      0.2634   2531.0000     50.5627     75.1500
55.2000         188.6000      0.0910    407.7200     34.3800     50.0991     51.0305      0.2650   2514.0000     50.5627     76.2000
55.4000         192.4250      0.0810    405.7200     34.8750     49.6398     51.5027      0.2662   2508.0000     51.9792     82.8000
55.6000         186.0750      0.0810    404.4400     36.5700     47.8443     49.1847      0.2635   2485.0000     52.9456     84.9600
55.8000         198.7750      0.0858    404.0800     36.9750     46.9710     46.9710      0.2606   2476.0000     46.9710     84.0000
56.0000         196.2250      0.0906    403.7600     37.1700     46.1137     45.2720      0.2578   2485.0000     40.5350     85.5600
56.2000         191.1500      0.0998    407.3600     38.8800     44.0382     46.1137      0.2548   2512.0000     41.6706     76.8000
56.4000         196.2250      0.1003    411.1600     41.5800     42.8381     44.4457      0.2582   2481.0000     45.6909     80.0100
56.6000         197.5000      0.0938    408.6800     45.0750     40.1634     42.8381      0.2628   2491.0000     47.4056     83.2500
56.8000         196.2250      0.0987    403.6000     52.5900     31.3206     36.3270      0.2530   2487.0000     46.1137     90.2550
57.0000         192.4250      0.0931    401.8000     55.7850     26.0513     29.9385      0.2470   2483.0000     44.8570     88.9050
57.2000         192.4250      0.0986    403.4400     57.0900     22.0714     23.1329      0.2654   2441.0000     37.3104     80.4600
57.4000         189.8750      0.0969    404.9200     57.5850     19.2234     18.2066      0.2834   2380.0000     22.6898     79.8600
57.6000         189.8750      0.1222    409.0000     57.6900     15.6975     13.8112      0.3076   2256.0000      8.9501     94.2150
57.8000         193.6750      0.1602    425.7600     57.0900     14.4487     12.9488      0.3428   2195.0000      8.0878     81.2100
58.0000         191.1500      0.1941    454.7600     55.6800     13.6719     12.3660      0.4470   2200.0000      8.2382     84.4050
58.2000         191.1500      0.2413    519.7200     52.1850     13.2993     11.5939      0.4904   2203.0000      9.9961     82.4550
58.4000         188.6000      0.2651    536.2800     51.2850     13.4224     11.4876      0.5054   2203.0000     10.7604     86.0100
58.6000         183.5250      0.2672    541.2000     49.9800     13.9261     11.4876      0.5148   2195.0000     10.7604     93.2550
58.8000         178.4500      0.2666    539.4000     44.3850     15.4110     12.1403      0.5174   2198.8999     10.4672    100.0650
59.0000         175.9000      0.2665    539.2400     42.7800     16.7429     12.9488      0.5254   2209.0000     11.1643     93.2550
59.2000         174.6250      0.2708    536.6000     40.6800     18.3582     14.1981      0.5320   2219.0000     10.7604     91.8600
59.4000         172.1000      0.2781    534.4800     37.0800     23.1116     19.7802      0.5132   2212.0000     11.0619     91.3650
59.6000         173.3750      0.2691    530.2000     37.0800     25.5758     24.2231      0.4980   2224.0000     13.6719     97.7100
59.8000         173.3750      0.2660    527.1200     36.8700     28.8290     28.5910      0.4508   2250.0000     18.1899     92.0100
60.0000         173.3750      0.2613    515.2800     36.8700     34.9808     34.3740      0.4094   2368.0000     33.1001     86.5050
60.2000         177.1750      0.2553    478.5600     36.4800     37.3104     35.6640      0.3668   2426.0000     39.4303     81.1500
60.4000         178.4500      0.2249    459.0400     35.7750     38.3557     36.6632      0.2772   2475.0000     42.8381     88.0500
60.6000         173.3750      0.1873    443.1200     35.4750     38.0041     37.3104      0.2486   2489.0000     41.2886     88.4100
60.8000         175.9000      0.1208    423.1200     37.0800     36.6294     38.3557      0.2376   2429.0000     37.3104     97.7550
61.0000         170.8250      0.0984    448.3600     37.9800     35.9608     38.3557      0.2420   2478.0000     38.3557     87.1050
61.2000         173.3750      0.1198    396.4000     37.9800     35.3045     38.0041      0.2664   2440.0000     37.6556     84.0600
61.4000         170.8250      0.1325    431.3200     36.3750     34.6601     38.7106      0.2748   2460.0000     34.6601     87.4500
61.6000         175.9000      0.1195    374.9200     36.1800     34.3423     39.0688      0.2780   2416.0000     35.6312     93.6600
61.8000         183.5250      0.1111    196.2800     35.8800     33.7155     38.3557      0.2646   2460.0000     38.0041     94.5150
62.0000         189.8750      0.1079    404.6000     36.0750     33.7155     37.3104      0.2534   2474.0000     40.5350     91.6650
62.2000         177.1750      0.1254    400.8000     35.6700     33.7155     37.6556      0.2478   2480.0000     40.1634     90.2550
62.4000         175.9000      0.1200    351.4400     35.7750     34.0275     37.6556      0.2534   2488.0000     40.5350    104.2650
62.6000         183.5250      0.1110    395.0800     37.4850     33.7155     37.6556      0.2646   2435.0000     41.6706     95.4150
62.8000         181.0000      0.1102    397.0400     38.1750     33.1001     37.3104      0.2694   2438.0000     42.4453     89.7600
63.0000         175.9000      0.1056    374.4000     38.2800     32.7967     36.6632      0.2656   2442.0000     42.4453     94.2600
63.2000         175.9000      0.1139    369.1600     39.5850     31.6104     34.0588      0.2658   2512.0000     39.0688     89.2050
63.4000         175.9000      0.1302    363.9200     40.3800     31.0334     33.1306      0.2618   2534.8999     35.6312     93.8100
63.6000         178.4500      0.1276    361.1200     41.1750     30.4670     32.2277      0.2706   2501.0000     32.1981     97.0050
