~VERSION INFORMATION
 VERS.                 2.0:   CWLS LOG ASCII STANDARD -VERSION 2.0
 WRAP.                  NO:   ONE LINE PER DEPTH STEP
~WELL INFORMATION BLOCK
#MNEM.UNIT           DATA                    DESCRIPTION OF MNEMONIC
#---------    -------------------            -------------------------------
# Generated from Intellog Unique Number	CC_88_90/WELL/3140
WELL.         ESSO RESOURCES                 : Well_name    - WELL
LOC .         AA/06-35-089-10W4/0            : Location     - LOCATION
UWI .         AA/06-35-089-10W400            : Uwi          - UNIQUE WELL ID
ENTR.         JOETTE                         : Entered      - ENTERED BY
SRVC.         SCHLUMBERGER                   : Scn          - SERVICE COMPANY
DATE.         03/02/92                       : Date         - LOG DATE
STRT.M        20                             : top_depth    - START DEPTH
STOP.M        120                            : bot_depth    - STOP DEPTH
STEP.M        0.25                           : increment    - STEP LENGTH
 NULL. -999.2500:NULL Value
~CURVE INFORMATION BLOCK
#MNEM UNIT       ERCB CURVE CODE    CURVE DESCRIPTION
#-----------   ------------------   ----------------------------------
DEPT.M        00 001 00 00         : DEPTH        - DEPTH
GR  .API      00 310 00 00         : GR           - GAMMA RAY
CALI.MM       00 280 01 00         : CAL          - CALIPER
NPHI.V/V      00 330 00 00         : PHIN         - NEUTRON POROSITY (SANDSTONE)
DPHI.V/V      00 890 00 00         : PHID         - DENSITY POROSITY (SANDSTONE)
ILD .OHMM     00 120 00 00         : RESD         - DEEP RESISTIVITY (DIL)
~PARAMETER INFORMATION
#MNEM.UNIT           DATA             DESCRIPTION OF MNEMONIC
#---------         -----------     ------------------------------
GL  .M        367.5                : gl           - GROUND LEVEL ELEVATION
EREF.M        367.5                : kb           - ELEVATION OF DEPTH REFERENCE
DATM.M        367.5                : datum        - DATUM ELEVATION
TDD .M        129.7                : tdd          - TOTAL DEPTH DRILLER
RUN .         ONE                  : Run          - RUN NUMBER
ENG .         JO                   : Engineer     - RECORDING ENGINEER
WIT .         TIM                  : Witness      - WITNESSED BY
MUD .         GEL                  : Mud_type     - MUD TYPE
MATR.         SANDSTONE            : Logunit      - NEUTRON MATRIX
TMAX.C        6.7                  : BHT          - MAXIMUM RECORDED TEMPERATURE
BHTD.M        129.7                : BHTDEP       - MAXIMUM RECORDED TEMPERATURE
RMT .C        16                   : MDTP         - TEMPERATURE OF MUD
MUDD.KG/M     1                    : MWT          - MUD DENSITY
NEUT.         1                    : NEUTRON      - NEUTRON TYPE
RESI.         0                    : RESIST       - RESISTIVITY TYPE
RM  .OHMM     36.5                 : RM           - RESISTIVITY OF MUD
RMC .OHMM     9.3                  : RMC          - RESISTIVITY OF MUD CAKE
RMF .OHMM     10                   : RMF          - RESISTIVITY OF MUD FILTRATE
SUFT.C        4                    : SUFT         - SURFACE TEMPERATURE
~A  DEPTH       GR      CAL     PHIN     PHID     RESD
# ...
   56.500   74.823  192.215    0.520    0.175    2.145
   56.750   83.430  193.404    0.557    0.238    3.384
   57.000   88.350  194.453    0.557    0.279    6.213
   57.250   96.957  195.586    0.555    0.283    0.816
   57.500  116.012  195.670    0.561    0.278    0.061
   57.750  106.797  195.782    0.551    0.278    0.013
   58.000  117.862  193.909    0.587    0.284    0.009
   58.250  127.084  191.043    0.598    0.295    0.014
   58.500  120.327  190.218    0.619    0.291    0.014
   58.750  116.642  192.288    0.618    0.277    0.013
   59.000  120.948  193.393    0.581    0.277    0.012
   59.250  124.024  195.491    0.624    0.282    0.013
   59.500  128.329  195.575    0.550    0.290    0.014
   59.750  116.655  197.701    0.584    0.296    0.014
   60.000  110.512  198.806    0.580    0.294    0.024
   60.250   95.766  196.904    0.619    0.294    0.093
   60.500   90.239  195.059    0.515    0.287    0.630
   60.750   97.002  195.143    0.533    0.269    0.573
   61.000  102.536  195.255    0.473    0.248    0.542
   61.250  110.528  198.346    0.490    0.250    0.607
   61.500  106.844  207.450    0.577    0.280    0.522
   61.750  111.764  203.563    0.477    0.292    0.996
   62.000  106.850  198.683    0.429    0.235    0.656
   62.250  108.697  189.887    0.435    0.201    0.564
   62.500  105.627  186.000    0.434    0.173    6.647
   62.750   93.954  184.127    0.352    0.128    7.174
   63.000   93.957  182.281    0.403    0.167    7.178
   63.250  104.408  182.366    0.452    0.209   16.863
   63.500  102.567  182.478    0.473    0.259   11.114
   63.750  110.560  184.604    0.485    0.260    9.554
   64.000  116.708  187.723    0.476    0.260    7.907
   64.250  103.806  188.771    0.503    0.252    7.912
   64.500   81.685  189.933    0.494    0.247    8.702
   64.750   82.302  190.017    0.448    0.252    6.803
   65.000  101.972  187.179    0.462    0.262    6.430
   65.250  102.590  185.305    0.451    0.251    5.221
   65.500   88.457  186.410    0.441    0.232    6.080
   65.750   79.857  186.494    0.425    0.210   11.816
   66.000   83.548  189.613    0.442    0.226   19.731
   66.250   81.093  192.704    0.449    0.240   13.007
   66.500   77.408  195.795    0.471    0.249    7.796
   66.750   94.619  199.906    0.459    0.239    4.499
   67.000  107.528  200.955    0.478    0.231    6.579
   67.250  105.073  202.060    0.440    0.231    6.708
   67.500   96.472  201.208    0.444    0.237    6.840
   67.750  105.079  201.292    0.452    0.245    6.843
   68.000  108.770  199.418    0.493    0.248    6.717
   68.250   95.867  197.545    0.484    0.243    7.115
   68.500   91.568  195.671    0.515    0.237    7.254
   68.750   87.884  192.833    0.534    0.221    7.121
   69.000   89.116  190.960    0.531    0.227    6.990
   69.250   77.443  187.101    0.427    0.236   11.896
   69.500   80.519  185.227    0.412    0.228    7.549
   69.750  111.865  184.346    0.439    0.221   14.124
   70.000  114.941  184.487    0.430    0.241   13.349
   70.250  114.329  185.564    0.415    0.258   22.291
   70.500  111.260  185.676    0.404    0.276   45.857
   70.750   84.836  185.788    0.427    0.271   22.312
   71.000   81.767  185.900    0.483    0.259   13.124
   71.250   84.843  184.027    0.466    0.250   14.995
   71.500   89.148  180.140    0.493    0.254   14.172
   71.750  103.900  176.281    0.509    0.262   14.452
   72.000  130.330  171.457    0.450    0.271   24.128
   72.250  124.188  173.555    0.421    0.236   43.464
   72.500  111.899  176.645    0.422    0.226   33.342
   72.750  104.529  175.765    0.419    0.193   21.976
   73.000  105.146  172.898    0.410    0.194   18.187
   73.250   91.013  171.990    0.407    0.217   21.584
   73.500   85.486  173.095    0.413    0.222   17.865
   73.750   83.031  174.200    0.421    0.219   16.567
   74.000   82.420  179.304    0.427    0.219   17.882
   74.250   84.881  179.417    0.422    0.225   15.371
   74.500   82.425  177.571    0.455    0.235   13.466
   74.750   80.585  176.662    0.444    0.201   10.330
   75.000   91.650  175.810    0.454    0.195   11.363
   75.250  115.622  172.972    0.418    0.206   17.257
   75.500  122.385  172.035    0.414    0.216   16.003
   75.750  116.857  171.182    0.440    0.207   14.841
   76.000  121.162  172.259    0.453    0.206   14.027
   76.250  121.780  172.400    0.459    0.222   13.512
   76.500  121.783  172.512    0.460    0.218   12.294
   76.750  108.880  172.624    0.454    0.216   14.317
   77.000   92.905  172.764    0.418    0.214   14.053
   77.250   83.075  172.820    0.417    0.213   12.549
   77.500  100.286  173.925    0.424    0.214   12.319
   77.750  124.257  172.080    0.434    0.205   13.809
   78.000  124.875  168.221    0.469    0.201   14.080
   78.250  116.889  171.284    0.459    0.233   12.335
   78.500  111.361  172.389    0.483    0.232   20.598
   78.750   97.229  167.593    0.436    0.215   19.843
   79.000   84.940  165.663    0.449    0.213   18.752
   79.250   64.663  164.783    0.437    0.247   24.468
   79.500   41.313  167.873    0.402    0.235   16.436
   79.750   43.774  170.964    0.419    0.224   18.426
   80.000   40.705  170.111    0.423    0.224   20.659
   80.250   33.333  167.245    0.429    0.232   20.278
   80.500   35.179  165.372    0.432    0.203   20.676
   80.750   59.151  166.477    0.435    0.193   27.495
   81.000   99.101  169.568    0.417    0.185   24.088
   81.250  105.250  173.651    0.414    0.189   17.792
   81.500  108.326  174.756    0.428    0.195   17.466
   81.750   84.361  172.911    0.463    0.208   17.809
   82.000   68.385  171.974    0.433    0.219   26.534
   82.250   48.722  169.108    0.434    0.230   26.054
   82.500   46.267  167.262    0.441    0.215   23.260
   82.750   60.406  167.346    0.425    0.205   39.581
   83.000   65.940  166.466    0.434    0.214   25.598
   83.250   57.953  163.600    0.429    0.226   22.004
   83.500   45.050  160.733    0.409    0.223   24.668
   83.750   45.668  160.874    0.404    0.208   25.153
   84.000   51.203  160.986    0.396    0.203   26.638
   84.250   58.581  161.070    0.404    0.209   28.212
   84.500   58.584  161.182    0.400    0.204   28.769
   84.750   54.900  160.301    0.408    0.204   28.238
   85.000   57.975  160.470    0.419    0.207   38.270
   85.250   63.510  160.554    0.409    0.211   40.531
   85.500   61.669  163.645    0.388    0.200   49.020
   85.750   61.673  165.771    0.366    0.195   48.122
   86.000   55.530  166.848    0.383    0.189   29.966
   86.250   62.908  166.988    0.398    0.175   27.264
   86.500   75.817  167.072    0.405    0.182   33.611
   86.750   83.809  166.220    0.411    0.198   26.784
   87.000   83.198  166.304    0.408    0.210   31.781
   87.250   78.284  165.479    0.433    0.215   20.947
   87.500   67.840  166.556    0.408    0.210   33.674
   87.750   57.396  166.668    0.402    0.214   34.336
   88.000   47.566  163.774    0.415    0.207   33.073
   88.250   35.892  159.915    0.437    0.205   38.516
   88.500   32.823  161.020    0.459    0.210   37.099
   88.750   35.284  162.125    0.447    0.201   36.419
   89.000   38.360  163.230    0.431    0.197   40.824
   89.250   37.134  164.363    0.427    0.207   56.387
   89.500   40.210  165.496    0.425    0.217   85.642
   89.750   46.359  166.573    0.427    0.246   85.683
   90.000   38.987  166.657    0.498    0.307  262.531
   90.250   43.907  166.770    0.506    0.315  205.250
   90.500   48.826  169.916    0.450    0.307  464.249
   90.750   48.830  170.029    0.437    0.307  183.342
   91.000   46.989  171.162    0.453    0.308  336.593
   91.250   46.377  172.211    0.434    0.309  197.983
   91.500   46.381  172.351    0.442    0.310  234.954
   91.750   42.697  172.435    0.437    0.308  618.601
   92.000   48.231  171.555    0.425    0.308 1509.500
   92.250   48.849  171.695    0.420    0.317 1013.970
   92.500   36.560  171.807    0.422    0.329 1180.710
   92.750   29.189  171.947    0.433    0.334 1827.410
