~VERSION INFORMATION
 VERS.                 2.0:   CWLS LOG ASCII STANDARD -VERSION 2.0
 WRAP.                  NO:   ONE LINE PER DEPTH STEP
~WELL INFORMATION BLOCK
#MNEM.UNIT           DATA                    DESCRIPTION OF MNEMONIC
#---------    -------------------            -------------------------------
# Generated from Intellog Unique Number	CN_94_101/WELL/3734
WELL.         PEX/NOVA                       : Well_name    - WELL
LOC .         AA/06-31-096-09W4/0            : Location     - LOCATION
UWI .         AA/06-31-096-09W400            : Uwi          - UNIQUE WELL ID
ENTR.         JOETTE                         : Entered      - ENTERED BY
SRVC.         SCHLUMBERGER                   : Scn          - SERVICE COMPANY
DATE.         08/10/92                       : Date         - LOG DATE
STRT.M        65                             : top_depth    - START DEPTH
STOP.M        180                            : bot_depth    - STOP DEPTH
STEP.M        0.25                           : increment    - STEP LENGTH
 NULL. -999.2500:NULL Value
~CURVE INFORMATION BLOCK
#MNEM UNIT       ERCB CURVE CODE    CURVE DESCRIPTION
#-----------   ------------------   ----------------------------------
DEPT.M        00 001 00 00         : DEPTH        - DEPTH
GR  .API      00 310 00 00         : GR           - GAMMA RAY
ILD .OHMM     00 120 00 00         : RESD         - DEEP RESISTIVITY (DIL)
NPHI.V/V      00 330 00 00         : PHIN         - NEUTRON POROSITY (SANDSTONE)
DPHI.V/V      00 890 00 00         : PHID         - DENSITY POROSITY (SANDSTONE)
~PARAMETER INFORMATION
#MNEM.UNIT           DATA             DESCRIPTION OF MNEMONIC
#---------         -----------     ------------------------------
GL  .M        336.8                : gl           - GROUND LEVEL ELEVATION
EREF.M        336.8                : kb           - ELEVATION OF DEPTH REFERENCE
DATM.M        336.8                : datum        - DATUM ELEVATION
TDD .M        183.2                : tdd          - TOTAL DEPTH DRILLER
RUN .         ONE                  : Run          - RUN NUMBER
ENG .         JO                   : Engineer     - RECORDING ENGINEER
WIT .         TIM                  : Witness      - WITNESSED BY
MUD .         GEL                  : Mud_type     - MUD TYPE
MATR.         SANDSTONE            : Logunit      - NEUTRON MATRIX
TMAX.C        18                   : BHT          - MAXIMUM RECORDED TEMPERATURE
BHTD.M        183.2                : BHTDEP       - MAXIMUM RECORDED TEMPERATURE
RMT .C        18                   : MDTP         - TEMPERATURE OF MUD
MUDD.KG/M     1010                 : MWT          - MUD DENSITY
NEUT.         1                    : NEUTRON      - NEUTRON TYPE
RESI.         0                    : RESIST       - RESISTIVITY TYPE
RM  .OHMM     9.5                  : RM           - RESISTIVITY OF MUD
RMC .OHMM     9.5                  : RMC          - RESISTIVITY OF MUD CAKE
RMF .OHMM     9.5                  : RMF          - RESISTIVITY OF MUD FILTRATE
SUFT.C        4                    : SUFT         - SURFACE TEMPERATURE
~A  DEPTH       GR     RESD     PHIN     PHID
   65.000   63.274    3.091    0.476    0.185
   65.250   65.690   23.172    0.473    0.280
   65.500   55.698   63.488    0.469    0.335
   65.750   72.900  114.348    0.461    0.320
   66.000   87.744   98.175    0.466    0.297
   66.250   90.757  102.527    0.473    0.288
   66.500   78.402  128.368    0.477    0.295
   66.750   65.447  107.191    0.476    0.307
   67.000   60.776  566.453    0.460    0.313
   67.250   76.802  207.302    0.448    0.305
   67.500   78.634  109.099    0.449    0.274
   67.750   79.874  138.564    0.462    0.282
   68.000   79.933  124.061    0.451    0.265
   68.250   74.079  120.795    0.442    0.267
   68.500   65.861  112.802    0.450    0.280
   68.750   72.422  247.086    0.448    0.291
   69.000   77.815  114.663    0.445    0.301
   69.250   75.501  151.845    0.441    0.305
   69.500   57.227  201.082    0.439    0.311
   69.750   61.423  187.777    0.437    0.318
   70.000   62.678  951.710    0.433    0.318
   70.250   55.635 1175.230    0.444    0.326
   70.500   39.133 1622.970    0.437    0.339
   70.750   38.600 1869.450    0.433    0.339
   71.000   41.614 2063.930    0.430    0.318
   71.250   43.453 2931.530    0.449    0.331
   71.500   44.102 1824.580    0.457    0.342
   71.750   59.530  470.789    0.454    0.314
   72.000   69.047  327.691    0.460    0.306
   72.250   67.922  221.799    0.460    0.309
   72.500   62.069  107.354    0.472    0.289
   72.750   69.228   98.843    0.452    0.298
   73.000   52.734  140.371    0.445    0.326
   73.250   43.918 1067.260    0.431    0.330
   73.500   61.134  664.366    0.462    0.306
   73.750   58.229  208.447    0.463    0.302
   74.000   70.701  744.875    0.458    0.296
   74.250   84.954  200.397    0.461    0.269
   74.500   70.226  114.710    0.445    0.284
   74.750   56.097  614.823    0.448    0.279
   75.000   75.670  234.640    0.458    0.256
   75.250   84.595  138.098    0.454    0.243
   75.500  102.388   93.502    0.454    0.251
   75.750   87.076   79.163    0.453    0.279
   76.000   77.676   86.185    0.458    0.297
   76.250   68.867   96.506    0.455    0.304
   76.500   52.373  183.843    0.442    0.297
   76.750   57.160  197.404    0.442    0.304
   77.000   32.974  397.613    0.434    0.318
   77.250   32.441  858.994    0.422    0.304
   77.500   30.134  769.087    0.443    0.305
   77.750   42.023  550.585    0.446    0.325
   78.000   39.716  551.287    0.455    0.350
   78.250   43.920  740.327    0.451    0.348
   78.500   38.059  584.480    0.433    0.302
   78.750   41.073 1210.840    0.432    0.284
   79.000   73.060  509.526    0.442    0.292
   79.250   64.251  233.208    0.449    0.302
   79.500   62.536  287.980    0.443    0.310
   79.750   50.180  564.150    0.432    0.333
   80.000   36.050 2899.530    0.422    0.344
   80.250   30.197 1730.830    0.436    0.325
   80.500   47.398  598.880    0.435    0.328
   80.750   57.513 1467.500    0.422    0.324
   81.000   69.387  805.265    0.428    0.278
   81.250   61.169  152.746    0.419    0.252
   81.500   75.422  106.335    0.422    0.250
   81.750   71.342   97.905    0.433    0.250
   82.000   59.577   66.278    0.430    0.252
   82.250   38.347  112.881    0.402    0.263
   82.500   50.235  596.716    0.391    0.248
   82.750   64.481  141.558    0.438    0.253
   83.000   75.770  206.732    0.437    0.257
   83.250   75.829  105.799    0.449    0.258
   83.500   58.152  116.843    0.438    0.262
   83.750   55.255  154.755    0.445    0.265
   84.000   55.904  157.109    0.445    0.275
   84.250   57.159  142.645    0.433    0.291
   84.500   57.210  144.838    0.439    0.299
   84.750   64.362  135.233    0.440    0.286
   85.000   73.878  397.350    0.447    0.248
   85.250   86.948  155.919    0.445    0.233
   85.500   94.692   48.249    0.462    0.225
   85.750   82.328   54.027    0.443    0.230
   86.000   74.110  111.924    0.450    0.238
   86.250   92.501   59.733    0.456    0.218
   86.500  100.835   43.975    0.437    0.212
   86.750  110.943   47.226    0.440    0.217
   87.000   94.449   44.094    0.440    0.210
   87.250   97.477   67.142    0.448    0.217
   87.500   93.390   64.477    0.464    0.235
   87.750   91.668   56.918    0.436    0.240
   88.000   92.317   59.441    0.439    0.236
   88.250   64.000   58.700    0.413    0.238
   88.500   58.147   71.469    0.418    0.249
   88.750   41.653   92.049    0.400    0.264
   89.000   32.245  388.946    0.401    0.285
   89.250   42.951  411.904    0.435    0.287
   89.500   42.418  180.755    0.429    0.300
   89.750   41.885  461.819    0.432    0.315
   90.000   54.948  475.518    0.442    0.299
   90.250   55.605  370.205    0.442    0.307
   90.500   63.348  463.589    0.455    0.310
   90.750   69.325  254.467    0.439    0.305
   91.000   69.967  371.624    0.440    0.315
   91.250   70.623  404.654    0.439    0.300
   91.500   77.184  126.962    0.434    0.275
   91.750   85.518  144.213    0.428    0.255
   92.000   83.219  120.383    0.434    0.259
   92.250   90.371   49.954    0.437    0.227
   92.500  104.018   50.018    0.446    0.193
   92.750  114.126   46.701    0.458    0.193
   93.000  112.417   40.660    0.462    0.178
   93.250  116.614   35.905    0.466    0.180
   93.500  127.903   31.696    0.469    0.191
   93.750  114.956   32.183    0.466    0.191
   94.000  114.431   30.048    0.454    0.189
   94.250  113.299   31.375    0.461    0.191
   94.500  121.633   32.771    0.473    0.191
   94.750  111.642   31.456    0.467    0.184
   95.000  121.757   32.389    0.471    0.186
   95.250  123.004   32.892    0.469    0.192
   95.500   88.170   28.637    0.448    0.202
   95.750   63.992   32.976    0.408    0.230
   96.000   49.855   70.240    0.406    0.257
   96.250   54.642  102.627    0.413    0.253
   96.500   39.922  110.180    0.394    0.247
   96.750   27.566  108.772    0.400    0.268
   97.000   35.900  144.088    0.386    0.273
   97.250   31.229  121.953    0.395    0.279
   97.500   24.193  130.948    0.409    0.286
   97.750   39.044  711.847    0.419    0.288
   98.000   32.593  396.176    0.433    0.281
   98.250   43.883  144.986    0.430    0.276
   98.500   40.394  102.354    0.425    0.276
   98.750   34.548  176.778    0.423    0.283
   99.000   39.926  427.098    0.429    0.284
   99.250   43.531  491.803    0.432    0.289
   99.500   43.582  218.855    0.422    0.271
   99.750   46.012  154.502    0.414    0.269
  100.000   30.102   98.904    0.421    0.277
  100.250   27.212  418.045    0.422    0.279
  100.500   26.080  796.240    0.435    0.282
  100.750   29.101  879.355    0.428    0.277
  101.000   40.398  391.255    0.418    0.272
  101.250   30.400  133.519    0.419    0.284
  101.500   29.283  243.866    0.430    0.304
  101.750   32.880  961.028    0.429    0.315
  102.000   31.165  203.862    0.413    0.299
  102.250   30.041  574.401    0.407    0.289
  102.500   33.055  486.314    0.421    0.275
  102.750   27.793  926.418    0.437    0.270
  103.000   36.718  601.298    0.434    0.284
  103.250   45.650  186.100    0.433    0.307
  103.500   41.571  131.357    0.442    0.320
  103.750   50.503  200.050    0.429    0.325
  104.000   41.687  276.265    0.432    0.325
  104.250   42.927  227.450    0.418    0.315
  104.500   27.615  179.569    0.431    0.305
  104.750   27.090  446.141    0.447    0.302
  105.000   34.234  781.389    0.440    0.331
  105.250   29.563  187.978    0.434    0.339
  105.500   34.949  324.713    0.420    0.333
  105.750   36.189  175.763    0.420    0.333
  106.000   32.693  114.080    0.424    0.331
  106.250   33.350  117.502    0.430    0.333
  106.500   21.578  109.674    0.428    0.328
  106.750   18.680  106.803    0.433    0.316
  107.000   27.021   98.320    0.423    0.308
  107.250   36.538   93.092    0.435    0.323
  107.500   34.231   84.535    0.435    0.344
  107.750   30.743   84.630    0.427    0.347
  108.000   23.714   80.130    0.423    0.332
  108.250   19.634   81.374    0.430    0.339
