~VERSION INFORMATION
 VERS.                 2.0:   CWLS LOG ASCII STANDARD -VERSION 2.0
 WRAP.                  NO:   ONE LINE PER DEPTH STEP
~WELL INFORMATION BLOCK
#MNEM.UNIT           DATA                    DESCRIPTION OF MNEMONIC
#---------    -------------------            -------------------------------
# Generated from Intellog Unique Number	CN_94_101/WELL/2816
WELL.         03-02-096-15W4                 : Well_name    - WELL
LOC .         AA/03-02-096-15W4/0            : Location     - LOCATION
UWI .         AA/03-02-096-15W400            : Uwi          - UNIQUE WELL ID
ENTR.         JOETTE                         : Entered      - ENTERED BY
SRVC.         SCHLUMBERGER                   : Scn          - SERVICE COMPANY
DATE.         07/07/92                       : Date         - LOG DATE
STRT.M        50                             : top_depth    - START DEPTH
STOP.M        330                            : bot_depth    - STOP DEPTH
STEP.M        0.25                           : increment    - STEP LENGTH
 NULL. -999.2500:NULL Value
~CURVE INFORMATION BLOCK
#MNEM UNIT       ERCB CURVE CODE    CURVE DESCRIPTION
#-----------   ------------------   ----------------------------------
DEPT.M        00 001 00 00         : DEPTH        - DEPTH
CALI.MM       00 280 01 00         : CAL          - CALIPER
GR  .API      00 310 00 00         : GR           - GAMMA RAY
NPHI.V/V      00 330 00 00         : PHIN         - NEUTRON POROSITY (SANDSTONE)
DPHI.V/V      00 890 00 00         : PHID         - DENSITY POROSITY (SANDSTONE)
ILD .OHMM     00 120 00 00         : RESD         - DEEP RESISTIVITY (DIL)
~PARAMETER INFORMATION
#MNEM.UNIT           DATA             DESCRIPTION OF MNEMONIC
#---------         -----------     ------------------------------
GL  .M        577.32               : gl           - GROUND LEVEL ELEVATION
EREF.M        580.67               : kb           - ELEVATION OF DEPTH REFERENCE
DATM.M        580.67               : datum        - DATUM ELEVATION
TDD .M        330                  : tdd          - TOTAL DEPTH DRILLER
RUN .         ONE                  : Run          - RUN NUMBER
ENG .         JO                   : Engineer     - RECORDING ENGINEER
WIT .         TIM                  : Witness      - WITNESSED BY
MUD .         GEL                  : Mud_type     - MUD TYPE
MATR.         SANDSTONE            : Logunit      - NEUTRON MATRIX
TMAX.C        19                   : BHT          - MAXIMUM RECORDED TEMPERATURE
BHTD.M        330                  : BHTDEP       - MAXIMUM RECORDED TEMPERATURE
RMT .C        13                   : MDTP         - TEMPERATURE OF MUD
MUDD.KG/M     1000                 : MWT          - MUD DENSITY
NEUT.         1                    : NEUTRON      - NEUTRON TYPE
RESI.         0                    : RESIST       - RESISTIVITY TYPE
RM  .OHMM     2.5                  : RM           - RESISTIVITY OF MUD
RMC .OHMM     2.5                  : RMC          - RESISTIVITY OF MUD CAKE
RMF .OHMM     2.5                  : RMF          - RESISTIVITY OF MUD FILTRATE
SUFT.C        4                    : SUFT         - SURFACE TEMPERATURE
~A  DEPTH      CAL       GR     PHIN     PHID     RESD
# ...
   86.500  203.901   31.651    0.467    0.398   16.984
   86.750  209.095   33.521    0.480    0.411   13.644
   87.000  210.233   36.034    0.473    0.411   12.709
   87.250  206.342   37.923    0.458    0.406   13.958
   87.500  205.502   41.040    0.450    0.389   14.248
   87.750  202.584   42.910    0.486    0.372   12.551
   88.000  196.615   46.006    0.497    0.397   11.678
   88.250  198.792   43.672    0.465    0.370   11.286
   88.500  193.862   39.527    0.458    0.343   13.851
   88.750  222.222   36.569    0.443    0.346   16.393
   89.000  212.263   31.217    0.450    0.342   16.129
   89.250  209.378   25.866    0.422    0.361   13.948
   89.500  237.704   29.566    0.424    0.374   12.502
   89.750  223.756   33.869    0.451    0.375   11.218
   90.000  228.917   41.813    0.478    0.374    9.887
   90.250  219.997   47.343    0.492    0.374    9.722
   90.500  209.033   50.440    0.506    0.369    9.930
   90.750  198.102   51.123    0.518    0.376   10.319
   91.000  201.285   49.975    0.532    0.387   11.339
   91.250  205.407   47.641    0.556    0.373   11.364
   91.500  203.528   50.737    0.548    0.385   10.579
   91.750  190.585   53.854    0.543    0.402    9.149
   92.000  194.740   55.763    0.510    0.373    7.483
   92.250  196.917   55.239    0.498    0.358    6.353
   92.500  189.976   51.054    0.498    0.350    5.700
   92.750  189.102   42.082    0.496    0.353    7.814
   93.000  191.246   31.279    0.485    0.358   16.380
   93.250  188.361   23.553    0.398    0.364   19.011
   93.500  178.435   22.990    0.397    0.377   27.052
   93.750  180.579   23.069    0.399    0.366   35.106
   94.000  187.752   24.959    0.404    0.355   29.790
   94.250  193.951   25.038    0.423    0.362   24.378
   94.500  191.033   23.910    0.424    0.368   20.686
   94.750  191.198   22.199    0.426    0.373   22.316
   95.000  189.352   22.259    0.442    0.383   33.559
   95.250  183.384   22.338    0.441    0.389   36.896
   95.500  192.568   23.624    0.433    0.381   37.663
   95.750  201.818   26.157    0.438    0.387   37.764
   96.000  197.861   28.047    0.461    0.396   37.805
   96.250  195.981   28.146    0.464    0.390   37.235
   96.500  199.164   28.205    0.431    0.362   37.295
   96.750  199.329   25.871    0.419    0.349   36.673
   97.000  198.422   24.120    0.420    0.352   36.120
   97.250  198.555   22.428    0.421    0.356   35.518
   97.500  198.753   22.448    0.422    0.357   35.575
   97.750  197.813   22.528    0.419    0.362   35.039
   98.000  199.957   22.666    0.412    0.367   35.076
   98.250  205.118   22.122    0.410    0.359   35.171
   98.500  206.289   21.578    0.414    0.347   34.603
   98.750  200.353   21.074    0.422    0.349   34.659
   99.000  195.457   20.550    0.433    0.355   34.733
   99.250  194.583   21.233    0.429    0.361   34.846
   99.500  193.710   23.726    0.430    0.369   35.532
   99.750  191.830   26.219    0.430    0.369   35.589
  100.000  188.945   26.318    0.427    0.360   36.329
  100.250  189.077   24.547    0.422    0.365   36.427
  100.500  192.227   23.420    0.420    0.372   36.505
  100.750  184.313   23.499    0.446    0.358   36.584
  101.000  186.457   25.409    0.454    0.342   35.336
  101.250  184.577   26.072    0.449    0.372   34.113
  101.500  172.641   27.397    0.422    0.382   32.348
  101.750  172.773   26.834    0.417    0.373   31.245
  102.000  174.917   26.329    0.412    0.365   29.103
  102.250  175.016   26.428    0.409    0.369   28.618
  102.500  174.142   26.488    0.419    0.375   28.171
  102.750  174.274   26.547    0.440    0.379   28.232
  103.000  174.473   27.230    0.430    0.380   28.803
  103.250  176.616   28.536    0.423    0.376   29.434
  103.500  178.727   30.446    0.430    0.374   30.029
  103.750  185.899   31.732    0.438    0.376   30.110
  104.000  191.060   31.791    0.452    0.379   30.159
  104.250  197.227   31.267    0.468    0.372   29.672
  104.500  206.444   29.556    0.461    0.375   28.675
  104.750  202.553   29.615    0.430    0.386   27.668
  105.000  184.549   30.298    0.432    0.376   26.236
  105.250  171.672   29.171    0.437    0.377   24.412
  105.500  171.804   29.250    0.438    0.382   23.149
  105.750  171.870   31.140    0.432    0.383   24.517
  106.000  172.003   34.859    0.425    0.380   24.583
  106.250  171.129   36.769    0.426    0.380   20.861
  106.500  171.261   37.412    0.434    0.380   17.061
  106.750  171.426   38.738    0.446    0.384    9.838
  107.000  171.526   39.401    0.450    0.391    8.823
  107.250  170.652   41.894    0.445    0.396    5.579
  107.500  170.784   45.594    0.439    0.368    5.099
  107.750  176.951   51.727    0.433    0.361    4.832
  108.000  189.185   57.841    0.442    0.347    4.667
  108.250  196.390   61.541    0.454    0.352    4.678
  108.500  199.540   63.431    0.464    0.342    4.775
  108.750  199.672   69.545    0.472    0.296    5.062
  109.000  199.804   79.902    0.495    0.269    5.162
  109.250  200.975   88.450    0.545    0.269    5.269
  109.500  200.069   88.549    0.556    0.270    5.284
  109.750  198.222   88.609    0.533    0.270    5.298
  110.000  197.349   89.934    0.532    0.268    5.207
  110.250  196.409   90.577    0.535    0.264    5.123
  110.500  192.518   92.467    0.548    0.258    5.040
  110.750  190.639   93.773    0.568    0.255    4.959
  111.000  189.831   93.872    0.579    0.258    4.969
  111.250  189.898   93.348    0.572    0.252    4.983
  111.500  192.074   92.784    0.567    0.242    4.993
  111.750  194.251   89.866    0.558    0.234    5.004
  112.000  195.389   91.756    0.535    0.253    5.108
  112.250  195.488   92.439    0.523    0.268    5.023
  112.500  196.626   91.934    0.527    0.259    4.944
  112.750  197.764   91.371    0.517    0.258    4.952
  113.000  197.863   89.639    0.522    0.257    4.870
  113.250  199.034   89.719    0.549    0.263    4.791
  113.500  198.160   89.798    0.563    0.268    4.630
  113.750  198.293   89.274    0.539    0.267    4.553
  114.000  197.419   86.336    0.533    0.272    4.482
  114.250  193.594   82.814    0.564    0.276    4.492
  114.500  192.688   82.894    0.580    0.268    4.501
  114.750  191.781   84.783    0.557    0.266    4.429
  115.000  189.869   86.070    0.533    0.267    4.438
  115.250  188.055   86.129    0.525    0.268    4.364
  115.500  187.149   87.435    0.518    0.267    4.298
  115.750  187.248   85.704    0.526    0.263    4.308
  116.000  187.413   84.557    0.532    0.258    4.312
  116.250  187.578   81.638    0.531    0.256    4.326
  116.500  188.716   79.927    0.537    0.257    4.414
  116.750  189.887   79.364    0.541    0.257    4.421
  117.000  189.953   78.839    0.543    0.255    4.431
  117.250  191.124   78.939    0.516    0.254    4.523
  117.500  191.257   80.225    0.507    0.257    4.622
  117.750  191.389   81.511    0.503    0.261    4.627
  118.000  192.494   81.610    0.512    0.258    4.639
  118.250  192.692   81.650    0.543    0.267    4.649
  118.500  192.791   81.729    0.512    0.262    4.576
  118.750  192.923   83.015    0.484    0.264    4.498
  119.000  193.022   84.905    0.482    0.272    4.347
  119.250  192.182   86.834    0.476    0.279    4.274
  119.500  189.297   86.913    0.477    0.288    4.126
  119.750  187.384   85.182    0.509    0.291    4.060
  120.000  184.499   82.848    0.530    0.280    4.302
  120.250  183.626   79.890    0.495    0.268    4.638
  120.500  186.808   77.556    0.490    0.259    6.855
  120.750  183.956   75.221    0.484    0.258    7.252
  121.000  178.021   73.490    0.470    0.248    7.974
  121.250  172.085   72.966    0.488    0.234    7.423
  121.500  180.297   74.856    0.501    0.233    6.907
  121.750  195.515   73.748    0.509    0.273    6.313
  122.000  193.636   73.184    0.504    0.286    5.773
  122.250  185.722   73.887    0.497    0.285    5.573
  122.500  178.781   77.003    0.489    0.283    5.480
  122.750  183.975   78.893    0.482    0.247    5.397
