~VERSION INFORMATION
 VERS.                 2.0:   CWLS LOG ASCII STANDARD -VERSION 2.0
 WRAP.                  NO:   ONE LINE PER DEPTH STEP
~WELL INFORMATION BLOCK
#MNEM.UNIT           DATA                    DESCRIPTION OF MNEMONIC
#---------    -------------------            -------------------------------
# Generated from Intellog Unique Number	CW_76_78/WELL/2567
WELL.         06-06-078-25W4                 : Well_name    - WELL
LOC .         AA/06-06-078-25W4/0            : Location     - LOCATION
UWI .         AA/06-06-078-25W4/0            : Uwi          - UNIQUE WELL ID
ENTR.         MAX                            : Entered      - ENTERED BY
SRVC.         SCHLUMBERGER                   : Scn          - SERVICE COMPANY
STRT.M        350                            : top_depth    - START DEPTH
STOP.M        590                            : bot_depth    - STOP DEPTH
STEP.M        0.25                           : increment    - STEP LENGTH
 NULL. -999.2500:NULL Value
~CURVE INFORMATION BLOCK
#MNEM UNIT       ERCB CURVE CODE    CURVE DESCRIPTION
#-----------   ------------------   ----------------------------------
DEPT.M        00 001 00 00         : DEPTH        - DEPTH
ILD .OHMM     00 120 00 00         : RESD         - DEEP RESISTIVITY (DIL)
NPHI.V/V      00 330 00 00         : PHIN         - NEUTRON POROSITY (SANDSTONE)
DPHI.V/V      00 890 00 00         : PHID         - DENSITY POROSITY (SANDSTONE)
CALI.MM       00 280 01 00         : CAL          - CALIPER
GR  .API      00 310 00 00         : GR           - GAMMA RAY
~PARAMETER INFORMATION
#MNEM.UNIT           DATA             DESCRIPTION OF MNEMONIC
#---------         -----------     ------------------------------
GL  .M        645.28               : gl           - GROUND LEVEL ELEVATION
EREF.M        650.03               : kb           - ELEVATION OF DEPTH REFERENCE
DATM.M        645.28               : datum        - DATUM ELEVATION
TDD .M        594                  : tdd          - TOTAL DEPTH DRILLER
RUN .         ONE                  : Run          - RUN NUMBER
ENG .         BILL                 : Engineer     - RECORDING ENGINEER
WIT .         JIM                  : Witness      - WITNESSED BY
MUD .         GEL                  : Mud_type     - MUD TYPE
MATR.         SANDSTONE            : Logunit      - NEUTRON MATRIX
TMAX.C        34.4                 : BHT          - MAXIMUM RECORDED TEMPERATURE
BHTD.M        594                  : BHTDEP       - MAXIMUM RECORDED TEMPERATURE
RMT .C        18                   : MDTP         - TEMPERATURE OF MUD
MUDD.KG/M     8.5                  : MWT          - MUD DENSITY
NEUT.         1                    : NEUTRON      - NEUTRON TYPE
RESI.         0                    : RESIST       - RESISTIVITY TYPE
RM  .OHMM     6.56                 : RM           - RESISTIVITY OF MUD
RMC .OHMM     0.25                 : RMC          - RESISTIVITY OF MUD CAKE
RMF .OHMM     5.94                 : RMF          - RESISTIVITY OF MUD FILTRATE
SUFT.C        -20                  : SUFT         - SURFACE TEMPERATURE
~A  DEPTH     RESD     PHIN     PHID      CAL       GR
  350.000    2.862    0.471    0.218  270.807   85.112
  350.250    2.866    0.479    0.216  270.387   82.488
  350.500    2.843    0.480    0.210  266.499   80.754
  350.750    2.820    0.488    0.201  266.564   80.491
  351.000    2.876    0.486    0.202  265.649   81.415
  351.250    2.907    0.480    0.201  269.165   84.720
  351.500    2.938    0.480    0.216  268.745   86.538
  351.750    2.942    0.477    0.224  271.289   88.663
  352.000    2.944    0.485    0.222  275.793   91.064
  352.250    2.951    0.507    0.234  278.321   90.510
  352.500    2.952    0.504    0.249  276.912   87.585
  352.750    2.955    0.480    0.244  272.028   86.443
  353.000    2.932    0.494    0.229  266.658   86.482
  353.250    2.908    0.499    0.236  260.810   87.114
  353.500    2.912    0.489    0.235  256.914   88.047
  353.750    2.915    0.488    0.228  253.018   89.273
  354.000    2.919    0.495    0.221  250.613   90.498
  354.250    2.922    0.501    0.225  246.725   89.944
  354.500    2.953    0.507    0.212  243.842   87.611
  354.750    3.041    0.497    0.215  243.891   83.791
  355.000    3.101    0.497    0.229  242.474   79.976
  355.250    3.253    0.507    0.244  240.571   76.458
  355.500    3.352    0.510    0.266  240.636   73.241
  355.750    3.513    0.479    0.275  236.740   70.602
  356.000    3.897    0.430    0.256  224.469   68.862
  356.250    4.086    0.451    0.212  232.918   69.203
  356.500    4.491    0.478    0.154  237.447   69.247
  356.750    5.621    0.460    0.162  232.563   68.688
  357.000    6.971    0.395    0.253  218.290   68.732
  357.250    7.381    0.358    0.221  217.861   71.440
  357.500    7.186    0.376    0.199  219.911   75.921
  357.750    6.495    0.421    0.159  228.377   82.488
  358.000    5.348    0.447    0.191  238.324   84.311
  358.250    4.701    0.450    0.202  241.848   81.681
  358.500    4.210    0.450    0.192  241.914   80.826
  358.750    4.023    0.460    0.217  243.478   78.790
  359.000    3.844    0.472    0.229  244.523   77.945
  359.250    3.743    0.479    0.226  245.577   76.205
  359.500    3.545    0.475    0.218  246.638   75.948
  359.750    3.294    0.460    0.219  247.692   76.283
  360.000    3.005    0.466    0.233  248.754   76.328
  360.250    2.820    0.509    0.246  248.325   76.357
  360.500    2.875    0.559    0.253  247.386   75.803
  360.750    3.072    0.549    0.264  244.988   74.365
  361.000    3.671    0.514    0.284  241.595   71.439
  361.250    5.384    0.473    0.298  235.228   68.212
  361.500    6.930    0.421    0.303  227.890   62.915
  361.750    8.202    0.402    0.245  224.002   57.025
  362.000    9.183    0.415    0.212  224.076   54.697
  362.250    9.722    0.447    0.231  226.595   54.440
  362.500    9.645    0.452    0.289  230.622   53.891
  362.750    9.477    0.453    0.283  230.193   53.031
  363.000    9.402    0.439    0.295  229.278   51.587
  363.250    9.156    0.432    0.295  230.324   51.632
  363.500    8.831    0.438    0.314  232.868   52.862
  363.750    8.441    0.456    0.315  231.451   53.494
  364.000    8.219    0.445    0.318  231.014   53.523
  364.250    8.226    0.457    0.302  233.055   52.979
  364.500    8.312    0.425    0.316  229.184   52.124
  364.750    8.479    0.400    0.302  231.704   51.877
  365.000    8.731    0.408    0.300  236.224   52.202
  365.250    9.159    0.431    0.320  230.854   51.060
  365.500    9.785    0.443    0.328  225.484   49.326
  365.750   10.853    0.429    0.303  222.593   48.466
  366.000   11.815    0.414    0.254  221.653   46.736
  366.250   12.866    0.371    0.215  220.244   47.072
  366.500   13.123    0.368    0.221  219.322   48.894
  366.750   12.540    0.385    0.235  218.407   50.110
  367.000   11.763    0.402    0.238  217.970   51.335
  367.250   10.934    0.412    0.251  218.035   51.967
  367.500   10.448    0.412    0.247  218.108   51.710
  367.750    9.895    0.407    0.258  219.648   51.161
  368.000    9.456    0.415    0.259  221.196   50.903
  368.250    9.123    0.420    0.254  222.751   50.938
  368.500    8.557    0.392    0.242  220.840   52.168
  368.750    7.661    0.377    0.244  219.917   54.282
  369.000    6.547    0.369    0.229  223.936   56.392
  369.250    5.493    0.416    0.224  228.456   61.179
  369.500    5.153    0.430    0.277  231.980   65.666
  369.750    5.305    0.441    0.305  235.496   63.338
  370.000    6.829    0.467    0.309  237.044   59.222
  370.250    9.209    0.439    0.335  232.168   50.663
  370.500   12.077    0.408    0.311  218.422   46.843
  370.750   13.270    0.394    0.273  217.491   45.405
  371.000   15.857    0.401    0.265  217.062   44.555
  371.250   17.427    0.410    0.260  216.625   43.709
  371.500   18.619    0.416    0.275  216.683   42.864
  371.750   20.462    0.426    0.282  216.748   42.597
  372.000   20.678    0.430    0.295  216.813   42.340
  372.250   20.133    0.433    0.301  217.381   43.278
  372.500   18.369    0.420    0.309  218.434   44.197
  372.750   18.397    0.415    0.308  221.472   44.251
  373.000   19.109    0.426    0.305  224.017   43.979
  373.250   20.806    0.427    0.311  221.595   44.023
  373.500   22.023    0.416    0.308  215.739   44.062
  373.750   22.056    0.407    0.302  213.820   43.508
  374.000   21.076    0.410    0.299  212.897   42.954
  374.250   19.588    0.432    0.300  212.468   42.405
  374.500   18.039    0.429    0.304  212.533   42.143
  374.750   16.917    0.418    0.302  212.607   43.675
  375.000   15.437    0.409    0.291  212.664   44.297
  375.250   14.343    0.403    0.284  212.729   44.040
  375.500   13.207    0.397    0.282  212.802   43.491
  375.750   12.391    0.398    0.271  212.868   43.525
  376.000   12.175    0.394    0.261  206.518   44.459
  376.250   12.079    0.392    0.279  206.583   45.392
  376.500   12.207    0.409    0.285  207.636   45.723
  376.750   12.803    0.411    0.292  208.698   46.360
  377.000   13.681    0.404    0.262  208.755   47.002
  377.250   14.085    0.377    0.228  209.809   47.624
  377.500   13.844    0.360    0.216  210.854   48.844
  377.750   13.353    0.363    0.188  210.919   51.552
  378.000   12.526    0.373    0.226  210.985   55.746
  378.250   11.534    0.382    0.237  210.070   59.640
  378.500   10.622    0.380    0.244  209.649   64.422
  378.750   10.057    0.376    0.258  210.703   70.100
  379.000    9.612    0.367    0.255  214.235   74.586
  379.250    9.535    0.360    0.250  217.751   76.705
  379.500    9.816    0.374    0.202  221.275   75.262
  379.750   10.390    0.379    0.187  230.235   73.221
  380.000   11.001    0.362    0.218  234.253   69.703
  380.250   11.756    0.354    0.221  219.981   64.114
  380.500   12.564    0.358    0.230  215.121   56.736
  380.750   13.178    0.326    0.236  214.190   47.580
  381.000   13.822    0.293    0.236  213.267   43.181
  381.250   14.232    0.274    0.225  212.352   43.211
  381.500   14.245    0.284    0.194  211.923   44.737
  381.750   12.995    0.318    0.158  211.997   46.847
  382.000   11.422    0.351    0.234  212.046   57.564
  382.250    9.854    0.354    0.257  212.621   65.316
  382.500    8.824    0.356    0.244  213.659   69.808
  382.750    7.976    0.355    0.230  215.709   74.585
  383.000    7.766    0.364    0.197  217.248   78.489
  383.250    8.146    0.380    0.208  221.777   77.040
  383.500    8.543    0.393    0.205  227.772   73.225
  383.750    9.300    0.378    0.252  228.825   65.255
  384.000   10.220    0.355    0.248  221.965   46.315
  384.250    9.953    0.306    0.213  217.089   40.721
  384.500    8.827    0.259    0.178  217.154   43.137
  384.750    6.562    0.277    0.165  218.208   49.995
  385.000    5.063    0.391    0.152  221.246   61.893
  385.250    4.368    0.429    0.163  225.750   87.735
  385.500    3.839    0.467    0.206  228.302   93.709
  385.750    3.635    0.494    0.232  226.885   93.748
  386.000    3.813    0.491    0.222  224.480   94.089
  386.250    4.190    0.493    0.238  224.051   93.234
