~VERSION INFORMATION
 VERS.                 2.0:   CWLS LOG ASCII STANDARD -VERSION 2.0
 WRAP.                  NO:   ONE LINE PER DEPTH STEP
~WELL INFORMATION BLOCK
#MNEM.UNIT           DATA                    DESCRIPTION OF MNEMONIC
#---------    -------------------            -------------------------------
# Generated from Intellog Unique Number	CN_94_101/WELL/3204
NULL.         -999.25                        : NULL_VALUE
WELL.         SHELL ELLS OV                  : Well_name    - WELL              
LOC .         02-23-095-15W4                 : Location     - LOCATION          
UWI .         AA/02-23-095-15W4/0            : Uwi          - UNIQUE WELL ID    
ENTR.         JOETTE                         : Entered      - ENTERED BY        
SRVC.         SCHLUMBERGER                   : Scn          - SERVICE COMPANY   
DATE.         14 MAR 73                      : Date         - LOG DATE          
STRT.F        400                            : top_depth    - START DEPTH       
STOP.F        970.046                        : bot_depth    - STOP DEPTH        
STEP.F        0.82                           : increment    - STEP LENGTH       
~CURVE INFORMATION BLOCK
#MNEM UNIT       ERCB CURVE CODE    CURVE DESCRIPTION
#-----------   ------------------   ----------------------------------
DEPT.F        00 001 00 00         : DEPTH        - DEPTH                       
GR  .API      00 310 00 00         : GR           - GAMMA RAY                   
DPHI.V/V      00 890 00 00         : PHID         - DENSITY POROSITY (SANDSTONE)
ILD .OHMM     00 120 00 00         : RESD         - DEEP RESISTIVITY (DIL)      
~PARAMETER INFORMATION       
#MNEM.UNIT           DATA             DESCRIPTION OF MNEMONIC
#---------         -----------     ------------------------------
GL  .M        550.804              : gl           - GROUND LEVEL ELEVATION      
EREF.M        553.913              : kb           - ELEVATION OF DEPTH REFERENCE
DATM.M        553.913              : datum        - DATUM ELEVATION             
TDD .M        302.362              : tdd          - TOTAL DEPTH DRILLER         
RUN .         ONE                  : Run          - RUN NUMBER                  
ENG .         JO                   : Engineer     - RECORDING ENGINEER          
WIT .         TIM                  : Witness      - WITNESSED BY                
MUD .         GEL                  : Mud_type     - MUD TYPE                    
MATR.         SANDSTONE            : Logunit      - NEUTRON MATRIX              
TMAX.F        55                   : BHT          - MAXIMUM RECORDED TEMPERATURE
BHTD.F        992                  : BHTDEP       - MAXIMUM RECORDED TEMPERATURE
RMT .F        55                   : MDTP         - TEMPERATURE OF MUD          
MUDD.LB/G     9.2                  : MWT          - MUD DENSITY                 
NEUT.         1                    : NEUTRON      - NEUTRON TYPE                
RESI.         0                    : RESIST       - RESISTIVITY TYPE            
RM  .OHMM     1.21                 : RM           - RESISTIVITY OF MUD          
RMC .OHMM     1.21                 : RMC          - RESISTIVITY OF MUD CAKE     
RMF .OHMM     1.21                 : RMF          - RESISTIVITY OF MUD FILTRATE 
SUFT.F        39.2                 : SUFT         - SURFACE TEMPERATURE         
~A  DEPTH       GR     PHID     RESD
# ...
  755.971   88.897    0.238    6.546
  756.791   89.301    0.241    6.672
  757.612   91.291    0.241    6.319
  758.432   89.713    0.239    6.096
  759.252   87.739    0.234    6.099
  760.072   85.766    0.230    6.103
  760.892   83.397    0.222    6.220
  761.713   85.386    0.192    6.577
  762.533   86.184    0.185    7.082
  763.353   83.023    0.170    7.487
  764.173   80.653    0.165    7.771
  764.993   84.623    0.217    7.360
  765.814   92.554    0.211    7.365
  766.634   94.939    0.187    8.852
  767.454   95.344    0.175   10.837
  768.274   86.637    0.157    7.940
  769.094   85.059    0.221    7.521
  769.915   87.442    0.245    7.665
  770.735   93.392    0.234    7.127
  771.555   90.230    0.217    5.829
  772.375   85.086    0.183    5.131
  773.196   89.454    0.199    4.860
  774.016   93.029    0.223    5.044
  774.836   91.054    0.218    6.406
  775.656   86.702    0.213    6.410
  776.476   81.955    0.223    5.960
  777.297   84.340    0.234    5.647
  778.117   89.103    0.234    5.860
  778.937   91.488    0.233    6.790
  779.757   94.667    0.227    7.585
  780.577   94.276    0.219    8.168
  781.398   89.529    0.209    7.595
  782.218   82.802    0.183    7.063
  783.038   79.642    0.132    6.940
  783.858   81.234    0.138    7.337
  784.678   82.826    0.166    8.045
  785.499   84.022    0.196    9.848
  786.319   85.614    0.220   11.206
  787.139   88.397    0.230    8.998
  787.959   89.593    0.232    7.777
  788.780   88.810    0.205    7.926
  789.600   87.625    0.201    7.505
  790.420   89.613    0.198    8.083
  791.240   91.999    0.187    8.239
  792.060   91.611    0.185    7.946
  792.881   88.844    0.198    7.951
  793.701   87.267    0.222    8.104
  794.521   89.653    0.239    8.412
  795.341   90.453    0.246    8.573
  796.161   92.441    0.251    6.636
  796.982   95.224    0.253    4.356
  797.802   92.854    0.253    3.764
  798.622   90.878    0.250    3.437
  799.442   88.510    0.239    3.770
  800.262   86.535    0.234    4.288
  801.083   83.372    0.228    4.702
  801.903   79.419    0.222    4.707
  802.723   76.653    0.209    4.539
  803.543   72.302    0.157    4.460
  804.364   57.649    0.173    4.715
  805.184   54.092    0.189    5.987
  806.004   53.307    0.211    8.034
  806.824   51.729    0.204   12.256
  807.644   47.376    0.188   12.957
  808.465   34.708    0.168    7.760
  809.285   34.715    0.271   11.205
  810.105   36.704    0.299   19.792
  810.925   39.086    0.297   14.770
  811.745   39.890    0.300   10.432
  812.566   39.499    0.297   10.249
  813.386   38.320    0.305   12.549
  814.206   38.327    0.308   14.276
  815.026   39.919    0.297   20.612
  815.846   41.906    0.291   49.737
  816.667   44.687    0.286   47.098
  817.487   48.660    0.277   41.452
  818.307   49.458    0.273   36.482
  819.127   51.842    0.267   31.525
  819.948   54.229    0.262   26.265
  820.768   56.612    0.267   26.286
  821.588   60.189    0.273   24.891
  822.408   57.420    0.275    6.653
  823.228   55.843    0.275    5.855
  824.049   53.078    0.272    6.306
  824.869   51.499    0.262    7.719
  825.689   55.469    0.250    8.946
  826.509   61.817    0.254    9.991
  827.329   67.372    0.255   10.960
  828.150   72.530    0.250    8.483
  828.970   76.103    0.236    5.080
  829.790   71.356    0.138    5.470
  830.610   61.458    0.107    5.890
  831.430   52.354    0.114    5.894
  832.251   45.625    0.150    6.118
  833.071   41.670    0.168    7.354
  833.891   51.583    0.200   10.618
  834.711   57.534    0.232   20.186
  835.531   59.920    0.247   36.316
  836.352   56.758    0.261   26.608
  837.172   57.161    0.262   15.935
  837.992   59.150    0.262   11.892
  838.812   61.534    0.259   11.471
  839.633   56.391    0.258   12.127
  840.453   46.492    0.263   11.074
  841.273   40.558    0.275   10.881
  842.093   37.001    0.287   12.839
  842.913   35.824    0.294   14.608
  843.734   35.433    0.304   15.729
  844.554   35.438    0.313   17.250
  845.374   35.840    0.323   13.603
  846.194   37.434    0.330   24.921
  847.014   39.423    0.317   24.936
  847.835   40.619    0.312   27.858
  848.655   41.418    0.317   33.484
  849.475   40.237    0.317   14.684
  850.295   38.661    0.319   14.426
  851.115   38.272    0.314   28.970
  851.936   38.676    0.306   37.476
  852.756   39.476    0.296   36.819
  853.576   41.068    0.290   38.924
  854.396   42.264    0.283   38.247
  855.217   43.858    0.266   34.279
  856.037   42.678    0.273   29.088
  856.857   42.288    0.283   25.605
  857.677   43.880    0.292   23.810
  858.497   47.453    0.300   22.963
  859.318   47.460    0.303   20.584
  860.138   40.734    0.307   17.147
  860.958   34.798    0.300   14.820
  861.778   30.448    0.289   24.776
  862.598   30.456    0.273   35.122
  863.419   31.652    0.286   47.995
  864.239   32.450    0.290   49.826
  865.059   33.646    0.296   48.070
  865.879   34.847    0.295   46.361
  866.699   34.851    0.285   43.914
  867.520   35.254    0.289   40.829
  868.340   34.469    0.298   34.011
  869.160   34.080    0.308   27.312
  869.980   34.089    0.316   21.143
  870.801   33.702    0.318   21.554
  871.621   33.708    0.318   21.176
  872.441   33.319    0.314   20.804
  873.261   31.347    0.318   21.202
  874.081   30.562    0.317   22.008
  874.902   30.569    0.314   22.844
  875.722   30.576    0.308   24.605
  876.542   30.189    0.301   25.068
  877.362   25.836    0.310   26.997
  878.182   19.108    0.316   29.064
  879.003   17.530    0.321   28.559
  879.823   17.936    0.319   31.899
  880.643   18.737    0.309  258.070
  881.463   19.935    0.304  258.231
  882.283   20.733    0.310  253.699
  883.104   21.927    0.317  175.938
  883.924   24.708    0.312  128.909
  884.744   27.491    0.307  101.638
  885.564   29.875    0.304   33.856
  886.385   31.864    0.310   28.724
  887.205   33.852    0.306   26.714
  888.025   37.029    0.301   27.230
  888.845   38.623    0.303   27.747
  889.665   38.630    0.305   30.992
  890.486   37.053    0.303   34.623
  891.306   36.664    0.302   36.597
  892.126   37.467    0.299   31.630
  892.946   37.867    0.293   31.649
  893.766   38.276    0.285   27.349
  894.587   38.280    0.282   23.207
  895.407   38.287    0.291   25.447
  896.227   38.294    0.292   30.031
  897.047   38.304    0.284   27.426
  897.867   37.519    0.273   25.971
  898.688   36.337    0.265   22.857
  899.508   35.552    0.268   21.255
  900.328   34.769    0.272   19.405
  901.148   34.776    0.272   18.718
  901.969   35.576    0.267   17.089
  902.789   36.774    0.256   14.772
  903.609   38.364    0.214   16.802
  904.429   43.918    0.187   18.771
  905.249   52.246    0.199   16.824
  906.070   57.801    0.215   15.081
  906.890   61.378    0.236   16.850
  907.710   62.574    0.242   18.140
  908.530   65.353    0.209   19.178
  909.350   66.945    0.188   17.833
  910.171   66.556    0.221   15.413
  910.991   67.360    0.228   15.420
  911.811   66.969    0.239   16.307
  912.631   64.599    0.253   16.926
  913.451   61.833    0.270   18.560
  914.272   58.274    0.281   22.308
  915.092   52.734    0.289   20.744
  915.912   53.141    0.297   18.601
  916.732   51.960    0.305   22.354
  917.552   48.795    0.299   37.372
  918.373   48.408    0.299   49.239
  919.193   48.810    0.305   49.269
  920.013   49.215    0.311   41.042
  920.833   47.240    0.313   38.164
  921.654   37.740    0.316  100.916
  922.474   37.351    0.323  110.673
  923.294   35.377    0.326   66.281
  924.114   33.007    0.322   53.225
  924.934   31.431    0.328   84.223
  925.755   33.816    0.341  154.348
  926.575   36.200    0.336  253.359
  927.395   38.191    0.328  393.751
  928.215   38.592    0.320  346.547
  929.035   39.392    0.313  278.244
  929.856   40.984    0.314  124.276
  930.676   43.765    0.324   52.529
  931.496   45.359    0.333   51.623
  932.316   40.216    0.341   53.584
  933.136   37.057    0.337   47.153
