~VERSION INFORMATION
 VERS.                 2.0:   CWLS LOG ASCII STANDARD -VERSION 2.0
 WRAP.                  NO:   ONE LINE PER DEPTH STEP
~WELL INFORMATION BLOCK
#MNEM.UNIT           DATA                    DESCRIPTION OF MNEMONIC
#---------    -------------------            -------------------------------
# Generated from Intellog Unique Number	CS_73_76/WELL/3227
WELL.         09-28-076-06W4                 : Well_name    - WELL
LOC .         AA/09-28-076-06W4/0            : Location     - LOCATION
UWI .         AA/09-28-076-06W4/0            : Uwi          - UNIQUE WELL ID
ENTR.         SP                             : Entered      - ENTERED BY
SRVC.         SCHLUMBERGER                   : Scn          - SERVICE COMPANY
STRT.M        145                            : top_depth    - START DEPTH
STOP.M        365                            : bot_depth    - STOP DEPTH
STEP.M        0.25                           : increment    - STEP LENGTH
 NULL. -999.2500:NULL Value
~CURVE INFORMATION BLOCK
#MNEM UNIT       ERCB CURVE CODE    CURVE DESCRIPTION
#-----------   ------------------   ----------------------------------
DEPT.M        00 001 00 00         : DEPTH        - DEPTH
ILD .OHMM     00 120 00 00         : RESD         - DEEP RESISTIVITY (DIL)
GR  .API      00 310 00 00         : GR           - GAMMA RAY
DPHI.V/V      00 890 00 00         : PHID         - DENSITY POROSITY (LIMESTONE)
NPHI.V/V      00 330 00 00         : PHIN         - NEUTRON POROSITY (LIMESTONE)
~PARAMETER INFORMATION
#MNEM.UNIT           DATA             DESCRIPTION OF MNEMONIC
#---------         -----------     ------------------------------
GL  .M        555.14               : gl           - GROUND LEVEL ELEVATION
EREF.M        558.14               : kb           - ELEVATION OF DEPTH REFERENCE
DATM.M        555.14               : datum        - DATUM ELEVATION
TDD .M        366                  : tdd          - TOTAL DEPTH DRILLER
RUN .         ONE                  : Run          - RUN NUMBER
ENG .         BILL                 : Engineer     - RECORDING ENGINEER
WIT .         JIM                  : Witness      - WITNESSED BY
MUD .         GEL                  : Mud_type     - MUD TYPE
MATR.         LIMESTONE            : Logunit      - NEUTRON MATRIX
TMAX.C        22                   : BHT          - MAXIMUM RECORDED TEMPERATURE
BHTD.M        366                  : BHTDEP       - MAXIMUM RECORDED TEMPERATURE
MATR.         1                    : LOGUNIT      - NEUTRON MATRIX
RMT .C        25                   : MDTP         - TEMPERATURE OF MUD
NEUT.         1                    : NEUTRON      - NEUTRON TYPE
RESI.         0                    : RESIST       - RESISTIVITY TYPE
RMC .OHMM     0.25                 : RMC          - RESISTIVITY OF MUD CAKE
RMF .OHMM     0.25                 : RMF          - RESISTIVITY OF MUD FILTRATE
SUFT.C        15                   : SUFT         - SURFACE TEMPERATURE
~A  DEPTH     RESD       GR     PHID     PHIN
# ...
  319.000    7.690   86.611    0.216    0.334
  319.250    8.140   86.602    0.217    0.342
  319.500    8.295   85.984    0.221    0.356
  319.750    8.616   85.976    0.224    0.349
  320.000    8.948   87.200    0.219    0.317
  320.250    9.119   93.957    0.205    0.310
  320.500    9.294  100.713    0.202    0.326
  320.750    9.294  100.706    0.202    0.337
  321.000    9.472  101.930    0.207    0.352
  321.250    9.653   94.547    0.215    0.360
  321.500   10.412   89.622    0.227    0.376
  321.750   11.021   84.697    0.233    0.376
  322.000   12.346   82.847    0.249    0.349
  322.250   13.068   81.612    0.255    0.352
  322.500   13.318   84.062    0.231    0.337
  322.750   13.832   87.745    0.221    0.369
  323.000   14.640   90.199    0.220    0.389
  323.250   14.920   83.429    0.242    0.409
  323.500   14.641   64.981    0.270    0.369
  323.750   13.833   58.827    0.293    0.331
  324.000   13.574   66.813    0.270    0.294
  324.250   13.070   84.635    0.226    0.291
  324.500   11.667   95.080    0.214    0.304
  324.750   10.614   98.762    0.209    0.310
  325.000   10.029   96.910    0.191    0.344
  325.250   10.029   98.749    0.185    0.344
  325.500   10.029  101.203    0.182    0.363
  325.750   10.029  103.651    0.177    0.342
  326.000   10.221  104.874    0.180    0.319
  326.250   10.616   97.495    0.186    0.315
  326.500   11.451   98.102    0.193    0.321
  326.750   12.828   99.327    0.198    0.343
  327.000   15.210   85.180    0.205    0.327
  327.250   18.035   73.492    0.229    0.345
  327.500   20.590   68.570    0.257    0.377
  327.750   25.840   63.029    0.272    0.389
  328.000   30.639   58.104    0.278    0.374
  328.250   31.822   56.253    0.300    0.414
  328.500   30.641   57.477    0.308    0.395
  328.750   24.416   59.930    0.299    0.373
  329.000   21.387   65.458    0.277    0.358
  329.250   18.383   78.359    0.237    0.335
  329.500   17.368   83.274    0.210    0.367
  329.750   19.457   83.882    0.209    0.414
  330.000   22.214   73.424    0.251    0.421
  330.250   25.846   64.196    0.273    0.418
  330.500   34.331   56.198    0.290    0.382
  330.750   45.602   48.200    0.304    0.390
  331.000   53.058   47.578    0.315    0.382
  331.250   59.439   47.573    0.313    0.379
  331.500   61.733   45.722    0.311    0.381
  331.750   61.735   43.255    0.310    0.352
  332.000   39.949   43.251    0.309    0.331
  332.250   28.959   49.391    0.309    0.312
  332.500   20.993   57.990    0.294    0.319
  332.750   17.048   65.977    0.279    0.319
  333.000   15.218   83.800    0.252    0.310
  333.250   14.109   88.712    0.219    0.310
  333.500   13.845   89.934    0.202    0.292
  333.750   14.379   88.698    0.196    0.305
  334.000   15.510   83.159    0.194    0.319
  334.250   18.391   76.391    0.243    0.324
  334.500   19.837   69.623    0.287    0.349
  334.750   23.521   61.009    0.304    0.352
  335.000   25.857   64.691    0.283    0.333
  335.250   26.855   70.832    0.270    0.325
  335.500   26.352   70.212    0.254    0.360
  335.750   26.856   61.598    0.255    0.376
  336.000   27.892   56.060    0.276    0.387
  336.250   32.452   49.905    0.287    0.380
  336.500   38.479   44.981    0.304    0.376
  336.750   44.770   46.204    0.322    0.402
  337.000   50.155   49.272    0.332    0.430
  337.250   53.086   43.117    0.333    0.419
  337.500   49.217   50.487    0.332    0.354
  337.750   35.009   57.244    0.296    0.295
  338.000   24.902   69.534    0.274    0.301
  338.250   20.609   81.209    0.258    0.313
  338.500   17.714   90.424    0.230    0.342
  338.750   16.423   94.106    0.209    0.374
  339.000   15.517   86.108    0.222    0.387
  339.250   16.424   78.108    0.234    0.333
  339.500   18.399   73.799    0.238    0.310
  339.750   19.474   71.950    0.233    0.305
  340.000   19.847   72.557    0.235    0.324
  340.250   20.226   72.552    0.238    0.342
  340.500   22.235   69.469    0.244    0.352
  340.750   23.983   67.621    0.249    0.373
  341.000   25.385   62.695    0.253    0.399
  341.250   30.099   58.387    0.266    0.426
  341.500   35.020   55.920    0.284    0.384
  341.750   39.232   54.686    0.292    0.358
  342.000   40.747   54.679    0.297    0.366
  342.250   42.319   54.058    0.294    0.391
  342.500   44.793   52.822    0.291    0.428
  342.750   48.316   50.355    0.289    0.447
  343.000   55.162   47.890    0.301    0.391
  343.250   66.656   44.197    0.307    0.378
  343.500   83.652   41.117    0.316    0.397
  343.750   97.329   42.953    0.323    0.409
  344.000  103.017   47.864    0.325    0.409
  344.250  111.121   49.090    0.323    0.390
  344.500  115.409   47.240    0.320    0.379
  344.750  129.290   42.929    0.318    0.365
  345.000  136.846   39.234    0.321    0.360
  345.250  134.284   37.998    0.320    0.358
  345.500  109.049   39.837    0.305    0.368
  345.750   73.287   47.821    0.294    0.341
  346.000   57.304   52.735    0.277    0.306
  346.250   52.131   63.794    0.257    0.306
  346.500   53.129   68.091    0.264    0.322
  346.750   58.403   61.938    0.291    0.345
  347.000   70.572   55.169    0.303    0.387
  347.250  113.272   49.013    0.317    0.414
  347.500  165.392   45.935    0.325    0.398
  347.750  196.110   50.844    0.326    0.377
  348.000  171.781   53.298    0.306    0.353
  348.250  171.785   57.595    0.301    0.347
  348.500  175.072   58.819    0.308    0.392
  348.750  178.419   58.812    0.316    0.426
  349.000  185.305   52.044    0.320    0.408
  349.250  207.594   49.578    0.320    0.364
  349.500  219.724   51.417    0.318    0.362
  349.750  171.807   49.567    0.316    0.385
  350.000  117.669   54.478    0.315    0.369
  350.250   63.014   66.153    0.293    0.358
  350.500   42.349   80.900    0.278    0.330
  350.750   39.263   87.043    0.256    0.351
  351.000   40.778   93.799    0.251    0.371
  351.250   44.826   80.881    0.263    0.393
  351.500   54.167   67.965    0.276    0.383
  351.750   66.704   58.122    0.302    0.383
  352.000   92.021   51.967    0.325    0.402
  352.250  103.089   47.044    0.329    0.416
  352.500  115.489   48.882    0.329    0.399
  352.750  117.698   56.254    0.326    0.379
  353.000  119.949   59.934    0.325    0.376
  353.250  115.496   59.315    0.334    0.391
  353.500  105.071   55.620    0.339    0.413
  353.750  101.170   57.456    0.341    0.399
  354.000   97.415   56.837    0.338    0.378
  354.250   97.416   52.528    0.324    0.366
  354.500   99.280   52.519    0.323    0.361
  354.750  101.179   53.130    0.324    0.362
  355.000  105.084   50.663    0.324    0.361
  355.250  107.094   48.197    0.329    0.360
  355.500  105.088   44.503    0.333    0.390
  355.750   92.052   42.038    0.334    0.417
  356.000   82.172   39.573    0.334    0.425
  356.250   73.353   43.255    0.335    0.407
  356.500   68.007   51.238    0.338    0.402
  356.750   65.482   51.234    0.341    0.403
  357.000   63.051   47.537    0.338    0.388
  357.250   63.053   47.533    0.330    0.377
  357.500   64.258   48.142    0.329    0.397
  357.750   65.488   51.208    0.329    0.413
  358.000   60.714   52.432    0.325    0.393
  358.250   51.207   53.657    0.318    0.360
  358.500   50.248   56.108    0.312    0.356
  358.750   50.249   56.103    0.312    0.375
  359.000   37.122   58.554    0.316    0.370
  359.250   22.695   59.164    0.321    0.385
  359.500   17.413   59.157    0.313    0.390
  359.750   15.841   59.150    0.298    0.380
  360.000   14.968   57.913    0.207    0.275
  360.250   14.687   57.909    0.000    0.255
  360.500   14.687   57.287    0.000    0.226
  360.750   15.254   57.282    0.000    0.200
  361.000   15.255   57.891    0.000    0.176
  361.250   15.546   57.269    0.000    0.182
  361.500   23.134   56.648    0.000    0.200
  361.750   25.916   54.797    0.000    0.207
  362.000   25.917   52.947    0.004    0.205
  362.250   25.917   52.326    0.005    0.202
