~VERSION INFORMATION
 VERS.                 2.0:   CWLS LOG ASCII STANDARD -VERSION 2.0
 WRAP.                  NO:   ONE LINE PER DEPTH STEP
~WELL INFORMATION BLOCK
#MNEM.UNIT           DATA                    DESCRIPTION OF MNEMONIC
#---------    -------------------            -------------------------------
# Generated from Intellog Unique Number	CN_94_101/WELL/2816
WELL.         03-02-096-15W4                 : Well_name    - WELL
LOC .         AA/03-02-096-15W4/0            : Location     - LOCATION
UWI .         AA/03-02-096-15W400            : Uwi          - UNIQUE WELL ID
ENTR.         JOETTE                         : Entered      - ENTERED BY
SRVC.         SCHLUMBERGER                   : Scn          - SERVICE COMPANY
DATE.         07/07/92                       : Date         - LOG DATE
STRT.M        50                             : top_depth    - START DEPTH
STOP.M        330                            : bot_depth    - STOP DEPTH
STEP.M        0.25                           : increment    - STEP LENGTH
 NULL. -999.2500:NULL Value
~CURVE INFORMATION BLOCK
#MNEM UNIT       ERCB CURVE CODE    CURVE DESCRIPTION
#-----------   ------------------   ----------------------------------
DEPT.M        00 001 00 00         : DEPTH        - DEPTH
CALI.MM       00 280 01 00         : CAL          - CALIPER
GR  .API      00 310 00 00         : GR           - GAMMA RAY
NPHI.V/V      00 330 00 00         : PHIN         - NEUTRON POROSITY (SANDSTONE)
DPHI.V/V      00 890 00 00         : PHID         - DENSITY POROSITY (SANDSTONE)
ILD .OHMM     00 120 00 00         : RESD         - DEEP RESISTIVITY (DIL)
~PARAMETER INFORMATION
#MNEM.UNIT           DATA             DESCRIPTION OF MNEMONIC
#---------         -----------     ------------------------------
GL  .M        577.32               : gl           - GROUND LEVEL ELEVATION
EREF.M        580.67               : kb           - ELEVATION OF DEPTH REFERENCE
DATM.M        580.67               : datum        - DATUM ELEVATION
TDD .M        330                  : tdd          - TOTAL DEPTH DRILLER
RUN .         ONE                  : Run          - RUN NUMBER
ENG .         JO                   : Engineer     - RECORDING ENGINEER
WIT .         TIM                  : Witness      - WITNESSED BY
MUD .         GEL                  : Mud_type     - MUD TYPE
MATR.         SANDSTONE            : Logunit      - NEUTRON MATRIX
TMAX.C        19                   : BHT          - MAXIMUM RECORDED TEMPERATURE
BHTD.M        330                  : BHTDEP       - MAXIMUM RECORDED TEMPERATURE
RMT .C        13                   : MDTP         - TEMPERATURE OF MUD
MUDD.KG/M     1000                 : MWT          - MUD DENSITY
NEUT.         1                    : NEUTRON      - NEUTRON TYPE
RESI.         0                    : RESIST       - RESISTIVITY TYPE
RM  .OHMM     2.5                  : RM           - RESISTIVITY OF MUD
RMC .OHMM     2.5                  : RMC          - RESISTIVITY OF MUD CAKE
RMF .OHMM     2.5                  : RMF          - RESISTIVITY OF MUD FILTRATE
SUFT.C        4                    : SUFT         - SURFACE TEMPERATURE
~A  DEPTH      CAL       GR     PHIN     PHID     RESD
# ...
  232.500  177.023   75.345    0.431    0.266    7.483
  232.750  178.161   77.818    0.443    0.261    7.235
  233.000  180.305   79.124    0.451    0.253    7.111
  233.250  184.526   79.787    0.445    0.256    6.499
  233.500  182.646   82.903    0.446    0.255    5.937
  233.750  180.833   85.397    0.454    0.258    5.737
  234.000  179.861   86.683    0.461    0.265    5.645
  234.250  178.987   86.139    0.454    0.259    5.762
  234.500  178.146   85.011    0.444    0.253    5.879
  234.750  178.246   80.263    0.439    0.276    6.345
  235.000  177.372   80.966    0.447    0.278    6.972
  235.250  178.510   82.835    0.460    0.269    7.380
  235.500  182.665   84.161    0.468    0.258    7.538
  235.750  185.848   84.824    0.481    0.251    6.889
  236.000  185.980   84.300    0.493    0.259    5.532
  236.250  186.145   80.739    0.498    0.254    4.608
  236.500  185.205   73.577    0.503    0.255    3.771
  236.750  182.386   69.432    0.502    0.264    2.974
  237.000  180.441   66.494    0.442    0.234    2.478
  237.250  176.583   65.970    0.368    0.156    2.676
  237.500  175.743   67.859    0.329    0.138    2.941
  237.750  175.809   71.559    0.396    0.153    3.290
  238.000  181.975   83.144    0.535    0.184    3.615
  238.250  188.142   85.617    0.545    0.258    3.900
  238.500  188.274   85.697    0.575    0.292    3.910
  238.750  188.439   82.759    0.517    0.281    3.845
  239.000  188.539   84.045    0.509    0.267    3.783
  239.250  188.671   88.991    0.477    0.271    3.866
  239.500  188.836   90.841    0.538    0.282    3.944
  239.750  191.046   92.127    0.581    0.281    4.024
  240.000  192.151   90.397    0.606    0.276    4.424
  240.250  194.294   85.648    0.557    0.268    4.772
  240.500  195.399   80.920    0.520    0.261    5.241
  240.750  196.570   78.002    0.508    0.263    5.551
  241.000  196.669   76.854    0.475    0.263    5.772
  241.250  196.834   77.517    0.449    0.257    5.479
  241.500  196.934   80.010    0.437    0.246    5.193
  241.750  196.093   82.523    0.449    0.219    5.013
  242.000  197.231   84.413    0.475    0.218    5.027
  242.250  200.380   86.283    0.494    0.242    5.128
  242.500  201.485   90.002    0.498    0.249    5.638
  242.750  204.668   88.875    0.498    0.257    5.968
  243.000  205.806   84.770    0.494    0.251    6.808
  243.250  201.915   83.583    0.485    0.245    7.082
  243.500  199.030   84.909    0.467    0.252    7.090
  243.750  197.117   86.195    0.462    0.251    7.237
  244.000  196.277   85.067    0.453    0.242    7.253
  244.250  196.409   82.693    0.452    0.255    7.136
  244.500  196.541   85.226    0.451    0.256    7.155
  244.750  196.673   88.302    0.447    0.245    7.171
  245.000  196.806   88.985    0.445    0.224    7.186
  245.250  195.932   81.240    0.444    0.247    7.198
  245.500  194.086   80.092    0.443    0.251    7.351
  245.750  192.140   79.568    0.424    0.260    7.504
  246.000  188.283   79.647    0.410    0.256    7.660
  246.250  187.409   79.746    0.414    0.234    7.676
  246.500  186.568   79.222    0.418    0.206    7.836
  246.750  186.635   79.302    0.410    0.196    8.003
  247.000  185.761   82.418    0.405    0.183    8.016
  247.250  185.959   84.268    0.400    0.211    8.029
  247.500  185.053   86.177    0.406    0.221    8.200
  247.750  185.152   82.616    0.416    0.233    8.222
  248.000  185.317   82.695    0.416    0.241    8.236
  248.250  185.416   83.982    0.427    0.243    8.262
  248.500  184.543   85.891    0.435    0.244    8.271
  248.750  184.741   86.574    0.430    0.244    8.284
  249.000  183.834   87.880    0.421    0.243    8.302
  249.250  183.999   87.939    0.423    0.234    8.320
  249.500  182.153   86.189    0.447    0.229    8.343
  249.750  182.252   85.061    0.447    0.239    8.352
  250.000  182.351   82.143    0.436    0.243    8.352
  250.250  182.550   81.619    0.429    0.242    8.557
  250.500  182.616   82.282    0.429    0.243    8.888
  250.750  181.775   81.154    0.416    0.238    8.740
  251.000  177.851   72.785    0.394    0.182    8.603
  251.250  173.994   74.695    0.378    0.165    8.460
  251.500  173.054   77.791    0.377    0.214    8.176
  251.750  173.219   79.077    0.393    0.263    7.893
  252.000  173.384   77.346    0.411    0.278    7.624
  252.250  174.489   76.199    0.417    0.267    7.368
  252.500  174.688   75.714    0.423    0.259    7.116
  252.750  174.787   75.170    0.429    0.260    7.002
  253.000  175.925   69.819    0.438    0.260    6.885
  253.250  177.062   70.481    0.444    0.258    6.900
  253.500  177.195   72.371    0.454    0.274    6.918
  253.750  178.300   73.054    0.466    0.273    7.058
  254.000  178.432   71.966    0.441    0.268    7.205
  254.250  178.564   71.402    0.442    0.273    7.359
  254.500  178.729   70.878    0.447    0.277    7.794
  254.750  178.894   70.957    0.442    0.273    8.099
  255.000  177.988   71.037    0.434    0.266    8.737
  255.250  177.081   71.136    0.426    0.258    9.785
  255.500  177.213   69.405    0.430    0.145    9.988
  255.750  176.340   64.637    0.420    0.108    9.293
  256.000  176.472   57.475    0.369    0.060    8.191
  256.250  176.604   56.950    0.257    0.023    7.767
  256.500  176.769   60.650    0.282    0.078    7.358
  256.750  177.874   72.799    0.364    0.130    6.850
  257.000  181.090   76.519    0.435    0.159    6.495
  257.250  183.200   89.270    0.481    0.196    6.516
  257.500  187.355   93.010    0.489    0.245    6.527
  257.750  194.528   95.483    0.485    0.257    6.541
  258.000  192.649   93.772    0.477    0.261    6.677
  258.250  195.798   90.814    0.474    0.253    6.687
  258.500  199.986   86.669    0.477    0.252    6.705
  258.750  205.114   81.901    0.482    0.259    6.720
  259.000  219.360   77.756    0.488    0.270    6.734
  259.250  232.567   72.405    0.492    0.316    6.745
  259.500  218.618   70.090    0.504    0.353    6.636
  259.750  226.797   70.169    0.502    0.374    6.181
  260.000  234.975   72.059    0.511    0.327    5.964
  260.250  234.101   74.532    0.456    0.300    5.454
  260.500  222.164   81.269    0.452    0.214    5.075
  260.750  201.143   81.952    0.523    0.286    4.812
  261.000  193.229   82.635    0.533    0.302    4.480
  261.250  204.457   84.525    0.538    0.319    4.253
  261.500  214.647   88.828    0.539    0.311    4.257
  261.750  196.676   93.131    0.534    0.281    4.346
  262.000  184.706   94.418    0.528    0.259    4.869
  262.250  177.798   95.100    0.514    0.257    4.965
  262.500  177.963   94.576    0.517    0.251    5.558
  262.750  178.095   88.037    0.524    0.243    6.107
  263.000  178.194   88.117    0.522    0.236    6.241
  263.250  180.371   91.213    0.505    0.218    6.247
  263.500  183.487   92.480    0.498    0.236    6.147
  263.750  190.660   93.786    0.493    0.250    5.943
  264.000  198.871   89.018    0.489    0.274    5.950
  264.250  188.913   81.856    0.481    0.314    5.963
  264.500  184.016   81.331    0.512    0.272    6.086
  264.750  199.268   94.123    0.526    0.302    6.213
  265.000  215.492   92.995    0.516    0.322    6.710
  265.250  198.526   88.207    0.481    0.332    7.099
  265.500  189.607   81.649    0.466    0.294    7.389
  265.750  213.877   75.693    0.473    0.295    7.538
  266.000  218.065   76.376    0.476    0.349    7.551
  266.250  195.032   80.680    0.433    0.333    7.567
  266.500  178.033   84.983    0.407    0.259    7.313
  266.750  201.331   91.740    0.437    0.290    5.869
  267.000  224.628   93.610    0.462    0.334    5.266
  267.250  211.686   95.499    0.486    0.300    5.092
  267.500  203.739   90.148    0.498    0.265    5.103
  267.750  194.819   86.003    0.495    0.247    5.018
  268.000  193.946   83.045    0.487    0.229    5.026
  268.250  196.122   83.748    0.462    0.221    4.854
  268.500  201.283   86.864    0.453    0.234    4.356
  268.750  211.506   85.717    0.448    0.273    3.632
