~VERSION INFORMATION
 VERS.                 2.0:   CWLS LOG ASCII STANDARD -VERSION 2.0
 WRAP.                  NO:   ONE LINE PER DEPTH STEP
~WELL INFORMATION BLOCK
#MNEM.UNIT           DATA                    DESCRIPTION OF MNEMONIC
#---------    -------------------            -------------------------------
# Generated from Intellog Unique Number	CN_91_93/WELL/1071
WELL.         MILL CITY                      : Well_name    - WELL
LOC .         AA/04-20-091-07W4/0            : Location     - LOCATION
UWI .         AA/04-20-091-07W400            : Uwi          - UNIQUE WELL ID
ENTR.         JOETTE                         : Entered      - ENTERED BY
SRVC.         SCHLUMBERGER                   : Scn          - SERVICE COMPANY
DATE.         01/14/92                       : Date         - LOG DATE
STRT.F        200                            : top_depth    - START DEPTH
STOP.F        750.361                        : bot_depth    - STOP DEPTH
STEP.F        0.82                           : increment    - STEP LENGTH
 NULL. -999.2500:NULL Value
~CURVE INFORMATION BLOCK
#MNEM UNIT       ERCB CURVE CODE    CURVE DESCRIPTION
#-----------   ------------------   ----------------------------------
DEPT.F        00 001 00 00         : DEPTH        - DEPTH
GR  .API      00 310 00 00         : GR           - GAMMA RAY
NPHI.V/V      00 330 00 00         : PHIN         - NEUTRON POROSITY (SANDSTONE)
ILD .OHMM     00 120 00 00         : RESD         - DEEP RESISTIVITY (DIL)
~PARAMETER INFORMATION
#MNEM.UNIT           DATA             DESCRIPTION OF MNEMONIC
#---------         -----------     ------------------------------
GL  .F        1570.5               : gl           - GROUND LEVEL ELEVATION
EREF.F        1570.5               : kb           - ELEVATION OF DEPTH REFERENCE
DATM.F        1570.5               : datum        - DATUM ELEVATION
TDD .F        757                  : tdd          - TOTAL DEPTH DRILLER
RUN .         ONE                  : Run          - RUN NUMBER
ENG .         JO                   : Engineer     - RECORDING ENGINEER
WIT .         TIM                  : Witness      - WITNESSED BY
MUD .         GEL                  : Mud_type     - MUD TYPE
MATR.         SANDSTONE            : Logunit      - NEUTRON MATRIX
TMAX.F        49                   : BHT          - MAXIMUM RECORDED TEMPERATURE
BHTD.F        757                  : BHTDEP       - MAXIMUM RECORDED TEMPERATURE
RMT .F        58                   : MDTP         - TEMPERATURE OF MUD
MUDD.LB/G     9                    : MWT          - MUD DENSITY
NEUT.         1                    : NEUTRON      - NEUTRON TYPE
RESI.         0                    : RESIST       - RESISTIVITY TYPE
RM  .OHMM     1.5                  : RM           - RESISTIVITY OF MUD
RMC .OHMM     1.8                  : RMC          - RESISTIVITY OF MUD CAKE
RMF .OHMM     1.1                  : RMF          - RESISTIVITY OF MUD FILTRATE
SUFT.F        39.2                 : SUFT         - SURFACE TEMPERATURE
~A  DEPTH       GR     PHIN     RESD
# ...
  555.971   88.342    0.424   30.127
  556.791   87.438    0.436   27.248
  557.612   87.232    0.434   24.369
  558.432   87.031    0.411   24.182
  559.252   86.364    0.419   24.478
  560.072   87.337    0.438   27.704
  560.892   89.473    0.412   31.419
  561.713   92.089    0.403   32.704
  562.533   93.526    0.403   22.242
  563.353   94.491    0.404   24.003
  564.173   95.230    0.421   37.255
  564.993   93.865    0.436   44.639
  565.814   92.485    0.423   52.267
  566.634   89.707    0.435   49.389
  567.454   80.136    0.402   45.044
  568.274   76.188    0.403   40.211
  569.094   72.478    0.380   42.461
  569.915   69.233    0.343   99.453
  570.735   66.686    0.337  107.332
  571.555   62.039    0.296   85.879
  572.375   59.492    0.280   92.036
  573.196   55.076    0.260  126.303
  574.016   51.362    0.210   89.459
  574.836   51.629    0.231   68.001
  575.656   53.772    0.151   57.069
  576.476   57.317    0.183   59.068
  577.297   61.337    0.203   67.918
  578.117   65.580    0.255   67.725
  578.937   69.831    0.309   62.648
  579.757   70.800    0.304   67.834
  580.577   68.022    0.296   74.486
  581.398   61.031    0.281   78.201
  582.218   58.722    0.279   76.054
  583.038   58.052    0.277   70.489
  583.858   57.858    0.285   77.385
  584.678   58.593    0.270   78.664
  585.499   60.260    0.273   74.801
  586.319   64.979    0.294   53.594
  587.139   70.162    0.305   41.679
  587.959   76.520    0.313   44.172
  588.780   82.410    0.319   53.755
  589.600   92.748    0.333   65.535
  590.420   86.923    0.373   88.561
  591.240   81.336    0.379   94.725
  592.060   66.384    0.365   78.163
  592.881   65.246    0.372   65.747
  593.701   68.790    0.358   56.519
  594.521   76.553    0.383   48.993
  595.341   83.145    0.371   53.203
  596.161   90.201    0.384   65.227
  596.982   85.317    0.373   75.060
  597.802   79.964    0.370   78.530
  598.622   74.612    0.366   76.139
  599.442   73.707    0.366   71.307
  600.262   79.178    0.383   71.070
  601.083   79.208    0.397   70.799
  601.903   81.083    0.399   69.167
  602.723   87.113    0.405   65.901
  603.543   93.378    0.394   57.733
  604.364   97.565    0.405   50.656
  605.184   98.287    0.397   48.479
  606.004   97.624    0.393   47.119
  606.824   91.883    0.396   48.210
  607.644   80.369    0.380   54.474
  608.465   54.773    0.387   99.133
  609.285   41.878    0.377   86.609
  610.105   46.062    0.394   74.085
  610.925   58.327    0.425   74.086
  611.745   63.668    0.444  112.754
  612.566   55.154    0.406   62.381
  613.386   57.726    0.430   55.303
  614.206   68.837    0.449   46.591
  615.026   76.021    0.467   47.410
  615.846   86.674    0.467   53.674
  616.667   87.858    0.478   55.309
  617.487   85.814    0.493   61.574
  618.307   85.151    0.483   57.219
  619.127   82.868    0.486   56.132
  619.948   85.898    0.487   59.673
  620.768   88.701    0.470   62.125
  621.588   86.422    0.481   62.127
  622.408   83.682    0.480   60.767
  623.228   80.942    0.493   59.952
  624.049   79.356    0.499   57.776
  624.869   84.928    0.471   56.143
  625.689   85.880    0.475   52.877
  626.509   85.909    0.478   55.874
  627.329   85.254    0.471   52.881
  628.150   82.737    0.484   54.788
  628.970   81.620    0.479   50.978
  629.790   84.180    0.482   47.712
  630.610   88.606    0.493   51.526
  631.430   89.782    0.498   46.898
  632.251   90.507    0.482   50.440
  633.071   90.540    0.474   53.437
  633.891   90.566    0.478   53.166
  634.711   89.903    0.476   54.802
  635.531   88.090    0.484   54.531
  636.352   85.811    0.497   51.810
  637.172   83.760    0.488   49.088
  637.992   83.558    0.494   46.912
  638.812   86.126    0.472   45.824
  639.633   87.779    0.463   48.004
  640.453   87.808    0.467   47.189
  641.273   89.914    0.483   44.195
  642.093   89.478    0.491   44.469
  642.913   89.512    0.493   44.471
  643.734   92.083    0.479   45.289
  644.554   93.725    0.463   43.385
  645.374  102.066    0.451   41.753
  646.194  105.100    0.447   40.121
  647.014  104.440    0.449   40.122
  647.835  103.316    0.445   40.669
  648.655  102.649    0.448   40.943
  649.475  101.524    0.447   40.128
  650.295  101.096    0.439   39.857
  651.115  102.741    0.446   39.858
  651.936  104.851    0.437   40.405
  652.756  105.573    0.449   40.134
  653.576  106.291    0.459   39.591
  654.396  104.708    0.448   39.321
  655.217  102.657    0.416   39.594
  656.037  100.840    0.430   38.779
  656.857   99.484    0.427   41.232
  657.677  101.825    0.440   38.783
  658.497  106.240    0.435   38.240
  659.318  110.892    0.448   37.697
  660.138  109.306    0.450   36.881
  660.958  107.258    0.440   37.156
  661.778  108.207    0.446   37.974
  662.598  113.779    0.452   39.610
  663.419  115.193    0.449   40.428
  664.239  112.918    0.447   40.157
  665.059  113.640    0.443   38.797
  665.879  112.054    0.451   37.710
  666.699  110.929    0.454   37.167
  667.520  111.885    0.452   37.167
  668.340  112.142    0.452   37.171
  669.160  110.559    0.456   37.172
  669.980  109.893    0.453   37.446
  670.801  111.307    0.443   37.175
  671.621  111.571    0.445   37.177
  672.441  111.138    0.438   38.540
  673.261  109.321    0.453   37.180
  674.081  103.588    0.455   35.548
  674.902  102.233    0.459   33.916
  675.722  101.339    0.457   35.007
  676.542  100.899    0.446   35.009
  677.362  100.240    0.433   35.283
  678.182  111.348    0.442   35.556
  679.003  115.300    0.448   36.103
  679.823  115.337    0.426   36.649
  680.643  113.982    0.420   38.012
  681.463  111.938    0.425   39.648
  682.283  111.040    0.421   41.556
  683.104  105.765    0.415   42.919
  683.924  104.175    0.417   44.282
  684.744  105.362    0.416   45.917
  685.564  103.768    0.417   45.647
  686.385  103.801    0.407   44.287
  687.205  104.992    0.416   44.016
  688.025  105.710    0.426   44.562
  688.845  105.051    0.421   44.292
  689.665  107.388    0.404   44.021
  690.486  107.414    0.411   45.112
  691.306  105.370    0.394   47.565
  692.126  103.318    0.382   47.838
  692.946  101.501    0.370   46.751
  693.766  100.611    0.366   47.569
  694.587  102.945    0.370   47.026
  695.407  101.358    0.361   47.845
  696.227   96.310    0.341   51.386
  697.047   91.262    0.308   59.012
  697.867   74.671    0.294   68.272
  698.688   64.541    0.282   75.081
  699.508   52.339    0.256   87.608
  700.328   38.747    0.207  249.082
  701.148   28.160    0.203  262.154
  701.969   27.501    0.188  264.879
  702.789   27.992    0.166  261.885
  703.609   27.787    0.173  259.436
  704.429   28.516    0.183  262.433
  705.249   27.157    0.169  264.340
  706.070   27.648    0.195  265.431
  706.890   29.065    0.193  266.250
  707.710   28.637    0.210  265.435
  708.530   28.435    0.227  262.441
  709.350   29.153    0.235  255.635
  710.171   30.110    0.245  250.736
  710.991   28.989    0.253  252.371
  711.811   28.780    0.216  236.307
  712.631   28.578    0.195  206.901
  713.451   26.765    0.173  139.918
  714.272   26.791    0.145  113.779
  715.092   30.978    0.111  102.072
  715.912   34.931    0.150   89.820
  716.732   48.581    0.231   83.014
  717.552   55.307    0.248   79.476
  718.373   70.111    0.259  126.858
  719.193   61.601    0.246  125.770
  720.013   54.475    0.161  118.964
  720.833   43.885    0.164  154.092
  721.654   34.686    0.172  157.906
  722.474   32.865    0.182  136.669
  723.294   28.971    0.189  152.735
  724.114   27.158    0.209  147.291
  724.934   27.876    0.200  129.321
  725.755   29.759    0.196  124.694
  726.575   31.166    0.177  124.151
  727.395   31.430    0.180  118.979
  728.215   32.617    0.209  112.446
  729.035   34.258    0.216  128.513
  729.856   33.595    0.217  141.857
  730.676   32.247    0.153  142.948
  731.496   31.349    0.158  134.508
  732.316   30.690    0.159  129.336
  733.136   31.177    0.142  130.972
