~VERSION INFORMATION
 VERS.                 2.0:   CWLS LOG ASCII STANDARD -VERSION 2.0
 WRAP.                  NO:   ONE LINE PER DEPTH STEP
~WELL INFORMATION BLOCK
#MNEM.UNIT           DATA                    DESCRIPTION OF MNEMONIC
#---------    -------------------            -------------------------------
# Generated from Intellog Unique Number	CC_88_90/WELL/1077
WELL.         09-09-089-15W4                 : Well_name    - WELL
LOC .         AA/09-09-089-15W4/0            : Location     - LOCATION
UWI .         AA/09-09-089-15W400            : Uwi          - UNIQUE WELL ID
ENTR.         DW                             : Entered      - ENTERED BY
SRVC.         SCHLUMBERGER                   : Scn          - SERVICE COMPANY
STRT.M        70                             : top_depth    - START DEPTH
STOP.M        259.75                         : bot_depth    - STOP DEPTH
STEP.M        0.25                           : increment    - STEP LENGTH
 NULL. -999.2500:NULL Value
~CURVE INFORMATION BLOCK
#MNEM UNIT       ERCB CURVE CODE    CURVE DESCRIPTION
#-----------   ------------------   ----------------------------------
DEPT.M        00 001 00 00         : DEPTH        - DEPTH
GR  .API      00 310 00 00         : GR           - GAMMA RAY
DPHI.V/V      00 890 00 00         : PHID         - DENSITY POROSITY (SANDSTONE)
NPHI.V/V      00 330 00 00         : PHIN         - NEUTRON POROSITY (SANDSTONE)
ILD .OHMM     00 120 00 00         : RESD         - DEEP RESISTIVITY (DIL)
~PARAMETER INFORMATION
#MNEM.UNIT           DATA             DESCRIPTION OF MNEMONIC
#---------         -----------     ------------------------------
GL  .M        505.38               : gl           - GROUND LEVEL ELEVATION
EREF.M        508.58               : kb           - ELEVATION OF DEPTH REFERENCE
DATM.M        508.58               : datum        - DATUM ELEVATION
TDD .M        265                  : tdd          - TOTAL DEPTH DRILLER
RUN .         ONE                  : Run          - RUN NUMBER
ENG .         BILL                 : Engineer     - RECORDING ENGINEER
WIT .         JIM                  : Witness      - WITNESSED BY
MUD .         GEL                  : Mud_type     - MUD TYPE
MATR.         SANDSTONE            : Logunit      - NEUTRON MATRIX
TMAX.C        25                   : BHT          - MAXIMUM RECORDED TEMPERATURE
BHTD.M        265                  : BHTDEP       - MAXIMUM RECORDED TEMPERATURE
MATR.         1                    : LOGUNIT      - NEUTRON MATRIX
RMT .C        25                   : MDTP         - TEMPERATURE OF MUD
NEUT.         1                    : NEUTRON      - NEUTRON TYPE
RESI.         0                    : RESIST       - RESISTIVITY TYPE
RMC .OHMM     0.25                 : RMC          - RESISTIVITY OF MUD CAKE
RMF .OHMM     0.25                 : RMF          - RESISTIVITY OF MUD FILTRATE
SUFT.C        15                   : SUFT         - SURFACE TEMPERATURE
~A  DEPTH       GR     PHID     PHIN     RESD
# ...
  113.500   60.541    0.012    0.183  317.101
  113.750   61.498    0.044    0.182  354.787
  114.000   63.825    0.103    0.207  335.992
  114.250   65.702    0.173    0.268  279.718
  114.500   66.327    0.240    0.318  216.297
  114.750   66.716    0.283    0.361  146.985
  115.000   65.459    0.287    0.433   77.117
  115.250   61.344    0.285    0.441   31.257
  115.500   58.160    0.289    0.439   24.612
  115.750   56.679    0.292    0.452   20.872
  116.000   55.935    0.293    0.468   18.713
  116.250   55.515    0.291    0.480   18.394
  116.500   56.182    0.285    0.484   18.411
  116.750   59.212    0.279    0.475   18.097
  117.000   61.913    0.276    0.457   18.125
  117.250   62.182    0.274    0.438   17.816
  117.500   61.636    0.278    0.443   17.838
  117.750   61.703    0.292    0.465   17.540
  118.000   61.718    0.305    0.466   17.556
  118.250   62.749    0.297    0.451   17.262
  118.500   63.386    0.293    0.435   16.962
  118.750   64.016    0.298    0.443   16.373
  119.000   65.510    0.305    0.466   16.389
  119.250   67.700    0.307    0.476   16.414
  119.500   69.103    0.302    0.466   16.435
  119.750   67.739    0.297    0.462   16.455
  120.000   65.380    0.299    0.461   16.476
  120.250   64.672    0.291    0.454   16.491
  120.500   66.201    0.288    0.460   15.924
  120.750   69.117    0.282    0.470   15.647
  121.000   70.940    0.226    0.455   15.380
  121.250   67.193    0.147    0.448   14.574
  121.500   61.436    0.094    0.305   14.317
  121.750   58.859    0.128    0.252   14.339
  122.000   58.279    0.195    0.329   15.745
  122.250   61.138    0.232    0.380   17.616
  122.500   70.271    0.263    0.405   17.967
  122.750   73.882    0.271    0.438   17.337
  123.000   73.739    0.273    0.458   16.730
  123.250   72.799    0.271    0.462   15.564
  123.500   71.661    0.264    0.456   15.289
  123.750   70.816    0.185    0.470   14.219
  124.000   69.065    0.029    0.454   13.725
  124.250   62.053    0.037    0.245   13.738
  124.500   55.301    0.125    0.220   13.503
  124.750   55.275    0.183    0.292   13.776
  125.000   62.855    0.219    0.336   14.574
  125.250   71.537    0.258    0.389   15.141
  125.500   73.967    0.277    0.437   14.887
  125.750   72.012    0.281    0.449   14.629
  126.000   70.017    0.283    0.449   14.116
  126.250   69.645    0.277    0.454   13.622
  126.500   72.535    0.270    0.481   13.394
  126.750   77.125    0.276    0.504   13.923
  127.000   78.880    0.292    0.493   14.192
  127.250   78.599    0.298    0.503   14.479
  127.500   76.203    0.288    0.512   14.501
  127.750   74.244    0.280    0.501   14.245
  128.000   73.997    0.278    0.477   14.002
  128.250   75.740    0.277    0.450   13.767
  128.500   79.467    0.279    0.427   13.285
  128.750   81.798    0.283    0.435   13.062
  129.000   81.441    0.270    0.449   12.832
  129.250   79.528    0.267    0.446   12.852
  129.500   80.587    0.274    0.432   12.872
  129.750   83.311    0.280    0.424   13.120
  130.000   81.325    0.276    0.422   13.385
  130.250   79.070    0.234    0.420   12.920
  130.500   78.918    0.201    0.433   12.232
  130.750   80.870    0.210    0.470   10.763
  131.000   86.707    0.228    0.512    8.636
  131.250   92.167    0.224    0.541    6.802
  131.500   89.948    0.216    0.562    5.459
  131.750   87.977    0.218    0.579    5.170
  132.000   89.878    0.219    0.559    4.990
  132.250   90.027    0.210    0.537    5.185
  132.500   88.064    0.188    0.533    5.587
  132.750   89.374    0.171    0.502    6.607
  133.000   94.218    0.183    0.439    6.377
  133.250   96.553    0.210    0.440    5.929
  133.500   96.594    0.219    0.466    5.512
  133.750   94.742    0.219    0.483    4.852
  134.000   91.815    0.181    0.495    4.351
  134.250   89.614    0.121    0.510    4.275
  134.500   90.499    0.128    0.524    4.125
  134.750   98.182    0.182    0.535    4.053
  135.000  114.270    0.206    0.544    3.912
  135.250  119.486    0.212    0.561    3.916
  135.500  114.849    0.207    0.570    3.852
  135.750  113.129    0.189    0.560    3.855
  136.000  112.711    0.183    0.560    3.860
  136.250  112.889    0.171    0.584    3.865
  136.500  110.845    0.168    0.597    3.943
  136.750  108.153    0.187    0.594    4.099
  137.000  108.337    0.219    0.596    4.179
  137.250  109.538    0.240    0.586    4.261
  137.500  105.929    0.227    0.542    4.593
  137.750   97.959    0.194    0.522    5.042
  138.000   88.560    0.174    0.455    6.419
  138.250   82.881    0.195    0.428    7.874
  138.500   83.213    0.211    0.452    9.658
  138.750   84.884    0.212    0.462   11.209
  139.000   82.444    0.239    0.465   12.083
  139.250   79.744    0.220    0.461   12.323
  139.500   78.339    0.237    0.455   12.577
  139.750   77.986    0.263    0.433   12.588
  140.000   78.271    0.269    0.407   12.608
  140.250   78.817    0.245    0.398   12.620
  140.500   79.936    0.194    0.400   12.640
  140.750   82.959    0.215    0.420   12.420
  141.000   86.261    0.230    0.445   12.212
  141.250   91.113    0.234    0.467   11.788
  141.500   93.808    0.214    0.462   11.583
  141.750   91.761    0.173    0.438   11.594
  142.000   90.413    0.177    0.432   11.191
  142.250   93.196    0.201    0.428   11.206
  142.500   97.754    0.205    0.440   11.425
  142.750   99.493    0.211    0.458   11.660
  143.000   95.546    0.219    0.460   11.667
  143.250   90.494    0.216    0.449   11.468
  143.500   91.007    0.215    0.443   10.870
  143.750   92.586    0.203    0.440   10.682
  144.000   93.747    0.189    0.441   10.503
  144.250   94.490    0.183    0.439   10.330
  144.500   94.731    0.189    0.434   10.148
  144.750   94.713    0.202    0.436    9.971
  145.000   92.867    0.214    0.454    9.804
  145.250   85.235    0.223    0.474    9.817
  145.500   78.831    0.208    0.480    9.832
  145.750   76.356    0.238    0.478    9.838
  146.000   76.378    0.252    0.468    9.673
  146.250   79.771    0.211    0.465    9.508
  146.500   86.634    0.216    0.482    9.517
  146.750   88.823    0.233    0.473    9.529
  147.000   85.106    0.252    0.458    9.544
  147.250   77.595    0.242    0.464    9.737
  147.500   72.406    0.222    0.471   10.113
  147.750   71.779    0.219    0.452   10.311
  148.000   71.210    0.227    0.436   10.915
  148.250   70.576    0.256    0.452   11.339
  148.500   71.644    0.270    0.437   12.003
  148.750   76.054    0.263    0.427   12.238
  149.000   77.541    0.240    0.446   12.254
  149.250   74.499    0.218    0.470   12.045
  149.500   74.273    0.227    0.499   12.064
  149.750   74.224    0.258    0.529   11.854
  150.000   75.491    0.266    0.453   11.439
  150.250   81.861    0.237    0.420   10.638
  150.500   87.078    0.221    0.460    9.893
  150.750   86.349    0.238    0.490    9.204
  151.000   84.756    0.236    0.511    8.878
  151.250   82.408    0.214    0.489    8.573
  151.500   83.245    0.201    0.469    8.578
  151.750   82.575    0.172    0.482    8.749
  152.000   83.537    0.176    0.486    9.261
  152.250   85.673    0.209    0.460    9.801
  152.500   80.428    0.191    0.445    9.813
  152.750   78.856    0.210    0.440    9.475
  153.000   86.720    0.225    0.456    9.308
  153.250   90.339    0.222    0.476    8.820
  153.500   86.975    0.218    0.461    8.667
  153.750   83.362    0.204    0.438    8.525
  154.000   81.615    0.176    0.459    8.530
  154.250   86.843    0.194    0.452    8.541
  154.500   93.714    0.217    0.443    8.397
  154.750   92.405    0.216    0.454    8.252
  155.000   86.271    0.208    0.477    7.963
  155.250   85.987    0.214    0.491    7.407
  155.500   92.684    0.223    0.485    6.637
  155.750   98.212    0.232    0.469    5.628
  156.000  100.222    0.258    0.501    4.773
  156.250  101.988    0.267    0.560    3.760
  156.500  105.142    0.251    0.601    3.307
  156.750  106.893    0.241    0.621    3.192
