~VERSION INFORMATION
 VERS.                 2.0:   CWLS LOG ASCII STANDARD -VERSION 2.0
 WRAP.                  NO:   ONE LINE PER DEPTH STEP
~WELL INFORMATION BLOCK
#MNEM.UNIT           DATA                    DESCRIPTION OF MNEMONIC
#---------    -------------------            -------------------------------
# Generated from Intellog Unique Number	CN_94_101/WELL/1066
WELL.         09-10-094-07W4                 : Well_name    - WELL
LOC .         AA/09-10-094-07W4/0            : Location     - LOCATION
UWI .         AA/09-10-094-07W400            : Uwi          - UNIQUE WELL ID
ENTR.         JOETTE                         : Entered      - ENTERED BY
SRVC.         WESTERN ATLAS                  : Scn          - SERVICE COMPANY
DATE.         04/12/92                       : Date         - LOG DATE
STRT.M        30.48                          : top_depth    - START DEPTH
STOP.M        246.98                         : bot_depth    - STOP DEPTH
STEP.M        0.25                           : increment    - STEP LENGTH
 NULL. -999.2500:NULL Value
~CURVE INFORMATION BLOCK
#MNEM UNIT       ERCB CURVE CODE    CURVE DESCRIPTION
#-----------   ------------------   ----------------------------------
DEPT.M        00 001 00 00         : DEPTH        - DEPTH
DPHI.V/V      00 890 00 00         : PHID         - DENSITY POROSITY (SANDSTONE)
ILD .OHMM     00 120 00 00         : RESD         - DEEP RESISTIVITY (DIL)
GR  .API      00 310 00 00         : GR           - GAMMA RAY
CALI.MM       00 280 01 00         : CAL          - CALIPER
~PARAMETER INFORMATION
#MNEM.UNIT           DATA             DESCRIPTION OF MNEMONIC
#---------         -----------     ------------------------------
GL  .M        524.134              : gl           - GROUND LEVEL ELEVATION
EREF.M        525.658              : kb           - ELEVATION OF DEPTH REFERENCE
DATM.M        525.658              : datum        - DATUM ELEVATION
TDD .M        249.326              : tdd          - TOTAL DEPTH DRILLER
RUN .         ONE                  : Run          - RUN NUMBER
ENG .         BILL                 : Engineer     - RECORDING ENGINEER
WIT .         JIM                  : Witness      - WITNESSED BY
MUD .         GEL                  : Mud_type     - MUD TYPE
MATR.         SANDSTONE            : Logunit      - NEUTRON MATRIX
TMAX.C        7.77778              : BHT          - MAXIMUM RECORDED TEMPERATURE
BHTD.M        249.326              : BHTDEP       - MAXIMUM RECORDED TEMPERATURE
RMT .C        5.55556              : MDTP         - TEMPERATURE OF MUD
MUDD.KG/M     1100                 : MWT          - MUD DENSITY
NEUT.         1                    : NEUTRON      - NEUTRON TYPE
RESI.         0                    : RESIST       - RESISTIVITY TYPE
RM  .OHMM     9                    : RM           - RESISTIVITY OF MUD
RMC .OHMM     9                    : RMC          - RESISTIVITY OF MUD CAKE
RMF .OHMM     9                    : RMF          - RESISTIVITY OF MUD FILTRATE
SUFT.C        -15                  : SUFT         - SURFACE TEMPERATURE
~A  DEPTH     PHID     RESD       GR      CAL
# ...
  160.980    0.308    4.727   99.807  177.043
  161.230    0.303    4.728   97.993  177.992
  161.480    0.297    4.803  101.537  177.957
  161.730    0.291    4.957   99.724  177.898
  161.980    0.282    5.534   90.759  177.862
  162.230    0.272    6.277   87.755  177.792
  162.480    0.267    7.462   88.322  178.764
  162.730    0.261    8.597   88.890  178.694
  162.980    0.257   10.061   88.855  178.670
  163.230    0.257   11.057   88.239  178.623
  163.480    0.261   12.152   87.013  177.568
  163.730    0.268   12.543   86.397  176.489
  163.980    0.263   13.150   85.767  176.442
  164.230    0.249   14.681   84.542  176.395
  164.480    0.176   18.878   81.544  177.344
  164.730    0.134   22.093   76.754  177.320
  164.980    0.034   25.057   70.759  177.262
  165.230    0.079   25.061   73.715  177.203
  165.480    0.228   22.457   79.038  177.167
  165.730    0.248   21.093   80.796  177.120
  165.980    0.263   19.503   81.959  176.053
  166.230    0.272   18.607   81.938  173.978
  166.480    0.276   17.205   82.505  172.947
  166.730    0.274   16.160   83.073  168.832
  166.980    0.272   14.480   83.038  168.808
  167.230    0.266   13.390   83.605  168.761
  167.480    0.257   12.977   84.173  169.722
  167.730    0.256   12.578   85.329  171.691
  167.980    0.257   12.192   85.903  174.668
  168.230    0.260   11.816   87.059  178.653
  168.480    0.259   11.634   87.626  182.615
  168.730    0.259   11.454   89.378  183.564
  168.980    0.259   11.278   91.738  183.529
  169.230    0.259   11.104   94.680  183.482
  169.480    0.262   10.763   98.224  183.435
  169.730    0.257   10.597  100.577  184.372
  169.980    0.251   10.599   98.175  184.337
  170.230    0.245   10.939   96.355  184.301
  170.480    0.247   11.469   96.327  185.239
  170.730    0.252   11.471   96.299  186.211
  170.980    0.264   11.473   92.104  186.176
  171.230    0.277   10.947   87.902  186.117
  171.480    0.279   10.611   86.690  186.058
  171.730    0.280   10.284   88.442  186.011
  171.980    0.280    9.967   90.193  185.952
  172.230    0.280    9.363   92.546  185.917
  172.480    0.280    9.218   94.906  186.866
  172.730    0.279    8.934   97.260  186.842
  172.980    0.274    8.659   97.827  186.772
  173.230    0.271    8.393   97.204  186.748
  173.480    0.269    8.263   95.986  187.697
  173.730    0.286    8.265   94.760  187.639
  173.980    0.295    8.138   92.344  186.583
  174.230    0.288    8.139   91.728  186.524
  174.480    0.267    8.140   89.319  185.493
  174.730    0.269    8.142   91.666  184.426
  174.980    0.270    8.143   93.424  184.367
  175.230    0.272    8.405   89.222  184.332
  175.480    0.273    8.539   88.599  184.284
  175.730    0.271    8.813   91.554  184.237
  175.980    0.265    8.955   93.312  184.178
  176.230    0.265    9.098   95.652  184.143
  176.480    0.261    9.539   96.233  184.072
  176.730    0.255    9.845   96.794  184.037
  176.980    0.245   10.485   97.361  183.978
  177.230    0.240   11.344   98.524  183.943
  177.480    0.240   11.893  100.282  182.888
  177.730    0.237   12.469   97.278  184.857
  177.980    0.232   13.281   95.457  183.790
  178.230    0.235   14.144   92.460  182.735
  178.480    0.240   14.830   88.251  181.679
  178.730    0.241   14.601   87.635  180.624
  178.980    0.241   14.153   85.814  180.577
  179.230    0.238   13.934   85.191  180.530
  179.480    0.228   13.720   84.567  180.471
  179.730    0.220   13.721   83.937  182.405
  179.980    0.211   14.386   83.910  183.389
  180.230    0.196   15.811   84.477  183.342
  180.480    0.161   16.839   85.045  183.307
  180.730    0.195   13.948   85.619  183.248
  180.980    0.261   11.022   86.782  183.212
  181.230    0.305    8.574   86.754  184.150
  181.480    0.323    7.329   83.736  184.115
  181.730    0.319    6.265   81.334  184.056
  181.980    0.311    5.440   78.924  185.005
  182.230    0.300    5.190   81.873  184.981
  182.480    0.295    5.442   84.227  184.922
  182.730    0.288    5.705   83.008  184.887
  182.980    0.277    6.270   82.973  184.805
  183.230    0.270    6.678   82.946  184.769
  183.480    0.261    7.112   84.108  183.702
  183.730    0.257    7.817   85.867  183.679
  183.980    0.253    8.727   89.411  183.620
  184.230    0.248    9.150   91.162  183.573
  184.480    0.247    9.296   91.736  183.514
  184.730    0.249    9.445   92.297  183.455
  184.980    0.250    9.446   88.697  183.431
  185.230    0.243    9.301   89.860  183.384
  185.480    0.236    9.450   84.474  183.337
  185.730    0.233    9.754   82.065  183.278
  185.980    0.236   10.067   85.007  183.231
  186.230    0.244   10.069   87.956  183.184
  186.480    0.264   10.070   92.088  182.129
  186.730    0.276    9.459   89.679  182.058
  186.980    0.275    9.167   88.467  182.023
  187.230    0.271    8.476   87.844  181.987
  187.480    0.268    8.216   89.000  181.940
  187.730    0.263    8.217   90.765  183.897
  187.980    0.252    8.481   88.349  183.850
  188.230    0.241    8.482   90.107  184.811
  188.480    0.239    8.221   93.042  184.752
  188.730    0.271    7.602   94.807  184.717
  188.980    0.283    7.368   95.382  184.717
  189.230    0.283    7.030   94.758  182.571
  189.480    0.281    7.371   95.921  182.536
  189.730    0.278    7.974   95.277  182.477
  189.980    0.274    8.360   94.059  182.454
  190.230    0.267    9.045   92.252  181.387
  190.480    0.260    9.634   89.843  181.328
  190.730    0.251   10.756   86.846  181.304
  190.980    0.249   11.100   85.018  181.245
  191.230    0.245   11.278   84.983  181.198
  191.480    0.243   11.105   84.962  181.151
  191.730    0.241   11.107   84.346  180.096
  191.980    0.240   12.207   83.723  180.037
  192.230    0.242   13.206   82.504  178.970
  192.480    0.242   14.287   78.898  177.927
  192.730    0.224   15.703   72.917  176.860
  192.980    0.099   16.206   65.150  176.812
  193.230   -0.022   16.209   60.955  175.757
  193.480    0.024   15.224   62.706  173.682
  193.730    0.119   14.079   66.845  172.651
  193.980    0.262   13.861   72.175  168.536
  194.230    0.268   13.863   74.529  165.488
  194.480    0.265   14.085   71.524  163.425
  194.730    0.262   14.538   70.901  161.362
  194.980    0.261   15.241   71.455  159.298
  195.230    0.262   17.837   72.624  157.211
  195.480    0.267   19.914   74.369  156.144
  195.730    0.280   19.916   76.134  157.129
  195.980    0.294   19.305   79.076  157.070
  196.230    0.307   18.419   82.031  160.059
  196.480    0.315   18.422   84.987  164.044
  196.730    0.313   19.013   88.524  171.053
  196.980    0.304   20.572   85.527  172.003
  197.230    0.283   21.231   79.539  170.936
  197.480    0.232   22.260   79.504  169.881
  197.730    0.228   22.615   76.507  170.841
  197.980    0.229   23.712   74.097  165.754
  198.230    0.234   23.715   72.879  159.658
  198.480    0.240   23.352   71.647  157.595
  198.730    0.250   22.991   75.198  157.536
  198.980    0.261   21.937   79.932  159.505
  199.230    0.263   21.261   84.667  166.526
  199.480    0.237   19.051   88.806  173.536
  199.730    0.223   17.616   92.350  176.513
  199.980    0.218   16.807   95.299  177.474
  200.230    0.219   15.787   97.050  179.431
  200.480    0.226   15.543   98.213  178.376
  200.730    0.227   15.303   98.788  177.321
  200.980    0.225   15.068   98.746  177.274
  201.230    0.223   15.070   97.527  178.235
  201.480    0.222   14.837   96.904  179.184
  201.730    0.224   14.840   96.870  180.145
  201.980    0.232   14.843   96.856  182.102
  202.230    0.231   14.845   96.814  183.063
  202.480    0.230   14.848   96.786  183.028
  202.730    0.227   14.619   96.765  182.957
  202.980    0.223   14.854   97.333  182.933
  203.230    0.223   15.091   96.710  182.874
  203.480    0.222   15.333   96.682  182.815
  203.730    0.223   15.825   98.440  182.780
  203.980    0.220   16.333   94.238  182.721
  204.230    0.217   17.125   91.822  183.694
