~Version Information Block
VERS .                 2.00:  CWLS LOG ASCII STANDARD - VERSION 2.00
WRAP .                   NO:  One line per depth step
~Well Information Block
#MNEM.UNIT        Data Type   Information
#---------- ----------------  -----------
STRT .M                 6.1:  START DEPTH
STOP .M                73.6:  STOP DEPTH
STEP .M                 0.3:  STEP
NULL .              -999.25:  NULL VALUE
COMP . SYNCRUDE CANADA LTD :  COMPANY
WELL . MILDRED OV PROGRAM  :  WELL
FLD  . TAR SANDS           :  FIELD
LOC  . 07-16-094-11W4      :  LOCATION
PROV . ALBERTA             :  PROVINCE
SRVC . SCHLUMBERGER        :  SERVICE COMPANY
DATE . 11 JAN 76           :  LOG DATE
UWI  . AA/07-16-094-11W400 :  UNIQUE WELL ID
~Curve Information Block
#MNEM.UNIT         API CODE   Curve Description
#---------- ----------------  -----------------
DEPTH.M                    :  Transferred from LOGMATE/ESP.
GR   .API                  :  Rescaled GR over 6.1-73.6, from -75-45 Log
RHOB .KG/M3                 :  Graphically editted DENS.  Editted.  Edit
RT   .OHMM                 :  Loaded from 920923.083226  Depthmatched.
~Parameter Information Block
#MNEM.UNIT            Value   Description
#---------- ----------------  -----------
PROJECT.            MOS_94_11:
SET  .                  RAW:
~A        DEPTH             GR           RHOB             RT
         6.1000       101.8000      2105.8999      -999.2500
         6.4000       104.9500      2140.8000      -999.2500
         6.7000        98.1500      2131.8000       153.1769
         7.0000        97.1089      2094.3000      1218.2822
         7.3000        98.4064      2114.6001      1243.2637
         7.6000        99.1631      2123.3000       318.6165
         7.9000        98.3154      2151.0000      1328.2604
         8.2000       101.0600      2184.7000      1666.3274
         8.5000       100.2157      2300.5000       322.2463
         8.8000        85.2374      2308.5000       235.0026
         9.1000        81.8575      2003.1000       265.7784
         9.4000        79.0920      1998.7000       429.1794
         9.7000        81.5742      1996.4000      1720.2471
        10.0000        89.9911      2098.8999      1576.1804
        10.3000       114.0700      1988.8000      1137.2429
        10.6000       120.4700      1986.3000      1069.1514
        10.9000       115.5500      1987.6000      1487.7964
        11.2000       105.3500      2051.5000      1498.6565
        11.5000       110.1000      2112.0000      1499.5516
        11.8000       114.4300      2209.3999      1047.2456
        12.1000       108.7700      2243.6001        15.6597
        12.4000       111.2900      2185.1001        45.5961
        12.7000       108.4100      2135.8999       225.9245
        13.0000       102.5100      2156.2000      1308.1586
        13.3000       104.2500      2185.8999      1302.4114
        13.6000       108.1500      2288.1001        67.9701
        13.9000       123.7500      2333.7000       128.5729
        14.2000       127.6100      2111.3000       593.4867
        14.5000       128.0200      2147.5000      1499.8317
        14.8000       121.5700      2128.7000      1471.6036
        15.1000       121.2000      2102.7000      1386.9962
        15.4000       122.4300      2111.3000       898.2213
        15.7000       124.6000      2150.3999       180.5583
        16.0000       129.6300      2135.8000       738.7392
        16.3000       128.9400      2181.0000       680.4399
        16.6000       128.4900      2167.0000      1093.0181
        16.9000       127.9200      2157.3000       906.1334
        17.2000       125.9400      2183.1001       914.7162
        17.5000       128.8600      2177.3000       895.7676
        17.8000       129.2300      2166.3999        83.2308
        18.1000       129.1300      2212.2000        24.8025
        18.4000       137.8400      2178.3000        11.5347
        18.7000       129.9800      2141.0000        14.1544
        19.0000       129.8100      2159.1001        58.9019
        19.3000       128.8800      2171.0000        71.8194
        19.6000       130.3100      2215.0000        51.9893
        19.9000       118.7700      2221.6001       110.2919
        20.2000       109.5500      2241.7000       435.1214
        20.5000       103.0200      2348.1001      1195.1597
        20.8000        99.3943      2402.6001       354.3705
        21.1000       100.9706      2352.4678        78.1606
        21.4000        85.0682      2352.4678        80.6323
        21.7000        61.2145      2352.4678        65.8274
        22.0000        58.2948      2352.4678       202.1315
        22.3000        58.8517      2352.4678       282.9162
        22.6000        56.1258      2352.4678      1571.6986
        22.9000        62.6181      2352.4678      1292.6156
        23.2000        69.4926      2352.4678       401.6286
        23.5000        67.1009      2352.4678       331.6028
        23.8000        73.3962      2352.4678       870.4247
        24.1000        81.3833      2352.4678       568.6486
        24.4000        94.8233      2352.4678       284.9011
        24.7000       101.4201      2352.4678       311.8221
        25.0000        86.2716      2352.4678      1227.3059
        25.3000        71.1503      2352.4678      1188.9490
        25.6000        66.5580      2352.4678      1513.9088
        25.9000        60.1066      2352.4678      1493.4359
        26.2000        55.9415      2352.4678      1472.4053
        26.5000        60.9200      2352.4678      1442.3704
        26.8000        62.6767      2352.4678       988.9647
        27.1000        67.5035      2352.4678       126.9122
        27.4000        73.7161      2352.4678        13.1094
        27.7000        85.9362      2243.7109        11.4713
        28.0000        86.5717      2203.4104         6.9039
        28.3000        87.1479      2171.3000         7.1598
        28.6000        87.7907      2267.2000         6.5819
        28.9000        88.2526      2372.0000        10.5903
        29.2000        92.0995      2117.5000         7.3203
        29.5000        99.3235      2149.8999         5.7561
        29.8000       106.8900      2153.5000         7.3805
        30.1000       115.1700      2219.0000         5.4617
        30.4000       116.4800      2213.3999         4.4666
        30.7000       115.8300      2201.2275         4.4956
        31.0000       106.6000      2201.2275         6.2578
        31.3000        94.9305      2201.2275        25.3148
        31.6000        85.9527      2201.2275        42.3100
        31.9000        96.1892      2201.2275        17.0804
        32.2000        90.6281      2201.2275        46.9759
        32.5000        82.3150      2201.2275        88.1664
        32.8000        79.4475      2201.2275        48.2570
        33.1000        78.6893      2201.2275        65.1670
        33.4000        81.3129      2201.2275        24.0051
        33.7000        77.5038      2194.3235        28.9599
        34.0000        73.4922      2145.1204        30.1018
        34.3000        74.4236      2121.2000        31.4453
        34.6000        74.9072      2110.7000        68.6659
        34.9000        80.4949      2160.1001        18.7603
        35.2000        84.1871      2154.1001        35.5367
        35.5000        84.3368      2182.6001        25.3531
        35.8000        82.0824      2123.8999        40.3040
        36.1000        87.4234      2138.5000        28.1871
        36.4000        88.5807      2165.5000        30.4960
        36.7000        85.8103      2194.3999        20.5985
        37.0000        79.0067      2221.6001        19.4316
        37.3000        69.5728      2203.0000        19.4100
        37.6000        69.0100      2180.6001        18.6079
        37.9000        77.2452      2154.0000        34.3171
        38.2000        88.0939      2190.0000        17.6442
        38.5000        89.2099      2184.6001        22.3283
        38.8000        89.1071      2273.0000        52.8025
        39.1000        81.9956      2662.3000       274.3440
        39.4000       100.8848      2651.6001        81.1128
        39.7000       108.2400      2274.8000        19.1550
        40.0000       111.5900      2234.1001        19.9119
        40.3000       110.0400      2228.1001        19.5960
        40.6000       101.4349      2200.8000        18.4010
        40.9000        88.2660      2169.5000        29.4684
        41.2000        84.8217      2127.8000       109.9362
        41.5000        84.8624      2146.7000        35.8801
        41.8000        94.7605      2169.8000        53.0941
        42.1000       104.3800      2207.5000        28.8636
        42.4000       109.4100      2231.3000        17.9262
        42.7000       104.8100      2241.6001        15.7809
        43.0000       108.4300      2184.7000        21.6629
        43.3000       108.2100      2224.8000        17.6350
        43.6000       110.5400      2233.5000        17.6518
        43.9000       109.5800      2265.3999        12.9942
        44.2000       113.5100      2268.8000        17.1756
        44.5000       110.9100      2247.3000        18.4832
        44.8000       114.6000      2216.2000        18.0635
        45.1000       117.7200      2236.3000        16.4232
        45.4000       113.2300      2259.0000        16.2208
