~VERSION INFORMATION
 VERS.                 2.0:   CWLS LOG ASCII STANDARD -VERSION 2.0
 WRAP.                  NO:   ONE LINE PER DEPTH STEP
~WELL INFORMATION BLOCK
#MNEM.UNIT           DATA                    DESCRIPTION OF MNEMONIC
#---------    -------------------            -------------------------------
# Generated from Intellog Unique Number	CN_91_93/WELL/3656
WELL.         03-36-093-09W4                 : Well_name    - WELL
LOC .         AA/03-36-093-09W4/0            : Location     - LOCATION
UWI .         AA/03-36-093-09W400            : Uwi          - UNIQUE WELL ID
ENTR.         JOETTE                         : Entered      - ENTERED BY
SRVC.         SCHLUMBERGER                   : Scn          - SERVICE COMPANY
DATE.         03/20/92                       : Date         - LOG DATE
STRT.M        0                              : top_depth    - START DEPTH
STOP.M        150                            : bot_depth    - STOP DEPTH
STEP.M        0.25                           : increment    - STEP LENGTH
 NULL. -999.2500:NULL Value
~CURVE INFORMATION BLOCK
#MNEM UNIT       ERCB CURVE CODE    CURVE DESCRIPTION
#-----------   ------------------   ----------------------------------
DEPT.M        00 001 00 00         : DEPTH        - DEPTH
CALI.MM       00 280 01 00         : CAL          - CALIPER
GR  .API      00 310 00 00         : GR           - GAMMA RAY
ILD .OHMM     00 120 00 00         : RESD         - DEEP RESISTIVITY (DIL)
NPHI.V/V      00 330 00 00         : PHIN         - NEUTRON POROSITY (SANDSTONE)
DPHI.V/V      00 890 00 00         : PHID         - DENSITY POROSITY (SANDSTONE)
~PARAMETER INFORMATION
#MNEM.UNIT           DATA             DESCRIPTION OF MNEMONIC
#---------         -----------     ------------------------------
GL  .M        355.36               : gl           - GROUND LEVEL ELEVATION
EREF.M        355.36               : kb           - ELEVATION OF DEPTH REFERENCE
DATM.M        355.36               : datum        - DATUM ELEVATION
TDD .M        152.7                : tdd          - TOTAL DEPTH DRILLER
RUN .         ONE                  : Run          - RUN NUMBER
ENG .         JO                   : Engineer     - RECORDING ENGINEER
WIT .         TIM                  : Witness      - WITNESSED BY
MUD .         GEL                  : Mud_type     - MUD TYPE
MATR.         SANDSTONE            : Logunit      - NEUTRON MATRIX
TMAX.C        7                    : BHT          - MAXIMUM RECORDED TEMPERATURE
BHTD.M        152.7                : BHTDEP       - MAXIMUM RECORDED TEMPERATURE
RMT .C        4.3                  : MDTP         - TEMPERATURE OF MUD
MUDD.KG/M     1000                 : MWT          - MUD DENSITY
NEUT.         1                    : NEUTRON      - NEUTRON TYPE
RESI.         0                    : RESIST       - RESISTIVITY TYPE
RM  .OHMM     25.2                 : RM           - RESISTIVITY OF MUD
RMC .OHMM     25.2                 : RMC          - RESISTIVITY OF MUD CAKE
RMF .OHMM     25.2                 : RMF          - RESISTIVITY OF MUD FILTRATE
SUFT.C        4                    : SUFT         - SURFACE TEMPERATURE
~A  DEPTH      CAL       GR     RESD     PHIN     PHID
    0.000   98.719   18.427    0.000    0.447    0.268
    0.250   98.729   22.603    0.000    0.450    0.275
    0.500   98.735   26.178    0.000    0.454    0.297
    0.750   99.141   31.542    0.000    0.457    0.305
    1.000   99.543   28.579    0.000    0.468    0.310
    1.250   99.551   23.836    0.000    0.468    0.317
    1.500   99.956   20.285    0.000    0.468    0.330
    1.750  100.360   18.515    0.000    0.571    0.351
    2.000  100.764   20.309    0.000    0.642    0.366
    2.250  101.170   23.290    0.000    0.610    0.390
    2.500  101.573   31.626    0.000    0.553    0.327
    2.750  101.583   25.103    0.000    0.491    0.251
    3.000  101.595   24.518    0.000    0.439    0.169
    3.250  101.599   24.533    0.000    0.426    0.117
    3.500  101.611   29.297    0.000    0.379    0.069
    3.750  101.617   38.224    0.000    0.398    0.040
    4.000  101.230   42.990    0.000    0.367   -0.004
    4.250  101.237   40.031    0.000    0.320   -0.003
    4.500  101.247   35.288    0.000    0.334   -0.022
    4.750  101.253   37.083    0.000    0.394    0.026
    5.000  100.862   37.095    0.000    0.387    0.043
    5.250  100.478   37.702    0.000    0.400    0.015
    5.500  100.484   33.553    0.000    0.375    0.002
    5.750  100.490   21.679    0.000    0.392    0.018
    6.000  100.106   24.071    0.000    0.370    0.041
    6.250  100.116   32.998    0.000    0.345    0.034
    6.500  100.122   34.793    0.000    0.339   -0.000
    6.750  100.528   43.126    0.000    0.461    0.075
    7.000  100.532   49.675    0.000    0.536    0.128
    7.250  100.938   66.923    0.000    0.583    0.155
    7.500  101.343   64.558    0.000    0.609    0.189
    7.750  102.145   64.570    0.000    0.629    0.221
    8.000  102.149   59.833    0.000    0.650    0.230
    8.250  102.553   55.682    0.000    0.605    0.099
    8.500  102.960   61.637    0.000    0.569    0.087
    8.750  102.966   56.300    0.000    0.557    0.100
    9.000  102.976   64.633    0.000    0.594    0.105
    9.250  102.986   70.588    0.000    0.519    0.117
    9.500  102.996   60.496    0.000    0.549    0.136
    9.750  102.604   57.537    0.000    0.581    0.153
   10.000  102.614   61.115    0.000    0.556    0.146
   10.250  102.225   59.938    0.000    0.442    0.158
   10.500  101.839   65.302    0.000    0.432    0.284
   10.750  101.843   70.066    0.000    0.473    0.331
   11.000  101.851   65.918    0.000    0.479    0.193
   11.250  102.656   67.121    0.000    0.520    0.106
   11.500  103.058   57.030    0.000    0.536    0.062
   11.750  103.858   48.127    0.000    0.491    0.011
   12.000  104.661   42.790    0.000    0.443   -0.035
   12.250  106.648   43.396    0.000    0.394    0.003
   12.500  109.828   46.380    0.000    0.565    0.065
   12.750  113.796   68.977    0.000    0.579    0.157
   13.000  120.936   92.168   10.802    0.504    0.153
   13.250  137.585   95.746    7.129    0.532    0.143
   13.500  134.027   88.031    9.450    0.558    0.145
   13.750  116.602   93.395   12.064    0.540    0.292
   14.000  111.461   94.599   10.564    0.514    0.283
   14.250  111.071  105.900    9.246    0.512    0.270
   14.500  110.682   91.648    9.069    0.516    0.232
   14.750  111.881   76.802   15.074    0.509    0.188
   15.000  113.474   85.729   26.018    0.326    0.133
   15.250  115.067   96.439   17.168    0.442    0.202
   15.500  117.454  101.800   16.832    0.511    0.239
   15.750  119.049  108.350    7.476    0.476    0.286
   16.000  120.242   98.852    7.904    0.503    0.284
   16.250  121.438   92.921    8.201    0.525    0.294
   16.500  122.635  100.065    7.182    0.516    0.290
   16.750  123.836  104.243    8.188    0.508    0.274
   17.000  124.238   98.309    7.170    0.536    0.278
   17.250  124.640   97.136    5.606    0.581    0.292
   17.500  125.044   94.176    2.736    0.500    0.282
   17.750  126.245  103.100    2.535    0.557    0.256
   18.000  127.048  106.678    4.058    0.501    0.266
   18.250  127.448   97.181    5.180    0.513    0.280
   18.500  127.854  110.268    4.622    0.523    0.286
   18.750  127.866  102.554    3.167    0.621    0.294
   19.000  127.872   91.868    2.881    0.586    0.303
   19.250  127.878  104.361    3.475    0.564    0.299
   19.500  127.888   94.864    2.426    0.538    0.318
   19.750  127.496   89.526    1.897    0.516    0.327
   20.000  127.112  114.503    1.097    0.504    0.304
   20.250  126.722  109.761    0.389    0.524    0.291
   20.500  126.333  101.452    2.464    0.527    0.278
   20.750  125.551  110.974    3.087    0.537    0.286
   21.000  125.159  113.363    2.603    0.516    0.296
   21.250  123.588  106.243    1.319    0.612    0.295
   21.500  122.799   99.123    0.609    0.625    0.268
   21.750  121.621  105.673    0.467    0.489    0.229
   22.000  121.231  117.571   10.079    0.553    0.174
   22.250  120.844  116.989    5.304    0.528    0.259
   22.500  120.850  106.897    2.688    0.535    0.305
   22.750  121.257  104.532    1.129    0.522    0.299
   23.000  121.659  112.868    0.371    0.454    0.285
   23.250  123.252   99.805    1.106    0.504    0.277
   23.500  126.033   84.958    1.064    0.574    0.263
   23.750  124.459   96.857    2.728    0.558    0.267
   24.000  122.483   94.492    1.331    0.516    0.282
   24.250  119.718  102.230    1.408    0.445    0.282
   24.500  118.539  112.349    1.516    0.454    0.275
   24.750  117.755  112.358    1.121    0.462    0.264
   25.000  116.574  112.370    3.742    0.423    0.242
   25.250  113.809  123.080    3.881    0.474    0.177
   25.500  110.251   86.243    3.880    0.395    0.126
   25.750  113.032   82.689   21.149    0.466    0.177
   26.000  117.799  105.880    9.218    0.510    0.280
   26.250  117.011   98.763    5.970    0.490    0.266
   26.500  114.245  105.907    4.666    0.438    0.258
   26.750  116.234  105.919    6.800    0.418    0.265
   27.000  117.037   95.233    4.659    0.517    0.275
   27.250  115.061   86.330    2.746    0.563    0.300
   27.500  113.485   89.314    0.286    0.659    0.356
   27.750  113.096   89.920    0.211    0.608    0.362
   28.000  112.316   75.074    0.302    0.601    0.360
   28.250  112.322   82.218    0.274    0.625    0.371
   28.500  111.936   91.740    0.227    0.587    0.377
   28.750  111.944   95.317    0.377    0.551    0.364
   29.000  112.744   88.795    0.519    0.596    0.335
   29.250  113.543   77.512    0.324    0.599    0.316
   29.500  114.343  101.300    0.481    0.519    0.300
   29.750  113.165  104.878    0.300    0.554    0.287
   30.000  113.171  104.296    0.161    0.537    0.267
   30.250  115.952  103.713    2.768    0.466    0.275
   30.500  113.979   98.376    3.469    0.541    0.288
   30.750  114.383   89.473    1.512    0.581    0.327
   31.000  116.769   88.894    0.724    0.573    0.360
   31.250  111.628   82.960    2.759    0.498    0.322
   31.500  108.466   76.434    3.798    0.407    0.276
   31.750  119.172   66.343    6.434    0.359    0.166
   32.000  121.161   81.213    5.962    0.460    0.225
   32.250  119.982  108.564    3.258    0.462    0.337
   32.500  118.007  116.900    2.747    0.469    0.355
   32.750  113.657  109.780    1.341    0.503    0.345
   33.000  112.082   96.717    0.574    0.624    0.338
   33.250  111.296   90.194    2.185    0.615    0.443
   33.500  112.889   89.612    1.312    0.602    0.486
   33.750  117.257   94.970    0.583    0.592    0.415
   34.000  117.661  105.088    0.385    0.612    0.287
   34.250  116.084  102.720    1.064    0.501    0.290
   34.500  114.111   93.817    1.024    0.512    0.292
   34.750  111.742   86.697    0.490    0.540    0.278
   35.000  112.146   83.738    0.226    0.472    0.188
   35.250  113.343  104.551    0.784    0.503    0.235
   35.500  114.540  109.318    0.489    0.485    0.280
   35.750  115.340  104.578    0.288    0.509    0.301
   36.000  115.744  100.430    0.488    0.519    0.294
   36.250  115.752   98.659    0.506    0.587    0.303
