~Version : LASO    vs 4.00
VERS.                2.00:   CWLS Log ASCII Standard -VERSION 2.0
WRAP.                  NO:
~Well Information Block
#MNEM.UNIT       Data                        Description of Mnemonic
#----.----      -------------------------- : -----------------------------
STRT.M            15.0000:
STOP.M           186.3750:
STEP.M             0.1250:
NULL.           -999.2500:
COMP.  MOBIL OIL OF CANADA                :COMPANY
WELL.  MOBIL CLARKE OV 2-19               :WELL
FLD.                                      :FIELD
LOC.   02-19-090-07W4                     :LOCATION
CTRY.  CANADA                             :COUNTRY
PROV.  ALBERTA                            :PROVINCE
SRVC.  DRESSER ATLAS                      :SERVICE COMPANY
DATE.  24-FEB-81                          :LOG DATE
UWI.   AA/02-19-090-07W400                :UNIQUE WELL ID
~Parameter Information Block
#MNEM.UNIT       Data                        Description of Mnemonic
#----.----      -------------------------- : -----------------------------
RUN .                   1                 : Run Number
GL  .M           444.6000                 : Ground Level Elevation
DREF.                  KB                 : Depth Reference
EREF.M           444.6000                 : Elevation of Depth Reference
TDL .M           186.3000                 : Total Depth Logger
TDD .M           185.0000                 : Total Depth Driller
CSGL.M            14.7000                 : Casing Bottom Logger
CSGD.M            14.7000                 : Casing Bottom Driller
CSGS.MM          219.0000                 : Casing Size
CSGW.KG/M          0.0000                 : Casing Weight
BHT .DEGC         20.0000                 : Bottom Hole Temperature
BS  .MM          159.0000                 : Bit Size
DFD .           9999.0000                 : Mud Weight (Density)
DFV .             90.0000                 : Mud Viscosity
RM  .OHMM          2.5000                 : Mud Resistivity
RMT .DEGC         20.0000                 : Mud Resistivity Temperature
~Curve Information Block
#MNEM.UNIT        API CODE    Curve Description
#---------    ------------    -------------------------------------------
DEPT.M                    :   DEPTH
CALI.MM       42 280  1  1:   3 DENSITY CALIPER
DPHI.V/V                  :   DPHI
DT  .US/M     60 520 32  1:   2 SONIC INTERVAL TRANSIT TIME (COMPENSATED)
GR  .GAPI     42 310  1  1:   4 GAMMA RAY
ILD .OHMM      5 120 45  1:   7 DEEP INDUCTION
NPHI.V/V      42 890  3  1:   5 NEUTRON POROSITY (SANDSTONE)
RHOB.K/M3     42 350  1  1:   6 BULK DENSITY
SN  .OHMM      5  40 16  1:   8 SHORT NORMAL
SP  .MV        5  10  1  1:   9 SPONTANEOUS POTENTIAL
~A  Depth           CALI        DPHI          DT          GR         ILD        NPHI        RHOB          SN          SP
# ...
140.6250        188.3000      0.3073    451.9600     57.1200     37.1050      0.3863   2123.2000     39.4050    -59.2200
140.7500        188.0000      0.3091    467.2800     59.3400     35.9400      0.3859   2126.3000     45.7450    -63.0450
140.8750        188.3000      0.3135    449.8000     60.5400     35.1650      0.3856   2135.3999     59.6000    -65.1150
141.0000        188.0000      0.3158    426.1200     61.6500     34.5850      0.3848   2146.3999     85.1500    -68.1150
141.1250        187.1000      0.3136    415.6000     68.9250     34.3900      0.3803   2176.3000     86.4000    -72.4950
141.2500        185.6000      0.3110    418.2400     71.4150     34.9700      0.3811   2193.3000     84.2500    -76.8900
141.3750        185.3000      0.3004    417.0400     70.6050     36.5200      0.3856   2195.8000     99.9500    -78.1650
141.5000        185.0000      0.2895    412.9600     68.9100     36.9100      0.3837   2189.1001    102.8000    -75.8100
141.6250        184.4000      0.2817    408.6800     67.8600     38.2000      0.3811   2175.7000     77.9000    -71.2350
141.7500        182.5750      0.2800    408.2000     66.7950     40.1350      0.3766   2144.0000     46.9050    -69.8550
141.8750        182.8750      0.2795    413.6800     66.8850     41.0400      0.3724   2123.2000     47.3300    -69.8850
142.0000        183.4750      0.2802    415.3600     67.0050     41.8150      0.3743   2118.3000     53.9999    -74.2050
142.1250        185.3000      0.2821    415.6000     69.5100     42.1400      0.3781   2125.1001     66.6500    -77.3550
142.2500        187.1000      0.2857    414.1600     72.0150     43.1700      0.3796   2132.3999    107.2000    -78.6600
142.3750        188.0000      0.2919    410.0800     73.3650     44.5300      0.3803   2143.3000    128.0500    -82.5750
142.5000        188.3000      0.3001    409.4000     72.6150     47.7550      0.3829   2156.8000    158.5500    -87.4350
142.6250        188.3000      0.3085    409.6400     67.3350     51.1500      0.3889   2169.0000    179.2500    -91.2000
142.7500        187.4000      0.3055    410.8000     64.4400     53.5000      0.3957   2174.3999    183.5500    -92.4600
142.8750        187.1000      0.2998    412.0000     59.4000     55.8500      0.3994   2160.3999    168.9000    -93.8700
143.0000        187.1000      0.2975    408.6800     53.4750     57.0500      0.4066   2148.8000    137.8000    -94.9050
143.1250        187.4000      0.2950    407.0000     48.1500     56.9500      0.4047   2145.2000    109.7500    -94.0650
143.2500        187.7000      0.2962    407.0000     44.4750     54.6500      0.4084   2133.0000    113.4000    -93.0150
143.3750        188.0000      0.3006    406.7600     41.6550     51.9999      0.4073   2125.1001    121.3500    -93.1950
143.5000        188.6000      0.3050    398.6000     42.5700     48.8550      0.4058   2120.2000    107.3000    -92.8800
143.6250        188.6000      0.3083    388.8000     44.2050     44.8500      0.3991   2118.3000    106.7000    -89.6400
143.7500        188.3000      0.3117    387.3600     47.5650     40.5900      0.3957   2121.3999    120.1000    -85.0200
143.8750        188.6000      0.3150    423.7200     48.5850     38.1350      0.4002   2126.8999    153.0500    -82.2900
144.0000        188.3000      0.3174    429.2400     49.6050     37.1050      0.3998   2140.8999    135.3500    -78.1650
144.1250        188.3000      0.3188    431.6400     50.2800     36.1350      0.3976   2149.3999     79.3000    -73.9950
144.2500        187.7000      0.3162    427.5600     49.8750     34.6500      0.3912   2151.3000     39.8900    -69.9450
144.3750        187.1000      0.3116    421.3600     49.5750     33.4850      0.3912   2156.8000     41.4150    -67.5750
144.5000        187.4000      0.3086    421.3600     49.1550     32.0650      0.3886   2156.8000     54.8000    -66.6750
144.6250        187.4000      0.3079    418.2400     48.7050     30.9700      0.3859   2140.8999     76.1000    -70.3350
144.7500        186.8000      0.3037    430.6800     54.0750     30.2600      0.3901   2121.3999     79.3000    -75.7500
144.8750        186.8000      0.3007    435.4400     58.6800     29.8050      0.3829   2117.7000     64.9500    -79.5150
145.0000        186.2000      0.3001    426.6000     62.0550     29.8700      0.3859   2123.2000     57.5000    -79.7550
145.1250        185.0000      0.3035    418.7200     65.5800     29.8050      0.3927   2128.1001     51.9000    -79.7850
145.2500        185.9000      0.3092    417.0400     64.7100     29.4200      0.4028   2138.5000     51.2500    -81.0300
145.3750        183.7750      0.3131    431.1600     59.6400     29.4850      0.4126   2144.0000     54.1500    -81.0600
145.5000        182.5750      0.3130    440.2400     60.4350     29.9350      0.4051   2139.7000     63.5500    -78.6900
145.6250        182.8750      0.3113    441.6800     61.0950     30.5200      0.4009   2129.8999     60.1000    -76.9050
145.7500        183.1750      0.3092    436.6400     62.4750     31.1650      0.4002   2128.1001     51.1000    -77.5500
145.8750        184.4000      0.3090    415.3600     66.2100     32.0050      0.3863   2132.3999     51.2500    -76.3650
146.0000        185.3000      0.3077    417.7600     68.1450     33.1000      0.3882   2133.0000     48.2450    -76.3950
146.1250        185.6000      0.3083    422.5200     67.3050     33.4850      0.3987   2126.8999     55.7000    -76.4400
146.2500        185.6000      0.3106    425.6400     66.7350     33.8100      0.4077   2121.3999     61.6500    -77.0700
146.3750        185.0000      0.3138    425.6400     66.1650     33.8750      0.4141   2114.1001     64.2500    -77.1000
146.5000        183.1750      0.3171    426.3600     65.5950     33.1650      0.4051   2102.5000     75.5500    -76.5300
146.6250        182.8750      0.3213    423.4800     65.0250     31.8100      0.4051   2103.7000     88.8500    -75.2100
146.7500        183.1750      0.3239    418.2400     63.5700     31.1650      0.4077   2112.8999    108.5500    -73.4400
146.8750        184.4000      0.3265    415.3600     62.1000     31.1000      0.4066   2105.5000    143.3000    -72.4050
147.0000        185.9000      0.3276    413.2000     60.0900     31.1000      0.4062   2090.8999    115.2500    -71.2350
147.1250        186.2000      0.3297    420.1600     58.5150     30.2600      0.4122   2081.2000     48.7950    -68.6250
147.2500        187.1000      0.3319    420.6400     57.5550     28.7750      0.4212   2089.1001     38.0000    -65.1450
147.3750        186.8000      0.3342    425.1600     56.7900     25.9350      0.4133   2097.0000     65.6000    -62.2950
147.5000        187.1000      0.3345    426.8400     56.1150     23.3500      0.4111   2101.3000     99.7000    -63.6300
147.6250        185.6000      0.3325    429.7200     57.5100     21.2200      0.4133   2120.2000     90.7000    -67.0050
147.7500        185.0000      0.3280    432.6000     58.7850     19.4750      0.4099   2140.3000     65.8000    -70.2300
147.8750        184.4000      0.3228    453.6400     57.1350     17.9950      0.4077   2151.8999     75.3500    -69.5700
148.0000        184.7000      0.3165    476.8400     56.0250     16.3800      0.4013   2169.6001     94.2500    -69.0900
148.1250        185.0000      0.3111    486.4000     55.1400     15.2150      0.4009   2177.5000     51.3500    -68.5200
148.2500        184.1000      0.3058    489.5200     55.7550     14.3750      0.4002   2151.3000     22.2700    -64.6200
148.3750        184.4000      0.3006    452.2000     57.3600     13.6650      0.4002   2097.0000     18.8550    -56.2350
148.5000        185.0000      0.3015    449.0800     59.3100     12.8900      0.3987   2078.1001     18.4250    -52.2600
148.6250        185.0000      0.3122    448.3600     61.2600     12.2450      0.4006   2075.7000     17.1450    -51.1800
148.7500        184.7000      0.3211    456.2800     66.0750     11.9900      0.4058   2083.0000     17.5750    -50.4900
148.8750        183.1750      0.3259    477.5600     74.4450     11.9900      0.3987   2096.3999     18.5500    -50.0400
