~VERSION INFORMATION
 VERS.                 2.0:   CWLS LOG ASCII STANDARD -VERSION 2.0
 WRAP.                  NO:   ONE LINE PER DEPTH STEP
~WELL INFORMATION BLOCK
#MNEM.UNIT           DATA                    DESCRIPTION OF MNEMONIC
#---------    -------------------            -------------------------------
# Generated from Intellog Unique Number	CN_91_93/WELL/1072
WELL.         MILL CITY                      : Well_name    - WELL
LOC .         AA/04-34-091-07W4/0            : Location     - LOCATION
UWI .         AA/04-34-091-07W400            : Uwi          - UNIQUE WELL ID
ENTR.         J                              : Entered      - ENTERED BY
SRVC.         SCHLUMBERGER                   : Scn          - SERVICE COMPANY
DATE.         01/14/92                       : Date         - LOG DATE
STRT.F        250                            : top_depth    - START DEPTH
STOP.F        660.105                        : bot_depth    - STOP DEPTH
STEP.F        0.82                           : increment    - STEP LENGTH
 NULL. -999.2500:NULL Value
~CURVE INFORMATION BLOCK
#MNEM UNIT       ERCB CURVE CODE    CURVE DESCRIPTION
#-----------   ------------------   ----------------------------------
DEPT.F        00 001 00 00         : DEPTH        - DEPTH
GR  .API      00 310 00 00         : GR           - GAMMA RAY
NPHI.V/V      00 330 00 00         : PHIN         - NEUTRON POROSITY (SANDSTONE)
ILD .OHMM     00 120 00 00         : RESD         - DEEP RESISTIVITY (DIL)
~PARAMETER INFORMATION
#MNEM.UNIT           DATA             DESCRIPTION OF MNEMONIC
#---------         -----------     ------------------------------
GL  .F        1561.8               : gl           - GROUND LEVEL ELEVATION
EREF.F        1561.8               : kb           - ELEVATION OF DEPTH REFERENCE
DATM.F        1561.8               : datum        - DATUM ELEVATION
TDD .F        665                  : tdd          - TOTAL DEPTH DRILLER
RUN .         ONE                  : Run          - RUN NUMBER
ENG .         JOETTE               : Engineer     - RECORDING ENGINEER
WIT .         T                    : Witness      - WITNESSED BY
MUD .         GEL                  : Mud_type     - MUD TYPE
MATR.         SANDSTONE            : Logunit      - NEUTRON MATRIX
TMAX.F        47                   : BHT          - MAXIMUM RECORDED TEMPERATURE
BHTD.F        665                  : BHTDEP       - MAXIMUM RECORDED TEMPERATURE
RMT .F        34                   : MDTP         - TEMPERATURE OF MUD
MUDD.LB/G     9.16666              : MWT          - MUD DENSITY
NEUT.         1                    : NEUTRON      - NEUTRON TYPE
RESI.         0                    : RESIST       - RESISTIVITY TYPE
RM  .OHMM     6.8                  : RM           - RESISTIVITY OF MUD
RMC .OHMM     6.8                  : RMC          - RESISTIVITY OF MUD CAKE
RMF .OHMM     6.8                  : RMF          - RESISTIVITY OF MUD FILTRATE
SUFT.F        39.2                 : SUFT         - SURFACE TEMPERATURE
~A  DEPTH       GR     PHIN     RESD
  250.000   79.660    0.484    7.067
  250.820   74.575    0.476    6.984
  251.640   72.525    0.480    6.902
  252.461   73.540    0.467    6.821
  253.281   74.305    0.466    6.907
  254.101   73.893    0.451    7.036
  254.921   71.850    0.453    7.301
  255.741   69.105    0.466    7.810
  256.562   65.666    0.462    7.625
  257.382   63.624    0.445    7.768
  258.202   64.849    0.441    7.677
  259.022   64.921    0.453    7.404
  259.843   66.856    0.464    7.228
  260.663   69.041    0.458    7.056
  261.483   70.033    0.465    7.060
  262.303   70.564    0.480    7.105
  263.123   70.402    0.472    7.283
  263.944   69.521    0.449    7.696
  264.764   67.954    0.429    7.698
  265.584   64.976    0.435    7.608
  266.404   61.989    0.445    8.237
  267.224   59.010    0.434    8.342
  268.045   60.244    0.427    8.655
  268.865   61.009    0.424    8.818
  269.685   61.790    0.422    8.249
  270.505   64.896    0.430    7.486
  271.325   66.605    0.425    7.176
  272.146   65.491    0.434    7.179
  272.966   63.924    0.422    7.449
  273.786   62.575    0.419    7.871
  274.606   61.937    0.413    7.638
  275.427   65.050    0.420    7.734
  276.247   63.959    0.425    7.737
  277.067   62.853    0.425    9.179
  277.887   62.198    0.437    9.938
  278.707   65.078    0.451    7.792
  279.528   64.915    0.451    7.245
  280.348   66.624    0.454    6.778
  281.168   68.568    0.464    6.578
  281.988   68.147    0.460    6.620
  282.808   67.509    0.465    7.124
  283.629   67.112    0.454    8.504
  284.449   67.417    0.451    7.859
  285.269   68.175    0.459    7.132
  286.089   67.076    0.461    6.591
  286.909   65.275    0.438    6.757
  287.730   63.927    0.418    7.096
  288.550   63.054    0.413    8.627
  289.370   63.819    0.426    8.682
  290.190   66.457    0.431    8.024
  291.010   67.230    0.442    6.851
  291.831   66.834    0.450    6.449
  292.651   66.663    0.437    6.940
  293.471   66.953    0.442    6.985
  294.291   66.322    0.426    6.778
  295.112   64.279    0.410    7.520
  295.932   62.228    0.389   12.624
  296.752   59.250    0.362   15.918
  297.572   56.279    0.361   15.827
  298.392   53.292    0.359   19.594
  299.213   51.475    0.352   24.112
  300.033   52.491    0.365   13.441
  300.853   55.120    0.385   12.807
  301.673   58.702    0.398   10.479
  302.493   61.815    0.412    7.778
  303.314   64.687    0.424    5.951
  304.134   68.502    0.453    5.051
  304.954   72.802    0.479    5.177
  305.774   72.615    0.484    5.147
  306.594   71.743    0.471    5.056
  307.415   70.402    0.474    5.120
  308.235   69.295    0.464    5.785
  309.055   67.729    0.462    6.457
  309.875   65.694    0.463    7.165
  310.696   65.975    0.441    7.664
  311.516   67.701    0.427    7.392
  312.336   67.764    0.413    6.957
  313.156   67.764    0.403    7.045
  313.976   67.673    0.424    7.400
  314.797   67.260    0.426    7.402
  315.617   68.244    0.440    7.727
  316.437   70.195    0.431    8.418
  317.257   70.032    0.418    9.454
  318.077   68.910    0.402   11.634
  318.898   67.101    0.393   10.751
  319.718   66.228    0.410    8.638
  320.538   67.462    0.427    6.982
  321.358   68.937    0.430    6.816
  322.178   69.711    0.419    6.696
  322.999   69.540    0.430    6.576
  323.819   68.667    0.441    6.539
  324.639   67.803    0.451    6.744
  325.459   67.164    0.452    6.954
  326.280   66.759    0.429    7.260
  327.100   67.073    0.426    7.131
  327.920   67.588    0.438    7.221
  328.740   68.370    0.441    7.584
  329.560   68.417    0.426    7.869
  330.381   67.794    0.414    7.452
  331.201   67.608    0.421    7.187
  332.021   67.905    0.429    6.724
  332.841   68.460    0.421    6.686
  333.661   68.508    0.412    6.607
  334.482   68.579    0.420    6.649
  335.302   68.175    0.426    8.591
  336.122   66.608    0.412    9.946
  336.942   65.025    0.403    7.611
  337.762   62.741    0.395    6.991
  338.583   60.698    0.415    7.524
  339.403   59.833    0.427    7.951
  340.223   59.654    0.413    8.929
  341.043   59.266    0.394   11.190
  341.864   60.507    0.385    8.511
  342.684   61.499    0.386    7.267
  343.504   62.272    0.385    7.051
  344.324   62.328    0.386    7.141
  345.144   61.471    0.389    7.592
  345.965   59.654    0.377    8.843
  346.785   57.611    0.366   11.425
  347.605   55.569    0.347   15.403
  348.425   54.220    0.347    9.818
  349.245   55.461    0.372   11.162
  350.066   56.929    0.370   10.571
  350.886   56.766    0.372   10.383
  351.706   56.361    0.378   10.578
  352.526   56.191    0.387   10.976
  353.346   56.254    0.382   11.251
  354.167   57.956    0.370   10.719
  354.987   60.835    0.382    9.493
  355.807   63.707    0.399    7.673
  356.627   66.586    0.435    6.921
  357.448   69.474    0.444    6.357
  358.268   70.005    0.435    6.477
  359.088   70.069    0.440    6.928
  359.908   68.962    0.434    7.321
  360.728   67.145    0.416    7.976
  361.549   65.337    0.405    8.689
  362.369   68.692    0.409    8.431
  363.189   70.854    0.429    7.512
  364.009   72.571    0.434    6.859
  364.829   71.230    0.465    6.301
  365.650   71.052    0.471    6.003
  366.470   71.583    0.467    5.790
  367.290   72.365    0.470    5.721
  368.110   72.420    0.480    5.724
  368.930   72.725    0.487    5.691
  369.751   74.661    0.488    5.590
  370.571   76.144    0.486    5.458
  371.391   75.263    0.466    5.328
  372.211   74.383    0.448    5.298
  373.031   72.816    0.453    5.332
  373.852   71.234    0.462    5.566
  374.672   69.425    0.448    5.775
  375.492   67.148    0.433    6.065
  376.312   64.645    0.420    6.449
  377.133   62.142    0.432    7.242
  377.953   61.722    0.436    8.084
  378.773   64.851    0.435    9.024
  379.593   66.069    0.425    9.194
  380.413   67.778    0.425    8.242
  381.234   69.254    0.394    7.211
  382.054   69.777    0.391    7.258
  382.874   69.380    0.377    8.053
  383.694   68.508    0.383    9.210
  384.514   67.175    0.379    9.616
  385.335   66.294    0.356    9.737
  386.155   66.132    0.345   10.934
  386.975   66.421    0.371   14.127
  387.795   66.719    0.384   11.630
  388.615   65.854    0.395   10.052
  389.436   65.683    0.403    7.786
  390.256   63.414    0.390    7.509
  391.076   61.590    0.395    8.230
  391.896   60.273    0.402    8.035
  392.717   61.023    0.409    8.286
  393.537   62.506    0.416    8.598
  394.357   62.093    0.402    8.653
  395.177   60.987    0.395    8.095
  395.997   60.582    0.396    8.873
  396.818   61.347    0.393    8.003
  397.638   62.823    0.401    7.218
  398.458   64.056    0.421    7.091
  399.278   65.524    0.411    7.136
  400.098   67.717    0.416    7.053
  400.919   69.411    0.417    6.927
  401.739   71.588    0.419    6.763
  402.559   72.580    0.425    6.643
  403.379   72.191    0.421    6.809
  404.199   71.536    0.430    7.283
  405.020   70.914    0.416    8.433
  405.840   71.227    0.422   11.028
  406.660   72.437    0.424    8.699
  407.480   74.388    0.430    7.519
  408.301   74.443    0.437    6.907
  409.121   73.579    0.449    6.621
  409.941   72.940    0.442    6.309
  410.761   72.543    0.444    5.938
  411.581   72.373    0.444    6.086
  412.402   72.436    0.438    6.590
  413.222   73.685    0.420    6.922
  414.042   74.435    0.423    6.595
  414.862   75.208    0.438    6.399
  415.682   74.102    0.437    6.640
  416.503   73.221    0.443    7.146
  417.323   72.364    0.434    6.064
  418.143   71.944    0.429    5.210
  418.963   71.773    0.427    5.572
  419.783   72.079    0.421    6.145
  420.604   72.150    0.420    6.777
  421.424   72.447    0.414    6.616
  422.244   72.503    0.419    6.578
  423.064   73.510    0.424    6.743
  423.884   75.212    0.418    6.828
  424.705   77.163    0.427    6.956
  425.525   76.048    0.426    7.532
  426.345   70.511    0.404   10.216
  427.165   69.849    0.378   18.452
