~VERSION INFORMATION
 VERS.                 2.0:   CWLS LOG ASCII STANDARD -VERSION 2.0
 WRAP.                  NO:   ONE LINE PER DEPTH STEP
~WELL INFORMATION BLOCK
#MNEM.UNIT           DATA                    DESCRIPTION OF MNEMONIC
#---------    -------------------            -------------------------------
# Generated from Intellog Unique Number	CN_94_101/WELL/3668
WELL.         03-28-096-16W4                 : Well_name    - WELL
LOC .         AA/03-28-096-16W4/0            : Location     - LOCATION
UWI .         AA/03-28-096-16W400            : Uwi          - UNIQUE WELL ID
ENTR.         J                              : Entered      - ENTERED BY
SRVC.         SCHLUMBERGER                   : Scn          - SERVICE COMPANY
DATE.         08/05/92                       : Date         - LOG DATE
STRT.M        200                            : top_depth    - START DEPTH
STOP.M        410                            : bot_depth    - STOP DEPTH
STEP.M        0.25                           : increment    - STEP LENGTH
 NULL. -999.2500:NULL Value
~CURVE INFORMATION BLOCK
#MNEM UNIT       ERCB CURVE CODE    CURVE DESCRIPTION
#-----------   ------------------   ----------------------------------
DEPT.M        00 001 00 00         : DEPTH        - DEPTH
GR  .API      00 310 00 00         : GR           - GAMMA RAY
NPHI.V/V      00 330 00 00         : PHIN         - NEUTRON POROSITY (SANDSTONE)
DPHI.V/V      00 890 00 00         : PHID         - DENSITY POROSITY (SANDSTONE)
ILD .OHMM     00 120 00 00         : RESD         - DEEP RESISTIVITY (DIL)
~PARAMETER INFORMATION
#MNEM.UNIT           DATA             DESCRIPTION OF MNEMONIC
#---------         -----------     ------------------------------
GL  .M        655.42               : gl           - GROUND LEVEL ELEVATION
EREF.M        658.17               : kb           - ELEVATION OF DEPTH REFERENCE
DATM.M        658.17               : datum        - DATUM ELEVATION
TDD .M        416.5                : tdd          - TOTAL DEPTH DRILLER
RUN .         ONE                  : Run          - RUN NUMBER
ENG .         JO                   : Engineer     - RECORDING ENGINEER
WIT .         TIM                  : Witness      - WITNESSED BY
MUD .         GEL                  : Mud_type     - MUD TYPE
MATR.         SANDSTONE            : Logunit      - NEUTRON MATRIX
TMAX.C        41.5                 : BHT          - MAXIMUM RECORDED TEMPERATURE
BHTD.M        416                  : BHTDEP       - MAXIMUM RECORDED TEMPERATURE
RMT .C        14                   : MDTP         - TEMPERATURE OF MUD
MUDD.KG/M     1130                 : MWT          - MUD DENSITY
NEUT.         1                    : NEUTRON      - NEUTRON TYPE
RESI.         0                    : RESIST       - RESISTIVITY TYPE
RM  .OHMM     0.523                : RM           - RESISTIVITY OF MUD
RMC .OHMM     0.523                : RMC          - RESISTIVITY OF MUD CAKE
RMF .OHMM     0.723                : RMF          - RESISTIVITY OF MUD FILTRATE
SUFT.C        4                    : SUFT         - SURFACE TEMPERATURE
~A  DEPTH       GR     PHIN     PHID     RESD
# ...
  243.500   73.326    0.465    0.285    8.359
  243.750   75.124    0.474    0.286    8.192
  244.000   78.122    0.475    0.296    8.030
  244.250   79.921    0.474    0.300    7.870
  244.500   81.718    0.474    0.289    7.712
  244.750   81.716    0.474    0.277    7.708
  245.000   82.914    0.475    0.279    7.705
  245.250   84.112    0.476    0.279    7.550
  245.500   84.708    0.477    0.277    7.547
  245.750   84.705    0.475    0.279    7.541
  246.000   83.501    0.473    0.281    7.392
  246.250   82.299    0.466    0.284    7.389
  246.500   81.094    0.458    0.286    7.240
  246.750   80.492    0.448    0.288    7.238
  247.000   79.889    0.455    0.288    7.093
  247.250   80.485    0.460    0.286    6.951
  247.500   80.482    0.468    0.286    6.948
  247.750   81.080    0.470    0.288    6.809
  248.000   81.678    0.473    0.291    6.674
  248.250   82.875    0.478    0.293    6.413
  248.500   83.472    0.484    0.294    6.286
  248.750   84.670    0.491    0.290    5.808
  249.000   85.868    0.498    0.284    5.582
  249.250   86.465    0.508    0.281    5.157
  249.500   86.462    0.520    0.281    5.055
  249.750   87.058    0.527    0.279    4.955
  250.000   87.056    0.531    0.270    4.761
  250.250   87.053    0.515    0.253    4.576
  250.500   86.450    0.501    0.235    5.675
  250.750   85.846    0.497    0.236    7.036
  251.000   86.444    0.492    0.244    7.606
  251.250   87.641    0.492    0.273    7.753
  251.500   90.040    0.492    0.282    7.450
  251.750   92.439    0.497    0.288    6.751
  252.000   96.036    0.505    0.284    6.239
  252.250   97.236    0.510    0.283    5.654
  252.500   98.433    0.512    0.279    5.224
  252.750   99.031    0.515    0.278    4.826
  253.000   99.027    0.523    0.275    4.731
  253.250   99.025    0.525    0.272    4.636
  253.500   98.420    0.528    0.268    4.635
  253.750   98.418    0.529    0.264    4.723
  254.000   98.416    0.533    0.264    4.722
  254.250   97.812    0.535    0.268    4.627
  254.500   97.208    0.535    0.272    4.447
  254.750   97.206    0.537    0.281    4.108
  255.000   96.603    0.535    0.284    4.028
  255.250   95.999    0.530    0.278    4.025
  255.500   95.395    0.529    0.283    4.102
  255.750   94.792    0.533    0.286    4.264
  256.000   92.388    0.534    0.287    4.794
  256.250   89.984    0.537    0.276    5.183
  256.500   86.379    0.532    0.251    5.712
  256.750   81.573    0.513    0.227    5.938
  257.000   77.969    0.501    0.188    6.053
  257.250   76.765    0.493    0.160    5.932
  257.500   80.965    0.472    0.138    5.481
  257.750   85.764    0.444    0.162    5.065
  258.000   85.761    0.469    0.184    4.589
  258.250   83.957    0.474    0.207    4.410
  258.500   83.353    0.485    0.242    4.240
  258.750   85.752    0.490    0.271    4.074
  259.000   88.151    0.488    0.275    3.915
  259.250   89.948    0.488    0.272    3.838
  259.500   89.946    0.490    0.272    3.688
  259.750   89.942    0.492    0.271    3.615
  260.000   89.940    0.493    0.271    3.613
  260.250   89.337    0.494    0.272    3.611
  260.500   89.333    0.494    0.272    3.680
  260.750   89.331    0.494    0.274    3.825
  261.000   88.728    0.501    0.276    4.135
  261.250   86.924    0.508    0.279    4.384
  261.500   82.118    0.517    0.280    4.833
  261.750   75.511    0.519    0.284    5.224
  262.000   70.105    0.516    0.288    5.537
  262.250   67.100    0.488    0.296    5.644
  262.500   68.898    0.465    0.304    5.753
  262.750   73.098    0.446    0.309    5.749
  263.000   79.099    0.448    0.301    5.635
  263.250   87.500    0.453    0.283    5.632
  263.500   91.700    0.470    0.269    5.630
  263.750   95.898    0.484    0.266    5.626
  264.000   97.697    0.493    0.270    5.623
  264.250   97.093    0.497    0.274    5.732
  264.500   94.089    0.498    0.278    5.842
  264.750   91.685    0.493    0.283    5.954
  265.000   91.082    0.484    0.288    5.951
  265.250   91.678    0.461    0.290    5.948
  265.500   92.276    0.450    0.290    5.945
  265.750   94.074    0.444    0.282    5.827
  266.000   96.472    0.447    0.269    5.710
  266.250   99.471    0.477    0.260    5.597
  266.500  101.870    0.502    0.255    5.171
  266.750  104.869    0.511    0.254    4.970
  267.000  107.267    0.525    0.256    4.502
  267.250  109.065    0.524    0.260    4.328
  267.500  109.062    0.523    0.263    4.241
  267.750  109.059    0.529    0.265    4.239
  268.000  109.056    0.535    0.268    4.321
  268.250  107.252    0.536    0.270    4.318
  268.500  105.447    0.540    0.274    4.402
  268.750  104.845    0.552    0.276    4.399
  269.000  104.242    0.559    0.278    4.397
  269.250  102.438    0.557    0.284    4.395
  269.500  100.634    0.557    0.286    4.393
  269.750   99.430    0.557    0.288    4.390
  270.000  100.026    0.554    0.291    4.388
  270.250  100.024    0.554    0.298    4.300
  270.500  100.621    0.549    0.301    4.383
  270.750   98.217    0.544    0.302    4.468
  271.000   95.813    0.539    0.301    4.644
  271.250   94.009    0.529    0.296    5.019
  271.500   93.406    0.523    0.291    5.117
  271.750   94.603    0.514    0.282    5.317
  272.000   95.800    0.506    0.278    5.420
  272.250   95.798    0.504    0.278    5.526
  272.500   95.194    0.504    0.280    5.743
  272.750   93.991    0.503    0.281    5.741
  273.000   92.187    0.502    0.282    5.967
  273.250   90.383    0.498    0.278    6.201
  273.500   87.978    0.494    0.266    6.321
  273.750   86.174    0.484    0.251    6.444
  274.000   86.172    0.470    0.231    6.567
  274.250   87.369    0.449    0.149    6.564
  274.500   88.568    0.423    0.101    6.309
  274.750   93.367    0.408    0.122    5.497
  275.000  101.769    0.441    0.160    4.605
  275.250  104.167    0.503    0.183    3.934
  275.500  103.563    0.526    0.183    3.496
  275.750  102.360    0.527    0.184    3.167
  276.000  103.558    0.524    0.193    3.044
  276.250  104.755    0.519    0.202    2.868
  276.500  104.752    0.531    0.237    2.811
  276.750  103.549    0.555    0.281    2.755
  277.000  102.946    0.569    0.303    2.700
  277.250  102.343    0.576    0.308    2.698
  277.500  102.340    0.569    0.308    2.645
  277.750  102.337    0.562    0.309    2.643
  278.000  101.732    0.573    0.312    2.642
  278.250  101.130    0.581    0.312    2.640
  278.500  101.127    0.584    0.307    2.639
  278.750  101.124    0.576    0.303    2.638
  279.000  101.121    0.571    0.297    2.688
  279.250  100.518    0.565    0.292    2.687
  279.500   98.713    0.564    0.289    2.793
  279.750   96.910    0.563    0.290    2.903
  280.000   95.707    0.561    0.292    3.138
  280.250   92.102    0.555    0.292    3.460
  280.500   89.097    0.543    0.292    4.733
  280.750   84.892    0.527    0.292    7.003
  281.000   79.485    0.519    0.293    7.570
  281.250   76.481    0.503    0.294    7.869
  281.500   72.876    0.491    0.294    8.020
  281.750   69.872    0.480    0.294    8.175
  282.000   72.269    0.464    0.292    8.012
  282.250   73.468    0.453    0.283    7.851
  282.500   75.866    0.438    0.239    7.695
  282.750   77.663    0.424    0.210    7.252
  283.000   80.061    0.434    0.239    6.700
  283.250   81.260    0.453    0.278    6.439
  283.500   83.058    0.466    0.291    6.311
  283.750   83.655    0.466    0.283    6.064
  284.000   84.852    0.456    0.276    5.944
  284.250   84.851    0.444    0.274    5.940
  284.500   84.247    0.443    0.276    5.937
  284.750   83.042    0.451    0.279    6.052
  285.000   82.440    0.462    0.281    6.170
  285.250   81.837    0.472    0.282    6.538
  285.500   79.431    0.482    0.283    6.797
  285.750   77.629    0.475    0.285    7.205
  286.000   73.424    0.464    0.287    7.491
  286.250   69.218    0.456    0.291    8.257
  286.500   63.812    0.445    0.301    8.754
  286.750   61.408    0.437    0.300    9.460
