~Version : LASO    vs 4.00 - DATA COPYRIGHT - RILEYS DATASHARE INTERNATIONAL
 VERS.                2.0 :   CWLS Log ASCII Standard -VERSION 2.0
 WRAP.                 NO :   One line per depth step
~Well Information Block
#MNEM.UNIT       Data                        Description of Mnemonic
#----.----      -------------------------- : -----------------------------
 STRT.M             0.0000                 : Start Depth
 STOP.M           204.7500                 : End Depth
 STEP.M             0.1250                 : Depth Increment
 NULL.           -999.25                   : NULL Value
 COMP.                                     : COMPANY
 WELL.    MOBIL CLARKE OV 7-25             : WELL NAME
 FLD .    WILDCAT                          : FIELD NAME
 LOC .    07-25-090-08W4                   : WELL LOCATION
 PROV.    ALBERTA                          : PROVINCE
 SRVC.    DRESSER ATLAS                    : LOGGING SERVICE COMPANY
 DATE.    19-FEB-81                        : DATE LOGGED
 UWI .    AA/07-25-090-08W400              : UNIQUE WELL ID
~Curve Information Block
#MNEM.UNIT        API CODE                   Curve Description
#----.----      LG--CV-CL--M               : -----------------
 DEPT.M          0   1  0  0               : 1 DEPTH
 DT  .US/M      60 520 42  1               : 2 SONIC INTERVAL TRANSIT TIME (COMPENSATED)
 CALI.MM        42 280  1  1               : 3 DENSITY CALIPER
 GR  .GAPI      42 310  1  1               : 4 GAMMA RAY
 NPHI.V/V       42 890  3  1               : 5 NEUTRON POROSITY (SANDSTONE)
 RHOB.K/M3      42 350  1  1               : 6 BULK DENSITY
 IL  .OHMM       5 120 45  1               : 7 INDUCTION
 SFL .OHMM       5 220  6  1               : 8 FOCUSSED RESISTIVITY
 SP  .MV         5  10  1  1               : 9 SPONTANEOUS POTENTIAL
~Parameter Information Block
#MNEM.UNIT       Data                        Description of Mnemonic
#----.----      -------------------------- : -----------------------------
 RUN .                   1                 : Run Number
 GL  .M           449.0000                 : Ground Level Elevation
 DREF.                  KB                 : Depth Reference
 EREF.M           449.0000                 : Elevation of Depth Reference
 TDL .M           202.0000                 : Total Depth Logger
 TDD .M           205.0000                 : Total Depth Driller
 BHT .DEGC         20.0000                 : Bottom Hole Temperature
 BS  .MM          159.0000                 : Bit Size
 DFD .           9999.0000                 : Mud Weight (Density)
 DFV .            150.0000                 : Mud Viscosity
 RM  .OHMM          4.1000                 : Mud Resistivity
 RMT .DEGC         20.0000                 : Mud Resistivity Temperature
 RMF .OHMM          3.9000                 : Mud Filtrate Resistivity
 RMFT.DEGC          8.0000                 : RMF Temperature
 RMC .OHMM          7.8000                 : Mud Cake Resistivity
 RMCT.DEGC          8.0000                 : RMC Temperature
~Asc DEPTH      DT         CALI       GR         NPHI       RHOB       IL         SFL        SP   
# ...
   60.7500   550.6400   195.9500    42.1500     0.3084  2058.3999    21.7900    23.9550  -151.9650
   60.8750   535.1600   195.9500    40.8600     0.3000  2045.5000    21.9700    23.7700  -151.7700
   61.0000   511.3200   193.5000    41.0550     0.2945  2046.1000    22.2800    23.2200  -150.8400
   61.1250   463.9200   183.7000    41.6100     0.2919  2065.1001    22.6450    23.5250  -149.7450
   61.2500   442.2800   184.6000    42.7050     0.2886  2098.2000    23.0750    24.6900  -148.4400
   61.3750   427.0400   184.3000    43.9950     0.2820  2130.1001    23.5650    26.1000  -146.5950
   61.5000   407.6400   180.9250    46.0200     0.2735  2152.2000    24.1200    27.4500  -144.5550
   61.6250   395.1200   179.1000    49.3350     0.2658  2196.8999    24.6100    27.9400  -143.2500
   61.7500   395.3600   178.7750    52.2900     0.2621  2282.7000    25.1000    28.0600  -142.3350
   61.8750   398.8000   178.4750    53.0250     0.2526  2350.7000    25.5300    28.6150  -141.5850
   62.0000   399.7600   178.4750    53.2050     0.2464  2407.1001    25.8350    29.5950  -141.0300
   62.1250   395.1200   178.4750    54.1350     0.2431  2407.7000    25.9000    30.3300  -140.6700
   62.2500   397.0800   178.7750    54.3150     0.2412  2406.3999    25.8350    30.3900  -140.1000
   62.3750   401.2400   179.1000    54.8700     0.2405  2404.0000    25.7150    30.2050  -139.7400
   62.5000   403.4400   179.4000    55.2450     0.2412  2399.7000    25.5300    29.9600  -139.5450
   62.6250   413.0400   179.4000    54.6900     0.2449  2395.3999    25.2850    29.4700  -139.5450
   62.7500   424.8400   179.4000    54.3150     0.2482  2390.5000    24.9800    28.6150  -139.7400
   62.8750   438.6000   179.7000    54.4950     0.2519  2382.5000    24.6100    27.4500  -139.7400
   63.0000   436.8800   180.0000    54.3150     0.2555  2369.7000    24.3050    26.5300  -139.9200
   63.1250   425.3200   181.2500    54.3150     0.2603  2356.8000    24.0600    26.5300  -139.9200
   63.2500   425.5600   180.3250    54.4950     0.2647  2348.8000    23.8750    27.2050  -139.9200
   63.3750   426.3200   179.7000    54.6900     0.2647  2337.2000    23.6900    26.9600  -139.9200
   63.5000   428.5200   179.4000    54.6900     0.2647  2326.8000    23.5650    26.2850  -139.7400
   63.6250   430.2400   178.1750    54.4950     0.2654  2317.0000    23.5650    26.5300  -139.5450
   63.7500   425.5600   176.3250    53.5800     0.2662  2310.8999    23.5650    27.2650  -139.7400
   63.8750   422.3600   178.7750    52.6650     0.2647  2314.5000    23.7500    27.0800  -139.9200
   64.0000   423.1200   178.4750    54.1350     0.2640  2324.3000    23.9350    26.5900  -139.7400
   64.1250   422.3600   177.2500    54.8700     0.2658  2346.3999    24.3050    26.1600  -139.3650
   64.2500   418.6800   177.5500    55.4250     0.2677  2365.3999    24.6100    26.1600  -139.7400
   64.3750   416.9600   179.1000    55.7850     0.2706  2373.3999    24.9800    26.6500  -140.1000
   64.5000   418.4400   184.0000    56.5350     0.2699  2379.5000    25.4100    27.6950  -140.2950
   64.6250   428.2800   187.9750    57.2700     0.2677  2381.3000    25.7150    29.2850  -140.2950
   64.7500   435.8800   189.2000    57.8250     0.2611  2378.8999    26.0850    30.3300  -140.2950
   64.8750   431.4800   190.1250    58.3650     0.2493  2375.2000    26.4500    30.7550  -140.4750
   65.0000   418.2000   190.1250    58.3650     0.2423  2373.3999    26.6950    30.8800  -140.4750
   65.1250   406.4000   189.5000    58.0050     0.2372  2377.0000    26.6950    30.8800  -140.6700
   65.2500   405.4400   187.3750    56.3400     0.2398  2381.3000    26.8200    30.9400  -140.8500
   65.3750   404.2000   186.7500    55.7850     0.2420  2380.1001    26.6950    31.0000  -141.0300
   65.5000   402.0000   186.7500    55.9800     0.2416  2376.3999    26.3900    31.3700  -140.8500
   65.6250   403.7200   187.0500    57.6300     0.2427  2367.8000    25.9600    31.6750  -140.6700
   65.7500   405.4400   187.0500    58.0050     0.2467  2355.0000    25.6550    31.2500  -140.4750
   65.8750   407.1600   186.7500    57.0750     0.2515  2344.6001    25.2850    30.0200  -140.2950
   66.0000   410.0800   186.7500    55.7850     0.2545  2336.6001    24.8550    28.1850  -139.7400
   66.1250   416.7200   186.4500    58.0050     0.2541  2325.0000    24.4250    26.7750  -139.3650
   66.2500   417.2000   186.7500    59.1150     0.2552  2323.1001    24.1200    25.9150  -139.3650
   66.3750   415.4800   187.6750    59.8500     0.2611  2325.0000    23.8150    26.0400  -139.5450
   66.5000   415.2400   187.9750    60.7650     0.2651  2324.3000    23.5050    26.6500  -139.3650
   66.6250   420.1600   187.6750    63.5250     0.2680  2324.3000    23.2000    26.9600  -139.7400
   66.7500   418.4400   187.6750    65.1900     0.2721  2331.1001    22.9550    25.9800  -139.7400
   66.8750   416.0000   186.7500    66.4800     0.2794  2334.7000    22.7100    25.9150  -139.7400
   67.0000   416.9600   187.0500    65.7450     0.2809  2330.5000    22.4650    26.5300  -139.5450
   67.1250   425.5600   187.6750    62.9850     0.2846  2321.8999    22.2800    27.5100  -139.3650
   67.2500   427.0400   187.3750    60.0300     0.2857  2317.0000    22.0950    26.5300  -139.3650
   67.3750   429.2400   187.6750    59.1150     0.2860  2313.3000    21.8500    25.0000  -139.3650
   67.5000   430.4800   187.6750    60.0300     0.2893  2310.8999    21.5450    23.9550  -139.3650
   67.6250   433.4400   187.3750    61.6950     0.2933  2312.1001    21.2350    23.7700  -139.3650
   67.7500   434.1600   185.5250    63.5250     0.2915  2315.8000    20.9900    23.9550  -139.3650
   67.8750   435.1600   183.7000    65.1900     0.2915  2314.5000    20.7450    24.0150  -139.3650
   68.0000   435.8800   186.7500    65.5650     0.2930  2312.7000    20.5000    23.8950  -139.1850
   68.1250   445.4800   188.2750    65.1900     0.2952  2312.1001    20.3750    23.3450  -139.3650
   68.2500   455.3200   188.2750    65.0100     0.2996  2311.5000    20.2550    22.9750  -139.5450
   68.3750   457.5200   188.2750    65.1900     0.3033  2311.5000    20.1950    22.5450  -139.7400
   68.5000   457.5200   188.2750    66.4800     0.3055  2310.8999    20.1300    22.2400  -139.7400
   68.6250   456.7600   188.2750    68.1450     0.3066  2306.6001    20.1300    22.5450  -139.7400
   68.7500   460.2000   188.2750    67.7700     0.3084  2294.3000    20.0700    23.1000  -139.9200
   68.8750   475.6800   188.2750    67.5900     0.3070  2285.7000    20.0100    23.2200  -139.9200
   69.0000   501.9600   187.9750    67.5900     0.3088  2280.2000    19.8250    22.8550  -139.9200
   69.1250   514.0400   188.2750    66.1050     0.3066  2282.1001    19.5800    22.7900  -140.1000
   69.2500   515.2400   188.2750    66.6600     0.3029  2286.3000    19.2750    23.2800  -140.2950
   69.3750   514.0400   188.2750    67.2150     0.3066  2290.6001    19.0250    24.0150  -140.2950
   69.5000   509.3600   187.9750    67.9500     0.3070  2293.7000    18.7200    24.3250  -140.2950
   69.6250   472.7600   188.2750    67.5900     0.3066  2290.0000    18.4750    23.7100  -140.1000
   69.7500   464.8800   188.6000    68.5050     0.3062  2287.0000    17.9850    22.1800  -139.9200
   69.8750   458.2400   188.6000    70.1700     0.3117  2283.8999    17.5550    21.0150  -139.7400
   70.0000   454.8000   187.9750    72.0150     0.3136  2285.1001    17.2500    20.4650  -139.7400
   70.1250   454.3200   188.2750    74.0400     0.3209  2284.5000    17.0050    20.0950  -139.9200
   70.2500   460.4800   187.0500    75.5100     0.3290  2277.2000    16.8200    19.7300  -139.9200
   70.3750   469.8000   184.3000    75.8850     0.3400  2263.1001    16.7550    19.7300  -139.9200
   70.5000   469.5600   182.7750    76.9800     0.3418  2250.8000    16.6950    19.7300  -139.9200
   70.6250   464.4000   181.8500    77.7150     0.3444  2240.3999    16.7550    19.9100  -140.1000
   70.7500   467.3600   181.2500    76.6200     0.3440  2234.8999    16.6350    19.9750  -140.1000
