~Version : LASO    vs 4.00
VERS.                2.00:   CWLS Log ASCII Standard -VERSION 2.0
WRAP.                  NO:
~Well Information Block
#MNEM.UNIT       Data                        Description of Mnemonic
#----.----      -------------------------- : -----------------------------
STRT.M            30.0000:
STOP.M           204.0000:
STEP.M             0.2000:
NULL.           -999.2500:
COMP.  MOBIL OIL OF CANADA                    :COMPANY
WELL.  MOBIL CLARKE OV PROGRAM 2-81 4-3       :WELL
FLD.                                          :FIELD
LOC.   04-03-090-07W4                         :LOCATION
CTRY.  CANADA                                 :COUNTRY
PROV.  ALBERTA                                :PROVINCE
SRVC.  SCHLUMBERGER                           :SERVICE COMPANY
DATE.  26-JAN-81                              :LOG DATE
UWI.   AA/04-03-090-07W400                    :UNIQUE WELL ID
~Parameter Information Block
#MNEM.UNIT       Data                        Description of Mnemonic
#----.----      -------------------------- : -----------------------------
RUN .                   1                 : Run Number
GL  .M           466.8000                 : Ground Level Elevation
DREF.                  GD                 : Depth Reference
EREF.M           466.8000                 : Elevation of Depth Reference
TDL .M           205.0000                 : Total Depth Logger
TDD .M           205.0000                 : Total Depth Driller
BHT .DEGC         19.0000                 : Bottom Hole Temperature
BS  .MM          159.0000                 : Bit Size
DFD .            980.0000                 : Mud Weight (Density)
DFV .             38.0000                 : Mud Viscosity
DFPH.             10.0000                 : Mud pH
~Curve Information Block
#MNEM.UNIT        API CODE    Curve Description
#---------    ------------    -------------------------------------------
DEPT.M                    :   DEPTH
CALI.MM       42 280  1  1:   3 DENSITY CALIPER
DPHI.V/V                  :   DPHI
DT  .US/M     60 520  0  1:   2 SONIC INTERVAL TRANSIT TIME (COMPENSATED)
GR  .GAPI     42 310  1  1:   4 GAMMA RAY
ILD .OHMM      5 120 46  1:   7 DEEP INDUCTION
ILM .OHMM      5 120 44  1:   8 MEDIUM INDUCTION
NPHI.V/V      42 890  3  1:   5 NEUTRON POROSITY (SANDSTONE)
RHOB.K/M3     42 350  1  1:   6 BULK DENSITY
SFLU.OHMM      5 220  1  1:   9 FOCUSSED RESISTIVITY
SP  .MV        5  10  1  1:   10 SPONTANEOUS POTENTIAL
~A  Depth           CALI        DPHI          DT          GR         ILD         ILM        NPHI        RHOB        SFLU          SP
# ...
66.6000         179.8750      0.2139    437.7200     48.6750     35.6312     28.3028      0.2562   2305.3000     43.2345    -51.4500
66.8000         176.0500      0.2225    438.9600     46.0800     35.6312     28.3028      0.2582   2276.2000     40.9100    -52.2150
67.0000         174.7750      0.2315    434.8400     44.8800     36.2936     28.3028      0.2640   2248.2000     41.2886    -53.4900
67.2000         170.9750      0.2427    436.0800     42.8700     36.6294     29.0958      0.2720   2258.2000     44.4457    -55.7850
67.4000         164.6250      0.2478    450.8800     44.1750     36.2936     29.3650      0.2824   2234.2000     47.4056    -55.0200
67.6000         167.1750      0.2441    519.9200     46.4700     35.6312     29.3650      0.3044   2245.2000     50.5627    -52.9800
67.8000         168.4250      0.2448    533.0800     47.6700     33.7155     28.0434      0.3044   2298.3000     57.5215    -49.6650
68.0000         170.9750      0.2335    533.8800     48.6750     32.1981     26.7812      0.2834   2283.2000     53.4355    -48.9000
68.2000         176.0500      0.2268    470.8000     51.0750     30.7489     25.8125      0.2292   2244.2000     45.2720    -48.6450
68.4000         176.0500      0.2374    442.2400     58.6800     27.7863     23.5413      0.2168   2110.0000     31.3206    -47.1150
68.6000         177.3250      0.2522    450.6800     60.7800     26.0513     22.0714      0.2184   2128.0000     26.5357    -46.0950
68.8000         187.5000      0.2635    448.4000     61.2750     24.6507     21.0780      0.2648   2203.1001     25.1090    -45.8400
69.0000         186.2250      0.2602    472.2400     62.0700     22.6898     19.7620      0.2908   2253.2000     25.8125    -45.8400
69.2000         183.6750      0.2471    481.0800     61.6800     21.8691     19.0471      0.3006   2267.2000     25.3414    -45.3300
69.4000         182.4000      0.2473    501.8000     61.6800     21.2731     18.3582      0.2724   2260.2000     23.5413    -45.0750
69.6000         191.3000      0.2623    473.8800     65.8800     20.3156     17.5319      0.2824   2188.1001     21.6686    -45.0750
69.8000         187.5000      0.2800    489.9200     68.8800     20.1294     17.2119      0.2924   2188.1001     20.5036    -45.5850
70.0000         192.5750      0.2942    472.2400     71.2800     19.7620     17.2119      0.3174   2169.1001     19.2234    -45.8400
70.2000         197.6500      0.3118    465.2400     71.6850     19.7620     17.0541      0.3324   2114.0000     18.6995    -45.5850
70.4000         197.6500      0.3157    464.2400     70.8750     19.9448     17.0541      0.3432   2159.1001     19.5808    -45.5850
70.6000         195.1000      0.3075    460.9600     70.2750     20.3156     17.2119      0.3496   2161.1001     19.7620    -45.5850
70.8000         190.0250      0.3010    456.0000     69.9750     20.6933     17.5319      0.3436   2157.1001     19.7620    -45.0750
71.0000         177.3250      0.2880    456.6400     69.5850     21.2731     18.1899      0.3388   2213.1001     20.8848    -45.3300
71.2000         174.7750      0.2668    451.4800     66.1800     21.2731     18.1899      0.3334   2253.2000     21.6686    -45.8400
71.4000         174.7750      0.2324    456.2000     63.9750     21.6686     18.1899      0.3228   2322.3000     22.0714    -46.0950
71.6000         193.8250      0.1949    477.6000     64.1700     22.0714     18.3582      0.3148   2360.3000     21.6686    -46.6050
71.8000         211.6250      0.2021    468.7600     64.4700     22.2756     18.5281      0.3052   2340.3000     21.0780    -46.8600
72.0000         217.9750      0.2193    446.7600     62.6700     22.2756     18.8725      0.2924   2285.2000     22.0714    -47.1150
72.2000         234.4750      0.2275    440.6000     63.9750     22.4817     19.0471      0.3022   2273.2000     22.8997    -47.8800
72.4000         216.7000      0.2276    430.9200     64.6800     22.6898     19.0471      0.3164   2278.2000     22.6898    -47.8800
72.6000         204.0000      0.2246    454.5600     64.8750     23.1116     19.2234      0.3044   2280.2000     22.6898    -47.8800
72.8000         193.8250      0.2260    452.9200     64.5750     23.7591     19.7620      0.2968   2277.2000     23.3254    -48.3900
73.0000         198.9250      0.2271    454.5600     64.1700     24.2008     20.1294      0.2904   2278.2000     23.7591    -48.9000
73.2000         200.1750      0.2264    453.7600     63.2700     24.6507     20.5036      0.2788   2278.2000     25.1090    -48.6450
73.4000         207.8000      0.2275    451.6800     60.6750     25.1090     20.8848      0.2718   2278.2000     26.5357    -48.6450
73.6000         184.9500      0.2264    450.6800     58.5750     25.5758     21.0780      0.2664   2280.2000     27.7863    -49.1550
73.8000         182.4000      0.2252    450.4800     58.8750     26.0513     21.0780      0.2784   2288.2000     27.2791    -49.6650
74.0000         183.6750      0.2263    451.6800     57.8700     26.5357     21.2731      0.2972   2286.2000     26.5357    -50.1750
74.2000         181.1250      0.2263    455.8000     55.1700     27.5315     21.8691      0.2888   2284.2000     25.5758    -52.2150
74.4000         179.8750      0.2303    459.9200     54.4800     28.0434     22.4817      0.2784   2277.2000     27.7863    -53.7450
74.6000         181.1250      0.2362    448.2000     55.6800     28.3028     22.8997      0.2804   2254.2000     31.9029    -54.7650
74.8000         172.2500      0.2383    461.3600     57.6750     29.6367     23.5413      0.2800   2246.2000     37.3104    -55.0200
75.0000         172.2500      0.2375    483.3600     58.0800     30.4670     23.5413      0.2832   2266.2000     36.2936    -55.5300
75.2000         172.2500      0.2385    503.8400     58.5750     31.0334     23.9789      0.2908   2266.2000     35.3045    -55.7850
75.4000         172.2500      0.2493    461.3600     61.1700     32.4960     24.8788      0.2928   2206.1001     33.4064    -52.9800
75.6000         177.3250      0.2581    447.1600     62.4750     32.7967     25.3414      0.2894   2225.2000     33.1001    -51.4500
75.8000         177.3250      0.2602    447.3600     63.0750     32.7967     25.5758      0.2812   2282.2000     34.6601    -50.6850
76.0000         195.1000      0.2165    465.6800     61.4700     34.0275     25.8125      0.2804   2328.3000     36.9683    -49.9200
76.2000         197.6500      0.1968    493.6000     57.8700     34.3423     25.8125      0.2674   2359.3000     36.9683    -49.4100
76.4000         195.1000      0.1795    470.4000     56.9700     34.6601     26.0513      0.2352   2354.3000     38.0041    -49.1550
76.6000         183.6750      0.1766    445.3200     58.4700     34.6601     26.0513      0.2240   2368.3000     38.7106    -49.4100
76.8000         179.8750      0.1750    417.8000     57.2700     34.9808     26.0513      0.2172   2364.3000     39.0688    -48.9000
77.0000         181.1250      0.1737    395.8000     56.7750     34.6601     26.2924      0.2140   2369.3000     38.3557    -49.1550
77.2000         181.1250      0.1734    386.3600     56.0700     34.6601     26.0513      0.2110   2369.3000     38.0041    -49.6650
77.4000         179.8750      0.1755    383.0400     53.6700     34.6601     26.0513      0.2088   2342.3000     38.7106    -49.1550
77.6000         179.8750      0.1813    383.4800     53.8800     34.3423     25.8125      0.2104   2342.3000     38.3557    -49.1550
77.8000         178.6000      0.1831    379.7600     54.2700     34.3423     25.8125      0.2232   2362.3000     38.3557    -49.1550
78.0000         179.8750      0.1785    379.9600     55.0800     34.0275     25.8125      0.2354   2381.3999     38.3557    -49.6650
78.2000         178.6000      0.1663    383.8800     52.8750     33.7155     25.8125      0.2208   2378.3999     37.6556    -50.1750
78.4000         177.3250      0.1598    391.6800     51.8700     33.7155     25.5758      0.2176   2386.3999     36.6294    -50.4300
78.6000         173.5250      0.1579    400.3200     54.4800     33.4064     25.5758      0.2210   2394.3999     36.9683    -50.1750
