~VERSION INFORMATION
 VERS.                 2.0:   CWLS LOG ASCII STANDARD -VERSION 2.0
 WRAP.                  NO:   ONE LINE PER DEPTH STEP
~WELL INFORMATION BLOCK
#MNEM.UNIT           DATA                    DESCRIPTION OF MNEMONIC
#---------    -------------------            -------------------------------
# Generated from Intellog Unique Number	CS_73_76/WELL/1041
WELL.         06-14-076-07W4                 : Well_name    - WELL
LOC .         AA/06-14-076-07W4/0            : Location     - LOCATION
UWI .         AA/06-14-076-07W4/0            : Uwi          - UNIQUE WELL ID
ENTR.         SP                             : Entered      - ENTERED BY
SRVC.         SCHLUMBERGER                   : Scn          - SERVICE COMPANY
STRT.M        175                            : top_depth    - START DEPTH
STOP.M        415                            : bot_depth    - STOP DEPTH
STEP.M        0.25                           : increment    - STEP LENGTH
 NULL. -999.2500:NULL Value
~CURVE INFORMATION BLOCK
#MNEM UNIT       ERCB CURVE CODE    CURVE DESCRIPTION
#-----------   ------------------   ----------------------------------
DEPT.M        00 001 00 00         : DEPTH        - DEPTH
NPHI.V/V      00 330 00 00         : PHIN         - NEUTRON POROSITY (LIMESTONE)
DPHI.V/V      00 890 00 00         : PHID         - DENSITY POROSITY (LIMESTONE)
GR  .API      00 310 00 00         : GR           - GAMMA RAY
ILD .OHMM     00 120 00 00         : RESD         - DEEP RESISTIVITY (DIL)
~PARAMETER INFORMATION
#MNEM.UNIT           DATA             DESCRIPTION OF MNEMONIC
#---------         -----------     ------------------------------
GL  .M        607.14               : gl           - GROUND LEVEL ELEVATION
EREF.M        610.79               : kb           - ELEVATION OF DEPTH REFERENCE
DATM.M        607.14               : datum        - DATUM ELEVATION
TDD .M        414.9                : tdd          - TOTAL DEPTH DRILLER
RUN .         ONE                  : Run          - RUN NUMBER
ENG .         BILL                 : Engineer     - RECORDING ENGINEER
WIT .         JIM                  : Witness      - WITNESSED BY
MUD .         GEL                  : Mud_type     - MUD TYPE
MATR.         LIMESTONE            : Logunit      - NEUTRON MATRIX
TMAX.C        18                   : BHT          - MAXIMUM RECORDED TEMPERATURE
BHTD.M        414.9                : BHTDEP       - MAXIMUM RECORDED TEMPERATURE
MATR.         1                    : LOGUNIT      - NEUTRON MATRIX
RMT .C        25                   : MDTP         - TEMPERATURE OF MUD
NEUT.         1                    : NEUTRON      - NEUTRON TYPE
RESI.         0                    : RESIST       - RESISTIVITY TYPE
RMC .OHMM     0.25                 : RMC          - RESISTIVITY OF MUD CAKE
RMF .OHMM     0.25                 : RMF          - RESISTIVITY OF MUD FILTRATE
SUFT.C        15                   : SUFT         - SURFACE TEMPERATURE
~A  DEPTH     PHIN     PHID       GR     RESD
# ...
  218.500    0.416    0.269   95.007   21.428
  218.750    0.410    0.267   91.953   19.516
  219.000    0.423    0.267   94.411   18.458
  219.250    0.421    0.268   98.705   18.473
  219.500    0.416    0.269  101.161   18.842
  219.750    0.460    0.270   97.495   19.209
  220.000    0.438    0.273   87.093   20.348
  220.250    0.396    0.283   76.692   22.376
  220.500    0.371    0.286   69.353   26.044
  220.750    0.370    0.268   65.687   28.114
  221.000    0.376    0.252   68.144   28.672
  221.250    0.377    0.239   67.540   28.688
  221.500    0.360    0.223   65.099   28.714
  221.750    0.376    0.215   63.269   28.735
  222.000    0.394    0.270   62.051   29.312
  222.250    0.407    0.293   62.672   29.889
  222.500    0.425    0.303   63.903   32.256
  222.750    0.418    0.307   65.136   31.683
  223.000    0.429    0.307   65.143   29.404
  223.250    0.419    0.301   66.987   26.276
  223.500    0.430    0.277   71.894   23.045
  223.750    0.418    0.261   73.737   20.987
  224.000    0.436    0.255   76.808   19.846
  224.250    0.434    0.241   81.100   18.074
  224.500    0.411    0.234   85.394   17.090
  224.750    0.387    0.225   86.626   15.860
  225.000    0.361    0.218   89.084   14.719
  225.250    0.374    0.208   92.765   13.920
  225.500    0.387    0.202   97.059   12.919
  225.750    0.401    0.197   98.290   11.992
  226.000    0.454    0.191  100.746   11.555
  226.250    0.534    0.189   99.529   12.009
  226.500    0.529    0.207   92.801   12.963
  226.750    0.524    0.232   87.299   13.991
  227.000    0.425    0.236   84.245   14.815
  227.250    0.375    0.232   88.541   15.109
  227.500    0.390    0.226   93.445   14.027
  227.750    0.411    0.224   94.065   13.516
  228.000    0.438    0.222   97.134   13.027
  228.250    0.413    0.224   94.692   12.317
  228.500    0.387    0.225   95.312   11.869
  228.750    0.403    0.226   98.993   11.881
  229.000    0.494    0.231  104.511   12.346
  229.250    0.568    0.237  101.458   13.330
  229.500    0.540    0.239   97.181   13.591
  229.750    0.523    0.239   93.513   14.399
  230.000    0.487    0.238   91.072   14.678
  230.250    0.471    0.238   91.079   15.256
  230.500    0.474    0.237   94.152   16.466
  230.750    0.466    0.236   95.381   17.112
  231.000    0.468    0.237   89.878   18.130
  231.250    0.484    0.238   86.213   18.839
  231.500    0.473    0.239   83.159   19.582
  231.750    0.473    0.239   85.615   19.591
  232.000    0.475    0.239   83.174   19.609
  232.250    0.451    0.239   82.572   19.258
  232.500    0.478    0.238   81.352   18.212
  232.750    0.499    0.235   83.810   16.905
  233.000    0.510    0.233   92.390   16.597
  233.250    0.495    0.230   97.293   15.997
  233.500    0.500    0.225   99.751   16.318
  233.750    0.505    0.217   89.963   16.331
  234.000    0.513    0.214   83.234   16.344
  234.250    0.518    0.215   75.895   16.053
  234.500    0.484    0.242   69.781   16.063
  234.750    0.467    0.247   66.115   15.772
  235.000    0.494    0.255   66.123   16.087
  235.250    0.492    0.260   67.355   17.691
  235.500    0.459    0.266   68.586   18.388
  235.750    0.442    0.277   71.044   17.390
  236.000    0.417    0.275   71.051   16.445
  236.250    0.402    0.268   70.446   15.554
  236.500    0.400    0.261   70.454   14.712
  236.750    0.399    0.257   72.910   14.174
  237.000    0.394    0.236   76.592   13.921
  237.250    0.405    0.229   77.213   14.196
  237.500    0.435    0.228   76.610   16.218
  237.750    0.461    0.248   76.615   18.177
  238.000    0.473    0.267   77.850   19.992
  238.250    0.487    0.279   77.856   21.172
  238.500    0.502    0.286   77.864   22.848
  238.750    0.515    0.291   76.033   24.197
  239.000    0.543    0.298   72.366   26.612
  239.250    0.572    0.302   68.088   29.827
  239.500    0.563    0.301   63.200   34.713
  239.750    0.520    0.296   62.594   41.174
  240.000    0.457    0.294   63.213   46.149
  240.250    0.437    0.293   61.998   47.961
  240.500    0.434    0.297   60.781   49.863
  240.750    0.434    0.303   60.176   49.888
  241.000    0.436    0.309   60.797   49.008
  241.250    0.442    0.312   60.802   49.032
  241.500    0.434    0.313   62.035   50.025
  241.750    0.443    0.313   62.043   50.056
  242.000    0.437    0.315   58.988   51.045
  242.250    0.436    0.318   55.323   51.112
  242.500    0.442    0.322   54.720   51.133
  242.750    0.393    0.324   54.726   50.214
  243.000    0.362    0.322   55.349   50.253
  243.250    0.373    0.320   56.577   50.284
  243.500    0.426    0.319   59.648   50.328
  243.750    0.438    0.321   59.654   51.327
  244.000    0.417    0.325   59.051   52.367
  244.250    0.437    0.331   58.444   52.394
  244.500    0.482    0.332   58.454   52.444
  244.750    0.498    0.331   60.298   52.472
  245.000    0.447    0.328   62.754   52.519
  245.250    0.433    0.332   65.212   52.581
  245.500    0.440    0.336   65.217   51.628
  245.750    0.440    0.339   64.613   51.666
  246.000    0.451    0.339   62.786   51.721
  246.250    0.440    0.333   62.179   50.781
  246.500    0.415    0.327   62.799   49.871
  246.750    0.414    0.324   63.422   48.982
  247.000    0.427    0.324   64.654   47.218
  247.250    0.446    0.324   65.883   47.245
  247.500    0.449    0.323   66.504   46.402
  247.750    0.452    0.322   61.613   46.437
  248.000    0.457    0.322   57.950   47.361
  248.250    0.439    0.327   57.955   47.383
  248.500    0.424    0.334   58.575   48.343
  248.750    0.433    0.334   61.647   48.372
  249.000    0.458    0.331   64.714   48.402
  249.250    0.471    0.330   64.108   47.554
  249.500    0.471    0.329   60.443   47.576
  249.750    0.435    0.330   60.450   46.725
  250.000    0.432    0.335   62.295   45.897
  250.250    0.431    0.339   65.977   45.069
  250.500    0.434    0.340   69.045   44.261
  250.750    0.462    0.332   69.663   42.662
  251.000    0.515    0.327   67.835   41.120
  251.250    0.518    0.326   65.393   41.141
  251.500    0.516    0.331   62.952   39.648
  251.750    0.458    0.338   64.186   38.945
  252.000    0.445    0.343   66.029   38.256
  252.250    0.513    0.341   66.649   37.569
  252.500    0.538    0.332   70.331   37.590
  252.750    0.539    0.331   72.787   36.911
  253.000    0.490    0.337   70.957   36.253
  253.250    0.484    0.338   67.291   36.279
  253.500    0.480    0.331   61.790   36.313
  253.750    0.489    0.323   58.124   37.035
  254.000    0.500    0.323   58.132   37.077
  254.250    0.465    0.328   58.140   37.102
  254.500    0.456    0.335   58.758   37.126
  254.750    0.469    0.344   63.666   35.778
  255.000    0.471    0.345   66.733   33.836
  255.250    0.445    0.337   68.579   33.861
  255.500    0.460    0.334   68.585   34.537
  255.750    0.472    0.324   65.531   35.889
  256.000    0.497    0.332   61.867   37.300
  256.250    0.516    0.336   60.039   38.768
  256.500    0.521    0.340   59.431   39.535
  256.750    0.484    0.336   57.603   37.389
  257.000    0.468    0.328   57.000   34.708
  257.250    0.454    0.324   58.232   34.078
  257.500    0.471    0.331   59.461   32.845
  257.750    0.490    0.335   64.368   31.654
  258.000    0.516    0.337   64.376   31.680
  258.250    0.535    0.335   66.834   32.920
  258.500    0.531    0.331   68.064   33.579
  258.750    0.504    0.330   68.684   34.243
  259.000    0.488    0.331   65.020   33.631
  259.250    0.446    0.335   61.966   33.661
  259.500    0.419    0.341   61.360   33.058
  259.750    0.436    0.343   65.656   31.862
  260.000    0.452    0.343   66.273   30.712
  260.250    0.485    0.335   62.609   30.727
  260.500    0.468    0.333   63.843   31.341
  260.750    0.459    0.327   66.909   30.772
  261.000    0.457    0.320   72.428   28.026
  261.250    0.453    0.309   77.945   22.789
  261.500    0.448    0.294   81.016   18.535
  261.750    0.458    0.269   84.082   15.652
