~VERSION INFORMATION
 VERS.                 2.0:   CWLS LOG ASCII STANDARD -VERSION 2.0
 WRAP.                  NO:   ONE LINE PER DEPTH STEP
~WELL INFORMATION BLOCK
#MNEM.UNIT           DATA                    DESCRIPTION OF MNEMONIC
#---------    -------------------            -------------------------------
# Generated from Intellog Unique Number	CW_76_78/WELL/2565
WELL.         05-14-078-24W4                 : Well_name    - WELL
LOC .         AA/05-14-078-24W4/0            : Location     - LOCATION
UWI .         AA/05-14-078-24W4/0            : Uwi          - UNIQUE WELL ID
ENTR.         MAX                            : Entered      - ENTERED BY
SRVC.         SCHLUMBERGER                   : Scn          - SERVICE COMPANY
STRT.M        290                            : top_depth    - START DEPTH
STOP.M        545                            : bot_depth    - STOP DEPTH
STEP.M        0.25                           : increment    - STEP LENGTH
 NULL. -999.2500:NULL Value
~CURVE INFORMATION BLOCK
#MNEM UNIT       ERCB CURVE CODE    CURVE DESCRIPTION
#-----------   ------------------   ----------------------------------
DEPT.M        00 001 00 00         : DEPTH        - DEPTH
ILD .OHMM     00 120 00 00         : RESD         - DEEP RESISTIVITY (DIL)
NPHI.V/V      00 330 00 00         : PHIN         - NEUTRON POROSITY (SANDSTONE)
DPHI.V/V      00 890 00 00         : PHID         - DENSITY POROSITY (SANDSTONE)
CALI.MM       00 280 01 00         : CAL          - CALIPER
GR  .API      00 310 00 00         : GR           - GAMMA RAY
~PARAMETER INFORMATION
#MNEM.UNIT           DATA             DESCRIPTION OF MNEMONIC
#---------         -----------     ------------------------------
GL  .M        597.38               : gl           - GROUND LEVEL ELEVATION
EREF.M        602.13               : kb           - ELEVATION OF DEPTH REFERENCE
DATM.M        597.38               : datum        - DATUM ELEVATION
TDD .M        547                  : tdd          - TOTAL DEPTH DRILLER
RUN .         ONE                  : Run          - RUN NUMBER
ENG .         BILL                 : Engineer     - RECORDING ENGINEER
WIT .         JIM                  : Witness      - WITNESSED BY
MUD .         GEL                  : Mud_type     - MUD TYPE
MATR.         SANDSTONE            : Logunit      - NEUTRON MATRIX
TMAX.C        41.1                 : BHT          - MAXIMUM RECORDED TEMPERATURE
BHTD.M        547                  : BHTDEP       - MAXIMUM RECORDED TEMPERATURE
RMT .C        17.7                 : MDTP         - TEMPERATURE OF MUD
MUDD.KG/M     1115                 : MWT          - MUD DENSITY
NEUT.         1                    : NEUTRON      - NEUTRON TYPE
RESI.         0                    : RESIST       - RESISTIVITY TYPE
RM  .OHMM     6.28                 : RM           - RESISTIVITY OF MUD
RMC .OHMM     0.25                 : RMC          - RESISTIVITY OF MUD CAKE
RMF .OHMM     5.71                 : RMF          - RESISTIVITY OF MUD FILTRATE
SUFT.C        -20                  : SUFT         - SURFACE TEMPERATURE
~A  DEPTH     RESD     PHIN     PHID      CAL       GR
# ...
  399.500    9.106    0.458    0.236  187.004   90.252
  399.750    9.182    0.465    0.219  186.901   86.569
  400.000    9.174    0.446    0.195  186.297   85.603
  400.250    8.839    0.446    0.196  186.228   86.158
  400.500    8.516    0.457    0.203  186.126   87.603
  400.750    8.279    0.467    0.216  186.536   86.952
  401.000    8.122    0.467    0.214  187.461   85.686
  401.250    7.968    0.450    0.198  190.861   86.240
  401.500    7.819    0.448    0.196  193.303   86.192
  401.750    7.671    0.440    0.208  195.220   84.625
  402.000    7.665    0.420    0.231  196.121   85.172
  402.250    7.800    0.427    0.261  196.018   86.624
  402.500    7.866    0.446    0.242  195.950   86.870
  402.750    8.005    0.455    0.226  195.357   85.905
  403.000    8.073    0.445    0.216  192.253   88.869
  403.250    8.140    0.448    0.213  187.130   90.019
  403.500    8.209    0.450    0.221  186.012   87.254
  403.750    8.277    0.444    0.219  185.944   83.879
  404.000    8.271    0.440    0.207  185.841   80.209
  404.250    8.341    0.442    0.198  185.750   83.461
  404.500    8.411    0.447    0.202  186.161   86.419
  404.750    8.716    0.450    0.221  188.089   86.070
  405.000    9.201    0.454    0.220  191.489   84.207
  405.250   10.639    0.491    0.224  193.931   81.141
  405.500   12.083    0.510    0.225  193.829   74.151
  405.750   13.597    0.451    0.185  192.722   67.770
  406.000   16.162    0.340    0.120  192.129   67.100
  406.250   17.372    0.349    0.126  191.524   70.372
  406.500   16.582    0.336    0.164  190.953   68.195
  406.750   15.124    0.319    0.153  190.360   67.538
  407.000   13.544    0.428    0.290  190.269   70.797
  407.250   11.801    0.469    0.319  191.170   74.062
  407.500   10.470    0.465    0.312  193.087   79.436
  407.750    9.637    0.450    0.278  195.016   86.008
  408.000    8.472    0.432    0.224  199.945   86.857
  408.250    8.238    0.431    0.194  205.878   84.393
  408.500    8.231    0.446    0.196  209.803   84.632
  408.750    8.847    0.456    0.235  205.696   84.585
  409.000    9.340    0.438    0.228  197.572   83.024
  409.250   10.133    0.431    0.214  188.934   80.251
  409.500   11.094    0.438    0.193  187.839   76.883
  409.750   11.925    0.402    0.145  187.725   74.412
  410.000   11.806    0.326    0.139  188.136   74.056
  410.250   11.691    0.327    0.175  188.570   77.321
  410.500   11.261    0.409    0.207  189.973   81.175
  410.750   10.555    0.421    0.211  190.897   83.531
  411.000   10.358    0.416    0.206  192.803   85.584
  411.250   10.349    0.433    0.210  193.704   85.838
  411.500   10.629    0.453    0.222  194.127   80.957
  411.750   10.719    0.423    0.216  194.526   79.094
  412.000   10.806    0.392    0.198  194.435   80.245
  412.250   10.800    0.382    0.203  194.355   85.920
  412.500   10.889    0.431    0.211  194.252   86.153
  412.750   10.881    0.431    0.207  195.177   83.996
  413.000   10.675    0.426    0.210  195.553   83.038
  413.250   10.473    0.447    0.216  195.998   83.572
  413.500   10.277    0.449    0.220  195.382   84.428
  413.750   10.176    0.441    0.223  194.310   84.982
  414.000   10.168    0.424    0.222  189.666   84.325
  414.250   10.160    0.407    0.209  188.582   79.745
  414.500   10.153    0.417    0.197  189.997   79.382
  414.750   10.142    0.409    0.208  196.946   81.436
  415.000   10.044    0.403    0.213  202.377   84.093
  415.250    9.076    0.408    0.197  203.792   84.647
  415.500    8.508    0.414    0.165  202.194   83.381
  415.750    7.689    0.414    0.149  198.577   84.531
  416.000    7.012    0.424    0.210  198.988   89.302
  416.250    7.401    0.458    0.288  199.410   93.766
  416.500    8.639    0.484    0.301  199.810   92.506
  416.750    9.990    0.487    0.273  199.228   89.138
  417.000   11.344    0.457    0.244  196.592   85.763
  417.250   12.084    0.428    0.236  195.006   82.395
  417.500   11.857    0.417    0.232  193.911   79.924
  417.750   11.525    0.418    0.230  193.809   81.984
  418.000   11.518    0.415    0.225  193.740   75.905
  418.250   11.403    0.409    0.193  193.626   74.338
  418.500   11.291    0.409    0.161  193.546   79.712
  418.750   11.386    0.442    0.164  193.455   85.380
  419.000   12.018    0.443    0.185  193.364   88.036
  419.250   12.919    0.428    0.220  193.273   85.558
  419.500   13.889    0.439    0.218  193.181   83.094
  419.750   17.280    0.441    0.168  193.067   79.130
  420.000   24.433    0.415    0.125  192.999   74.256
  420.250   28.777    0.347    0.102  192.885   62.145
  420.500   33.274    0.327    0.099  192.816   53.950
  420.750   33.557    0.292    0.092  192.200   51.178
  421.000   32.331    0.265    0.068  191.128   58.359
  421.250   22.832    0.263    0.132  190.535   71.264
  421.500   16.875    0.399    0.205  189.919   82.964
  421.750   14.306    0.420    0.227  189.827   81.403
  422.000   13.908    0.405    0.225  190.238   80.438
  422.250   14.153    0.395    0.219  190.649   82.190
  422.500   15.077    0.406    0.211  191.071   81.533
  422.750   16.057    0.440    0.200  190.980   78.466
  423.000   17.265    0.419    0.185  190.387   75.091
  423.250   18.389    0.400    0.173  190.284   75.037
  423.500   17.878    0.378    0.166  189.691   74.982
  423.750   16.908    0.373    0.189  189.086   76.433
  424.000   16.292    0.389    0.207  188.995   79.096
  424.250   16.280    0.414    0.227  189.417   83.252
  424.500   16.567    0.435    0.220  190.319   83.799
  424.750   17.171    0.423    0.204  191.231   84.053
  425.000   17.796    0.397    0.178  192.156   79.172
  425.250   18.226    0.360    0.177  189.249   75.602
  425.500   19.096    0.405    0.202  189.254   76.800
  425.750   19.458    0.406    0.140  189.260   72.620
  426.000   19.827    0.336    0.110  189.763   71.129
  426.250   19.835    0.301    0.127  189.768   79.797
  426.500   19.122    0.344    0.161  190.271   86.673
  426.750   17.602    0.402    0.188  190.774   85.780
  427.000   16.352    0.412    0.214  191.278   85.484
  427.250   14.777    0.401    0.216  192.279   86.982
  427.500   13.728    0.403    0.219  193.280   87.582
  427.750   13.358    0.417    0.217  193.285   85.792
  428.000   13.117    0.424    0.190  193.290   81.911
  428.250   13.002    0.422    0.173  193.296   84.006
  428.500   13.002    0.406    0.182  192.804   86.698
  428.750   12.893    0.401    0.180  191.315   88.494
  429.000   12.776    0.416    0.184  190.324   87.302
  429.250   12.547    0.422    0.196  190.328   85.811
  429.500   12.436    0.420    0.204  190.831   84.320
  429.750   12.326    0.407    0.189  191.335   84.024
  430.000   12.331    0.393    0.192  191.838   84.326
  430.250   12.335    0.411    0.190  192.341   84.628
  430.500   12.339    0.410    0.184  191.849   86.125
  430.750   12.230    0.422    0.187  192.849   89.415
  431.000   12.122    0.419    0.185  193.851   89.119
  431.250   12.014    0.406    0.167  193.857   87.031
  431.500   11.799    0.416    0.154  194.359   87.633
  431.750   11.587    0.414    0.169  195.360   87.336
  432.000   11.591    0.401    0.186  196.362   86.144
  432.250   11.595    0.388    0.186  196.367   85.848
  432.500   11.707    0.389    0.179  196.372   87.047
  432.750   11.714    0.401    0.180  195.879   87.648
  433.000   11.934    0.404    0.175  195.885   90.937
  433.250   12.388    0.398    0.165  195.889   92.734
  433.500   12.858    0.383    0.165  195.894   90.645
  433.750   13.225    0.371    0.177  195.900   87.362
  434.000   13.352    0.365    0.178  196.403   85.870
  434.250   13.113    0.363    0.178  196.408   85.575
  434.500   12.524    0.373    0.174  196.414   84.980
  434.750   11.744    0.361    0.166  196.419   86.178
  435.000   10.910    0.360    0.147  197.419   88.572
  435.250   10.230    0.369    0.141  199.915   92.759
  435.500    9.771    0.374    0.190  205.398   98.140
  435.750    9.596    0.390    0.210  206.400   93.661
