~VERSION INFORMATION
 VERS.                 2.0:   CWLS LOG ASCII STANDARD -VERSION 2.0
 WRAP.                  NO:   ONE LINE PER DEPTH STEP
~WELL INFORMATION BLOCK
#MNEM.UNIT           DATA                    DESCRIPTION OF MNEMONIC
#---------    -------------------            -------------------------------
# Generated from Intellog Unique Number	CC_88_90/WELL/1054
WELL.         MOBIL CLARKE OV 4-11           : Well_name    - WELL
LOC .         04-11-090-08W4                 : Location     - LOCATION
UWI .         AA/04-11-090-08W400            : Uwi          - UNIQUE WELL ID
ENTR.         DW                             : Entered      - ENTERED BY
SRVC.         SCHLUMBERGER                   : Scn          - SERVICE COMPANY
STRT.M        25                             : top_depth    - START DEPTH
STOP.M        201.75                         : bot_depth    - STOP DEPTH
STEP.M        0.25                           : increment    - STEP LENGTH
 NULL. -999.2500:NULL Value
~CURVE INFORMATION BLOCK
#MNEM UNIT       ERCB CURVE CODE    CURVE DESCRIPTION
#-----------   ------------------   ----------------------------------
DEPT.M        00 001 00 00         : DEPTH        - DEPTH
GR  .API      00 310 00 00         : GR           - GAMMA RAY
DPHI.V/V      00 890 00 00         : PHID         - DENSITY POROSITY (SANDSTONE)
NPHI.V/V      00 330 00 00         : PHIN         - NEUTRON POROSITY (SANDSTONE)
ILD .OHMM     00 120 00 00         : RESD         - DEEP RESISTIVITY (DIL)
~PARAMETER INFORMATION
#MNEM.UNIT           DATA             DESCRIPTION OF MNEMONIC
#---------         -----------     ------------------------------
GL  .M        434.2                : gl           - GROUND LEVEL ELEVATION
EREF.M        0                    : kb           - ELEVATION OF DEPTH REFERENCE
DATM.M        434.2                : datum        - DATUM ELEVATION
TDD .M        207                  : tdd          - TOTAL DEPTH DRILLER
RUN .         ONE                  : Run          - RUN NUMBER
ENG .         BILL                 : Engineer     - RECORDING ENGINEER
WIT .         JIM                  : Witness      - WITNESSED BY
MUD .         GEL                  : Mud_type     - MUD TYPE
MATR.         SANDSTONE            : Logunit      - NEUTRON MATRIX
TMAX.C        16                   : BHT          - MAXIMUM RECORDED TEMPERATURE
BHTD.M        206                  : BHTDEP       - MAXIMUM RECORDED TEMPERATURE
MATR.         1                    : LOGUNIT      - NEUTRON MATRIX
RMT .C        25                   : MDTP         - TEMPERATURE OF MUD
NEUT.         1                    : NEUTRON      - NEUTRON TYPE
RESI.         0                    : RESIST       - RESISTIVITY TYPE
RMC .OHMM     0.25                 : RMC          - RESISTIVITY OF MUD CAKE
RMF .OHMM     0.25                 : RMF          - RESISTIVITY OF MUD FILTRATE
SUFT.C        4                    : SUFT         - SURFACE TEMPERATURE
~A  DEPTH       GR     PHID     PHIN     RESD
# ...
   68.500   98.626    0.240    0.512    6.526
   68.750  102.750    0.262    0.514    6.487
   69.000  105.733    0.278    0.534    6.637
   69.250  105.670    0.290    0.540    6.737
   69.500  104.297    0.278    0.529    6.554
   69.750  104.430    0.253    0.510    6.165
   70.000  106.649    0.259    0.489    5.810
   70.250  108.638    0.256    0.493    5.429
   70.500  111.407    0.247    0.522    5.282
   70.750  112.436    0.243    0.545    5.610
   71.000  112.204    0.245    0.538    6.192
   71.250  111.045    0.248    0.523    6.962
   71.500  105.984    0.250    0.509    7.784
   71.750   98.715    0.251    0.456    7.616
   72.000   92.948    0.235    0.444    7.521
   72.250   93.795    0.229    0.455    7.527
   72.500   96.742    0.237    0.468    7.564
   72.750   96.526    0.245    0.489    7.740
   73.000   96.017    0.254    0.497    7.897
   73.250   95.909    0.249    0.499    8.084
   73.500   96.810    0.241    0.492    8.004
   73.750   97.578    0.231    0.500    8.501
   74.000   96.486    0.222    0.506    9.981
   74.250   93.434    0.213    0.495   11.973
   74.500   89.769    0.218    0.493   13.825
   74.750   86.796    0.282    0.493   14.915
   75.000   87.845    0.306    0.485   15.380
   75.250   88.394    0.315    0.491   15.465
   75.500   86.239    0.309    0.495   15.391
   75.750   83.711    0.286    0.482   15.108
   76.000   82.283    0.291    0.472   14.351
   76.250   82.179    0.279    0.459   13.050
   76.500   82.945    0.258    0.475   10.820
   76.750   84.658    0.265    0.490    8.997
   77.000   86.838    0.277    0.484    7.768
   77.250   88.841    0.264    0.480    6.585
   77.500   92.166    0.247    0.497    5.737
   77.750   99.030    0.244    0.507    5.158
   78.000  102.854    0.255    0.500    5.060
   78.250  103.542    0.258    0.488    5.058
   78.500  102.935    0.263    0.488    5.117
   78.750  102.896    0.272    0.498    5.589
   79.000  105.146    0.267    0.509    6.469
   79.250  106.491    0.261    0.530    7.467
   79.500  104.371    0.271    0.527    8.718
   79.750   99.516    0.280    0.513    9.469
   80.000   93.138    0.292    0.507    9.468
   80.250   87.516    0.308    0.502    8.942
   80.500   85.873    0.312    0.499    8.036
   80.750   88.533    0.303    0.508    7.311
   81.000   94.981    0.263    0.511    6.660
   81.250  100.657    0.211    0.500    5.740
   81.500  103.463    0.190    0.496    4.640
   81.750  105.611    0.213    0.508    3.929
   82.000  109.404    0.247    0.529    3.788
   82.250  114.140    0.254    0.549    3.436
   82.500  117.231    0.263    0.541    3.032
   82.750  116.530    0.259    0.535    2.790
   83.000  114.072    0.251    0.545    2.609
   83.250  113.044    0.256    0.559    2.435
   83.500  113.705    0.263    0.570    2.440
   83.750  115.189    0.277    0.578    2.600
   84.000  117.195    0.275    0.585    2.725
   84.250  118.914    0.267    0.583    3.078
   84.500  115.860    0.269    0.572    3.664
   84.750  109.679    0.266    0.560    4.409
   85.000  108.080    0.251    0.553    5.250
   85.250  108.377    0.245    0.546    5.602
   85.500  110.758    0.244    0.534    5.910
   85.750  112.682    0.240    0.521    6.229
   86.000  113.078    0.232    0.513    6.632
   86.250  112.966    0.233    0.502    7.132
   86.500  112.998    0.244    0.479    7.441
   86.750  112.886    0.233    0.467    7.588
   87.000  108.458    0.225    0.476    7.893
   87.250  106.350    0.231    0.496    8.182
   87.500  109.839    0.225    0.506    8.699
   87.750  114.256    0.208    0.506    9.633
   88.000  114.818    0.209    0.503   10.668
   88.250  111.187    0.220    0.482   11.881
   88.500  108.304    0.230    0.468   12.754
   88.750  102.801    0.228    0.447   12.899
   89.000   95.205    0.197    0.425   12.480
   89.250   92.696    0.173    0.421   11.611
   89.500   97.400    0.188    0.429   10.357
   89.750  101.677    0.164    0.442    9.455
   90.000  104.660    0.201    0.464    8.698
   90.250  106.049    0.253    0.476    8.234
   90.500  105.806    0.273    0.476    8.346
   90.750  103.471    0.285    0.474    8.641
   91.000   98.606    0.286    0.464    8.397
   91.250   94.186    0.257    0.462    7.844
   91.500   92.840    0.249    0.463    7.494
   91.750   93.672    0.246    0.467    6.903
   92.000   97.578    0.236    0.474    6.267
   92.250  103.193    0.231    0.486    5.990
   92.500  106.001    0.224    0.498    5.805
   92.750  108.394    0.222    0.490    5.770
   93.000  112.782    0.225    0.466    5.863
   93.250  116.819    0.234    0.455    6.257
   93.500  117.608    0.241    0.465    6.759
   93.750  116.308    0.236    0.481    6.999
   94.000  115.266    0.228    0.491    6.955
   94.250  112.287    0.227    0.486    6.778
   94.500  108.731    0.235    0.460    6.473
   94.750  107.468    0.234    0.441    5.973
   95.000  109.686    0.229    0.448    5.476
   95.250  113.418    0.225    0.467    5.168
   95.500  115.221    0.214    0.480    4.985
   95.750  114.245    0.218    0.483    4.954
   96.000  113.378    0.214    0.487    5.080
   96.250  113.547    0.217    0.494    5.262
   96.500  114.264    0.213    0.500    5.367
   96.750  114.500    0.191    0.502    5.296
   97.000  113.319    0.188    0.501    5.100
   97.250  112.001    0.223    0.497    4.938
   97.500  113.503    0.240    0.504    4.458
   97.750  113.064    0.248    0.498    3.969
   98.000  110.568    0.249    0.488    3.720
   98.250  109.424    0.235    0.497    3.516
   98.500  109.551    0.232    0.515    3.337
   98.750  111.102    0.252    0.536    3.642
   99.000  112.040    0.256    0.566    4.103
   99.250  111.661    0.258    0.563    4.815
   99.500  111.490    0.246    0.538    5.721
   99.750  112.086    0.217    0.517    6.524
  100.000  111.991    0.204    0.496    6.982
  100.250  111.040    0.196    0.499    6.822
  100.500  109.207    0.200    0.498    6.470
  100.750  106.590    0.184    0.493    6.080
  101.000  102.896    0.127    0.452    5.818
  101.250   99.826    0.112    0.403    5.915
  101.500  100.161    0.190    0.424    6.258
  101.750  101.875    0.196    0.455    6.427
  102.000  101.559    0.201    0.468    6.470
  102.250  102.065    0.212    0.467    6.280
  102.500  105.523    0.209    0.459    5.742
  102.750  108.386    0.185    0.450    5.000
  103.000  106.942    0.157    0.448    4.298
  103.250  104.732    0.184    0.447    3.599
  103.500  104.552    0.212    0.465    2.826
  103.750  108.808    0.248    0.494    2.423
  104.000  112.888    0.289    0.525    2.344
  104.250  111.000    0.303    0.561    2.369
  104.500  103.178    0.291    0.601    2.534
  104.750   93.763    0.290    0.625    2.512
  105.000   97.177    0.299    0.588    2.625
  105.250   99.359    0.299    0.564    2.789
  105.500   97.085    0.288    0.555    2.996
  105.750   98.742    0.266    0.538    3.384
  106.000  101.274    0.236    0.536    3.898
  106.250  100.116    0.229    0.502    4.408
  106.500   96.001    0.203    0.473    4.778
  106.750   95.532    0.213    0.491    5.043
  107.000   95.785    0.240    0.521    5.008
  107.250   92.492    0.235    0.511    4.854
  107.500   90.683    0.217    0.474    4.839
  107.750   92.618    0.188    0.460    4.133
  108.000   94.912    0.154    0.453    3.634
  108.250   96.623    0.147    0.449    3.437
  108.500   98.048    0.185    0.452    3.237
  108.750  102.784    0.231    0.463    3.081
  109.000  111.732    0.236    0.489    3.072
  109.250  113.725    0.221    0.518    3.036
  109.500  112.876    0.230    0.515    3.314
  109.750  111.258    0.240    0.505    3.572
  110.000  110.423    0.233    0.516    3.694
  110.250  111.267    0.229    0.535    3.867
  110.500  111.690    0.244    0.549    4.018
  110.750  110.729    0.244    0.567    4.012
  111.000  109.222    0.240    0.563    3.961
  111.250  107.646    0.243    0.533    4.083
  111.500  107.698    0.241    0.515    4.168
  111.750  109.521    0.233    0.523    4.166
