~VERSION INFORMATION
 VERS.                 2.0:   CWLS LOG ASCII STANDARD -VERSION 2.0
 WRAP.                  NO:   ONE LINE PER DEPTH STEP
~WELL INFORMATION BLOCK
#MNEM.UNIT           DATA                    DESCRIPTION OF MNEMONIC
#---------    -------------------            -------------------------------
# Generated from Intellog Unique Number	CN_94_101/WELL/4996
WELL.         09-23-099-13W4                 : Well_name    - WELL
LOC .         AA/09-23-099-13W4/0            : Location     - LOCATION
UWI .         AA/09-23-099-13W400            : Uwi          - UNIQUE WELL ID
ENTR.         TIM                            : Entered      - ENTERED BY
SRVC.         WESTERN ATLAS                  : Scn          - SERVICE COMPANY
DATE.         08/28/92                       : Date         - LOG DATE
STRT.M        535                            : top_depth    - START DEPTH
STOP.M        605                            : bot_depth    - STOP DEPTH
STEP.M        0.25                           : increment    - STEP LENGTH
 NULL. -999.2500:NULL Value
~CURVE INFORMATION BLOCK
#MNEM UNIT       ERCB CURVE CODE    CURVE DESCRIPTION
#-----------   ------------------   ----------------------------------
DEPT.M        00 001 00 00         : DEPTH        - DEPTH
GR  .API      00 310 00 00         : GR           - GAMMA RAY
ILD .OHMM     00 120 00 00         : RESD         - DEEP RESISTIVITY (DIL)
NPHI.V/V      00 330 00 00         : PHIN         - NEUTRON POROSITY (SANDSTONE)
DPHI.V/V      00 890 00 00         : PHID         - DENSITY POROSITY (SANDSTONE)
~PARAMETER INFORMATION
#MNEM.UNIT           DATA             DESCRIPTION OF MNEMONIC
#---------         -----------     ------------------------------
GL  .M        840.16               : gl           - GROUND LEVEL ELEVATION
EREF.M        843.4                : kb           - ELEVATION OF DEPTH REFERENCE
DATM.M        843.4                : datum        - DATUM ELEVATION
TDD .M        610                  : tdd          - TOTAL DEPTH DRILLER
RUN .         ONE                  : Run          - RUN NUMBER
ENG .         JO                   : Engineer     - RECORDING ENGINEER
WIT .         TIM                  : Witness      - WITNESSED BY
MUD .         GEL                  : Mud_type     - MUD TYPE
MATR.         SANDSTONE            : Logunit      - NEUTRON MATRIX
TMAX.C        26                   : BHT          - MAXIMUM RECORDED TEMPERATURE
BHTD.M        610                  : BHTDEP       - MAXIMUM RECORDED TEMPERATURE
RMT .C        5                    : MDTP         - TEMPERATURE OF MUD
MUDD.KG/M     1065                 : MWT          - MUD DENSITY
NEUT.         1                    : NEUTRON      - NEUTRON TYPE
RESI.         0                    : RESIST       - RESISTIVITY TYPE
RM  .OHMM     4.79                 : RM           - RESISTIVITY OF MUD
RMC .OHMM     3.97                 : RMC          - RESISTIVITY OF MUD CAKE
RMF .OHMM     3.97                 : RMF          - RESISTIVITY OF MUD FILTRATE
SUFT.C        4                    : SUFT         - SURFACE TEMPERATURE
~A  DEPTH       GR     RESD     PHIN     PHID
# ...
  578.500   70.568    8.336    0.381    0.246
  578.750   68.740    8.671    0.375    0.233
  579.000   66.889    9.190    0.377    0.194
  579.250   64.422    9.560    0.378    0.135
  579.500   66.350    9.762    0.382    0.070
  579.750   69.522    9.791    0.385    0.120
  580.000   73.961    9.282    0.379    0.216
  580.250   79.656    8.959    0.371    0.237
  580.500   84.722    8.341    0.366    0.243
  580.750   88.534    8.051    0.363    0.239
  581.000   91.089    7.632    0.367    0.231
  581.250   95.550    7.240    0.373    0.219
  581.500   99.361    6.863    0.381    0.210
  581.750  103.172    6.628    0.387    0.209
  582.000  104.461    6.405    0.396    0.214
  582.250  106.389    6.416    0.395    0.221
  582.500  108.316    6.428    0.392    0.224
  582.750  109.616    6.446    0.392    0.228
  583.000  108.416    6.458    0.392    0.219
  583.250  107.821    6.480    0.390    0.206
  583.500  105.992    6.492    0.377    0.199
  583.750  105.409    6.503    0.369    0.193
  584.000  105.442    6.644    0.367    0.189
  584.250  106.752    6.664    0.368    0.191
  584.500  108.063    6.672    0.369    0.198
  584.750  108.085    6.564    0.373    0.215
  585.000  108.768    6.466    0.373    0.215
  585.250  104.429    6.473    0.371    0.213
  585.500  101.939    6.489    0.371    0.206
  585.750   96.961    6.504    0.375    0.203
  586.000   89.471    6.766    0.377    0.209
  586.250   86.398    7.586    0.378    0.224
  586.500   85.175    7.604    0.366    0.224
  586.750   83.325    7.080    0.343    0.197
  587.000   80.868    6.829    0.326    0.156
  587.250   81.551    6.596    0.335    0.141
  587.500   82.212    6.615    0.360    0.178
  587.750   80.373    7.010    0.375    0.222
  588.000   77.906    7.715    0.384    0.245
  588.250   75.438    8.645    0.380    0.250
  588.500   75.482    8.989    0.380    0.266
  588.750   75.515    9.526    0.378    0.267
  589.000   73.687    9.910    0.372    0.257
  589.250   71.231   10.315    0.365    0.253
  589.500   70.625   10.333    0.366    0.253
  589.750   68.158   10.179    0.372    0.253
  590.000   68.830   10.009    0.385    0.256
  590.250   70.757    9.672    0.386    0.257
  590.500   71.429    9.689    0.387    0.257
  590.750   71.484    9.717    0.388    0.263
  591.000   71.528    9.922    0.391    0.268
  591.250   70.934   10.328    0.402    0.273
  591.500   68.478   10.540    0.408    0.284
  591.750   66.010   10.763    0.380    0.255
  592.000   63.532   10.788    0.382    0.263
  592.250   63.576   10.807    0.388    0.267
  592.500   63.631   10.633    0.394    0.264
  592.750   60.536   10.275    0.395    0.262
  593.000   56.802    9.929    0.393    0.267
  593.250   58.752    9.764    0.391    0.271
  593.500   60.029    9.424    0.395    0.272
  593.750   60.074    9.272    0.399    0.267
  594.000   58.245    8.795    0.401    0.258
  594.250   55.778    8.648    0.391    0.262
  594.500   55.811    8.509    0.380    0.266
  594.750   57.122    8.372    0.370    0.269
  595.000   58.422    8.396    0.374    0.270
  595.250   56.582    8.416    0.380    0.271
  595.500   55.998    8.435    0.386    0.272
  595.750   54.798    8.460    0.389    0.279
  596.000   51.703    8.629    0.389    0.290
  596.250   50.491    8.654    0.392    0.295
  596.500   51.791    8.669    0.393    0.279
  596.750   50.579    8.535    0.399    0.277
  597.000   49.985    8.402    0.401    0.283
  597.250   48.773    8.257    0.406    0.288
  597.500   48.817    8.133    0.409    0.289
  597.750   46.989    7.993    0.398    0.293
  598.000   44.522    7.869    0.386    0.301
  598.250   42.043    7.746    0.388    0.309
  598.500   41.459    7.760    0.387    0.305
  598.750   47.154    7.635    0.384    0.307
  599.000   47.837    7.374    0.377    0.296
  599.250   45.370    6.990    0.375    0.279
  599.500   43.520    6.627    0.370    0.280
  599.750   42.308    6.392    0.376    0.291
  600.000   41.724    5.735    0.381    0.311
  600.250   39.896    5.238    0.382    0.315
  600.500   38.684    4.871    0.382    0.309
  600.750   34.961    4.793    0.385    0.291
  601.000   35.005    4.894    0.388    0.297
  601.250   36.922    5.190    0.392    0.305
  601.500   38.850    5.012    0.376    0.312
  601.750   40.149    4.578    0.371    0.314
  602.000   39.577    4.179    0.370    0.308
  602.250   37.748    3.818    0.378    0.304
  602.500   36.526    3.300    0.386    0.302
  602.750   35.931    3.069    0.398    0.309
  603.000   34.719    2.750    0.401    0.316
  603.250   29.752    2.512    0.391    0.316
  603.500   26.646    2.212    0.379    0.307
  603.750   27.967    2.176    0.367    0.275
  604.000   29.245    2.181    0.356    0.254
  604.250   33.067    2.269    0.345    0.222
  604.500   36.251    2.405    0.339    0.164
  604.750   38.806    2.549    0.338    0.115
  605.000   40.095    2.856    0.340    0.081
