~Version : LASO    vs 4.00
VERS.                2.00:   CWLS Log ASCII Standard -VERSION 2.0
WRAP.                  NO:
~Well Information Block
#MNEM.UNIT       Data                        Description of Mnemonic
#----.----      -------------------------- : -----------------------------
STRT.M            11.0000:
STOP.M           176.0000:
STEP.M             0.1000:
NULL.           -999.2500:
COMP.  MOBIL OIL CANADA LTD.  :COMPANY
WELL.  MOBIL CLARKE OV 5-32   :WELL
FLD.   CLARKE                 :FIELD
LOC.   05-32-089-08W4         :LOCATION
CTRY.  CANADA                 :COUNTRY
PROV.  ALBERTA                :PROVINCE
SRVC.  SCHLUMBERGER           :SERVICE COMPANY
DATE.  04-MAR-81              :LOG DATE
UWI.   AA/05-32-089-08W400    :UNIQUE WELL ID
~Parameter Information Block
#MNEM.UNIT       Data                        Description of Mnemonic
#----.----      -------------------------- : -----------------------------
RUN .                   1                 : Run Number
GL  .M           391.1000                 : Ground Level Elevation
DREF.                  KB                 : Depth Reference
EREF.M           394.5000                 : Elevation of Depth Reference
TDL .M           176.5000                 : Total Depth Logger
TDD .M           174.0000                 : Total Depth Driller
CSGL.M            16.0000                 : Casing Bottom Logger
CSGD.M            14.6000                 : Casing Bottom Driller
CSGS.MM          219.0000                 : Casing Size
CSGW.KG/M          0.0000                 : Casing Weight
BHT .DEGC         23.0000                 : Bottom Hole Temperature
BS  .MM          159.0000                 : Bit Size
DFD .           1110.0000                 : Mud Weight (Density)
DFV .             90.0000                 : Mud Viscosity
DFPH.             10.0000                 : Mud pH
RM  .OHMM          1.9600                 : Mud Resistivity
RMT .DEGC         20.0000                 : Mud Resistivity Temperature
~Curve Information Block
#MNEM.UNIT        API CODE    Curve Description
#---------    ------------    -------------------------------------------
DEPT.M                    :   DEPTH
CALI.MM       42 280  1  1:   3 DENSITY CALIPER
DPHI.V/V                  :   DPHI
DT  .US/M     60 520  0  1:   2 SONIC INTERVAL TRANSIT TIME (COMPENSATED)
GR  .GAPI     42 310  1  1:   4 GAMMA RAY
ILD .OHMM      5 120 46  1:   6 DEEP INDUCTION
ILM .OHMM      5 120 44  1:   7 MEDIUM INDUCTION
NPHI.V/V                  :   NPHI
RHOB.K/M3     42 350  1  1:   5 BULK DENSITY
SFLU.OHMM      5 220  1  1:   8 FOCUSSED RESISTIVITY
SP  .MV        5  10  1  1:   9 SPONTANEOUS POTENTIAL
~A  Depth           CALI        DPHI          DT          GR         ILD         ILM        NPHI        RHOB        SFLU          SP
# ...
96.4000         162.1750      0.2427    473.8400     84.6000     15.1297     13.1774      0.3774   2250.8999     19.5808   -120.0000
96.5000         162.1750      0.2403    480.3600     83.0850     15.1297     13.1774      0.3853   2250.8999     19.5808   -120.0000
96.6000         162.1750      0.2416    486.1200     76.5300     16.8978     14.0550      0.3881   2245.0000     18.5281   -120.7500
96.7000         162.1750      0.2569    490.7200     70.3950     16.8978     14.0550      0.3901   2245.0000     18.5281   -120.7500
96.8000         162.1750      0.2624    494.8400     67.2150     18.0231     15.5536      0.3901   2243.0000     17.5319   -119.2500
96.9000         162.1750      0.2649    497.7600     65.1300     18.0231     15.5536      0.3883   2243.0000     17.5319   -119.2500
97.0000         160.9000      0.2635    496.1200     64.5000     19.0471     17.6942      0.3887   2228.0000     19.4013   -117.2550
97.1000         160.9000      0.2593    494.0400     63.8700     19.0471     17.6942      0.3922   2228.0000     19.4013   -117.2550
97.2000         162.1750      0.2572    493.5200     63.2100     22.0714     20.5036      0.3930   2204.0000     31.3206   -114.2550
97.3000         162.1750      0.2568    500.8800     62.4600     22.0714     20.5036      0.3914   2204.0000     31.3206   -114.2550
97.4000         169.8250      0.2617    500.8800     61.7250     25.1090     21.0780      0.3853   2219.0000     28.5647   -112.5000
97.5000         169.8250      0.2730    509.2800     59.8050     25.1090     21.0780      0.3728   2219.0000     28.5647   -112.5000
97.6000         163.4500      0.2831    530.7600     57.1200     29.6367     23.5413      0.3566   2217.0000     22.4817   -110.0100
97.7000         163.4500      0.2886    541.0400     53.9250     29.6367     23.5413      0.3475   2217.0000     22.4817   -110.0100
97.8000         160.9000      0.2893    543.5600     50.7300     40.1634     38.0041      0.3415   2163.0000     27.0290   -111.2550
97.9000         160.9000      0.2876    530.3600     47.8950     40.1634     38.0041      0.3387   2163.0000     27.0290   -111.2550
98.0000         162.1750      0.2846    500.8800     47.8350     45.2720     50.5627      0.3440   2164.0000     46.5404   -114.7500
98.1000         162.1750      0.2796    500.0800     47.7750     45.2720     50.5627      0.3514   2164.0000     46.5404   -114.7500
98.2000         162.1750      0.2719    496.0000     51.0000     51.5027     62.4928      0.3609   2166.0000     94.5867   -117.5100
98.3000         162.1750      0.2639    455.3200     53.8950     51.5027     62.4928      0.3702   2166.0000     94.5867   -117.5100
98.4000         167.2750      0.2597    435.7200     57.6750     86.2641     99.9608      0.3762   2215.0000    210.7803   -117.2550
98.5000         167.2750      0.2630    432.3600     61.4550     86.2641     99.9608      0.3780   2215.0000    210.7803   -117.2550
98.6000         168.5500      0.2662    429.9600     65.2350    107.6044    140.5497      0.3764   2227.0000    233.2544   -114.5100
98.7000         168.5500      0.2642    428.0400     68.4000    107.6044    140.5497      0.3746   2227.0000    233.2544   -114.5100
98.8000         169.8250      0.2622    427.2000     71.5050    108.6000    185.2806      0.3716   2216.0000    290.9577   -111.5100
98.9000         169.8250      0.2555    427.2800     74.6100    108.6000    185.2806      0.3686   2216.0000    290.9577   -111.5100
99.0000         169.8250      0.2484    429.2800     76.9650     86.2641    172.1194      0.3694   2209.0000    412.8858   -108.7500
99.1000         169.8250      0.2406    431.5200     78.2550     86.2641    172.1194      0.3677   2209.0000    412.8858   -108.7500
99.2000         169.8250      0.2283    439.0800     79.3500     45.2720     62.4928      0.3658   2229.0000    161.3727   -108.5100
99.3000         169.8250      0.2294    446.0800     80.2350     45.2720     62.4928      0.3638   2229.0000    161.3727   -108.5100
99.4000         173.6500      0.2367    452.6800     80.7600     34.3423     36.9683      0.3617   2253.0000     56.9941   -108.5100
99.5000         173.6500      0.2418    458.0800     80.1150     34.3423     36.9683      0.3586   2253.0000     56.9941   -108.5100
99.6000         172.3750      0.2410    460.8000     79.6500     28.3028     25.5758      0.3556   2292.0000     27.0290   -108.0000
99.7000         172.3750      0.2364    462.6400     79.3200     28.3028     25.5758      0.3510   2292.0000     27.0290   -108.0000
99.8000         167.2750      0.2299    464.5600     80.1000     20.6933     17.8579      0.3456   2253.0000     13.9261   -108.5100
99.9000         167.2750      0.2235    467.0400     81.0600     20.6933     17.8579      0.3466   2253.0000     13.9261   -108.5100
100.0000        167.2750      0.2165    469.5200     82.3800     18.1899     16.1373      0.3481   2249.0000     13.9261   -110.7600
100.1000        167.2750      0.2142    472.1200     82.8750     18.1899     16.1373      0.3508   2249.0000     13.9261   -110.7600
100.2000        169.8250      0.2119    474.7200     83.0850     16.4373     14.5824      0.3552   2281.0000     15.1297   -111.5100
100.3000        169.8250      0.2138    477.3200     82.9350     16.4373     14.5824      0.3581   2281.0000     15.1297   -111.5100
100.4000        168.5500      0.2157    479.4800     82.6500     15.2697     13.6719      0.3609   2312.0000     16.1373   -110.0100
100.5000        168.5500      0.2159    481.7200     82.3650     15.2697     13.6719      0.3632   2312.0000     16.1373   -110.0100
100.6000        169.8250      0.2171    480.9600     82.8150     15.4110     13.7984      0.3667   2305.0000     18.5281   -112.0050
100.7000        169.8250      0.2279    478.5200     83.2650     15.4110     13.7984      0.3693   2305.0000     18.5281   -112.0050
100.8000        168.5500      0.2357    476.8400     83.7450     15.5536     13.9261      0.3713   2296.0000     17.3712   -111.5100
100.9000        168.5500      0.2381    476.5200     83.4750     15.5536     13.9261      0.3732   2296.0000     17.3712   -111.5100
101.0000        168.5500      0.2390    476.4400     83.1750     15.8427     14.3163      0.3759   2279.0000     18.3582   -111.5100
101.1000        168.5500      0.2390    474.8800     82.8750     15.8427     14.3163      0.3792   2279.0000     18.3582   -111.5100
101.2000        169.8250      0.2381    472.4800     81.9000     16.1373     13.9261      0.3794   2250.8999     19.7620   -111.2550
101.3000        169.8250      0.2379    480.7200     80.6250     16.1373     13.9261      0.3738   2250.8999     19.7620   -111.2550
101.4000        174.9250      0.2402    489.0400     79.3500     16.5894     13.7984      0.3691   2244.0000     16.8978   -110.7600
101.5000        174.9250      0.2433    496.0400     76.8600     16.5894     13.7984      0.3622   2244.0000     16.8978   -110.7600
101.6000        166.0000      0.2494    501.0400     73.5450     18.3582     15.5536      0.3525   2250.8999     13.0566   -114.0000
101.7000        166.0000      0.2552    501.0400     70.2300     18.3582     15.5536      0.3436   2250.8999     13.0566   -114.0000
101.8000        164.7500      0.2599    501.0400     66.9300     19.7620     17.0541      0.3392   2259.0000     16.7429   -119.2500
101.9000        164.7500      0.2640    521.3200     63.6300     19.7620     17.0541      0.3358   2259.0000     16.7429   -119.2500
102.0000        163.4500      0.2686    526.0000     60.5250     21.4699     18.6995      0.3332   2231.0000     20.5036   -123.0000
102.1000        163.4500      0.2738    531.3600     59.1000     21.4699     18.6995      0.3311   2231.0000     20.5036   -123.0000
102.2000        162.1750      0.2810    540.0000     57.6750     24.4247     21.4699      0.3298   2219.0000     24.4247   -125.7600
102.3000        162.1750      0.2882    552.3200     56.4900     24.4247     21.4699      0.3272   2219.0000     24.4247   -125.7600
102.4000        162.1750      0.2947    564.7200     56.2350     34.6601     30.1877      0.3259   2198.0000     32.4960   -128.5050
