~VERSION INFORMATION
 VERS.                 2.0:   CWLS LOG ASCII STANDARD -VERSION 2.0
 WRAP.                  NO:   ONE LINE PER DEPTH STEP
~WELL INFORMATION BLOCK
#MNEM.UNIT           DATA                    DESCRIPTION OF MNEMONIC
#---------    -------------------            -------------------------------
# Generated from Intellog Unique Number	CX_WELLS/WELL/3784
WELL.         BIT SAND                       : Well_name    - WELL
LOC .         AA/08-28-086-15W4/0            : Location     - LOCATION
UWI .         AA/08-28-086-15W400            : Uwi          - UNIQUE WELL ID
ENTR.         T                              : Entered      - ENTERED BY
SRVC.         SCHLUMBERGER                   : Scn          - SERVICE COMPANY
STRT.F        200                            : top_depth    - START DEPTH
STOP.F        679.823                        : bot_depth    - STOP DEPTH
STEP.F        0.82                           : increment    - STEP LENGTH
 NULL. -999.2500:NULL Value
~CURVE INFORMATION BLOCK
#MNEM UNIT       ERCB CURVE CODE    CURVE DESCRIPTION
#-----------   ------------------   ----------------------------------
DEPT.F        00 001 00 00         : DEPTH        - DEPTH
GR  .API      00 310 00 00         : GR           - GAMMA RAY
NPHI.V/V      00 330 00 00         : PHIN         - NEUTRON POROSITY (SANDSTONE)
ILD .OHMM     00 120 00 00         : RESD         - DEEP RESISTIVITY (DIL)
~PARAMETER INFORMATION
#MNEM.UNIT           DATA             DESCRIPTION OF MNEMONIC
#---------         -----------     ------------------------------
GL  .F        1631                 : gl           - GROUND LEVEL ELEVATION
EREF.F        1631                 : kb           - ELEVATION OF DEPTH REFERENCE
DATM.F        1631                 : datum        - DATUM ELEVATION
TDD .F        681                  : tdd          - TOTAL DEPTH DRILLER
RUN .         ONE                  : Run          - RUN NUMBER
ENG .         BILL                 : Engineer     - RECORDING ENGINEER
WIT .         JIM                  : Witness      - WITNESSED BY
MUD .         GEL                  : Mud_type     - MUD TYPE
MATR.         SANDSTONE            : Logunit      - NEUTRON MATRIX
TMAX.F        53                   : BHT          - MAXIMUM RECORDED TEMPERATURE
BHTD.F        682                  : BHTDEP       - MAXIMUM RECORDED TEMPERATURE
MATR.         1                    : LOGUNIT      - NEUTRON MATRIX
RMT .F        53                   : MDTP         - TEMPERATURE OF MUD
NEUT.         1                    : NEUTRON      - NEUTRON TYPE
RESI.         10                   : RESIST       - RESISTIVITY TYPE
RMC .OHMM     2                    : RMC          - RESISTIVITY OF MUD CAKE
RMF .OHMM     3.9                  : RMF          - RESISTIVITY OF MUD FILTRATE
SUFT.F        39.2                 : SUFT         - SURFACE TEMPERATURE
~A  DEPTH       GR     PHIN     RESD
  200.000   78.299    0.375   19.949
  200.820   80.352    0.372   16.908
  201.640   83.426    0.371   14.036
  202.461   86.495    0.371   13.531
  203.281   88.543    0.372   20.803
  204.101   89.241    0.377   24.187
  204.921   88.922    0.381   27.232
  205.741   86.909    0.387   27.741
  206.562   83.203    0.398   26.899
  207.382   80.173    0.407   26.055
  208.202   76.467    0.419   24.874
  209.022   74.459    0.418   24.031
  209.843   76.173    0.386   23.526
  210.663   78.226    0.372   23.529
  211.483   79.945    0.374   23.362
  212.303   80.299    0.375   23.364
  213.123   80.996    0.379   23.366
  213.944   81.360    0.387   23.199
  214.764   79.681    0.385   21.849
  215.584   76.313    0.384   18.977
  216.404   77.011    0.384   18.641
  217.224   80.429    0.387   19.320
  218.045   82.477    0.393   20.336
  218.865   82.158    0.392   21.523
  219.685   79.806    0.386   21.017
  220.505   76.777    0.384   19.836
  221.325   75.108    0.391   19.162
  222.146   76.817    0.397   18.826
  222.966   79.214    0.394   19.167
  223.786   79.573    0.389   19.676
  224.606   79.931    0.384   20.186
  225.427   79.951    0.383   20.526
  226.247   78.965    0.383   20.360
  227.067   78.297    0.384   19.854
  227.887   77.640    0.385   18.842
  228.707   77.665    0.384   18.845
  229.528   77.680    0.379   19.353
  230.348   77.705    0.377   19.863
  231.168   79.424    0.372   19.527
  231.988   80.799    0.369   19.191
  232.808   81.158    0.378   19.532
  233.629   81.178    0.386   19.872
  234.449   81.198    0.394   20.044
  235.269   80.202    0.397   20.215
  236.089   78.867    0.389   20.217
  236.909   77.526    0.387   19.712
  237.730   75.519    0.378   19.377
  238.550   75.205    0.374   19.547
  239.370   74.547    0.370   19.381
  240.190   73.890    0.373   19.214
  241.010   73.915    0.399   19.216
  241.831   75.285    0.403   19.049
  242.651   76.994    0.396   18.713
  243.471   78.369    0.394   18.715
  244.291   79.760    0.392   18.380
  245.112   79.769    0.392   18.381
  245.932   79.794    0.395   18.215
  246.752   79.471    0.396   18.048
  247.572   79.152    0.396   17.882
  248.392   78.838    0.394   17.884
  249.213   78.853    0.388   17.717
  250.033   79.561    0.385   17.381
  250.853   80.249    0.380   17.214
  251.673   79.606    0.389   17.047
  252.493   78.938    0.399   17.050
  253.314   77.942    0.410   16.882
  254.134   78.306    0.418   16.717
  254.954   80.359    0.415   16.718
  255.774   81.056    0.402   16.720
  256.594   80.060    0.403   16.553
  257.415   78.725    0.403   16.556
  258.235   78.406    0.402   16.389
  259.055   78.770    0.399   16.392
  259.875   77.091    0.397   16.393
  260.696   75.422    0.397   16.396
  261.516   75.108    0.398   16.399
  262.336   75.118    0.398   16.400
  263.156   75.821    0.397   16.403
  263.976   75.836    0.395   16.406
  264.797   76.200    0.397   16.407
  265.617   76.553    0.399   16.578
  266.437   77.256    0.402   16.750
  267.257   77.615    0.401   17.091
  268.077   78.656    0.400   17.431
  268.898   79.688    0.396   17.771
  269.718   80.046    0.393   18.449
  270.538   78.711    0.385   17.944
  271.358   77.042    0.383   16.763
  272.178   76.046    0.382   15.751
  272.999   75.727    0.379   15.416
  273.819   75.409    0.380   15.248
  274.639   74.417    0.385   15.251
  275.459   72.748    0.398   15.084
  276.280   72.419    0.415   15.086
  277.100   72.783    0.418   14.919
  277.920   75.175    0.407   14.922
  278.740   77.567    0.398   14.924
  279.560   78.598    0.390   14.926
  280.381   77.950    0.392   14.929
  281.201   77.293    0.404   14.930
  282.021   75.953    0.401   15.102
  282.841   74.279    0.395   15.105
  283.661   71.593    0.394   15.106
  284.482   70.253    0.396   15.278
  285.302   69.601    0.400   15.448
  286.122   70.293    0.401   15.621
  286.942   71.673    0.403   15.791
  287.762   72.032    0.403   15.962
  288.583   72.052    0.404   16.134
  289.403   72.072    0.405   16.306
  290.223   73.786    0.408   16.308
  291.043   74.828    0.417   16.310
  291.864   73.154    0.412   16.481
  292.684   71.480    0.405   16.483
  293.504   72.855    0.396   16.654
  294.324   74.225    0.390   16.657
  295.144   77.299    0.383   16.659
  295.965   80.030    0.413   16.323
  296.785   81.405    0.424   16.157
  297.605   80.409    0.435   15.821
  298.425   79.073    0.431   15.147
  299.245   80.449    0.430   14.980
  300.066   83.184    0.423   14.982
  300.886   83.892    0.415   15.322
  301.706   82.885    0.407   15.325
  302.526   81.212    0.408   15.158
  303.346   79.537    0.416   14.822
  304.167   79.558    0.421   14.655
  304.987   80.933    0.416   14.658
  305.807   81.292    0.413   14.659
  306.627   83.011    0.407   14.663
  307.448   85.063    0.400   14.833
  308.268   84.750    0.399   15.005
  309.088   83.415    0.395   15.007
  309.908   82.079    0.390   14.840
  310.728   80.744    0.388   14.674
  311.549   79.409    0.394   14.507
  312.369   79.768    0.401   14.171
  313.189   82.159    0.408   14.003
  314.009   84.890    0.407   14.006
  314.829   85.259    0.401   14.177
  315.650   85.269    0.402   14.180
  316.470   86.649    0.405   14.014
  317.290   86.674    0.406   13.846
  318.110   86.011    0.406   14.017
  318.930   85.688    0.409   14.357
  319.751   84.691    0.411   14.868
  320.571   83.027    0.415   15.038
  321.391   82.031    0.419   15.547
  322.211   80.691    0.422   15.887
  323.031   79.361    0.422   15.214
  323.852   79.381    0.420   14.540
  324.672   79.734    0.420   13.190
  325.492   81.110    0.420    9.811
  326.312   85.195    0.420    7.615
  327.133   92.674    0.421    5.758
  327.953   96.426    0.424    4.916
  328.773   99.490    0.426    4.917
  329.593  105.274    0.428    5.089
  330.413  106.655    0.435    5.429
  331.234  108.030    0.446    5.938
  332.054  109.400    0.464    6.279
  332.874  112.131    0.471    6.282
  333.694  116.560    0.478    6.283
  334.514  119.968    0.489    6.285
  335.335  121.004    0.498    6.288
  336.155  120.347    0.502    6.289
  336.975  120.372    0.498    6.461
  337.795  122.768    0.496    6.633
  338.615  124.477    0.495    6.804
  339.436  126.869    0.492    6.637
  340.256  129.261    0.488    6.470
  341.076  122.166    0.486    6.134
  341.896  119.481    0.488    6.136
  342.717  123.900    0.499    6.138
  343.537  129.690    0.509    6.310
  344.357  127.677    0.508    6.312
  345.177  125.659    0.507    6.316
  345.997  126.018    0.506    6.317
  346.818  126.377    0.501    6.150
  347.638  125.385    0.497    5.814
  348.458  124.050    0.491    5.647
  349.278  122.381    0.494    5.649
  350.098  121.041    0.498    5.821
  350.919  121.056    0.508    5.992
  351.739  126.841    0.520    6.332
  352.559  130.254    0.523    7.518
  353.379  128.241    0.517    8.873
  354.199  126.223    0.508   12.256
  355.020  119.472    0.493   13.441
  355.840  118.476    0.471   15.472
  356.660  117.136    0.449   16.151
  357.480  115.123    0.434   11.081
  358.301  109.388    0.432   10.238
  359.121  107.371    0.435   10.241
  359.941  101.292    0.441   11.089
  360.761   99.618    0.442   11.598
  361.581   97.611    0.441   12.108
  362.402  113.215    0.439   11.602
  363.222  111.541    0.436   10.421
  364.042  108.512    0.431   10.762
  364.862  109.892    0.431   11.102
  365.682  109.235    0.433   11.442
  366.503  107.895    0.436   11.107
  367.323  106.560    0.439   10.771
  368.143  105.563    0.439   10.434
  368.963  106.600    0.439   11.283
  369.783  106.286    0.440   11.791
  370.604  104.951    0.443   12.470
  371.424  103.616    0.450   11.458
  372.244  101.942    0.458   10.783
  373.064  100.611    0.465    9.603
  373.885   98.942    0.468    8.929
  374.705   98.275    0.466    9.439
  375.525   98.634    0.459   10.117
  376.345  101.708    0.453   10.795
  377.165  101.728    0.444   10.629
