~VERSION INFORMATION
 VERS.                 2.0:   CWLS LOG ASCII STANDARD -VERSION 2.0
 WRAP.                  NO:   ONE LINE PER DEPTH STEP
~WELL INFORMATION BLOCK
#MNEM.UNIT           DATA                    DESCRIPTION OF MNEMONIC
#---------    -------------------            -------------------------------
# Generated from Intellog Unique Number	CW_82_90/WELL/3426
WELL.         UNION SIMON OV                 : Well_name    - WELL
LOC .         AA/07-11-088-19W4/0            : Location     - LOCATION
UWI .         AA/07-11-088-19W400            : Uwi          - UNIQUE WELL ID
ENTR.         MAX                            : Entered      - ENTERED BY
SRVC.         SCHLUMBERGER                   : Scn          - SERVICE COMPANY
STRT.M        140                            : top_depth    - START DEPTH
STOP.M        265                            : bot_depth    - STOP DEPTH
STEP.M        0.25                           : increment    - STEP LENGTH
 NULL. -999.2500:NULL Value
~CURVE INFORMATION BLOCK
#MNEM UNIT       ERCB CURVE CODE    CURVE DESCRIPTION
#-----------   ------------------   ----------------------------------
DEPT.M        00 001 00 00         : DEPTH        - DEPTH
ILD .OHMM     00 120 00 00         : RESD         - DEEP RESISTIVITY (DIL)
NPHI.V/V      00 330 00 00         : PHIN         - NEUTRON POROSITY (SANDSTONE)
DPHI.V/V      00 890 00 00         : PHID         - DENSITY POROSITY (SANDSTONE)
CALI.MM       00 280 01 00         : CAL          - CALIPER
GR  .API      00 310 00 00         : GR           - GAMMA RAY
~PARAMETER INFORMATION
#MNEM.UNIT           DATA             DESCRIPTION OF MNEMONIC
#---------         -----------     ------------------------------
GL  .M        522.76               : gl           - GROUND LEVEL ELEVATION
EREF.M        527.06               : kb           - ELEVATION OF DEPTH REFERENCE
DATM.M        522.76               : datum        - DATUM ELEVATION
TDD .M        353                  : tdd          - TOTAL DEPTH DRILLER
RUN .         ONE                  : Run          - RUN NUMBER
ENG .         BILL                 : Engineer     - RECORDING ENGINEER
WIT .         JIM                  : Witness      - WITNESSED BY
MUD .         GEL                  : Mud_type     - MUD TYPE
MATR.         SANDSTONE            : Logunit      - NEUTRON MATRIX
TMAX.C        26.6                 : BHT          - MAXIMUM RECORDED TEMPERATURE
BHTD.M        353                  : BHTDEP       - MAXIMUM RECORDED TEMPERATURE
MATR.         1                    : LOGUNIT      - NEUTRON MATRIX
RMT .C        13                   : MDTP         - TEMPERATURE OF MUD
NEUT.         1                    : NEUTRON      - NEUTRON TYPE
RESI.         0                    : RESIST       - RESISTIVITY TYPE
RMC .OHMM     1.79                 : RMC          - RESISTIVITY OF MUD CAKE
RMF .OHMM     1.7                  : RMF          - RESISTIVITY OF MUD FILTRATE
SUFT.C        -20                  : SUFT         - SURFACE TEMPERATURE
~A  DEPTH     RESD     PHIN     PHID      CAL       GR
  140.000    3.793    0.487    0.396  331.409   57.620
  140.250    3.939    0.504    0.424  329.952   57.634
  140.500    4.052    0.532    0.465  324.043   56.168
  140.750    4.367    0.572    0.494  319.124   53.509
  141.000    4.750    0.593    0.523  333.007   50.556
  141.250    5.167    0.611    0.553  346.894   54.433
  141.500    5.724    0.602    0.571  335.042   60.985
  141.750    6.402    0.576    0.539  327.150   69.022
  142.000    7.639    0.506    0.463  359.354   70.525
  142.250    9.371    0.444    0.297  364.826   68.756
  142.500   10.193    0.477    0.295  330.202   64.912
  142.750    9.561    0.539    0.335  325.775   64.631
  143.000    8.561    0.567    0.398  329.271   66.430
  143.250    7.597    0.583    0.464  347.615   69.416
  143.500    7.327    0.589    0.451  370.902   72.998
  143.750    7.469    0.564    0.423  371.431   75.984
  144.000    7.614    0.548    0.400  327.404   76.595
  144.250    7.141    0.574    0.356  362.574   72.750
  144.500    7.986    0.575    0.351  366.066   68.609
  144.750   10.261    0.534    0.315  347.780   64.765
  145.000   12.356    0.471    0.341  332.955   60.626
  145.250   13.948    0.456    0.312  331.501   58.266
  145.500   15.598    0.459    0.313  338.956   58.875
  145.750   17.772    0.436    0.320  342.943   62.455
  146.000   18.452    0.422    0.313  340.991   61.286
  146.250   18.297    0.419    0.290  336.560   58.334
  146.500   17.483    0.434    0.251  329.163   55.676
  146.750   16.397    0.464    0.285  322.268   53.317
  147.000   14.684    0.468    0.333  322.783   53.038
  147.250   13.520    0.473    0.310  327.269   54.834
  147.500   13.041    0.461    0.337  331.256   56.043
  147.750   12.692    0.468    0.343  338.216   55.166
  148.000   12.128    0.471    0.330  337.250   54.884
  148.250   11.694    0.488    0.314  333.325   55.494
  148.500   11.384    0.500    0.320  341.265   53.731
  148.750   11.497    0.497    0.327  346.242   53.747
  149.000   11.613    0.473    0.329  341.320   55.548
  149.250   11.621    0.466    0.336  335.408   55.267
  149.500   11.311    0.460    0.344  331.475   54.391
  149.750   10.512    0.468    0.340  331.503   53.813
  150.000    9.679    0.515    0.370  341.928   56.799
  150.250    8.912    0.568    0.405  355.323   55.628
  150.500    7.907    0.613    0.467  373.660   53.566
  150.750    6.337    0.603    0.544  382.106   52.990
  151.000    5.675    0.567    0.516  381.638   52.712
  151.250    5.274    0.552    0.426  376.716   52.724
  151.500    4.901    0.592    0.547  369.814   53.037
  151.750    4.639    0.592    0.564  376.774   54.244
  152.000    4.352    0.578    0.513  377.795   56.636
  152.250    4.197    0.563    0.468  381.280   60.216
  152.500    4.123    0.532    0.376  377.843   64.689
  152.750    4.088    0.516    0.290  362.032   65.595
  153.000    4.167    0.528    0.397  367.009   63.532
  153.250    4.575    0.578    0.452  375.945   59.391
  153.500    4.976    0.614    0.497  372.020   54.656
  153.750    5.363    0.629    0.540  378.973   51.113
  154.000    6.054    0.628    0.574  382.469   49.937
  154.250    6.832    0.595    0.587  379.032   51.441
  154.500    7.928    0.558    0.516  373.611   55.914
  154.750    9.201    0.517    0.438  355.325   55.041
  155.000   10.482    0.500    0.308  376.639   52.086
  155.250   11.722    0.524    0.390  364.293   48.539
  155.500   12.635    0.559    0.463  360.357   46.476
  155.750   12.759    0.596    0.516  379.196   45.010
  156.000   12.191    0.597    0.534  378.729   46.507
  156.250   10.233    0.539    0.474  370.342   48.900
  156.500    9.079    0.520    0.350  343.638   50.403
  156.750    7.763    0.569    0.388  369.902   46.858
  157.000    6.279    0.592    0.516  391.212   44.199
  157.250    5.320    0.553    0.523  378.866   44.216
  157.500    4.944    0.550    0.532  371.971   46.905
  157.750    4.902    0.585    0.549  378.921   49.002
  158.000    5.431    0.592    0.528  396.275   49.017
  158.250    6.074    0.562    0.512  394.818   46.063
  158.500    6.426    0.524    0.501  381.976   43.407
  158.750    6.989    0.487    0.494  394.385   42.830
  159.000    7.672    0.545    0.509  393.914   43.739
  159.250    8.821    0.587    0.523  395.422   46.727
  159.500   10.429    0.585    0.513  393.965   50.605
  159.750   11.450    0.530    0.437  386.073   53.292
  160.000   11.143    0.497    0.402  333.146   51.526
  160.250    7.421    0.584    0.488  362.865   48.874
  160.500    6.585    0.590    0.533  381.708   48.292
  160.750    6.775    0.554    0.477  391.136   50.685
  161.000    8.625    0.510    0.404  390.668   53.671
  161.250   10.483    0.473    0.354  370.897   56.956
  161.500   13.347    0.446    0.305  333.304   59.944
  161.750   14.651    0.408    0.251  327.392   61.147
  162.000   16.845    0.380    0.224  326.925   61.460
  162.250   19.548    0.343    0.173  326.955   59.994
  162.500   25.588    0.313    0.131  325.993   56.445
  162.750   32.574    0.277    0.106  324.539   49.334
  163.000   24.924    0.257    0.136  323.580   47.865
  163.250   16.909    0.412    0.184  324.099   47.585
  163.500   12.699    0.496    0.330  328.086   49.680
  163.750    8.858    0.569    0.442  353.848   53.262
  164.000    7.860    0.614    0.576  400.409   57.139
  164.250    6.910    0.601    0.569  401.917   60.427
  164.500    7.310    0.575    0.528  381.157   61.330
  164.750    8.252    0.480    0.449  342.577   61.346
  165.000    8.031    0.495    0.388  346.571   60.771
  165.250    7.603    0.504    0.361  391.636   61.381
  165.500    7.608    0.496    0.348  363.943   61.992
  165.750    8.667    0.484    0.333  338.730   62.602
  166.000   10.058    0.480    0.331  370.930   62.918
  166.250   10.641    0.470    0.408  336.310   61.744
  166.500   10.551    0.485    0.428  331.385   58.793
  166.750    9.805    0.513    0.481  332.901   56.137
  167.000    8.700    0.555    0.546  330.955   53.181
  167.250    8.010    0.563    0.520  332.464   50.822
  167.500    7.173    0.567    0.471  355.751   51.436
  167.750    6.306    0.600    0.507  381.520   51.451
  168.000    5.648    0.601    0.553  380.062   51.170
  168.250    5.446    0.613    0.578  388.504   50.593
  168.500    5.156    0.629    0.598  394.471   50.312
  168.750    4.882    0.626    0.578  391.529   51.224
  169.000    4.795    0.592    0.540  387.600   53.614
  169.250    4.844    0.571    0.474  383.664   57.786
  169.500    4.938    0.570    0.425  379.241   63.744
  169.750    4.941    0.564    0.422  380.756   72.668
  170.000    4.990    0.547    0.404  378.797   74.468
  170.250    4.949    0.552    0.399  373.380   73.002
  170.500    4.861    0.569    0.392  358.558   70.046
  170.750    4.910    0.573    0.385  387.297   71.251
  171.000    5.099    0.579    0.386  385.345   69.485
  171.250    5.495    0.586    0.411  373.493   66.235
  171.500    6.032    0.583    0.547  361.641   61.797
  171.750    6.936    0.566    0.524  377.013   55.282
  172.000    8.353    0.538    0.433  399.320   52.331
  172.250   10.247    0.512    0.377  395.388   53.535
  172.500   12.114    0.467    0.269  386.008   54.737
  172.750   14.060    0.452    0.276  340.990   54.754
  173.000   15.871    0.422    0.259  326.176   55.067
  173.250   16.635    0.392    0.241  325.708   56.278
  173.500   16.039    0.413    0.269  325.729   57.179
  173.750   12.502    0.479    0.348  326.251   58.383
  174.000    9.049    0.531    0.412  332.221   58.107
  174.250    6.672    0.564    0.461  351.057   57.230
  174.500    6.376    0.582    0.513  373.358   55.166
  174.750    6.560    0.595    0.563  392.201   53.106
  175.000    7.542    0.621    0.583  389.754   53.122
  175.250    8.356    0.596    0.562  384.828   54.324
  175.500    8.678    0.578    0.511  400.199   57.610
  175.750    8.065    0.560    0.525  391.317   58.814
  176.000    8.612    0.586    0.567  376.001   55.267
  176.250    9.111    0.605    0.576  359.200   53.204
