~VERSION INFORMATION
 VERS.                 2.0:   CWLS LOG ASCII STANDARD -VERSION 2.0
 WRAP.                  NO:   ONE LINE PER DEPTH STEP
~WELL INFORMATION BLOCK
#MNEM.UNIT           DATA                    DESCRIPTION OF MNEMONIC
#---------    -------------------            -------------------------------
# Generated from Intellog Unique Number	CN_94_101/WELL/4983
WELL.         06-18-097-15W4                 : Well_name    - WELL
LOC .         AA/06-18-097-15W4/0            : Location     - LOCATION
UWI .         AA/06-18-097-15W400            : Uwi          - UNIQUE WELL ID
ENTR.         JOETTE                         : Entered      - ENTERED BY
SRVC.         SCHLUMBERGER                   : Scn          - SERVICE COMPANY
DATE.         08/17/92                       : Date         - LOG DATE
STRT.M        243.84                         : top_depth    - START DEPTH
STOP.M        502.84                         : bot_depth    - STOP DEPTH
STEP.M        0.25                           : increment    - STEP LENGTH
 NULL. -999.2500:NULL Value
~CURVE INFORMATION BLOCK
#MNEM UNIT       ERCB CURVE CODE    CURVE DESCRIPTION
#-----------   ------------------   ----------------------------------
DEPT.M        00 001 00 00         : DEPTH        - DEPTH
ILD .OHMM     00 120 00 00         : RESD         - DEEP RESISTIVITY (DIL)
GR  .API      00 310 00 00         : GR           - GAMMA RAY
NPHI.V/V      00 330 00 00         : PHIN         - NEUTRON POROSITY (SANDSTONE)
~PARAMETER INFORMATION
#MNEM.UNIT           DATA             DESCRIPTION OF MNEMONIC
#---------         -----------     ------------------------------
GL  .M        734.964              : gl           - GROUND LEVEL ELEVATION
EREF.M        734.964              : kb           - ELEVATION OF DEPTH REFERENCE
DATM.M        734.964              : datum        - DATUM ELEVATION
TDD .M        505.358              : tdd          - TOTAL DEPTH DRILLER
RUN .         ONE                  : Run          - RUN NUMBER
ENG .         JO                   : Engineer     - RECORDING ENGINEER
WIT .         TIM                  : Witness      - WITNESSED BY
MUD .         GEL                  : Mud_type     - MUD TYPE
MATR.         SANDSTONE            : Logunit      - NEUTRON MATRIX
TMAX.C        15                   : BHT          - MAXIMUM RECORDED TEMPERATURE
BHTD.M        505.358              : BHTDEP       - MAXIMUM RECORDED TEMPERATURE
RMT .C        4.44444              : MDTP         - TEMPERATURE OF MUD
MUDD.KG/M     1020                 : MWT          - MUD DENSITY
NEUT.         1                    : NEUTRON      - NEUTRON TYPE
RESI.         0                    : RESIST       - RESISTIVITY TYPE
RM  .OHMM     9.3                  : RM           - RESISTIVITY OF MUD
RMC .OHMM     9.3                  : RMC          - RESISTIVITY OF MUD CAKE
RMF .OHMM     9.3                  : RMF          - RESISTIVITY OF MUD FILTRATE
SUFT.C        4                    : SUFT         - SURFACE TEMPERATURE
~A  DEPTH     RESD       GR     PHIN
# ...
  406.590   25.687   84.810    0.390
  406.840   36.688   79.283    0.422
  407.090   35.263   74.861    0.435
  407.340   22.882   72.670    0.424
  407.590   22.188   77.695    0.431
  407.840   20.762   78.278    0.447
  408.090   19.338   78.861    0.453
  408.340   18.652   81.118    0.447
  408.590   17.957   80.596    0.440
  408.840   18.002   79.504    0.439
  409.090   17.317   79.531    0.432
  409.340   17.335   81.232    0.437
  409.590   17.371   83.483    0.462
  409.840   17.425   85.178    0.463
  410.090   16.730   87.429    0.459
  410.340   16.748   91.362    0.451
  410.590   16.784   88.602    0.444
  410.840   17.559   86.404    0.444
  411.090   19.787   84.200    0.465
  411.340   19.101   82.003    0.484
  411.590   16.937   86.485    0.499
  411.840   15.521   90.404    0.498
  412.090   15.557   94.879    0.500
  412.340   19.984   96.581    0.444
  412.590   25.124   93.828    0.347
  412.840   58.029   88.843    0.303
  413.090   88.022   70.519    0.251
  413.340   42.032   63.317    0.238
  413.590   18.694   63.344    0.325
  413.840   14.356   76.160    0.446
  414.090   12.192   87.315    0.509
  414.340   10.776   90.123    0.510
  414.590   12.273   89.593    0.492
  414.840   15.230   88.521    0.465
  415.090   16.727   87.978    0.461
  415.340   16.763   86.357    0.491
  415.590   15.338   85.814    0.504
  415.840   15.383   87.510    0.493
  416.090   13.245   90.323    0.490
  416.340   13.263   88.682    0.497
  416.590   13.299   88.709    0.517
  416.840   14.066   94.303    0.486
  417.090   14.841   90.430    0.443
  417.340   14.868   83.784    0.404
  417.590   15.634   80.475    0.393
  417.840   19.331   79.945    0.385
  418.090   25.941   76.086    0.428
  418.340   27.438   76.106    0.442
  418.590   18.709   86.143    0.426
  418.840   36.284   93.961    0.380
  419.090   40.702   91.208    0.356
  419.340   28.321   84.561    0.333
  419.590   15.940   77.359    0.364
  419.840   13.063   82.391    0.419
  420.090   15.299   87.429    0.458
  420.340   16.787   89.680    0.452
  420.590   18.284   90.263    0.453
  420.840   19.041   93.070    0.455
  421.090   17.634   94.209    0.445
  421.340   16.200   94.799    0.438
  421.590   18.445   94.819    0.424
  421.840   17.742   92.621    0.398
  422.090   17.038   89.874    0.432
  422.340   17.074   87.677    0.435
  422.590   17.137   84.930    0.430
  422.840   17.155   87.730    0.440
  423.090   17.200   91.100    0.436
  423.340   17.245   92.232    0.424
  423.590   17.263   97.833    0.429
  423.840   17.299   98.410    0.429
  424.090   17.343   97.880    0.447
  424.340   17.379   95.127    0.469
  424.590   16.694   93.485    0.444
  424.840   15.269   91.844    0.439
  425.090   15.296   90.202    0.435
  425.340   14.610   90.229    0.441
  425.590   14.637   92.487    0.438
  425.840   14.682   93.632    0.442
  426.090   15.440   93.659    0.446
  426.340   19.146   93.686    0.444
  426.590   20.642   93.706    0.438
  426.840   20.687   93.740    0.437
  427.090   21.454   92.654    0.428
  427.340   21.480   88.795    0.410
  427.590   21.507   86.035    0.410
  427.840   21.543   83.837    0.427
  428.090   20.867   80.534    0.437
  428.340   20.903   82.779    0.443
  428.590   20.948   86.142    0.450
  428.840   20.983   88.400    0.452
  429.090   21.002   87.314    0.442
  429.340   20.316   84.561    0.430
  429.590   20.343   80.702    0.420
  429.840   20.397   78.498    0.413
  430.090   20.433   78.524    0.401
  430.340   21.930   81.332    0.429
  430.590   31.452   83.589    0.450
  430.840   47.566   81.948    0.398
  431.090   59.289   79.194    0.227
  431.340   73.203   75.329    0.110
  431.590   89.318   69.239    0.102
  431.840   87.893   53.688    0.097
  432.090   69.668   52.610    0.082
  432.340   52.904   52.081    0.065
  432.590   39.783   51.002    0.097
  432.840   28.863   52.690    0.275
  433.090   20.873   60.502    0.378
  433.340   18.735   71.101    0.425
  433.590   17.301   76.689    0.448
  433.840   17.328   80.052    0.444
  434.090   15.921   83.415    0.451
  434.340   15.939   91.790    0.465
  434.590   15.975   91.817    0.456
  434.840   16.011   89.063    0.441
  435.090   16.056   88.540    0.447
  435.340   17.553   88.004    0.459
  435.590   19.058   86.919    0.450
  435.840   21.286   90.838    0.436
  436.090   24.974   93.652    0.439
  436.340   21.358   91.455    0.450
  436.590   19.202   88.701    0.455
  436.840   18.526   87.616    0.453
  437.090   17.813   92.091    0.465
  437.340   17.128   98.797    0.496
  437.590   15.703   98.275    0.522
  437.840   14.278   96.071    0.497
  438.090   12.862   93.873    0.486
  438.340   12.149   91.676    0.474
  438.590   11.464   91.153    0.465
  438.840   12.248   91.729    0.467
  439.090   14.466   91.763    0.476
  439.340   17.424   92.346    0.473
  439.590   22.564   96.272    0.468
  439.840   25.521   98.516    0.459
  440.090   23.375  101.330    0.448
  440.340   21.950   99.126    0.453
  440.590   19.064   93.592    0.466
  440.840   17.648   91.950    0.456
  441.090   16.224   97.551    0.446
  441.340   16.250   98.690    0.438
  441.590   16.286   98.710    0.428
  441.840   15.592   96.519    0.425
  442.090   14.924   93.766    0.430
  442.340   14.942   91.012    0.440
  442.590   14.987   88.815    0.449
  442.840   15.014   89.391    0.451
  443.090   14.319   95.548    0.458
  443.340   15.086   94.462    0.452
  443.590   15.131   92.821    0.438
  443.840   15.185   90.623    0.428
  444.090   15.212   88.426    0.429
  444.340   15.239   89.558    0.439
  444.590   13.101   92.372    0.451
  444.840   13.128   96.298    0.459
  445.090   13.173   96.325    0.458
  445.340   13.200   94.683    0.460
  445.590   11.793   91.930    0.460
  445.840   10.359   88.064    0.459
  446.090    8.925   84.748    0.465
  446.340    7.518   92.566    0.485
  446.590    7.545   93.705    0.469
  446.840    7.572   91.508    0.462
  447.090    8.347   89.317    0.463
  447.340    8.374   88.781    0.471
  447.590    8.428   88.251    0.484
  447.840    9.925   88.278    0.483
  448.090   12.883   89.431    0.473
  448.340   14.379   91.675    0.457
  448.590   11.493   94.482    0.443
  448.840   10.060   88.948    0.464
  449.090   10.104   81.190    0.472
  449.340   11.601   73.432    0.486
  449.590   11.637   75.127    0.507
  449.840    8.021   75.160    0.533
  450.090    5.135   72.963    0.543
  450.340    7.362   78.550    0.506
  450.590   24.207   80.252    0.438
  450.840   28.635   76.942    0.409
  451.090   32.323   73.070    0.400
  451.340   34.541   58.082    0.388
  451.590   31.655   48.100    0.388
  451.840   26.578   44.234    0.395
  452.090   25.162   47.041    0.418
  452.340   28.120   50.961    0.433
  452.590   25.964   57.660    0.439
  452.840   21.618   60.474    0.448
  453.090   17.271   57.727    0.457
  453.340   12.933   59.422    0.466
  453.590   15.161   63.891    0.460
  453.840   21.040   71.147    0.430
  454.090   28.380   72.849    0.382
  454.340   40.103   57.861    0.355
  454.590   56.217   51.208    0.312
  454.840   61.375   44.006    0.273
  455.090   65.054   39.028    0.302
  455.340   35.133   35.176    0.352
  455.590   34.457   37.420    0.398
  455.840   28.640   45.795    0.402
  456.090   24.303   49.151    0.403
  456.340   22.869   56.970    0.414
  456.590   22.174   64.226    0.421
  456.840   28.784   68.145    0.434
  457.090   34.663   65.391    0.428
  457.340   52.969   60.970    0.400
  457.590   55.927   47.651    0.378
  457.840   59.624   45.460    0.351
  458.090   45.042   41.587    0.306
  458.340   37.043   37.722    0.276
  458.590   34.166   32.744    0.284
  458.840   32.002   26.098    0.277
  459.090   29.856   23.907    0.275
  459.340   46.692   29.494    0.324
  459.590   64.267   26.185    0.351
  459.840   73.068   21.770    0.376
  460.090   88.443   26.801    0.350
  460.340   52.688   30.157    0.329
  460.590   41.767   29.628    0.319
