~VERSION INFORMATION
 VERS.                 2.0:   CWLS LOG ASCII STANDARD -VERSION 2.0
 WRAP.                  NO:   ONE LINE PER DEPTH STEP
~WELL INFORMATION BLOCK
#MNEM.UNIT           DATA                    DESCRIPTION OF MNEMONIC
#---------    -------------------            -------------------------------
# Generated from Intellog Unique Number	CC_84_87/WELL/1046
NULL.         -999.25                        : NULL_VALUE
WELL.         COSEKA TOTAL LYNTON            : Well_name    - WELL              
LOC .         01-35-087-07W4                 : Location     - LOCATION          
UWI .         AA/01-35-087-07W400            : Uwi          - UNIQUE WELL ID    
ENTR.         DW                             : Entered      - ENTERED BY        
SRVC.         SCHLUMBERGER                   : Scn          - SERVICE COMPANY   
DATE.         17 FEB 81                      : Date         - LOG DATE
STRT.M        30                             : top_depth    - START DEPTH       
STOP.M        165.001                        : bot_depth    - STOP DEPTH        
STEP.M        0.3                            : increment    - STEP LENGTH       
~CURVE INFORMATION BLOCK
#MNEM UNIT       ERCB CURVE CODE    CURVE DESCRIPTION
#-----------   ------------------   ----------------------------------
DEPT.M        00 001 00 00         : DEPTH        - DEPTH                       
DPHI.V/V      00 890 00 00         : PHID         - DENSITY POROSITY (LIMESTONE)
NPHI.V/V      00 330 00 00         : PHIN         - NEUTRON POROSITY (LIMESTONE)
GR  .API      00 310 00 00         : GR           - GAMMA RAY                   
ILD .OHMM     00 120 00 00         : RESD         - DEEP RESISTIVITY (DIL)      
~PARAMETER INFORMATION       
#MNEM.UNIT           DATA             DESCRIPTION OF MNEMONIC
#---------         -----------     ------------------------------
GL  .M        411.42               : gl           - GROUND LEVEL ELEVATION      
EREF.M        412.92               : kb           - ELEVATION OF DEPTH REFERENCE
DATM.M        412.92               : datum        - DATUM ELEVATION             
TDD .M        166                  : tdd          - TOTAL DEPTH DRILLER         
RUN .         ONE                  : Run          - RUN NUMBER                  
ENG .         BILL                 : Engineer     - RECORDING ENGINEER          
WIT .         JIM                  : Witness      - WITNESSED BY                
MUD .         GEL                  : Mud_type     - MUD TYPE                    
MATR.         LIMESTONE            : Logunit      - NEUTRON MATRIX              
TMAX.C        13.3                 : BHT          - MAXIMUM RECORDED TEMPERATURE
BHTD.M        165                  : BHTDEP       - MAXIMUM RECORDED TEMPERATURE
MATR.         1                    : LOGUNIT      - NEUTRON MATRIX              
RMT .C        25                   : MDTP         - TEMPERATURE OF MUD          
NEUT.         1                    : NEUTRON      - NEUTRON TYPE                
RESI.         0                    : RESIST       - RESISTIVITY TYPE            
RMC .OHMM     0.25                 : RMC          - RESISTIVITY OF MUD CAKE     
RMF .OHMM     0.25                 : RMF          - RESISTIVITY OF MUD FILTRATE 
SUFT.C        4                    : SUFT         - SURFACE TEMPERATURE         
~A  DEPTH     PHID     PHIN       GR     RESD
# ...
  134.401    0.223    0.426   71.869    8.511
  134.701    0.236    0.428   70.584    8.028
  135.001    0.262    0.416   66.176    7.869
  135.301    0.328    0.397   68.004    7.716
  135.601    0.263    0.380   81.685    7.563
  135.901    0.246    0.401   92.874    7.412
  136.201    0.270    0.416   95.323    7.266
  136.501    0.215    0.419   94.663    7.257
  136.801    0.216    0.414   94.618    7.112
  137.101    0.254    0.441   91.463    7.241
  137.401    0.234    0.464   88.293    7.237
  137.701    0.264    0.465   88.264    7.226
  138.001    0.205    0.441   93.213    7.222
  138.301    0.215    0.458  102.518    7.077
  138.601    0.219    0.480  101.231    7.072
  138.901    0.207    0.454   98.699    7.338
  139.201    0.216    0.446   88.678    7.472
  139.501    0.248    0.455   87.394    7.607
  139.801    0.236    0.441   93.591    7.895
  140.101    0.217    0.414   95.418    8.036
  140.401    0.196    0.432   89.763    8.185
  140.701    0.223    0.429   80.993    8.656
  141.001    0.253    0.423   70.346    9.693
  141.301    0.283    0.419   69.062   12.167
  141.601    0.230    0.382   68.389   15.272
  141.901    0.269    0.397   63.990   24.547
  142.201    0.311    0.426   55.215   39.456
  142.501    0.289    0.396   54.553   49.519
  142.801    0.295    0.430   43.907   43.298
  143.101    0.327    0.445   37.629   40.858
  143.401    0.339    0.386   38.212   43.216
  143.701    0.335    0.400   43.159   47.484
  144.001    0.306    0.390   46.238   51.181
  144.301    0.269    0.399   46.823   52.107
  144.601    0.293    0.400   39.295   43.046
  144.901    0.317    0.367   35.514   33.580
  145.201    0.307    0.354   38.591   19.692
  145.501    0.287    0.362   52.272   15.074
  145.801    0.233    0.378   69.073   15.940
  146.101    0.233    0.418   64.037   22.429
  146.401    0.291    0.416   43.418   33.409
  146.701    0.316    0.368   40.876   31.517
  147.001    0.328    0.360   44.581   30.312
  147.301    0.320    0.373   45.162   31.464
  147.601    0.322    0.400   46.372   38.018
  147.901    0.321    0.410   52.570   42.572
  148.201    0.313    0.406   56.897   40.921
  148.501    0.306    0.424   55.606   37.180
  148.801    0.333    0.441   46.203   30.713
  149.101    0.349    0.404   46.169   25.366
  149.401    0.335    0.395   51.109   25.338
  149.701    0.325    0.414   56.064   29.480
  150.001    0.302    0.399   57.899   32.385
  150.301    0.307    0.413   57.230   29.411
  150.601    0.306    0.423   50.329   27.753
  150.901    0.319    0.428   46.550   27.731
  151.201    0.341    0.430   50.874   30.468
  151.501    0.328    0.408   60.813   54.893
  151.801    0.275    0.370   73.246  131.557
  152.101    0.271    0.373   63.848  128.923
  152.401    0.295    0.421   46.343  112.696
  152.701    0.325    0.442   44.434  108.418
  153.001    0.342    0.431   38.775   98.452
  153.301    0.344    0.426   38.109   94.729
  153.601    0.349    0.404   39.320   94.593
  153.901    0.356    0.427   41.152   96.338
  154.201    0.345    0.429   42.983   96.231
  154.501    0.324    0.409   42.317   92.570
  154.801    0.310    0.400   38.530   82.490
  155.101    0.286    0.367   35.995   76.374
  155.401    0.283    0.375   35.332   69.381
  155.701    0.282    0.384   39.030   58.395
  156.001    0.282    0.377   45.223   47.326
  156.301    0.291    0.363   50.173   34.216
  156.601    0.295    0.342   55.751   25.211
  156.901    0.316    0.331   66.313   22.046
  157.201    0.345    0.356   73.134   19.645
  157.501    0.393    0.446   79.954   16.535
  157.801    0.443    0.489   90.516   13.923
  158.101    0.481    0.588   97.962   11.720
  158.401    0.461    0.608   84.199   10.248
  158.701    0.405    0.622   79.783    9.487
  159.001    0.345    0.626   80.996    9.125
  159.301    0.189    0.287   72.224    9.116
  159.601    0.217    0.304   60.332   10.015
  159.901    0.165    0.330   54.679   13.826
  160.201    0.136    0.350   54.641   19.082
  160.501    0.071    0.332   50.858   22.199
  160.801    0.033    0.289   43.951   25.821
  161.101    0.033    0.203   40.795   28.904
  161.401    0.021    0.176   29.528   30.001
  161.701    0.000    0.159   17.636   31.736
  162.001    0.000    0.146   13.849   33.559
  162.301    0.004    0.141   11.942   35.501
  162.601    0.016    0.140   11.891   37.547
  162.901    0.017    0.140   11.855   38.959
  163.201    0.003    0.140   11.804   38.928
  163.501    0.022    0.142   12.387   39.632
  163.801    0.025    0.141   12.360   40.358
  164.101    0.000    0.153   12.312   41.876
  164.401    0.000    0.143   12.263   42.637
  164.701    0.000    0.143   12.235   43.413
  165.001    0.000    0.142   11.574   42.545
