~VERSION INFORMATION
 VERS.                 2.0:   CWLS LOG ASCII STANDARD -VERSION 2.0
 WRAP.                  NO:   ONE LINE PER DEPTH STEP
~WELL INFORMATION BLOCK
#MNEM.UNIT           DATA                    DESCRIPTION OF MNEMONIC
#---------    -------------------            -------------------------------
# Generated from Intellog Unique Number	CC_84_87/WELL/1047
NULL.         -999.25                        : NULL_VALUE
WELL.         ARCO ACI MCMURRAY              : Well_name    - WELL              
LOC .         02-26-084-10W4                 : Location     - LOCATION          
UWI .         AA/02-26-084-10W400            : Uwi          - UNIQUE WELL ID    
ENTR.         JHS                            : Entered      - ENTERED BY        
SRVC.         SCHLUMBERGER                   : Scn          - SERVICE COMPANY   
DATE.         08 FEB 74                      : Date         - LOG DATE
STRT.M        170.688                        : top_depth    - START DEPTH       
STOP.M        392.083                        : bot_depth    - STOP DEPTH        
STEP.M        0.3                            : increment    - STEP LENGTH       
~CURVE INFORMATION BLOCK
#MNEM UNIT       ERCB CURVE CODE    CURVE DESCRIPTION
#-----------   ------------------   ----------------------------------
DEPT.M        00 001 00 00         : DEPTH        - DEPTH                       
RHOB.KG/M3    00 350 00 00         : DENS         - BULK DENSITY                
GR  .API      00 310 00 00         : GR           - GAMMA RAY                   
NPHI.V/V      00 330 00 00         : PHIN         - NEUTRON POROSITY (LIMESTONE)
ILD .OHMM     00 120 00 00         : RESD         - DEEP RESISTIVITY (DIL)      
~PARAMETER INFORMATION       
#MNEM.UNIT           DATA             DESCRIPTION OF MNEMONIC
#---------         -----------     ------------------------------
GL  .M        643.829              : gl           - GROUND LEVEL ELEVATION      
EREF.M        646.877              : kb           - ELEVATION OF DEPTH REFERENCE
DATM.M        646.877              : datum        - DATUM ELEVATION             
TDD .M        390.449              : tdd          - TOTAL DEPTH DRILLER         
RUN .         ONE                  : Run          - RUN NUMBER                  
ENG .         BILL                 : Engineer     - RECORDING ENGINEER          
WIT .         JIM                  : Witness      - WITNESSED BY                
MUD .         GEL                  : Mud_type     - MUD TYPE                    
MATR.         LIMESTONE            : Logunit      - NEUTRON MATRIX              
TMAX.C        60                   : BHT          - MAXIMUM RECORDED TEMPERATURE
BHTD.M        390.449              : BHTDEP       - MAXIMUM RECORDED TEMPERATURE
MATR.         1                    : LOGUNIT      - NEUTRON MATRIX              
RMT .C        25                   : MDTP         - TEMPERATURE OF MUD          
NEUT.         1                    : NEUTRON      - NEUTRON TYPE                
RESI.         0                    : RESIST       - RESISTIVITY TYPE            
RMC .OHMM     0.25                 : RMC          - RESISTIVITY OF MUD CAKE     
RMF .OHMM     0.25                 : RMF          - RESISTIVITY OF MUD FILTRATE 
SUFT.C        15                   : SUFT         - SURFACE TEMPERATURE         
~A  DEPTH     DENS       GR     PHIN     RESD
# ...
  275.088 2166.650  111.688    0.434    3.349
  275.388 2139.090  105.801    0.416    3.410
  275.688 2147.030  105.228    0.397    3.535
  275.988 2166.810  102.291    0.394    4.012
  276.288 2202.360   98.175    0.390    4.471
  276.588 2247.790   94.060    0.326    5.262
  276.888 2271.510   93.483    0.305    6.538
  277.188 2141.380   95.865    0.311    8.125
  277.488 2123.690   92.928    0.317    9.222
  277.788 2149.380   87.040    0.304   10.092
  278.088 2200.720   84.104    0.277   10.462
  278.388 2362.510   55.184    0.235   11.451
  278.688 2331.000   56.382    0.217   12.762
  278.988 2029.280   63.486    0.229   14.750
  279.288 2017.500   68.818    0.238   21.578
  279.588 2031.370   65.884    0.257   28.311
  279.888 2049.160   69.443    0.257   32.130
  280.188 2047.240   64.147    0.253   33.309
  280.488 2017.720   65.934    0.259   32.697
  280.788 2000.020   72.447    0.256   29.317
  281.088 1996.130   68.923    0.249   27.258
  281.388 2004.070   70.713    0.255   24.886
  281.688 2021.880   74.273    0.258   23.136
  281.988 2061.370   68.384    0.274   22.308
  282.288 2128.490   63.677    0.289   19.643
  282.588 2187.710   66.645    0.276   16.086
  282.888 2556.610   55.442    0.221   16.674
  283.188 2576.390   46.009    0.110   17.923
  283.488 2402.870   52.526    0.229   21.093
  283.788 2146.510   58.447    0.298   23.087
  284.088 2107.120   64.369    0.350   20.328
  284.388 2122.950   72.062    0.371   14.140
  284.688 2105.250   70.308    0.383   13.388
  284.988 2085.590   65.601    0.381   12.907
  285.288 2077.750   59.713    0.378   12.442
  285.588 2103.450   62.092    0.374   12.438
  285.888 2152.800   62.700    0.373   12.894
  286.188 2214.010   63.899    0.366   13.366
  286.488 2210.130   66.869    0.359   13.854
  286.788 2170.720   70.428    0.372   13.850
  287.088 2085.970   68.675    0.372   13.113
  287.388 2091.930   73.415    0.393   12.415
  287.688 2093.970   73.438    0.366   11.968
  287.988 2092.040   75.224    0.344   11.748
  288.288 2117.740   74.059    0.370   11.746
  288.588 2102.000   72.306    0.376   11.741
  288.888 2090.230   74.685    0.370   11.736
  289.188 2106.060   74.110    0.384   11.734
  289.488 2096.260   68.811    0.393   11.729
  289.788 2092.370   68.240    0.371   11.726
  290.087 2104.250   69.437    0.371   11.722
  290.387 2104.310   69.455    0.357   11.508
  290.687 2108.300   74.788    0.359   11.503
  290.987 2108.360   79.529    0.364   11.499
  291.287 2165.610   75.414    0.330   11.497
  291.587 2297.810   71.293    0.194   12.135
  291.887 2534.550   59.500    0.106   14.282
  292.187 2540.520   53.612    0.151   19.431
  292.487 2420.260   57.173    0.206   23.284
  292.787 2163.900   66.049    0.270   23.703
  293.087 2128.450   72.562    0.358   19.412
  293.387 2124.580   72.578    0.370   15.055
  293.687 2122.660   69.054    0.377   12.784
  293.987 2112.850   72.612    0.378   11.671
  294.287 2112.890   79.128    0.366   11.458
  294.587 2120.850   85.049    0.370   11.046
  294.887 2128.780   92.154    0.383   10.459
  295.187 2130.800   93.942    0.406    9.549
  295.487 2121.000   97.501    0.389    8.879
  295.787 2142.750   89.841    0.399    7.961
  296.087 2121.100   81.592    0.382    7.674
  296.387 2136.940   85.745    0.364    7.672
  296.687 2158.690   96.980    0.389    7.810
  296.987 2172.550   95.818    0.368    7.808
  297.287 2182.470   91.699    0.346    7.805
  297.587 2206.180   86.992    0.323    8.238
  297.887 2233.850   88.781    0.348    8.696
  298.187 2218.130   94.703    0.373    8.693
  298.487 2237.910   98.856    0.390    8.381
  298.787 2204.430   98.285    0.393    8.080
  299.087 2141.360   97.716    0.376    7.114
  299.387 2167.070   98.910    0.374    6.614
  299.687 2167.120  101.285    0.391    6.493
  299.987 2137.580  103.665    0.411    6.148
  300.287 2149.470  104.865    0.421    5.220
  300.587 2131.770  104.883    0.410    5.125
  300.887 2141.690  105.487    0.387    5.217
  301.187 2135.830  100.780    0.369    5.507
  301.487 2135.880  104.343    0.381    6.137
  301.787 2137.910  104.951    0.420    6.479
  302.087 2149.800   98.471    0.424    6.838
  302.387 2171.550   90.810    0.381    7.089
  302.687 2195.260   95.552    0.372    7.216
  302.987 2201.240   93.207    0.411    6.957
  303.287 2258.490   96.178    0.398    6.706
  303.587 2197.400   99.737    0.363    6.952
  303.887 2213.230  103.299    0.384    6.825
  304.187 2233.010  105.677    0.396    6.579
  304.487 2278.430   97.428    0.381    6.578
  304.787 2306.090  102.168    0.321    6.576
  305.087 2197.660  118.722    0.347    6.225
  305.387 2174.060  118.147    0.402    5.482
  305.687 2166.220  115.806    0.423    4.740
  305.987 2184.030  114.640    0.418    4.327
  306.287 2201.820  111.705    0.430    4.024
  306.587 2176.240  114.085    0.451    3.608
  306.887 2194.040  117.644    0.455    3.235
  307.187 2164.520  122.974    0.471    3.119
  307.487 2182.320  119.448    0.476    3.118
  307.787 2186.310  111.790    0.478    3.351
  308.087 2243.570  103.538    0.445    3.803
  308.387 2269.270  104.150    0.375    4.316
  308.687 2210.150  111.251    0.376    4.639
  308.987 2261.490  111.267    0.394    5.078
  309.287 2218.140  110.106    0.399    5.558
  309.587 2237.920  114.845    0.384    5.974
  309.887 2281.370  110.731    0.374    6.421
  310.187 2295.230  107.206    0.348    7.028
  310.487 2204.550  113.714    0.384    7.419
  310.787 2249.980  123.182    0.370    7.974
  311.087 2236.220  127.334    0.351    8.570
  311.387 2222.470  120.853    0.313    8.884
  311.687 2222.540  120.871    0.306    9.549
  311.987 2252.160  113.210    0.318    9.899
  312.287 2287.710  103.188    0.312   10.261
  312.587 2339.060   96.711    0.301   10.831
  312.887 2285.850  104.994    0.320   10.828
  313.187 2236.600  116.236    0.326   10.629
  313.487 2232.710  114.477    0.335   10.248
  313.787 2254.460  114.498    0.325    9.879
  314.087 2252.540  112.151    0.322    9.525
  314.387 2264.430  109.217    0.330    9.017
  314.686 2284.200  111.593    0.361    8.384
  314.986 2232.970  112.201    0.399    7.517
  315.286 2219.220  115.171    0.401    7.247
  315.586 2233.090  109.874    0.393    7.377
  315.886 2221.300  109.891    0.372    7.929
  316.186 2237.130  107.548    0.333    8.678
  316.486 2233.240  109.926    0.319    9.161
  316.786 2187.930  105.811    0.323    9.847
  317.086 2189.960  105.236    0.321   10.024
  317.386 2211.710  109.385    0.319    9.841
  317.686 2241.350  109.409    0.337    9.316
  317.986 2265.070  110.603    0.370    8.820
  318.286 2237.510  102.352    0.360    8.351
  318.586 2241.520   91.739    0.330    8.050
  318.886 2265.230   96.481    0.316    7.903
  319.186 2302.760  102.993    0.297    7.759
  319.486 2241.670  111.277    0.310    7.617
  319.786 2245.670  103.618    0.332    7.477
  320.086 2227.980  107.771    0.324    7.475
  320.386 2235.910  110.738    0.330    7.338
  320.686 2245.840  113.709    0.354    7.336
  320.986 2220.250  110.773    0.373    7.202
  321.286 2204.520   97.798    0.336    7.200
  321.586 2222.320   84.232    0.291    7.463
  321.886 2443.280   78.934    0.198    7.877
  322.186 2370.360   80.132    0.247    8.315
  322.486 2295.460   94.326    0.325    8.777
  322.786 2230.430   96.116    0.354    8.617
  323.086 2214.710   99.674    0.374    7.867
  323.386 2177.280  107.369    0.396    6.443
  323.686 2145.790  110.931    0.414    4.647
  323.986 2159.640  109.765    0.435    3.946
  324.286 2218.860  116.870    0.440    3.804
  324.586 2246.530  115.117    0.425    3.873
  324.886 2252.510  110.999    0.405    4.088
  325.186 2205.220  108.651    0.393    5.173
  325.486 2240.770  103.944    0.347    6.545
  325.786 2272.390   98.059    0.344    7.703
  326.086 2286.240   97.482    0.319    8.742
  326.386 2329.690   99.273    0.329    9.227
  326.686 2325.800   96.928    0.311    9.393
  326.986 2286.420  104.032    0.291    9.562
