~VERSION INFORMATION
 VERS.                 2.0:   CWLS LOG ASCII STANDARD -VERSION 2.0
 WRAP.                  NO:   ONE LINE PER DEPTH STEP
~WELL INFORMATION BLOCK
#MNEM.UNIT           DATA                    DESCRIPTION OF MNEMONIC
#---------    -------------------            -------------------------------
# Generated from Intellog Unique Number	CS_73_76/WELL/1041
WELL.         06-14-076-07W4                 : Well_name    - WELL
LOC .         AA/06-14-076-07W4/0            : Location     - LOCATION
UWI .         AA/06-14-076-07W4/0            : Uwi          - UNIQUE WELL ID
ENTR.         SP                             : Entered      - ENTERED BY
SRVC.         SCHLUMBERGER                   : Scn          - SERVICE COMPANY
STRT.M        175                            : top_depth    - START DEPTH
STOP.M        415                            : bot_depth    - STOP DEPTH
STEP.M        0.25                           : increment    - STEP LENGTH
 NULL. -999.2500:NULL Value
~CURVE INFORMATION BLOCK
#MNEM UNIT       ERCB CURVE CODE    CURVE DESCRIPTION
#-----------   ------------------   ----------------------------------
DEPT.M        00 001 00 00         : DEPTH        - DEPTH
NPHI.V/V      00 330 00 00         : PHIN         - NEUTRON POROSITY (LIMESTONE)
DPHI.V/V      00 890 00 00         : PHID         - DENSITY POROSITY (LIMESTONE)
GR  .API      00 310 00 00         : GR           - GAMMA RAY
ILD .OHMM     00 120 00 00         : RESD         - DEEP RESISTIVITY (DIL)
~PARAMETER INFORMATION
#MNEM.UNIT           DATA             DESCRIPTION OF MNEMONIC
#---------         -----------     ------------------------------
GL  .M        607.14               : gl           - GROUND LEVEL ELEVATION
EREF.M        610.79               : kb           - ELEVATION OF DEPTH REFERENCE
DATM.M        607.14               : datum        - DATUM ELEVATION
TDD .M        414.9                : tdd          - TOTAL DEPTH DRILLER
RUN .         ONE                  : Run          - RUN NUMBER
ENG .         BILL                 : Engineer     - RECORDING ENGINEER
WIT .         JIM                  : Witness      - WITNESSED BY
MUD .         GEL                  : Mud_type     - MUD TYPE
MATR.         LIMESTONE            : Logunit      - NEUTRON MATRIX
TMAX.C        18                   : BHT          - MAXIMUM RECORDED TEMPERATURE
BHTD.M        414.9                : BHTDEP       - MAXIMUM RECORDED TEMPERATURE
MATR.         1                    : LOGUNIT      - NEUTRON MATRIX
RMT .C        25                   : MDTP         - TEMPERATURE OF MUD
NEUT.         1                    : NEUTRON      - NEUTRON TYPE
RESI.         0                    : RESIST       - RESISTIVITY TYPE
RMC .OHMM     0.25                 : RMC          - RESISTIVITY OF MUD CAKE
RMF .OHMM     0.25                 : RMF          - RESISTIVITY OF MUD FILTRATE
SUFT.C        15                   : SUFT         - SURFACE TEMPERATURE
~A  DEPTH     PHIN     PHID       GR     RESD
# ...
  392.500    0.481    0.323   39.481   89.233
  392.750    0.458    0.319   40.091   87.634
  393.000    0.410    0.316   43.176   89.359
  393.250    0.373    0.324   43.786   82.937
  393.500    0.400    0.343   49.349   72.743
  393.750    0.508    0.352   52.437   59.185
  394.000    0.478    0.264   53.666   51.919
  394.250    0.375    0.223   52.417   47.286
  394.500    0.359    0.228   49.303   46.430
  394.750    0.378    0.264   48.671   49.163
  395.000    0.460    0.320   48.665   59.395
  395.250    0.556    0.383   46.794   66.535
  395.500    0.523    0.344   41.820   73.148
  395.750    0.420    0.307   36.852   78.922
  396.000    0.388    0.295   34.361   77.506
  396.250    0.383    0.271   36.206   64.253
  396.500    0.409    0.248   41.153   50.346
  396.750    0.372    0.219   44.244   42.531
  397.000    0.355    0.220   48.571   35.929
  397.250    0.334    0.231   56.618   29.790
  397.500    0.385    0.232   69.002   27.130
  397.750    0.376    0.231   73.329   24.252
  398.000    0.381    0.225   74.553   22.093
  398.250    0.387    0.222   78.265   20.508
  398.500    0.399    0.219   81.970   20.134
  398.750    0.416    0.212   81.341   19.774
  399.000    0.428    0.222   76.371   20.163
  399.250    0.386    0.241   72.016   20.178
  399.500    0.355    0.246   69.528   19.815
  399.750    0.373    0.236   68.278   19.462
  400.000    0.389    0.236   70.748   19.843
  400.250    0.425    0.240   75.074   20.620
  400.500    0.467    0.241   72.582   21.828
  400.750    0.491    0.245   70.093   25.885
  401.000    0.431    0.252   69.461   27.403
  401.250    0.441    0.258   70.688   30.703
  401.500    0.461    0.270   66.340   32.501
  401.750    0.476    0.281   58.267   37.816
  402.000    0.448    0.292   55.781   42.369
  402.250    0.438    0.296   51.429   48.380
  402.500    0.421    0.299   49.560   49.315
  402.750    0.431    0.301   47.688   53.209
  403.000    0.445    0.304   45.196   56.351
  403.250    0.454    0.306   42.087   57.463
  403.500    0.470    0.310   41.456   56.425
  403.750    0.435    0.315   43.924   54.368
  404.000    0.428    0.321   44.532   49.541
  404.250    0.429    0.317   43.899   48.641
  404.500    0.446    0.274   47.608   46.882
  404.750    0.456    0.266   48.217   46.914
  405.000    0.471    0.278   45.103   52.551
  405.250    0.475    0.304   42.613   62.289
  405.500    0.485    0.321   39.504   69.788
  405.750    0.491    0.325   35.153   73.892
  406.000    0.455    0.316   33.285   76.796
  406.250    0.437    0.314   32.653   76.838
  406.500    0.441    0.312   33.881   75.491
  406.750    0.450    0.315   37.587   74.125
  407.000    0.456    0.319   38.197   74.159
  407.250    0.411    0.319   35.703   74.229
  407.500    0.382    0.304   34.452   72.878
  407.750    0.397    0.296   35.676   70.249
  408.000    0.428    0.293   36.287   65.187
  408.250    0.443    0.285   36.280   50.122
  408.500    0.479    0.276   36.266   41.558
  408.750    0.430    0.228   38.111   36.446
  409.000    0.384    0.113   39.343   33.198
  409.250    0.321    0.081   41.808   35.158
  409.500    0.211    0.035   43.656   38.648
  409.750    0.130    0.018   44.267   56.349
  410.000    0.124    0.011   43.638   99.170
  410.250    0.121    0.000   41.766  119.796
  410.500    0.120    0.000   44.234  126.865
  410.750    0.122    0.000   46.081  126.956
  411.000    0.126    0.000   45.451  127.030
  411.250    0.131    0.000   38.619  131.999
  411.500    0.132    0.000   34.892  134.613
  411.750    0.134    0.000   34.258  132.235
  412.000    0.134    0.000   37.961  132.320
  412.250    0.131    0.000   40.429  132.384
  412.500    0.131    0.001   42.280  132.504
  412.750    0.130    0.000   44.124  132.559
  413.000    0.129    0.000   44.118  135.176
  413.250    0.129    0.000   41.627  135.270
  413.500    0.131    0.000   39.139  137.955
  413.750    0.132    0.000   40.985  138.054
  414.000    0.132    0.000   43.450  138.157
  414.250    0.131    0.007   45.302  138.253
  414.500    0.129    0.026   47.765  138.335
  414.750    0.128    0.034   48.998  138.441
  415.000    0.128    0.036   47.746  138.557
