~VERSION INFORMATION
 VERS.                 2.0:   CWLS LOG ASCII STANDARD -VERSION 2.0
 WRAP.                  NO:   ONE LINE PER DEPTH STEP
~WELL INFORMATION BLOCK
#MNEM.UNIT           DATA                    DESCRIPTION OF MNEMONIC
#---------    -------------------            -------------------------------
# Generated from Intellog Unique Number	CC_84_87/WELL/1181
NULL.         -999.25                        : NULL_VALUE
WELL.         SUN CHEECHAM-19                : Well_name    - WELL              
LOC .         09-29-084-07W4                 : Location     - LOCATION          
UWI .         AA/09-29-084-07W4/0            : Uwi          - UNIQUE WELL ID    
ENTR.         JHS                            : Entered      - ENTERED BY        
SRVC.         SCHLUMBERGER                   : Scn          - SERVICE COMPANY   
DATE.         20 JAN 80                      : Date         - LOG DATE
STRT.M        140                            : top_depth    - START DEPTH       
STOP.M        430.094                        : bot_depth    - STOP DEPTH        
STEP.M        0.3                            : increment    - STEP LENGTH       
~CURVE INFORMATION BLOCK
#MNEM UNIT       ERCB CURVE CODE    CURVE DESCRIPTION
#-----------   ------------------   ----------------------------------
DEPT.M        00 001 00 00         : DEPTH        - DEPTH                       
ILD .OHMM     00 120 00 00         : RESD         - DEEP RESISTIVITY (DIL)      
GR  .API      00 310 00 00         : GR           - GAMMA RAY                   
NPHI.V/V      00 330 00 00         : PHIN         - NEUTRON POROSITY (LIMESTONE)
DPHI.V/V      00 890 00 00         : PHID         - DENSITY POROSITY (LIMESTONE)
~PARAMETER INFORMATION       
#MNEM.UNIT           DATA             DESCRIPTION OF MNEMONIC
#---------         -----------     ------------------------------
GL  .M        597.9                : gl           - GROUND LEVEL ELEVATION      
EREF.M        600.85               : kb           - ELEVATION OF DEPTH REFERENCE
DATM.M        600.85               : datum        - DATUM ELEVATION             
TDD .M        434                  : tdd          - TOTAL DEPTH DRILLER         
RUN .         ONE                  : Run          - RUN NUMBER                  
ENG .         BILL                 : Engineer     - RECORDING ENGINEER          
WIT .         JIM                  : Witness      - WITNESSED BY                
MUD .         GEL                  : Mud_type     - MUD TYPE                    
MATR.         LIMESTONE            : Logunit      - NEUTRON MATRIX              
TMAX.C        20                   : BHT          - MAXIMUM RECORDED TEMPERATURE
BHTD.M        434                  : BHTDEP       - MAXIMUM RECORDED TEMPERATURE
MATR.         1                    : LOGUNIT      - NEUTRON MATRIX              
RMT .C        25                   : MDTP         - TEMPERATURE OF MUD          
NEUT.         1                    : NEUTRON      - NEUTRON TYPE                
RESI.         0                    : RESIST       - RESISTIVITY TYPE            
RMC .OHMM     0.25                 : RMC          - RESISTIVITY OF MUD CAKE     
RMF .OHMM     0.25                 : RMF          - RESISTIVITY OF MUD FILTRATE 
SUFT.C        15                   : SUFT         - SURFACE TEMPERATURE         
~A  DEPTH     RESD       GR     PHIN     PHID
# ...
  296.600    6.847  115.687    0.453    0.248
  296.900    6.242  116.910    0.473    0.256
  297.199    5.692  112.753    0.475    0.268
  297.499    5.692  113.376    0.482    0.276
  297.799    5.908  109.821    0.470    0.295
  298.099    7.244  103.870    0.432    0.284
  298.399    7.948  104.504    0.406    0.231
  298.699    8.404  108.714    0.418    0.266
  298.999    7.952  111.131    0.432    0.281
  299.299    7.807  111.163    0.445    0.271
  299.599    7.524  111.780    0.456    0.268
  299.899    5.916  112.409    0.461    0.278
  300.199    5.391  108.253    0.444    0.251
  300.499    5.098  111.271    0.457    0.223
  300.799    5.003  113.089    0.476    0.263
  301.099    5.287  110.733    0.496    0.273
  301.399    6.129  111.355    0.493    0.227
  301.699    6.014  118.551    0.475    0.251
  301.999    6.125  110.813    0.460    0.259
  302.299    7.101  109.646    0.459    0.274
  302.599    7.786  101.307    0.480    0.299
  302.899    7.784   95.358    0.469    0.298
  303.199    7.226   95.387    0.446    0.278
  303.499    6.229   95.413    0.434    0.283
  303.799    4.805   95.440    0.437    0.265
  304.099    3.918   99.053    0.435    0.247
  304.399    3.637  103.272    0.474    0.268
  304.699    3.636  107.483    0.511    0.314
  304.999    4.137  112.288    0.545    0.307
  305.299    5.360  114.113    0.557    0.286
  305.599    6.691  111.154    0.501    0.284
  305.899    7.338  107.601    0.449    0.303
  306.199    7.473  106.425    0.437    0.289
  306.499    7.470  106.452    0.427    0.269
  306.799    7.330  107.674    0.448    0.258
  307.099    7.465  107.707    0.440    0.262
  307.399    7.601  106.546    0.431    0.270
  307.699    8.034  104.176    0.433    0.264
  307.999    8.975  100.017    0.450    0.282
  308.299    9.310   94.668    0.480    0.282
  308.599    9.480   91.111    0.469    0.269
  308.899    9.304   89.342    0.436    0.250
  309.199    8.798   84.590    0.415    0.264
  309.499    7.870   87.008    0.388    0.151
  309.799    7.040   97.798    0.372    0.224
  310.099    6.069  107.386    0.391    0.254
  310.399    5.329  109.208    0.448    0.228
  310.699    5.528  113.420    0.470    0.231
  310.999    6.409  118.230    0.467    0.246
  311.299    6.289  124.232    0.454    0.245
  311.599    5.947  123.075    0.424    0.243
  311.899    5.032  123.692    0.403    0.248
  312.199    4.104  118.345    0.427    0.232
  312.499    3.346  108.812    0.457    0.263
  312.799    2.938  105.251    0.486    0.280
  313.099    2.728   96.909    0.521    0.309
  313.399    2.830   92.159    0.556    0.346
  313.699    3.220   95.778    0.551    0.332
  313.999    3.803   95.206    0.533    0.296
  314.299    4.328   93.436    0.497    0.297
  314.599    4.659   93.468    0.453    0.275
  314.899    4.923   95.288    0.441    0.287
  315.199    4.922   97.105    0.436    0.281
  315.499    4.830   97.736    0.429    0.286
  315.799    4.740   99.557    0.415    0.266
  316.099    4.240  103.168    0.394    0.265
  316.399    3.864  105.588    0.411    0.280
  316.699    3.722  104.422    0.473    0.289
  316.999    3.721  102.062    0.504    0.270
  317.299    3.932  105.074    0.514    0.288
  317.599    4.004  106.896    0.507    0.311
  317.899    3.929  100.944    0.499    0.329
  318.199    3.856  101.574    0.465    0.308
  318.499    3.714  105.187    0.412    0.277
  318.799    3.578  110.598    0.461    0.271
  319.099    3.384  110.024    0.516    0.284
  319.399    3.259  104.676    0.531    0.320
  319.699    3.198  101.715    0.543    0.304
  319.999    3.257   99.348    0.545    0.316
  320.299    3.572  104.157    0.532    0.315
  320.599    3.774  113.150    0.510    0.294
  320.899    3.916  108.994    0.498    0.304
  321.199    3.988  104.845    0.496    0.282
  321.499    3.986  104.273    0.506    0.275
  321.798    3.985  106.091    0.509    0.259
  322.098    4.211  110.306    0.482    0.260
  322.398    4.533  109.735    0.442    0.257
  322.698    4.971  103.190    0.445    0.252
  322.998    5.452   94.253    0.459    0.259
  323.298    5.551   87.108    0.425    0.270
  323.598    5.448   87.136    0.432    0.247
  323.898    5.057   90.154    0.446    0.301
  324.198    4.782   87.195    0.417    0.267
  324.498    4.439   85.428    0.393    0.195
  324.798    4.121   89.642    0.364    0.213
  325.098    3.755   94.448    0.398    0.260
  325.398    3.551  103.440    0.442    0.245
  325.698    3.617  104.067    0.497    0.253
  325.998    4.115   97.520    0.471    0.292
  326.298    5.332   97.551    0.443    0.307
  326.598    7.037   94.587    0.474    0.320
  326.898   10.188   88.640    0.491    0.337
  327.198   17.749   80.303    0.444    0.322
  327.498   16.476   77.939    0.406    0.319
  327.798   13.942   77.369    0.411    0.339
  328.098   10.557   79.789    0.423    0.330
  328.398    8.451   85.201    0.417    0.306
  328.698    7.701   92.396    0.387    0.283
  328.998    7.282  102.584    0.371    0.252
  329.298    6.760  105.004    0.371    0.217
  329.598    6.160  107.419    0.374    0.231
  329.898    5.933  113.427    0.372    0.235
  330.198    5.932  119.435    0.388    0.213
  330.498    6.041  111.689    0.407    0.264
  330.798    6.038  113.514    0.402    0.232
  331.098    6.037  113.538    0.399    0.199
  331.398    6.499  104.602    0.409    0.224
  331.698    6.496   96.861    0.403    0.247
  331.998    6.374   92.106    0.382    0.266
  332.298    6.256   86.159    0.357    0.263
  332.598    6.138   83.798    0.351    0.238
  332.898    6.136   90.398    0.367    0.218
  333.198    6.249  105.367    0.380    0.222
  333.498    6.483  109.583    0.389    0.213
  333.798    6.602  105.433    0.403    0.232
  334.098    6.723  108.449    0.388    0.220
  334.398    6.721  106.078    0.367    0.239
  334.698    6.719  107.898    0.361    0.217
  334.998    6.716  106.732    0.359    0.244
  335.298    6.967  103.779    0.356    0.223
  335.598    7.095  100.215    0.370    0.233
  335.898    7.093   97.850    0.387    0.250
  336.198    7.090   91.906    0.382    0.262
  336.498    6.958   87.149    0.383    0.252
  336.798    6.828   93.760    0.384    0.241
  337.098    6.456  101.553    0.366    0.263
  337.398    6.220  106.960    0.372    0.235
  337.698    5.992  107.589    0.358    0.214
  337.998    5.880  103.433    0.348    0.217
  338.298    5.877  100.472    0.349    0.231
  338.598    5.875  102.297    0.343    0.231
  338.898    5.983  101.726    0.344    0.219
  339.198    6.206   98.762    0.354    0.207
  339.498    6.205   99.383    0.362    0.215
  339.798    6.089  103.598    0.369    0.204
  340.098    5.975  106.017    0.374    0.185
  340.398    5.756  104.857    0.372    0.202
  340.698    5.648  104.881    0.369    0.228
  340.998    5.543  106.098    0.375    0.228
  341.298    5.541  100.747    0.415    0.234
  341.598    5.539  106.154    0.393    0.249
  341.898    5.641  111.566    0.396    0.217
  342.198    5.961  113.981    0.411    0.210
  342.498    6.300  106.239    0.404    0.212
  342.798    6.908   97.301    0.384    0.236
  343.098    7.167   84.780    0.372    0.217
  343.398    7.164   74.655    0.363    0.233
  343.698    7.030   73.485    0.366    0.288
  343.998    6.899   75.307    0.357    0.277
  344.298    6.770   78.318    0.346    0.252
  344.598    6.768   84.924    0.365    0.241
  344.898    6.766   84.352    0.382    0.258
  345.198    6.890   87.964    0.388    0.265
  345.498    6.887   93.972    0.372    0.239
  345.798    6.885   94.006    0.367    0.218
  346.098    7.012   94.624    0.378    0.204
  346.397    7.273   97.045    0.383    0.215
  346.697    7.687   88.106    0.385    0.226
  346.997    8.123   81.559    0.375    0.222
  347.297    8.271   76.807    0.372    0.239
  347.597    8.268   73.855    0.376    0.258
  347.897    8.113   73.875    0.386    0.279
  348.197    7.963   75.697    0.390    0.271
  348.497    7.392   88.877    0.400    0.255
