~VERSION INFORMATION
 VERS.                 2.0:   CWLS LOG ASCII STANDARD -VERSION 2.0
 WRAP.                  NO:   ONE LINE PER DEPTH STEP
~WELL INFORMATION BLOCK
#MNEM.UNIT           DATA                    DESCRIPTION OF MNEMONIC
#---------    -------------------            -------------------------------
# Generated from Intellog Unique Number	CN_94_101/WELL/3562
WELL.         09-24-096-11W4                 : Well_name    - WELL
LOC .         AA/09-24-096-11W4/0            : Location     - LOCATION
UWI .         AA/09-24-096-11W400            : Uwi          - UNIQUE WELL ID
ENTR.         JOETTE                         : Entered      - ENTERED BY
SRVC.         SCHLUMBERGER                   : Scn          - SERVICE COMPANY
DATE.         07/30/92                       : Date         - LOG DATE
STRT.M        12                             : top_depth    - START DEPTH
STOP.M        151.25                         : bot_depth    - STOP DEPTH
STEP.M        0.25                           : increment    - STEP LENGTH
 NULL. -999.2500:NULL Value
~CURVE INFORMATION BLOCK
#MNEM UNIT       ERCB CURVE CODE    CURVE DESCRIPTION
#-----------   ------------------   ----------------------------------
DEPT.M        00 001 00 00         : DEPTH        - DEPTH
ILD .OHMM     00 120 00 00         : RESD         - DEEP RESISTIVITY (DIL)
GR  .API      00 310 00 00         : GR           - GAMMA RAY
NPHI.V/V      00 330 00 00         : PHIN         - NEUTRON POROSITY (SANDSTONE)
~PARAMETER INFORMATION
#MNEM.UNIT           DATA             DESCRIPTION OF MNEMONIC
#---------         -----------     ------------------------------
GL  .M        0                    : gl           - GROUND LEVEL ELEVATION
EREF.M        285                  : kb           - ELEVATION OF DEPTH REFERENCE
DATM.M        285                  : datum        - DATUM ELEVATION
TDD .M        154.4                : tdd          - TOTAL DEPTH DRILLER
RUN .         ONE                  : Run          - RUN NUMBER
ENG .         TIM                  : Engineer     - RECORDING ENGINEER
WIT .         JIM                  : Witness      - WITNESSED BY
MUD .         GEL                  : Mud_type     - MUD TYPE
MATR.         SANDSTONE            : Logunit      - NEUTRON MATRIX
TMAX.C        18                   : BHT          - MAXIMUM RECORDED TEMPERATURE
BHTD.M        154.4                : BHTDEP       - MAXIMUM RECORDED TEMPERATURE
RMT .C        18                   : MDTP         - TEMPERATURE OF MUD
MUDD.KG/M     1100                 : MWT          - MUD DENSITY
NEUT.         1                    : NEUTRON      - NEUTRON TYPE
RESI.         0                    : RESIST       - RESISTIVITY TYPE
RM  .OHMM     4.18                 : RM           - RESISTIVITY OF MUD
RMC .OHMM     4.18                 : RMC          - RESISTIVITY OF MUD CAKE
RMF .OHMM     4.18                 : RMF          - RESISTIVITY OF MUD FILTRATE
SUFT.C        4                    : SUFT         - SURFACE TEMPERATURE
~A  DEPTH     RESD       GR     PHIN
# ...
  120.500   27.645   12.275    0.338
  120.750   27.981   14.824    0.323
  121.000   27.026   14.851    0.317
  121.250   26.720   18.030    0.333
  121.500   28.695   14.277    0.323
  121.750   30.815   12.420    0.307
  122.000   30.832   16.223    0.316
  122.250   23.244   18.155    0.351
  122.500   22.715   16.915    0.360
  122.750   22.997   20.094    0.329
  123.000   25.892   16.970    0.324
  123.250   24.133   15.738    0.312
  123.500   21.715   22.074    0.314
  123.750   25.033   18.314    0.337
  124.000   16.969   17.081    0.354
  124.250   32.487   30.350    0.320
  124.500   29.925   32.262    0.301
  124.750   25.384   13.383    0.319
  125.000   24.809   17.192    0.325
  125.250   23.124   17.226    0.331
  125.500   22.332   19.145    0.352
  125.750   21.314   19.803    0.357
  126.000   24.280   26.133    0.342
  126.250   24.296   24.900    0.336
  126.500   29.354   24.304    0.347
  126.750   27.691   24.332    0.357
  127.000   22.673   23.729    0.359
  127.250   22.685   23.764    0.346
  127.500   22.168   23.778    0.344
  127.750   22.443   20.654    0.353
  128.000   20.676   18.791    0.350
  128.250   21.184   19.449    0.346
  128.500   20.701   15.695    0.348
  128.750   20.467    8.791    0.355
  129.000   19.766   11.346    0.347
  129.250   18.865   13.265    0.348
  129.500   18.436   15.190    0.344
  129.750   19.798   19.622    0.345
  130.000   20.044   30.364    0.352
  130.250   18.906   25.349    0.365
  130.500   17.624   18.445    0.378
  130.750   16.429   22.261    0.386
  131.000   17.436   21.658    0.384
  131.250   20.339   22.309    0.381
  131.500   20.108   17.932    0.359
  131.750   21.600   17.967    0.334
  132.000   19.897   15.473    0.331
  132.250   15.909   12.973    0.362
  132.500   15.920   16.159    0.367
  132.750   15.557   15.557    0.376
  133.000   15.024   22.510    0.378
  133.250   15.574   25.689    0.383
  133.500   15.219   21.319    0.363
  133.750   14.355   21.332    0.363
  134.000   12.917   20.107    0.370
  134.250   14.036   18.874    0.383
  134.500   14.043   17.634    0.366
  134.750   13.886   18.306    0.360
  135.000   14.396   22.115    0.375
  135.250   13.903   20.875    0.375
  135.500   12.960   19.019    0.354
  135.750   13.434   19.684    0.353
  136.000   13.126   20.958    0.359
  136.250   11.812   19.725    0.373
  136.500    9.225   15.979    0.381
  136.750    8.012   26.083    0.377
  137.000   12.851   31.166    0.379
  137.250   12.706   23.624    0.383
  137.500   12.127   15.452    0.396
  137.750   11.172   30.612    0.387
  138.000   13.343   36.942    0.390
  138.250   12.004   43.272    0.366
  138.500   10.183   27.544    0.338
  138.750   10.808   33.874    0.363
  139.000   11.607   50.294    0.377
  139.250   12.173   69.229    0.358
  139.500   10.448   90.684    0.357
  139.750    6.757   53.529    0.400
  140.000    9.977   32.129    0.387
  140.250   10.221   24.594    0.357
  140.500   10.349   29.033    0.334
  140.750   11.379   34.109    0.326
  141.000   13.589   42.953    0.320
  141.250   13.757   40.460    0.328
  141.500   13.130   32.295    0.345
  141.750   12.831   26.020    0.348
  142.000    9.675   29.829    0.353
  142.250    9.019   71.459    0.353
  142.500    9.799   54.470    0.347
  142.750   10.774   39.373    0.352
  143.000    9.694   25.535    0.355
  143.250    9.587   35.647    0.346
  143.500    9.706   30.632    0.353
  143.750   10.546   32.551    0.352
  144.000   11.328   34.476    0.335
  144.250   11.333   31.346    0.332
  144.500    9.279   72.975    0.356
  144.750    7.686   64.810    0.378
  145.000    5.660   56.645    0.399
  145.250    6.372   61.084    0.355
  145.500    9.981   38.423    0.336
  145.750    6.847   28.374    0.344
  146.000    9.309   31.546    0.378
  146.250    8.576   29.683    0.353
  146.500    8.891   29.711    0.344
  146.750    7.541   28.485    0.329
  147.000    8.489   31.027    0.339
  147.250    6.869   30.431    0.367
  147.500    5.827   28.568    0.380
  147.750    6.257   34.891    0.387
  148.000    6.641   38.077    0.390
  148.250    6.966   35.584    0.374
  148.500    7.220   28.042    0.373
  148.750    7.398   35.009    0.376
  149.000    7.402   69.069    0.369
  149.250    8.043  127.714    0.372
  149.500    9.055  120.186    0.366
  149.750    4.412  110.123    0.500
  150.000    4.627   97.546    0.514
  150.250    4.970   93.793    0.526
  150.500    5.338   97.602    0.490
  150.750    5.801   91.334    0.481
  151.000    6.302   91.992    0.462
  151.250    7.012   84.450    0.430
