~VERSION INFORMATION
 VERS.                 2.0:   CWLS LOG ASCII STANDARD -VERSION 2.0
 WRAP.                  NO:   ONE LINE PER DEPTH STEP
~WELL INFORMATION BLOCK
#MNEM.UNIT           DATA                    DESCRIPTION OF MNEMONIC
#---------    -------------------            -------------------------------
# Generated from Intellog Unique Number	CN_94_101/WELL/1061
WELL.         01-08-095-12W4                 : Well_name    - WELL
LOC .         AA/01-08-095-12W4/0            : Location     - LOCATION
UWI .         AA/01-08-095-12W4/0            : Uwi          - UNIQUE WELL ID
ENTR.         MAX                            : Entered      - ENTERED BY
SRVC.         SCHLUMBERGER                   : Scn          - SERVICE COMPANY
DATE.         03/16/92                       : Date         - LOG DATE
STRT.F        100                            : top_depth    - START DEPTH
STOP.F        369.849                        : bot_depth    - STOP DEPTH
STEP.F        0.82                           : increment    - STEP LENGTH
 NULL. -999.2500:NULL Value
~CURVE INFORMATION BLOCK
#MNEM UNIT       ERCB CURVE CODE    CURVE DESCRIPTION
#-----------   ------------------   ----------------------------------
DEPT.F        00 001 00 00         : DEPTH        - DEPTH
GR  .API      00 310 00 00         : GR           - GAMMA RAY
DPHI.V/V      00 890 00 00         : PHID         - DENSITY POROSITY (SANDSTONE)
ILD .OHMM     00 120 00 00         : RESD         - DEEP RESISTIVITY (DIL)
~PARAMETER INFORMATION
#MNEM.UNIT           DATA             DESCRIPTION OF MNEMONIC
#---------         -----------     ------------------------------
GL  .F        1122.2               : gl           - GROUND LEVEL ELEVATION
EREF.F        1122.2               : kb           - ELEVATION OF DEPTH REFERENCE
DATM.F        1122.2               : datum        - DATUM ELEVATION
TDD .F        372                  : tdd          - TOTAL DEPTH DRILLER
RUN .         ONE                  : Run          - RUN NUMBER
ENG .         BILL                 : Engineer     - RECORDING ENGINEER
WIT .         JIM                  : Witness      - WITNESSED BY
MUD .         GEL                  : Mud_type     - MUD TYPE
MATR.         SANDSTONE            : Logunit      - NEUTRON MATRIX
TMAX.C        12.2222              : BHT          - MAXIMUM RECORDED TEMPERATURE
BHTD.M        113.386              : BHTDEP       - MAXIMUM RECORDED TEMPERATURE
RMT .C        12.2222              : MDTP         - TEMPERATURE OF MUD
MUDD.KG/M     1100                 : MWT          - MUD DENSITY
NEUT.         1                    : NEUTRON      - NEUTRON TYPE
RESI.         0                    : RESIST       - RESISTIVITY TYPE
RM  .OHMM     2.1                  : RM           - RESISTIVITY OF MUD
RMC .OHMM     2.1                  : RMC          - RESISTIVITY OF MUD CAKE
RMF .OHMM     2.1                  : RMF          - RESISTIVITY OF MUD FILTRATE
SUFT.C        4                    : SUFT         - SURFACE TEMPERATURE
~A  DEPTH       GR     PHID     RESD
  100.000   79.436    0.374    6.735
  100.820   79.058    0.371    6.735
  101.640   78.282    0.363    6.735
  102.461   76.712    0.349    7.254
  103.281   74.343    0.337    7.812
  104.101   71.979    0.320    8.570
  104.921   68.423    0.307    8.894
  105.741   70.035    0.289    9.230
  106.562   74.024    0.291    9.758
  107.382   79.602    0.315    9.941
  108.202   85.184    0.328    9.941
  109.022   84.805    0.337    9.580
  109.843   80.853    0.339    9.233
  110.663   75.709    0.319    8.898
  111.483   74.536    0.309    8.735
  112.303   77.338    0.308    8.418
  113.123   78.151    0.334    7.963
  113.944   78.169    0.363    7.534
  114.764   78.982    0.376    7.127
  115.584   80.588    0.379    6.996
  116.404   79.416    0.368    6.619
  117.224   76.659    0.352    6.261
  118.045   75.084    0.346    6.147
  118.865   75.504    0.341    6.147
  119.685   77.504    0.342    6.263
  120.505   82.292    0.351    6.499
  121.325   85.487    0.365    6.621
  122.146   83.921    0.378    6.745
  122.966   82.753    0.376    6.746
  123.786   81.968    0.383    6.746
  124.606   81.206    0.386    6.501
  125.427   81.220    0.382    6.382
  126.247   80.836    0.378    6.383
  127.067   80.462    0.374    6.383
  127.887   80.079    0.379    6.383
  128.707   78.910    0.374    6.384
  129.528   76.939    0.370    6.384
  130.348   78.952    0.376    6.267
  131.168   78.573    0.406    5.820
  131.988   77.802    0.418    5.209
  132.808   77.811    0.428    4.928
  133.629   77.035    0.399    4.662
  134.449   75.068    0.395    4.576
  135.269   73.106    0.412    4.577
  136.089   71.933    0.405    4.493
  136.909   79.496    0.390    4.493
  137.730   84.676    0.381    4.577
  138.550   81.121    0.371    4.663
  139.370   73.197    0.358    4.663
  140.190   68.053    0.354    4.664
  141.010   64.895    0.393    4.664
  141.831   63.325    0.425    4.664
  142.651   61.363    0.446    4.332
  143.471   60.582    0.465    3.876
  144.291   58.624    0.489    3.667
  145.112   58.250    0.515    3.469
  145.932   58.259    0.518    3.282
  146.752   59.077    0.505    3.222
  147.572   59.894    0.486    3.222
  148.392   60.697    0.469    3.163
  149.213   60.327    0.467    3.163
  150.033   59.150    0.453    3.223
  150.853   57.580    0.420    3.344
  151.673   55.220    0.357    3.602
  152.493   56.033    0.338    4.582
  153.314   57.639    0.339    6.278
  154.134   56.864    0.351    8.762
  154.954   54.102    0.354    9.792
  155.774   52.934    0.339    8.763
  156.594   54.536    0.339    7.698
  157.415   62.496    0.377    6.517
  158.235   67.280    0.413    5.832
  159.055   70.480    0.435    5.029
  159.875   71.689    0.443    4.418
  160.696   71.707    0.431    4.418
  161.516   71.726    0.420    4.501
  162.336   70.950    0.415    4.671
  163.156   69.782    0.414    5.031
  163.976   69.403    0.408    5.221
  164.797   69.426    0.403    4.939
  165.617   70.234    0.391    4.760
  166.437   71.448    0.379    4.849
  167.257   72.261    0.366    5.419
  168.077   73.470    0.381    7.023
  168.898   76.268    0.407    6.522
  169.718   77.081    0.417    5.946
  170.538   75.511    0.431    5.321
  171.358   73.945    0.422    5.034
  172.178   73.562    0.391    4.941
  172.999   69.217    0.370    5.128
  173.819   66.451    0.362    5.626
  174.639   61.307    0.350    6.647
  175.459   52.590    0.324    7.567
  176.280   46.652    0.272    9.277
  177.100   45.082    0.270   12.248
  177.920   43.119    0.296   16.472
  178.740   37.181    0.310   13.944
  179.560   33.626    0.314   15.018
  180.381   35.634    0.324   16.783
  181.201   38.432    0.335   17.743
  182.021   40.436    0.335   19.108
  182.841   42.043    0.329   19.830
  183.661   45.635    0.324   19.110
  184.482   50.815    0.321   17.747
  185.302   54.407    0.316   16.789
  186.122   57.205    0.325   15.025
  186.942   56.439    0.333   13.446
  187.762   53.276    0.349   12.032
  188.583   48.529    0.353   13.201
  189.403   43.385    0.325   13.956
  190.223   39.433    0.321   14.483
  191.043   35.877    0.323   15.311
  191.864   36.293    0.323   15.598
  192.684   39.488    0.321   16.187
  193.504   43.080    0.325   15.033
  194.324   51.839    0.337   12.964
  195.144   54.240    0.354   10.974
  195.965   55.851    0.393    8.953
  196.785   57.453    0.417    8.469
  197.605   60.657    0.406    8.470
  198.425   62.661    0.411    9.292
  199.245   64.273    0.414    9.122
  200.066   63.885    0.414    8.316
  200.886   57.554    0.411    8.956
  201.706   58.367    0.408    9.294
  202.526   59.179    0.406    8.317
  203.346   59.604    0.412    8.165
  204.167   60.412    0.418    8.474
  204.987   60.823    0.415    8.958
  205.807   61.635    0.410    9.648
  206.627   64.045    0.407    9.828
  207.448   63.662    0.403   10.013
  208.268   57.327    0.353   12.977
  209.088   52.183    0.322   22.617
  209.908   51.412    0.318   28.247
  210.728   53.416    0.345   29.862
  211.549   57.400    0.356   30.991
  212.369   58.619    0.351   33.999
  213.189   57.044    0.315   37.299
  214.009   54.283    0.283   40.169
  214.829   50.331    0.254   45.731
  215.650   45.187    0.239   47.460
  216.470   41.234    0.223   47.463
  217.290   46.424    0.243   48.353
  218.110   46.036    0.289   48.355
  218.930   44.863    0.307   44.082
  219.751   44.886    0.301   40.937
  220.571   48.081    0.295   34.654
  221.391   46.913    0.285   36.637
  222.211   44.946    0.292   40.945
  223.031   43.768    0.302   48.372
  223.852   41.806    0.308   61.540
  224.672   42.221    0.316   70.061
  225.492   43.833    0.320   65.065
  226.312   45.047    0.315   61.553
  227.133   45.855    0.304   56.113
  227.953   46.270    0.302   52.109
  228.773   45.891    0.309   45.777
  229.593   45.116    0.311   42.511
  230.413   43.943    0.304   40.217
  231.234   47.535    0.297   36.663
  232.054   50.730    0.294   32.810
  232.874   54.724    0.292   31.038
  233.694   57.914    0.290   27.776
  234.514   61.114    0.290   24.857
  235.335   63.912    0.293   22.245
  236.155   62.342    0.296   21.044
  236.975   57.595    0.303   23.087
  237.795   52.853    0.306   24.407
  238.615   53.269    0.313   34.063
  239.436   54.478    0.308   47.540
  240.256   57.276    0.308   47.544
  241.076   60.079    0.308   52.158
  241.896   62.480    0.309   61.621
  242.717   60.905    0.312   79.861
  243.537   56.555    0.315   96.115
  244.357   53.397    0.322   66.370
  245.177   51.434    0.326   36.700
  245.997   55.027    0.319   32.842
  246.818   58.222    0.309   27.292
  247.638   62.608    0.297   23.536
  248.458   69.382    0.290   20.297
  249.278   70.596    0.287   17.503
  250.098   69.820    0.288   15.094
  250.919   69.437    0.292   13.508
  251.739   69.058    0.293   12.778
  252.559   67.091    0.294   12.780
  253.379   63.932    0.294   13.510
  254.199   61.965    0.284   15.668
  255.020   63.577    0.293   18.171
  255.840   65.978    0.302   20.308
  256.660   67.192    0.296   18.513
  257.480   65.622    0.293   15.672
  258.301   65.635    0.297   14.025
  259.121   68.443    0.303   14.555
  259.941   70.844    0.312   13.769
  260.761   72.446    0.331   12.552
  261.581   72.464    0.345   11.657
  262.402   70.894    0.355   10.825
  263.222   67.740    0.360   11.445
  264.042   65.376    0.350   12.325
  264.862   62.619    0.337   13.273
  265.682   61.045    0.322   14.294
  266.503   61.068    0.323   16.578
  267.323   63.469    0.329   21.887
  268.143   65.071    0.330   26.833
  268.963   65.089    0.321   22.715
  269.783   62.725    0.319   19.230
  270.604   59.571    0.312   19.230
  271.424   55.221    0.294   21.098
  272.244   51.666    0.302   22.720
  273.064   52.479    0.313   38.161
  273.885   65.204    0.323   29.998
  274.705   73.963    0.337   20.715
  275.525   68.819    0.325   15.692
  276.345   66.058    0.311   13.785
  277.165   66.076    0.302   16.901
