~VERSION INFORMATION
 VERS.                 2.0:   CWLS LOG ASCII STANDARD -VERSION 2.0
 WRAP.                  NO:   ONE LINE PER DEPTH STEP
~WELL INFORMATION BLOCK
#MNEM.UNIT           DATA                    DESCRIPTION OF MNEMONIC
#---------    -------------------            -------------------------------
# Generated from Intellog Unique Number	CN_94_101/WELL/4998
WELL.         09-35-100-14W4                 : Well_name    - WELL
LOC .         AA/09-35-100-14W4/0            : Location     - LOCATION
UWI .         AA/09-35-100-14W400            : Uwi          - UNIQUE WELL ID
ENTR.         TIM                            : Entered      - ENTERED BY
SRVC.         WESTERN ATLAS                  : Scn          - SERVICE COMPANY
DATE.         08/28/92                       : Date         - LOG DATE
STRT.M        289.56                         : top_depth    - START DEPTH
STOP.M        502.81                         : bot_depth    - STOP DEPTH
STEP.M        0.25                           : increment    - STEP LENGTH
 NULL. -999.2500:NULL Value
~CURVE INFORMATION BLOCK
#MNEM UNIT       ERCB CURVE CODE    CURVE DESCRIPTION
#-----------   ------------------   ----------------------------------
DEPT.M        00 001 00 00         : DEPTH        - DEPTH
GR  .API      00 310 00 00         : GR           - GAMMA RAY
ILD .OHMM     00 120 00 00         : RESD         - DEEP RESISTIVITY (DIL)
NPHI.V/V      00 330 00 00         : PHIN         - NEUTRON POROSITY (SANDSTONE)
~PARAMETER INFORMATION
#MNEM.UNIT           DATA             DESCRIPTION OF MNEMONIC
#---------         -----------     ------------------------------
GL  .M        723.29               : gl           - GROUND LEVEL ELEVATION
EREF.M        726.643              : kb           - ELEVATION OF DEPTH REFERENCE
DATM.M        726.643              : datum        - DATUM ELEVATION
TDD .M        506.578              : tdd          - TOTAL DEPTH DRILLER
RUN .         ONE                  : Run          - RUN NUMBER
ENG .         JO                   : Engineer     - RECORDING ENGINEER
WIT .         TIM                  : Witness      - WITNESSED BY
MUD .         GEL                  : Mud_type     - MUD TYPE
MATR.         SANDSTONE            : Logunit      - NEUTRON MATRIX
TMAX.C        32.2222              : BHT          - MAXIMUM RECORDED TEMPERATURE
BHTD.M        506.578              : BHTDEP       - MAXIMUM RECORDED TEMPERATURE
RMT .C        32.2222              : MDTP         - TEMPERATURE OF MUD
MUDD.KG/M     9000                 : MWT          - MUD DENSITY
NEUT.         1                    : NEUTRON      - NEUTRON TYPE
RESI.         0                    : RESIST       - RESISTIVITY TYPE
RM  .OHMM     10.5                 : RM           - RESISTIVITY OF MUD
RMC .OHMM     10.5                 : RMC          - RESISTIVITY OF MUD CAKE
RMF .OHMM     10.5                 : RMF          - RESISTIVITY OF MUD FILTRATE
SUFT.C        4                    : SUFT         - SURFACE TEMPERATURE
~A  DEPTH       GR     RESD     PHIN
# ...
  343.810   95.781    2.031    0.540
  344.060   95.011    2.112    0.535
  344.310   94.236    2.195    0.527
  344.560   94.250    2.282    0.525
  344.810   95.859    2.283    0.526
  345.060  101.034    2.283    0.538
  345.310  106.609    2.329    0.538
  345.560  107.813    2.242    0.538
  345.810  108.634    2.199    0.537
  346.060  107.462    2.158    0.537
  346.310  105.497    2.118    0.539
  346.560  102.740    2.118    0.539
  346.810  101.563    2.079    0.539
  347.060   99.995    2.079    0.539
  347.310   98.824    2.120    0.539
  347.560   97.652    2.247    0.538
  347.810   96.891    2.336    0.538
  348.060   96.900    2.382    0.541
  348.310   97.726    2.429    0.542
  348.560   98.132    2.430    0.544
  348.810   99.335    2.384    0.544
  349.060  100.949    2.385    0.544
  349.310  101.756    2.340    0.544
  349.560  102.568    2.296    0.542
  349.810  102.586    2.253    0.539
  350.060  101.820    2.211    0.534
  350.310  101.041    2.169    0.527
  350.560  100.271    2.129    0.511
  350.810  100.686    2.129    0.497
  351.060  105.459    2.171    0.487
  351.310  113.410    2.301    0.476
  351.560  118.985    2.439    0.463
  351.810  123.371    2.487    0.470
  352.060  124.976    2.394    0.497
  352.310  126.184    2.349    0.503
  352.560  127.000    2.261    0.510
  352.810  127.415    2.218    0.515
  353.060  127.826    2.135    0.517
  353.310  127.844    2.136    0.518
  353.560  127.862    2.096    0.519
  353.810  127.881    2.097    0.519
  354.060  127.908    2.097    0.519
  354.310  127.922    2.098    0.519
  354.560  127.544    2.098    0.517
  354.810  127.567    2.099    0.515
  355.060  127.580    2.100    0.514
  355.310  125.219    2.100    0.515
  355.560  122.862    2.101    0.515
  355.810  120.902    2.102    0.515
  356.060  119.726    2.102    0.515
  356.310  118.554    2.103    0.514
  356.560  118.573    2.103    0.514
  356.810  116.211    2.104    0.513
  357.060  113.850    2.146    0.513
  357.310  113.472    2.147    0.510
  357.560  113.490    2.147    0.508
  357.810  113.910    2.190    0.505
  358.060  114.325    2.190    0.503
  358.310  114.348    2.191    0.502
  358.560  113.969    2.234    0.502
  358.810  112.397    2.278    0.503
  359.060  112.415    2.279    0.504
  359.310  115.214    2.324    0.508
  359.560  118.406    2.325    0.511
  359.810  126.361    2.370    0.514
  360.060  129.557    2.371    0.517
  360.310  130.364    2.372    0.520
  360.560  129.197    2.373    0.523
  360.810  127.633    2.374    0.527
  361.060  126.849    2.374    0.532
  361.310  124.889    2.375    0.537
  361.560  122.920    2.375    0.541
  361.810  120.964    2.331    0.545
  362.060  119.788    2.244    0.546
  362.310  118.225    2.160    0.550
  362.560  117.445    2.119    0.556
  362.810  116.675    2.040    0.562
  363.060  116.297    1.963    0.564
  363.310  116.315    1.890    0.569
  363.560  116.333    1.784    0.573
  363.810  115.960    1.718    0.574
  364.060  115.978    1.653    0.575
  364.310  115.208    1.654    0.575
  364.560  114.433    1.623    0.575
  364.810  113.649    1.592    0.572
  365.060  110.494    1.593    0.568
  365.310  107.736    1.656    0.566
  365.560  105.375    1.688    0.562
  365.810  102.229    1.789    0.561
  366.060   99.864    1.860    0.555
  366.310   96.312    1.971    0.551
  366.560   93.955    2.089    0.548
  366.810   92.383    2.214    0.545
  367.060   88.832    2.486    0.541
  367.310   85.280    2.737    0.533
  367.560   82.126    3.073    0.526
  367.810   78.971    3.656    0.509
  368.060   77.809    3.950    0.490
  368.310   78.620    4.106    0.455
  368.560   80.230    4.106    0.431
  368.810   81.032    4.188    0.431
  369.060   81.848    4.109    0.434
  369.310   80.280    3.806    0.431
  369.560   79.897    3.264    0.411
  369.810  101.338    2.909    0.348
  370.060  104.930    2.746    0.332
  370.310  102.172    2.495    0.318
  370.560   95.444    2.402    0.329
  370.810   93.087    2.403    0.558
  371.060   89.536    2.547    0.557
  371.310   86.381    2.647    0.554
  371.560   86.399    2.699    0.550
  371.810   88.802    2.753    0.547
  372.060   90.803    2.807    0.544
  372.310   93.607    2.808    0.540
  372.560   94.410    2.755    0.535
  372.810   93.238    2.756    0.530
  373.060   86.514    2.921    0.518
  373.310   83.359    3.036    0.505
  373.560   80.606    3.344    0.484
  373.810   78.637    3.683    0.450
  374.060   78.263    3.903    0.437
  374.310   78.673    4.136    0.421
  374.560   79.499    4.300    0.418
  374.810   80.306    4.384    0.427
  375.060   81.509    4.220    0.446
  375.310   83.511    3.619    0.474
  375.560   87.103    3.225    0.489
  375.810   90.691    2.820    0.520
  376.060   94.284    2.465    0.534
  376.310   96.281    2.328    0.556
  376.560   97.895    2.156    0.570
  376.810   97.909    1.997    0.569
  377.060   97.539    1.922    0.568
  377.310   97.553    1.923    0.564
  377.560   97.572    2.038    0.562
  377.810   97.590    2.159    0.559
  378.060   98.005    2.288    0.557
  378.310   98.420    2.333    0.554
  378.560   98.438    2.380    0.548
  378.810   98.064    2.290    0.543
  379.060   96.888    2.122    0.544
  379.310   95.320    2.082    0.549
  379.560   93.356    2.003    0.551
  379.810   90.994    1.892    0.555
  380.060   87.448    1.856    0.550
  380.310   87.862    1.857    0.540
  380.560   95.813    1.930    0.527
  380.810  104.557    1.968    0.490
  381.060  109.340    2.086    0.454
  381.310  108.168    2.127    0.452
  381.560  106.600    2.128    0.501
  381.810  104.239    2.129    0.557
  382.060  101.877    2.129    0.552
  382.310   97.537    2.130    0.547
  382.560   93.585    2.172    0.535
  382.810   90.034    2.258    0.527
  383.060   86.086    2.347    0.527
  383.310   82.539    2.536    0.529
  383.560   82.562    2.636    0.531
  383.810   82.585    2.740    0.531
  384.060   82.594    2.794    0.522
  384.310   82.613    2.905    0.511
  384.560   83.429    2.962    0.496
  384.810   85.435    2.963    0.482
  385.060   87.040    2.908    0.476
  385.310   87.455    2.693    0.508
  385.560   87.478    2.494    0.540
  385.810   87.099    2.447    0.569
  386.060   86.315    2.401    0.573
  386.310   83.567    2.595    0.569
  386.560   82.395    2.697    0.552
  386.810   82.017    2.804    0.528
  387.060   82.040    2.804    0.517
  387.310   82.445    2.700    0.507
  387.560   83.663    2.649    0.509
  387.810   84.470    2.599    0.537
  388.060   85.286    2.600    0.565
  388.310   86.107    2.601    0.570
  388.560   86.112    2.601    0.571
  388.810   86.526    2.602    0.568
  389.060   86.941    2.603    0.564
  389.310   87.370    2.555    0.559
  389.560   87.776    2.506    0.558
  389.810   88.191    2.508    0.558
  390.060   88.209    2.508    0.558
  390.310   88.228    2.509    0.557
  390.560   88.246    2.510    0.555
  390.810   88.269    2.511    0.554
  391.060   87.900    2.511    0.551
  391.310   87.914    2.561    0.549
  391.560   87.927    2.611    0.546
  391.810   89.145    2.663    0.540
  392.060   89.555    2.663    0.528
  392.310   90.367    2.716    0.517
  392.560   90.786    2.717    0.507
  392.810   93.184    2.718    0.501
  393.060   94.388    2.719    0.498
  393.310   98.774    2.567    0.502
  393.560  101.965    2.471    0.546
  393.810  104.764    2.289    0.551
  394.060  106.374    2.161    0.553
  394.310  107.185    2.002    0.553
  394.560  106.807    1.964    0.553
  394.810  105.640    1.927    0.553
  395.060  104.856    1.927    0.550
  395.310  102.495    2.004    0.539
  395.560  100.138    2.043    0.532
  395.810   99.760    2.084    0.524
  396.060  101.360    2.166    0.516
  396.310  104.957    2.209    0.509
  396.560  107.747    2.252    0.503
  396.810  110.145    2.342    0.499
  397.060  110.961    2.388    0.503
  397.310  111.381    2.482    0.515
  397.560  110.998    2.580    0.560
  397.810  111.017    2.788    0.557
