~VERSION INFORMATION
 VERS.                 2.0:   CWLS LOG ASCII STANDARD -VERSION 2.0
 WRAP.                  NO:   ONE LINE PER DEPTH STEP
~WELL INFORMATION BLOCK
#MNEM.UNIT           DATA                    DESCRIPTION OF MNEMONIC
#---------    -------------------            -------------------------------
# Generated from Intellog Unique Number	CW_82_90/WELL/637
WELL.         GULF LIVOCK OV 07-31           : Well_name    - WELL
LOC .         AA/07-31-084-23W4/0            : Location     - LOCATION
UWI .         AA/07-31-084-23W4/0            : Uwi          - UNIQUE WELL ID
ENTR.         JAYE                           : Entered      - ENTERED BY
SRVC.         SCHLUMBERGER                   : Scn          - SERVICE COMPANY
DATE.         9 FEB 82                       : Date         - LOG DATE
STRT.M        150                            : top_depth    - START DEPTH
STOP.M        405                            : bot_depth    - STOP DEPTH
STEP.M        0.25                           : increment    - STEP LENGTH
 NULL. -999.2500:NULL Value
~CURVE INFORMATION BLOCK
#MNEM UNIT       ERCB CURVE CODE    CURVE DESCRIPTION
#-----------   ------------------   ----------------------------------
DEPT.M        00 001 00 00         : DEPTH        - DEPTH
CALI.MM       00 280 01 00         : CAL          - CALIPER
GR  .API      00 310 00 00         : GR           - GAMMA RAY
NPHI.V/V      00 330 00 00         : PHIN         - NEUTRON POROSITY (SANDSTONE)
DPHI.V/V      00 890 00 00         : PHID         - DENSITY POROSITY (SANDSTONE)
ILD .OHMM     00 120 00 00         : RESD         - DEEP RESISTIVITY (DIL)
~PARAMETER INFORMATION
#MNEM.UNIT           DATA             DESCRIPTION OF MNEMONIC
#---------         -----------     ------------------------------
GL  .M        574.7                : gl           - GROUND LEVEL ELEVATION
EREF.M        579.1                : kb           - ELEVATION OF DEPTH REFERENCE
DATM.M        574.7                : datum        - DATUM ELEVATION
TDD .M        410                  : tdd          - TOTAL DEPTH DRILLER
RUN .         ONE                  : Run          - RUN NUMBER
ENG .         GARTH                : Engineer     - RECORDING ENGINEER
WIT .         WALKER               : Witness      - WITNESSED BY
BASE.         EDMONTON             : Branch       - HOME BASE OF LOGGING UNIT
MUD .         GEL                  : Mud_type     - MUD TYPE
MATR.         SANDSTONE            : Logunit      - NEUTRON MATRIX
TMAX.C        26.1                 : BHT          - MAXIMUM RECORDED TEMPERATURE
BHTD.M        410                  : BHTDEP       - MAXIMUM RECORDED TEMPERATURE
RMT .C        15.5                 : MDTP         - TEMPERATURE OF MUD
MUDD.KG/M     1090                 : MWT          - MUD DENSITY
NEUT.         1                    : NEUTRON      - NEUTRON TYPE
RESI.         0                    : RESIST       - RESISTIVITY TYPE
RM  .OHMM     5.77                 : RM           - RESISTIVITY OF MUD
RMC .OHMM     0                    : RMC          - RESISTIVITY OF MUD CAKE
RMF .OHMM     6.87                 : RMF          - RESISTIVITY OF MUD FILTRATE
SUFT.C        0                    : SUFT         - SURFACE TEMPERATURE
~A  DEPTH      CAL       GR     PHIN     PHID     RESD
# ...
  369.000  260.956  105.809    0.448    0.183    7.858
  369.250  261.073  101.267    0.458    0.176    8.259
  369.500  261.086   92.614    0.439    0.120    9.533
  369.750  261.205   85.455    0.384    0.122   11.861
  370.000  261.217   77.736    0.385    0.157   14.979
  370.250  262.478   77.305    0.373    0.176   17.883
  370.500  263.113   82.793    0.401    0.177   17.572
  370.750  264.785   88.280    0.418    0.183   14.782
  371.000  265.836   81.184    0.431    0.211   14.204
  371.250  264.397   67.484    0.443    0.247   15.499
  371.500  262.853   58.208    0.442    0.222   14.344
  371.750  262.349   55.410    0.413    0.142   14.937
  372.000  262.160   55.478    0.421    0.166   17.504
  372.250  261.859   58.474    0.438    0.229   20.548
  372.500  262.078   59.476    0.453    0.300   25.950
  372.750  262.095   56.678    0.431    0.295   42.040
  373.000  262.418   55.686    0.410    0.285   47.029
  373.250  262.640   57.312    0.409    0.272   46.023
  373.500  263.170   59.061    0.407    0.256   35.318
  373.750  264.637   59.627    0.397    0.250   31.610
  374.000  263.821   58.760    0.401    0.257   36.548
  374.250  260.408   53.470    0.391    0.239   49.377
  374.500  258.658   45.813    0.253    0.195   54.911
  374.750  263.758   42.766    0.262    0.135   57.392
  375.000  266.471   45.201    0.317    0.213   55.870
  375.250  268.041   48.072    0.415    0.256   50.276
  375.500  269.300   50.383    0.423    0.274   49.127
  375.750  270.350   51.946    0.414    0.272   50.679
  376.000  269.638   52.949    0.415    0.270   51.217
  376.250  267.369   52.890    0.425    0.270   50.144
  376.500  265.411   52.272    0.417    0.270   50.105
  376.750  265.009   51.343    0.414    0.268   50.929
  377.000  264.506   49.419    0.418    0.266   54.439
  377.250  263.897   45.811    0.402    0.280   64.879
  377.500  263.389   43.635    0.404    0.299   87.973
  377.750  262.779   41.274    0.409    0.304  143.321
  378.000  261.756   37.915    0.406    0.309  186.867
  378.250  261.043   36.488    0.411    0.313  191.744
  378.500  260.745   37.116    0.404    0.314  185.923
  378.750  260.033   40.049    0.393    0.310  176.632
  379.000  259.215   41.177    0.413    0.308  167.213
  379.250  259.750   40.932    0.438    0.307  163.055
  379.500  260.591   40.688    0.444    0.307  159.935
  379.750  260.605   41.940    0.439    0.310  157.468
  380.000  260.620   41.198    0.440    0.319  154.451
  380.250  260.738   38.586    0.419    0.316  152.307
  380.500  261.064   37.844    0.417    0.306  150.507
  380.750  261.389   38.723    0.419    0.312  145.424
  381.000  261.194   39.163    0.426    0.324  136.370
  381.250  261.205   39.853    0.446    0.323  120.662
  381.500  261.325   41.231    0.441    0.316  103.807
  381.750  261.440   43.353    0.438    0.313   87.317
  382.000  261.662   47.781    0.434    0.305   65.770
  382.250  261.676   52.147    0.427    0.292   54.501
  382.500  261.898   55.890    0.409    0.274   49.594
  382.750  262.327   55.709    0.433    0.282   49.288
  383.000  262.341   55.963    0.436    0.291   48.703
  383.250  262.458   56.903    0.420    0.291   46.967
  383.500  262.887   56.098    0.413    0.289   43.144
  383.750  262.589   60.153    0.416    0.278   30.837
  384.000  262.706   81.650    0.427    0.259   21.191
  384.250  262.719   90.625    0.447    0.233   13.535
  384.500  263.149   90.630    0.459    0.189    7.485
  384.750  263.475   87.459    0.459    0.137    5.701
  385.000  263.384   94.690    0.462    0.051    5.307
  385.250  263.292  102.420    0.478    0.100    5.283
  385.500  263.724  105.603    0.498    0.151    5.776
  385.750  264.046  112.522    0.526    0.172    6.569
  386.000  264.060  115.208    0.518    0.189    7.484
  386.250  264.386  115.649    0.489    0.200    8.368
  386.500  264.503  115.404    0.444    0.198    9.410
  386.750  264.516  113.291    0.423    0.200   10.463
  387.000  264.633  101.149    0.411    0.200   11.059
  387.250  264.752   97.728    0.399    0.199   11.670
  387.500  264.558  102.219    0.386    0.193   11.683
  387.750  264.467  100.917    0.378    0.189   10.915
  388.000  264.377   79.306    0.375    0.188   10.119
  388.250  264.286   77.878    0.377    0.175    9.348
  388.500  263.573   80.313    0.403    0.169    8.751
  388.750  263.277   92.217    0.397    0.183    8.842
  389.000  263.185   93.904    0.409    0.224    9.668
  389.250  263.200   94.035    0.408    0.253   10.451
  389.500  262.799   96.531    0.421    0.277   10.683
  389.750  263.434  124.631    0.410    0.266   10.360
  390.000  265.524  140.771    0.379    0.214    9.607
  390.250  267.406  133.737    0.405    0.169    8.857
  390.500  268.560  127.949    0.423    0.151    8.258
  390.750  269.923  124.465    0.429    0.152    7.964
  391.000  269.938  127.835    0.428    0.166    8.051
  391.250  269.535  130.207    0.465    0.175    8.029
  391.500  270.068  131.771    0.469    0.176    8.175
  391.750  270.914  130.530    0.453    0.176    7.915
  392.000  270.925  128.791    0.450    0.180    7.938
  392.250  269.279  124.934    0.464    0.190    7.919
  392.500  265.869  121.077    0.457    0.181    8.078
  392.750  264.844  114.853    0.460    0.182    8.397
  393.000  264.546  108.318    0.455    0.223    8.711
  393.250  263.730  102.218    0.406    0.221    9.245
  393.500  263.120   95.744    0.386    0.210    9.644
  393.750  263.029   92.760    0.408    0.210   10.194
  394.000  262.629   94.135    0.404    0.222   10.877
  394.250  262.434   97.630    0.409    0.230   11.627
  394.500  262.344   99.567    0.416    0.222   12.550
  394.750  261.942   98.763    0.407    0.215   12.968
  395.000  261.238   96.213    0.404    0.215   13.658
  395.250  260.931   88.182    0.400    0.226   15.017
  395.500  260.737   75.666    0.396    0.250   15.814
  395.750  260.129   71.374    0.409    0.266   16.285
  396.000  258.794   73.685    0.422    0.292   16.185
  396.250  258.704   76.120    0.419    0.295   15.932
  396.500  258.717   77.245    0.414    0.252   15.597
  396.750  259.770   72.454    0.409    0.231   15.268
  397.000  260.094   68.286    0.403    0.245   15.261
  397.250  258.654   67.357    0.409    0.276   15.802
  397.500  256.280   67.424    0.408    0.292   16.765
  397.750  254.841   69.237    0.393    0.283   18.607
  398.000  254.958   73.166    0.406    0.277   22.012
  398.250  257.463   79.401    0.450    0.303   25.027
  398.500  260.279   77.226    0.441    0.310   27.829
  398.750  264.029   76.795    0.420    0.302   27.969
  399.000  266.221   79.417    0.406    0.290   26.622
  399.250  268.726   84.718    0.389    0.291   23.775
  399.500  269.570   84.537    0.383    0.280   18.348
  399.750  268.545   82.486    0.398    0.236   13.768
  400.000  266.276   74.830    0.402    0.191   13.180
  400.250  263.903   75.208    0.382    0.210   13.854
  400.500  262.464   76.024    0.374    0.255   15.609
  400.750  262.789   76.589    0.394    0.299   46.122
  401.000  263.322   77.217    0.391    0.333   93.028
  401.250  264.062   76.538    0.369    0.291  111.486
  401.500  264.180   74.674    0.365    0.229  119.408
  401.750  265.541   73.309    0.432    0.254  127.445
  402.000  267.217   72.443    0.441    0.241  129.736
  402.250  266.710   72.073    0.436    0.214  129.416
  402.500  264.545   72.702    0.424    0.196  124.105
  402.750  263.936   74.764    0.336    0.168  111.875
  403.000  262.912   76.824    0.316    0.163   92.883
  403.250  262.613   78.512    0.363    0.234   69.834
  403.500  261.695   79.202    0.425    0.281   79.112
  403.750  261.395   79.768    0.436    0.271   83.962
  404.000  262.032   79.898    0.360    0.216   82.639
  404.250  262.253   79.841    0.318    0.129   76.483
  404.500  262.163   79.286    0.312    0.128   68.564
  404.750  261.035   78.544    0.303    0.134   66.122
  405.000  259.803   77.552    0.289    0.129   63.891
