~VERSION INFORMATION
 VERS.                 2.0:   CWLS LOG ASCII STANDARD -VERSION 2.0
 WRAP.                  NO:   ONE LINE PER DEPTH STEP
~WELL INFORMATION BLOCK
#MNEM.UNIT           DATA                    DESCRIPTION OF MNEMONIC
#---------    -------------------            -------------------------------
# Generated from Intellog Unique Number	CN_94_101/WELL/3291
WELL.         01-35-095-07W4                 : Well_name    - WELL
LOC .         AA/01-35-095-07W4/0            : Location     - LOCATION
UWI .         AA/01-35-095-07W400            : Uwi          - UNIQUE WELL ID
ENTR.         JOETTE                         : Entered      - ENTERED BY
SRVC.         SCHLUMBERGER                   : Scn          - SERVICE COMPANY
DATE.         07/22/92                       : Date         - LOG DATE
STRT.M        50                             : top_depth    - START DEPTH
STOP.M        235                            : bot_depth    - STOP DEPTH
STEP.M        0.25                           : increment    - STEP LENGTH
 NULL. -999.2500:NULL Value
~CURVE INFORMATION BLOCK
#MNEM UNIT       ERCB CURVE CODE    CURVE DESCRIPTION
#-----------   ------------------   ----------------------------------
DEPT.M        00 001 00 00         : DEPTH        - DEPTH
GR  .API      00 310 00 00         : GR           - GAMMA RAY
NPHI.V/V      00 330 00 00         : PHIN         - NEUTRON POROSITY (SANDSTONE)
DPHI.V/V      00 890 00 00         : PHID         - DENSITY POROSITY (SANDSTONE)
ILD .OHMM     00 120 00 00         : RESD         - DEEP RESISTIVITY (DIL)
~PARAMETER INFORMATION
#MNEM.UNIT           DATA             DESCRIPTION OF MNEMONIC
#---------         -----------     ------------------------------
GL  .M        494.08               : gl           - GROUND LEVEL ELEVATION
EREF.M        495.88               : kb           - ELEVATION OF DEPTH REFERENCE
DATM.M        495.88               : datum        - DATUM ELEVATION
TDD .M        236                  : tdd          - TOTAL DEPTH DRILLER
RUN .         ONE                  : Run          - RUN NUMBER
ENG .         JO                   : Engineer     - RECORDING ENGINEER
WIT .         TIM                  : Witness      - WITNESSED BY
MUD .         GEL                  : Mud_type     - MUD TYPE
MATR.         SANDSTONE            : Logunit      - NEUTRON MATRIX
TMAX.C        4.4                  : BHT          - MAXIMUM RECORDED TEMPERATURE
BHTD.M        236                  : BHTDEP       - MAXIMUM RECORDED TEMPERATURE
RMT .C        4.4                  : MDTP         - TEMPERATURE OF MUD
MUDD.KG/M     1030                 : MWT          - MUD DENSITY
NEUT.         1                    : NEUTRON      - NEUTRON TYPE
RESI.         0                    : RESIST       - RESISTIVITY TYPE
RM  .OHMM     7.4                  : RM           - RESISTIVITY OF MUD
RMC .OHMM     7.4                  : RMC          - RESISTIVITY OF MUD CAKE
RMF .OHMM     7.4                  : RMF          - RESISTIVITY OF MUD FILTRATE
SUFT.C        4                    : SUFT         - SURFACE TEMPERATURE
~A  DEPTH       GR     PHIN     PHID     RESD
# ...
   93.500   62.458    0.355    0.202   25.222
   93.750   62.441    0.355    0.196   25.704
   94.000   63.626    0.357    0.186   26.694
   94.250   64.810    0.362    0.206   26.692
   94.500   65.393    0.365    0.205   26.690
   94.750   65.977    0.362    0.204   26.185
   95.000   65.960    0.358    0.199   25.690
   95.250   65.338    0.353    0.185   26.179
   95.500   63.520    0.350    0.193   28.241
   95.750   60.505    0.352    0.204   29.894
   96.000   56.280    0.362    0.226   34.139
   96.250   52.059    0.368    0.245   44.527
   96.500   46.638    0.364    0.266   54.861
   96.750   41.216    0.357    0.263   65.073
   97.000   38.797    0.351    0.247   66.314
   97.250   39.381    0.357    0.252   60.303
   97.500   42.967    0.362    0.275   53.807
   97.750   50.157    0.357    0.274   42.841
   98.000   56.746    0.335    0.262   36.109
   98.250   62.730    0.339    0.227   29.301
   98.500   64.519    0.345    0.214   29.859
   98.750   65.703    0.356    0.220   31.605
   99.000   66.282    0.342    0.207   29.291
   99.250   65.060    0.344    0.196   26.636
   99.500   62.641    0.350    0.169   28.735
   99.750   61.428    0.354    0.221   32.198
  100.000   61.406    0.349    0.213   33.439
  100.250   61.385    0.341    0.207   29.836
  100.500   61.377    0.334    0.218   26.622
  100.750   61.360    0.331    0.216   24.673
  101.000   61.944    0.332    0.206   24.206
  101.250   63.728    0.339    0.201   24.203
  101.500   64.912    0.338    0.190   24.665
  101.750   66.693    0.330    0.187   25.617
  102.000   67.281    0.325    0.200   25.613
  102.250   66.655    0.325    0.183   25.612
  102.500   66.042    0.330    0.177   25.128
  102.750   64.223    0.339    0.173   23.733
  103.000   67.209    0.341    0.196   23.731
  103.250   66.588    0.337    0.199   25.601
  103.500   64.169    0.328    0.167   27.617
  103.750   65.353    0.326    0.167   28.144
  104.000   67.142    0.324    0.171   28.140
  104.250   70.728    0.317    0.156   28.137
  104.500   77.317    0.317    0.176   26.576
  104.750   85.107    0.329    0.188   24.168
  105.000   94.698    0.345    0.188   22.399
  105.250   65.856    0.350    0.195   23.263
  105.500   61.027    0.335    0.209   26.567
  105.750   59.213    0.322    0.197   32.732
  106.000   56.794    0.311    0.195   40.329
  106.250   55.576    0.344    0.182   48.755
  106.500   57.356    0.354    0.181   38.088
  106.750   60.942    0.375    0.221   28.108
  107.000   63.332    0.386    0.259   21.959
  107.250   67.514    0.359    0.218   21.544
  107.500   66.296    0.345    0.166   23.240
  107.750   63.873    0.339    0.163   25.071
  108.000   62.664    0.334    0.160   26.538
  108.250   62.639    0.334    0.171   27.562
  108.500   63.827    0.334    0.189   28.088
  108.750   62.004    0.342    0.209   27.555
  109.000   58.989    0.362    0.225   26.527
  109.250   55.969    0.400    0.249   25.056
  109.500   51.144    0.422    0.303   27.030
  109.750   49.326    0.437    0.352   32.676
  110.000   49.313    0.450    0.367   33.937
  110.250   51.698    0.466    0.614   32.055
  110.500   57.086    0.481    0.574   32.666
  110.750   62.470    0.455    0.531   35.915
  111.000   64.255    0.380    0.286   33.922
  111.250   65.439    0.353    0.234   30.848
  111.500   66.018    0.351    0.194   29.138
  111.750   66.602    0.346    0.194   29.133
  112.000   66.585    0.353    0.200   29.689
  112.250   63.566    0.358    0.167   30.256
  112.500   59.950    0.351    0.165   34.551
  112.750   56.325    0.333    0.198   37.986
  113.000   55.712    0.327    0.194   37.984
  113.250   55.691    0.333    0.246   36.563
  113.500   55.674    0.340    0.281   40.201
  113.750   49.652    0.348    0.313   46.789
  114.000   44.831    0.356    0.310   57.648
  114.250   38.805    0.376    0.302   71.026
  114.500   37.587    0.382    0.301   68.371
  114.750   40.573    0.391    0.310   71.013
  115.000   43.563    0.386    0.312   84.235
  115.250   47.149    0.336    0.269   79.564
  115.500   50.735    0.322    0.231   62.158
  115.750   53.721    0.315    0.212   49.490
  116.000   57.899    0.311    0.177   39.404
  116.250   59.092    0.300    0.170   31.374
  116.500   60.276    0.317    0.252   27.467
  116.750   60.255    0.351    0.249   29.071
  117.000   60.238    0.333    0.207   30.195
  117.250   61.422    0.316    0.175   30.770
  117.500   64.400    0.318    0.163   29.063
  117.750   65.592    0.324    0.129   25.932
  118.000   65.567    0.318    0.150   24.033
  118.250   65.558    0.319    0.194   22.274
  118.500   64.336    0.331    0.190   21.441
  118.750   63.118    0.341    0.193   21.036
  119.000   65.499    0.346    0.194   21.437
  119.250   66.692    0.345    0.188   21.435
  119.500   68.477    0.346    0.198   20.634
  119.750   68.451    0.347    0.204   19.123
  120.000   67.842    0.354    0.208   18.409
  120.250   66.020    0.356    0.210   19.119
  120.500   63.597    0.363    0.206   22.253
  120.750   62.383    0.355    0.197   27.417
  121.000   59.956    0.334    0.189   31.910
  121.250   59.342    0.312    0.175   29.016
  121.500   59.922    0.310    0.173   27.409
  121.750   61.114    0.313    0.161   25.402
  122.000   64.096    0.321    0.166   27.928
  122.250   63.478    0.324    0.175   29.561
  122.500   64.062    0.322    0.166   29.558
  122.750   65.251    0.316    0.159   28.453
  123.000   67.636    0.307    0.161   27.917
  123.250   69.416    0.302    0.171   28.993
  123.500   68.198    0.307    0.154   27.909
  123.750   65.775    0.312    0.139   24.435
  124.000   64.557    0.320    0.162   23.972
  124.250   64.536    0.328    0.178   24.897
  124.500   64.528    0.328    0.190   24.895
  124.750   65.111    0.316    0.217   26.351
  125.000   65.094    0.316    0.195   30.670
  125.250   63.872    0.321    0.170   35.024
  125.500   61.453    0.325    0.169   33.082
  125.750   59.034    0.324    0.173   30.082
  126.000   57.808    0.316    0.184   28.960
  126.250   57.199    0.312    0.183   26.335
  126.500   58.984    0.312    0.174   23.947
  126.750   61.369    0.313    0.162   24.404
  127.000   61.352    0.314    0.146   24.867
  127.250   60.735    0.320    0.158   24.866
  127.500   60.718    0.330    0.177   24.864
  127.750   62.503    0.320    0.169   24.860
  128.000   62.486    0.315    0.172   23.931
  128.250   61.864    0.319    0.174   23.038
  128.500   61.247    0.328    0.165   21.351
  128.750   61.234    0.340    0.155   20.553
  129.000   61.809    0.340    0.165   22.598
  129.250   62.993    0.334    0.181   25.807
  129.500   59.978    0.322    0.165   27.317
  129.750   53.956    0.323    0.161   25.801
  130.000   56.942    0.334    0.188   25.314
  130.250   61.729    0.347    0.172   20.935
  130.500   67.117    0.353    0.175   15.449
  130.750   73.105    0.365    0.192   11.619
  131.000   79.690    0.426    0.219   10.566
  131.250   79.073    0.456    0.223    9.609
  131.500   79.656    0.480    0.251    8.737
  131.750   82.642    0.516    0.304    7.945
  132.000   86.228    0.534    0.303    7.649
  132.250   88.013    0.539    0.278    6.696
  132.500   86.799    0.542    0.275    7.943
  132.750   85.573    0.544    0.268    9.787
  133.000   84.355    0.553    0.261   12.058
  133.250   84.943    0.542    0.248   12.763
  133.500   86.728    0.506    0.238   12.056
  133.750   89.713    0.498    0.242   11.387
  134.000   90.893    0.504    0.238   11.826
  134.250   90.876    0.500    0.224   13.764
  134.500   88.457    0.485    0.231   15.719
  134.750   85.442    0.474    0.247   15.132
  135.000   79.416    0.465    0.250   12.998
  135.250   78.799    0.481    0.263   12.997
  135.500   80.583    0.495    0.257   13.498
  135.750   82.368    0.496    0.242   14.288
  136.000   82.951    0.487    0.251   14.839
  136.250   81.133    0.482    0.257   14.559
  136.500   78.710    0.490    0.247   12.271
  136.750   76.291    0.492    0.238    8.555
