~Version : LASO    vs 4.00 
VERS.                2.00:   CWLS Log ASCII Standard -VERSION 2.0
WRAP.                  NO:
~Well Information Block
#MNEM.UNIT       Data                        Description of Mnemonic
#----.----      -------------------------- : -----------------------------
STRT.M            15.0000:
STOP.M           207.0000:
STEP.M             0.2000:
NULL.           -999.2500:
COMP.  MOBIL OIL CANADA                   :COMPANY
WELL.  MOBIL CLARKE OV 1-2                :WELL
FLD.                                      :FIELD
LOC.   01-02-090-08W4                     :LOCATION
CTRY.  CANADA                             :COUNTRY
PROV.  ALBERTA                            :PROVINCE
SRVC.  SCHLUMBERGER                       :SERVICE COMPANY
DATE.  05-MAR-81                          :LOG DATE
UWI.   AA/01-02-090-08W400                :UNIQUE WELL ID
~Parameter Information Block
#MNEM.UNIT       Data                        Description of Mnemonic
#----.----      -------------------------- : -----------------------------
RUN .                   1                 : Run Number
GL  .M           444.4000                 : Ground Level Elevation
DREF.                  KB                 : Depth Reference
EREF.M           444.4000                 : Elevation of Depth Reference
TDL .M           207.0000                 : Total Depth Logger
TDD .M           206.0000                 : Total Depth Driller
CSGL.M            27.0000                 : Casing Bottom Logger
CSGD.M            26.4000                 : Casing Bottom Driller
CSGS.MM          219.0000                 : Casing Size
CSGW.KG/M          0.0000                 : Casing Weight
BS  .MM          159.0000                 : Bit Size
DFD .           9999.0000                 : Mud Weight (Density)
~Curve Information Block
#MNEM.UNIT        API CODE    Curve Description
#---------    ------------    -------------------------------------------
DEPT.M                    :   DEPTH
CALI.MM       42 280  1  1:   3 DENSITY CALIPER
DPHI.V/V                  :   DPHI
DT  .US/M     60 520  0  1:   2 SONIC INTERVAL TRANSIT TIME (COMPENSATED)
GR  .GAPI     42 310  1  1:   4 GAMMA RAY
ILD .OHMM      5 120 46  1:   7 DEEP INDUCTION
ILM .OHMM      5 120 44  1:   8 MEDIUM INDUCTION
NPHI.V/V      42 890  3  1:   5 NEUTRON POROSITY (SANDSTONE)
RHOB.K/M3     42 350  1  1:   6 BULK DENSITY
SFLU.OHMM      5 220  1  1:   9 FOCUSSED RESISTIVITY
SP  .MV        5  10  1  1:   10 SPONTANEOUS POTENTIAL
~A  Depth           CALI        DPHI          DT          GR         ILD         ILM        NPHI        RHOB        SFLU          SP
# ...
39.4000         200.0250      0.1236    405.0800     39.9750     34.9808     34.6920      0.2892   2452.0000     32.7967     54.8550
39.6000         200.0250      0.1193    402.8000     40.2750     34.6601     35.3370      0.3032   2429.0000     33.1001     56.3550
39.8000         201.3000      0.1240    410.0000     40.2750     34.3423     35.6640      0.3098   2417.0000     33.1001     56.7450
40.0000         203.8500      0.1353    415.7200     40.6800     34.3423     35.3370      0.3074   2397.8999     34.3423     56.9999
40.2000         194.9500      0.1503    405.7200     40.0800     34.9808     34.6920      0.2960   2432.0000     33.7155     57.9000
40.4000         193.6750      0.1376    394.7600     40.1850     34.6601     35.0131      0.2944   2436.0000     32.7967     58.7550
40.6000         193.6750      0.1305    390.4800     40.1850     34.3423     35.3370      0.2944   2436.0000     32.4960     59.4450
40.8000         191.1500      0.1264    397.6800     39.9750     34.3423     34.6920      0.3012   2440.0000     33.4064     59.9550
41.0000         191.1500      0.1203    397.0400     39.9750     34.0275     34.3740      0.3060   2452.0000     33.7155     60.8550
41.2000         193.6750      0.1134    396.7200     40.0800     34.0275     34.3740      0.3142   2458.0000     33.4064     61.3050
41.4000         193.6750      0.1040    398.2000     40.3800     34.0275     34.0588      0.3194   2485.0000     32.7967     61.5000
41.6000         196.2250      0.1123    403.1200     40.1850     33.7155     33.7466      0.3122   2460.0000     31.9029     62.5050
41.8000         196.2250      0.1213    402.1200     39.2850     33.7155     33.7466      0.3088   2455.0000     31.6104     63.3000
42.0000         196.2250      0.1177    406.8800     38.6850     33.7155     33.4372      0.3048   2449.0000     30.7489     63.6000
42.2000         196.2250      0.1210    415.7200     37.2750     33.7155     33.7466      0.3078   2453.0000     31.6104     65.0550
42.4000         196.2250      0.1306    416.0800     36.7800     33.7155     33.7466      0.3018   2429.0000     31.6104     64.8000
42.6000         198.7750      0.1307    421.0000     36.9750     33.7155     33.4372      0.2936   2437.0000     31.6104     64.5450
42.8000         203.8500      0.1307    425.6000     38.5800     33.4064     33.1306      0.2968   2422.0000     31.3206     65.5500
43.0000         210.2000      0.1395    421.6400     38.5800     33.1001     33.1306      0.2960   2402.0000     33.7155     66.2550
43.2000         196.2250      0.1485    410.3200     38.2800     32.7967     33.1306      0.3004   2419.0000     33.7155     66.7050
43.4000         194.9500      0.1393    410.3200     37.7850     32.1981     31.9323      0.3128   2451.0000     29.3650     66.4500
43.6000         194.9500      0.1298    420.6800     37.3800     31.9029     31.6395      0.3122   2406.0000     28.5647     66.9600
43.8000         194.9500      0.1453    426.4000     38.3850     31.3206     31.3495      0.3084   2374.0000     29.0958     67.4100
44.0000         197.5000      0.1568    417.8800     37.8750     30.7489     30.2155      0.3046   2438.0000     29.6367     68.5050
44.2000         197.5000      0.1423    412.8000     37.1700     30.4670     29.6640      0.3014   2405.0000     28.3028     68.2500
44.4000         196.2250      0.1437    413.9200     37.2750     30.4670     29.3921      0.3050   2374.0000     26.7812     67.8000
44.6000         189.8750      0.1620    414.4400     37.9800     30.4670     29.6640      0.3104   2377.0000     26.7812     68.3100
44.8000         200.0250      0.1611    418.2000     40.1850     31.0334     30.2155      0.3034   2404.0000     28.0434     68.5050
45.0000         207.6500      0.1540    420.8400     40.1850     31.6104     31.3495      0.3056   2418.0000     28.5647     69.4050
45.2000         203.8500      0.1445    422.1200     40.1850     32.1981     32.5259      0.3134   2417.0000     30.7489     68.9100
45.4000         196.2250      0.1447    418.3600     39.9750     33.1001     33.7466      0.3212   2429.0000     34.6601     69.8550
45.6000         198.7750      0.1393    421.6400     39.6750     33.4064     33.7466      0.3120   2466.0000     34.3423     69.1500
45.8000         196.2250      0.1275    435.2400     39.8850     33.4064     33.7466      0.2996   2437.0000     33.4064     68.8050
46.0000         196.2250      0.1286    440.5200     37.6800     33.1001     33.1306      0.2888   2363.0000     31.3206     69.7500
46.2000         205.1250      0.1549    440.1600     36.9750     32.7967     32.8269      0.2848   2396.0000     30.1877     69.8550
46.4000         216.5500      0.1514    446.9200     36.3750     32.4960     32.5259      0.2852   2414.0000     29.3650     69.9600
46.6000         221.6250      0.1436    439.0400     36.2700     31.6104     31.0620      0.2786   2437.0000     29.0958     69.4500
46.8000         219.0750      0.1339    435.4400     35.9700     31.3206     30.7773      0.2778   2442.0000     29.0958     69.7500
47.0000         211.4750      0.1334    436.2400     36.3750     31.3206     30.7773      0.2882   2433.0000     30.1877     70.1100
47.2000         200.0250      0.1277    444.4400     38.3850     31.3206     31.0620      0.3000   2455.0000     29.9109     69.9600
47.4000         205.1250      0.1134    448.2000     39.2850     31.3206     31.0620      0.3036   2472.0000     28.8290     69.9600
47.6000         202.5750      0.1185    449.2000     39.1800     30.7489     31.0620      0.3072   2434.0000     28.5647     69.9600
47.8000         200.0250      0.1363    443.1200     38.6850     30.4670     30.7773      0.3056   2412.0000     29.0958     69.8100
48.0000         200.0250      0.1388    423.9600     39.3750     30.4670     29.6640      0.2902   2445.0000     29.6367     70.4550
48.2000         198.7750      0.1307    431.9600     39.0750     31.0334     29.3921      0.2888   2454.0000     28.0434     70.9500
48.4000         198.7750      0.1317    432.9600     38.9850     31.3206     29.3921      0.2928   2430.0000     26.5357     71.1600
48.6000         198.7750      0.1484    425.6000     37.7850     31.9029     31.0620      0.2964   2406.0000     26.5357     71.5050
48.8000         197.5000      0.1478    425.4000     37.8750     32.4960     32.5259      0.2978   2452.0000     28.5647     72.0000
49.0000         196.2250      0.1380    428.6800     37.9800     32.7967     33.1306      0.2962   2474.0000     32.1981     71.3550
49.2000         202.5750      0.1260    427.8800     38.5800     33.7155     33.7466      0.2800   2471.0000     35.6312     71.6100
49.4000         211.4750      0.1214    421.3200     39.9750     33.7155     33.7466      0.2796   2480.0000     34.3423     71.5050
49.6000         198.7750      0.1154    417.5600     41.0850     33.1001     33.4372      0.2940   2464.0000     33.7155     72.5100
49.8000         200.0250      0.1069    411.4800     41.2800     31.0334     31.3495      0.3168   2417.0000     32.7967     73.1100
50.0000         200.0250      0.1080    411.8000     42.1800     30.1877     29.9385      0.3158   2429.0000     27.5315     73.2600
50.2000         200.0250      0.1316    412.8000     42.8850     29.3650     28.5910      0.3126   2372.0000     25.3414     73.0050
50.4000         200.0250      0.1372    410.1600     40.3800     27.5315     27.3042      0.3096   2407.0000     26.5357     73.5600
50.6000         200.0250      0.1445    414.6000     40.0800     27.0290     26.5601      0.3096   2413.0000     26.0513     73.3500
50.8000         203.8500      0.1635    418.6800     40.4850     26.5357     26.0753      0.3116   2385.0000     24.4247     73.5600
51.0000         212.7500      0.1630    428.0400     39.3750     26.5357     25.5994      0.3206   2428.0000     24.2008     73.1550
51.2000         198.7750      0.1444    401.1600     36.3750     28.0434     24.9018      0.3268   2426.0000     23.5413     73.6500
51.4000         197.5000      0.1482    392.7600     36.1800     29.6367     25.3647      0.3228   2411.0000     20.3156     73.4550
