~VERSION INFORMATION
 VERS.                 2.0:   CWLS LOG ASCII STANDARD -VERSION 2.0
 WRAP.                  NO:   ONE LINE PER DEPTH STEP
~WELL INFORMATION BLOCK
#MNEM.UNIT           DATA                    DESCRIPTION OF MNEMONIC
#---------    -------------------            -------------------------------
# Generated from Intellog Unique Number	CW_79_81/WELL/637
WELL.         07-33-079-25W4                 : Well_name    - WELL
LOC .         AA/07-33-079-25W4/0            : Location     - LOCATION
UWI .         AA/07-33-079-25W4/0            : Uwi          - UNIQUE WELL ID
ENTR.         MAX                            : Entered      - ENTERED BY
SRVC.         SCHLUMBERGER                   : Scn          - SERVICE COMPANY
STRT.M        200                            : top_depth    - START DEPTH
STOP.M        475                            : bot_depth    - STOP DEPTH
STEP.M        0.25                           : increment    - STEP LENGTH
 NULL. -999.2500:NULL Value
~CURVE INFORMATION BLOCK
#MNEM UNIT       ERCB CURVE CODE    CURVE DESCRIPTION
#-----------   ------------------   ----------------------------------
DEPT.M        00 001 00 00         : DEPTH        - DEPTH
ILD .OHMM     00 120 00 00         : RESD         - DEEP RESISTIVITY (DIL)
NPHI.V/V      00 330 00 00         : PHIN         - NEUTRON POROSITY (SANDSTONE)
DPHI.V/V      00 890 00 00         : PHID         - DENSITY POROSITY (SANDSTONE)
CALI.MM       00 280 01 00         : CAL          - CALIPER
GR  .API      00 310 00 00         : GR           - GAMMA RAY
~PARAMETER INFORMATION
#MNEM.UNIT           DATA             DESCRIPTION OF MNEMONIC
#---------         -----------     ------------------------------
GL  .M        557.85               : gl           - GROUND LEVEL ELEVATION
EREF.M        562.3                : kb           - ELEVATION OF DEPTH REFERENCE
DATM.M        557.85               : datum        - DATUM ELEVATION
TDD .M        485.5                : tdd          - TOTAL DEPTH DRILLER
RUN .         ONE                  : Run          - RUN NUMBER
ENG .         BILL                 : Engineer     - RECORDING ENGINEER
WIT .         JIM                  : Witness      - WITNESSED BY
MUD .         GEL                  : Mud_type     - MUD TYPE
MATR.         SANDSTONE            : Logunit      - NEUTRON MATRIX
TMAX.C        17.7                 : BHT          - MAXIMUM RECORDED TEMPERATURE
BHTD.M        485                  : BHTDEP       - MAXIMUM RECORDED TEMPERATURE
RMT .C        20                   : MDTP         - TEMPERATURE OF MUD
MUDD.KG/M     1110                 : MWT          - MUD DENSITY
NEUT.         1                    : NEUTRON      - NEUTRON TYPE
RESI.         0                    : RESIST       - RESISTIVITY TYPE
RM  .OHMM     11.3                 : RM           - RESISTIVITY OF MUD
RMC .OHMM     0.25                 : RMC          - RESISTIVITY OF MUD CAKE
RMF .OHMM     4.93                 : RMF          - RESISTIVITY OF MUD FILTRATE
SUFT.C        -15                  : SUFT         - SURFACE TEMPERATURE
~A  DEPTH     RESD     PHIN     PHID      CAL       GR
  200.000    5.263    0.564    0.357  270.553   80.684
  200.250    5.878    0.514    0.332  271.053   82.797
  200.500    6.506    0.476    0.317  272.057   80.376
  200.750    7.335    0.497    0.313  272.556   78.863
  201.000    7.201    0.484    0.308  273.559   80.372
  201.250    6.446    0.512    0.326  276.073   80.974
  201.500    6.386    0.540    0.336  280.098   79.763
  201.750    6.626    0.557    0.335  281.605   76.738
  202.000    7.133    0.544    0.332  281.601   75.830
  202.250    7.823    0.520    0.319  282.101   73.410
  202.500    8.042    0.494    0.324  284.615   73.105
  202.750    7.608    0.487    0.346  286.121   76.124
  203.000    6.268    0.486    0.360  287.124   80.353
  203.250    5.716    0.488    0.360  288.128   79.141
  203.500    5.508    0.495    0.349  288.628   75.211
  203.750    5.457    0.499    0.363  288.625   73.395
  204.000    5.715    0.483    0.373  289.628   72.486
  204.250    6.325    0.463    0.368  291.134   61.000
  204.500    7.607    0.448    0.365  294.152   56.465
  204.750   10.409    0.465    0.383  298.178   49.815
  205.000   12.988    0.495    0.423  304.217   44.978
  205.250   17.938    0.513    0.444  310.760   44.068
  205.500   20.790    0.520    0.430  308.742   44.066
  205.750   25.233    0.507    0.414  302.191   44.971
  206.000   26.181    0.492    0.398  301.682   44.364
  206.250   26.181    0.471    0.382  306.716   40.735
  206.500   26.914    0.468    0.402  314.266   38.012
  206.750   26.914    0.489    0.366  316.277   34.989
  207.000   27.667    0.520    0.364  320.302   29.245
  207.250   27.923    0.530    0.404  323.319   29.847
  207.500   27.921    0.537    0.424  324.827   33.471
  207.750   27.921    0.574    0.424  325.327   34.979
  208.000   27.921    0.595    0.411  328.344   31.652
  208.250   27.919    0.591    0.422  331.361   27.419
  208.500   27.662    0.557    0.419  331.862   25.604
  208.750   27.660    0.499    0.405  335.887   26.206
  209.000   28.174    0.477    0.398  341.926   28.621
  209.250   29.777    0.557    0.399  341.923   32.245
  209.500   31.762    0.579    0.425  339.904   33.451
  209.750   34.511    0.553    0.457  332.345   32.844
  210.000   35.478    0.374    0.451  322.268   33.144
  210.250   34.828    0.323    0.305  323.775   33.444
  210.500   33.565    0.400    0.295  339.384   34.046
  210.750   33.564    0.565    0.502  338.877   37.065
  211.000   33.874    0.594    0.556  318.223   37.063
  211.250   36.805    0.550    0.436  312.175   36.154
  211.500   41.878    0.323    0.234  312.170   35.245
  211.750   51.300    0.287    0.237  316.197   34.940
  212.000   56.778    0.303    0.329  317.703   35.844
  212.250   57.833    0.368    0.380  312.663   36.749
  212.500   54.716    0.413    0.397  306.615   36.746
  212.750   49.893    0.441    0.421  301.070   38.859
  213.000   39.615    0.430    0.426  300.563   39.764
  213.250   30.595    0.391    0.391  302.574   41.272
  213.500   23.412    0.356    0.302  301.059   46.104
  213.750   12.161    0.410    0.284  298.033   52.448
  214.000    7.738    0.446    0.283  295.007   63.324
  214.250    6.144    0.456    0.278  288.960   69.063
  214.500    5.759    0.453    0.263  276.364   71.177
  214.750    5.203    0.428    0.254  269.308   74.498
  215.000    4.745    0.418    0.250  269.305   74.495
  215.250    4.407    0.457    0.248  269.302   74.493
  215.500    4.247    0.460    0.248  266.778   75.095
  215.750    4.447    0.458    0.252  266.271   71.164
  216.000    4.700    0.438    0.250  266.771   66.629
  216.250    5.107    0.409    0.241  270.796   65.115
  216.500    5.154    0.390    0.236  275.325   65.416
  216.750    5.107    0.417    0.239  280.861   67.831
  217.000    4.921    0.451    0.254  283.376   73.569
  217.250    4.699    0.462    0.264  282.364   75.078
  217.500    4.246    0.477    0.274  275.309   78.098
  217.750    3.944    0.489    0.276  266.742   81.419
  218.000    3.663    0.514    0.277  261.198   80.510
  218.250    3.498    0.518    0.277  257.165   79.601
  218.500    3.402    0.501    0.274  255.147   79.901
  218.750    3.371    0.515    0.271  254.639   81.108
  219.000    3.371    0.530    0.271  254.635   81.408
  219.250    3.309    0.544    0.274  254.631   83.823
  219.500    3.278    0.570    0.276  254.627   85.633
  219.750    3.248    0.572    0.278  255.127   84.120
  220.000    3.189    0.559    0.276  256.130   82.304
  220.250    3.130    0.533    0.279  256.126   82.906
  220.500    3.130    0.501    0.274  256.626   86.228
  220.750    3.101    0.477    0.269  256.622   86.225
  221.000    3.016    0.482    0.268  257.122   83.806
  221.250    2.934    0.483    0.273  257.620   84.710
  221.500    2.802    0.512    0.282  258.121   88.334
  221.750    2.651    0.520    0.291  259.124   90.446
  222.000    2.462    0.540    0.292  259.120   88.631
  222.250    2.329    0.569    0.287  259.619   84.700
  222.500    2.308    0.586    0.281  260.120   83.187
  222.750    2.329    0.588    0.288  259.611   84.091
  223.000    2.329    0.573    0.295  259.103   83.484
  223.250    2.394    0.560    0.291  259.099   84.086
  223.500    2.416    0.552    0.293  259.600   81.666
  223.750    2.507    0.550    0.293  259.595   78.642
  224.000    2.601    0.552    0.292  259.087   80.453
  224.250    2.674    0.555    0.287  259.083   85.588
  224.500    2.749    0.552    0.281  259.080   88.607
  224.750    2.800    0.554    0.278  259.076   87.698
  225.000    2.852    0.542    0.281  259.576   83.465
  225.250    2.879    0.530    0.274  260.579   83.462
  225.500    2.879    0.548    0.258  261.079   84.971
  225.750    2.905    0.537    0.251  262.081   84.666
  226.000    2.932    0.533    0.243  263.084   84.966
  226.250    2.932    0.516    0.241  264.088   85.568
  226.500    2.959    0.496    0.260  265.595   85.868
  226.750    2.986    0.510    0.275  266.095   86.470
  227.000    2.986    0.546    0.278  266.090   87.676
  227.250    3.014    0.587    0.283  265.583   88.278
  227.500    3.042    0.591    0.290  262.557   87.671
  227.750    3.041    0.577    0.288  258.020   84.647
  228.000    2.986    0.551    0.282  254.994   84.343
  228.250    2.958    0.547    0.266  254.487   86.456
  228.500    2.931    0.567    0.261  254.482   90.382
  228.750    2.931    0.550    0.271  253.975   90.379
  229.000    2.958    0.525    0.276  253.467   92.794
  229.250    3.214    0.524    0.271  252.960   89.770
  229.500    3.460    0.496    0.271  252.452   84.328
  229.750    3.691    0.458    0.252  252.448   77.375
  230.000    3.901    0.445    0.239  252.444   74.653
  230.250    4.010    0.448    0.257  252.441   74.651
  230.500    3.936    0.451    0.264  252.436   75.555
  230.750    3.829    0.528    0.269  252.432   75.250
  231.000    3.556    0.558    0.279  252.427   75.248
  231.250    3.303    0.565    0.293  252.424   76.455
  231.500    3.154    0.537    0.299  252.420   77.056
  231.750    3.213    0.528    0.299  252.416   74.637
  232.000    4.046    0.522    0.328  251.908   68.288
  232.250    5.190    0.469    0.351  251.401   61.940
  232.500    7.717    0.467    0.351  250.390   61.031
  232.750    9.900    0.456    0.346  249.881   61.331
  233.000   16.904    0.434    0.345  249.374   57.400
  233.250   21.486    0.431    0.347  249.370   53.771
  233.500   25.839    0.424    0.342  249.366   49.538
  233.750   32.541    0.415    0.329  249.866   45.003
  234.000   39.862    0.418    0.337  250.365   44.396
  234.250   49.739    0.428    0.346  251.872   45.602
  234.500   54.544    0.417    0.345  253.883   43.182
  234.750   57.118    0.414    0.347  255.390   43.482
  235.000   59.812    0.431    0.349  257.904   45.897
  235.250   62.058    0.444    0.348  259.411   49.219
  235.500   62.058    0.450    0.348  260.415   51.030
  235.750   63.794    0.460    0.356  259.403   51.330
  236.000   65.583    0.466    0.343  255.873   50.723
  236.250   68.677    0.462    0.327  253.351   49.512
