~VERSION INFORMATION
 VERS.                 2.0:   CWLS LOG ASCII STANDARD -VERSION 2.0
 WRAP.                  NO:   ONE LINE PER DEPTH STEP
~WELL INFORMATION BLOCK
#MNEM.UNIT           DATA                    DESCRIPTION OF MNEMONIC
#---------    -------------------            -------------------------------
# Generated from Intellog Unique Number	CN_94_101/WELL/2832
WELL.         06-08-096-14W4                 : Well_name    - WELL
LOC .         AA/06-08-096-14W4/0            : Location     - LOCATION
UWI .         AA/06-08-096-14W400            : Uwi          - UNIQUE WELL ID
ENTR.         JOETTE                         : Entered      - ENTERED BY
SRVC.         SCHLUMBERGER                   : Scn          - SERVICE COMPANY
DATE.         07/07/92                       : Date         - LOG DATE
STRT.M        40                             : top_depth    - START DEPTH
STOP.M        310                            : bot_depth    - STOP DEPTH
STEP.M        0.25                           : increment    - STEP LENGTH
 NULL. -999.2500:NULL Value
~CURVE INFORMATION BLOCK
#MNEM UNIT       ERCB CURVE CODE    CURVE DESCRIPTION
#-----------   ------------------   ----------------------------------
DEPT.M        00 001 00 00         : DEPTH        - DEPTH
CALI.MM       00 280 01 00         : CAL          - CALIPER
GR  .API      00 310 00 00         : GR           - GAMMA RAY
NPHI.V/V      00 330 00 00         : PHIN         - NEUTRON POROSITY (SANDSTONE)
DPHI.V/V      00 890 00 00         : PHID         - DENSITY POROSITY (SANDSTONE)
ILD .OHMM     00 120 00 00         : RESD         - DEEP RESISTIVITY (DIL)
~PARAMETER INFORMATION
#MNEM.UNIT           DATA             DESCRIPTION OF MNEMONIC
#---------         -----------     ------------------------------
GL  .M        559.67               : gl           - GROUND LEVEL ELEVATION
EREF.M        562.67               : kb           - ELEVATION OF DEPTH REFERENCE
DATM.M        562.67               : datum        - DATUM ELEVATION
TDD .M        320                  : tdd          - TOTAL DEPTH DRILLER
RUN .         ONE                  : Run          - RUN NUMBER
ENG .         JO                   : Engineer     - RECORDING ENGINEER
WIT .         TIM                  : Witness      - WITNESSED BY
MUD .         GEL                  : Mud_type     - MUD TYPE
MATR.         SANDSTONE            : Logunit      - NEUTRON MATRIX
TMAX.C        17                   : BHT          - MAXIMUM RECORDED TEMPERATURE
BHTD.M        320                  : BHTDEP       - MAXIMUM RECORDED TEMPERATURE
RMT .C        15                   : MDTP         - TEMPERATURE OF MUD
MUDD.KG/M     1120                 : MWT          - MUD DENSITY
NEUT.         1                    : NEUTRON      - NEUTRON TYPE
RESI.         0                    : RESIST       - RESISTIVITY TYPE
RM  .OHMM     0.709                : RM           - RESISTIVITY OF MUD
RMC .OHMM     0.709                : RMC          - RESISTIVITY OF MUD CAKE
RMF .OHMM     0.709                : RMF          - RESISTIVITY OF MUD FILTRATE
SUFT.C        4                    : SUFT         - SURFACE TEMPERATURE
~A  DEPTH      CAL       GR     PHIN     PHID     RESD
# ...
  186.000  162.564   54.692    0.462    0.326    8.101
  186.250  165.632   54.782    0.462    0.322    7.129
  186.500  166.828   56.622    0.469    0.317    6.163
  186.750  167.950   56.712    0.480    0.299    5.324
  187.000  168.099   53.904    0.489    0.283    4.688
  187.250  168.173   52.804    0.495    0.257    4.710
  187.500  168.322   52.332    0.499    0.247    4.802
  187.750  170.417   55.901    0.488    0.292    4.815
  188.000  175.468   64.186    0.469    0.322    4.834
  188.250  181.530   67.195    0.462    0.326    4.840
  188.500  183.550   69.035    0.459    0.311    4.853
  188.750  188.564   70.876    0.467    0.302    4.866
  189.000  193.615   69.798    0.484    0.297    4.879
  189.250  197.656   69.303    0.515    0.291    4.896
  189.500  200.724   69.415    0.518    0.293    4.909
  189.750  202.819   68.898    0.523    0.291    4.828
  190.000  203.941   70.155    0.528    0.289    4.585
  190.250  206.036   73.792    0.529    0.278    4.507
  190.500  207.158   75.004    0.508    0.266    4.275
  190.750  207.307   75.722    0.490    0.267    4.057
  191.000  208.429   74.016    0.481    0.286    3.845
  191.250  208.615   72.353    0.486    0.291    3.644
  191.500  208.727   70.108    0.510    0.296    3.461
  191.750  208.876   71.948    0.536    0.240    3.402
  192.000  209.062   74.957    0.561    0.211    3.477
  192.250  209.248   77.987    0.533    0.157    3.486
  192.500  209.322   76.325    0.528    0.238    3.493
  192.750  209.471   74.080    0.531    0.273    3.507
  193.000  209.620   74.147    0.551    0.294    3.580
  193.250  208.796   74.281    0.530    0.287    3.587
  193.500  208.009   74.348    0.523    0.277    3.667
  193.750  207.148   75.021    0.520    0.272    3.743
  194.000  206.361   75.132    0.556    0.279    4.047
  194.250  205.574   74.593    0.591    0.282    4.206
  194.500  204.713   72.931    0.582    0.293    4.629
  194.750  202.916   70.685    0.583    0.287    4.904
  195.000  200.183   64.353    0.575    0.279    5.198
  195.250  198.311   63.881    0.537    0.268    5.514
  195.500  194.568   62.825    0.521    0.261    5.525
  195.750  188.842   62.286    0.526    0.264    5.442
  196.000  180.234   61.207    0.508    0.268    5.161
  196.250  169.679   58.962    0.486    0.284    5.076
  196.500  165.001   54.358    0.482    0.298    4.911
  196.750  162.156   47.442    0.496    0.303    4.918
  197.000  158.413   50.450    0.491    0.313    4.934
  197.250  159.572   55.210    0.475    0.317    4.944
  197.500  160.657   59.992    0.466    0.322    4.777
  197.750  162.752   64.752    0.452    0.335    4.447
  198.000  164.884   67.221    0.480    0.332    4.062
  198.250  164.097   67.266    0.518    0.327    3.852
  198.500  162.263   67.377    0.532    0.302    3.937
  198.750  161.401   64.548    0.544    0.305    4.249
  199.000  160.652   61.112    0.537    0.311    5.228
  199.250  160.726   58.282    0.514    0.314    6.314
  199.500  162.858   58.978    0.494    0.320    6.096
  199.750  164.953   61.986    0.469    0.320    5.476
  200.000  169.031   65.556    0.461    0.311    5.005
  200.250  174.082   68.564    0.454    0.301    4.832
  200.500  177.113   70.405    0.473    0.293    4.577
  200.750  179.171   69.911    0.491    0.288    4.346
  201.000  182.239   68.249    0.497    0.274    4.275
  201.250  183.361   65.441    0.501    0.284    4.287
  201.500  185.456   63.779    0.508    0.291    4.298
  201.750  186.615   63.285    0.511    0.294    4.390
  202.000  187.737   63.374    0.496    0.293    4.402
  202.250  187.886   65.799    0.484    0.279    4.411
  202.500  188.970   67.639    0.497    0.288    4.508
  202.750  190.092   65.977    0.513    0.276    4.602
  203.000  191.214   66.650    0.516    0.280    4.620
  203.250  190.427   68.491    0.501    0.287    4.629
  203.500  186.684   70.332    0.495    0.288    4.639
  203.750  184.850   67.480    0.506    0.283    4.741
  204.000  179.198   62.899    0.516    0.282    4.846
  204.250  174.445   63.011    0.518    0.284    5.036
  204.500  170.701   64.245    0.515    0.291    5.749
  204.750  169.915   66.108    0.501    0.280    6.094
  205.000  171.074   69.701    0.489    0.250    5.780
  205.250  171.148   76.212    0.485    0.252    5.090
  205.500  173.243   79.242    0.497    0.271    4.400
  205.750  177.321   80.477    0.522    0.292    3.947
  206.000  177.433   82.340    0.541    0.275    3.677
  206.250  178.629   83.013    0.545    0.263    3.551
  206.500  177.768   77.826    0.552    0.253    3.492
  206.750  176.944   72.661    0.561    0.246    3.440
  207.000  176.083   68.080    0.551    0.226    3.386
  207.250  175.296   65.834    0.529    0.227    3.392
  207.500  175.407   82.270    0.517    0.202    3.404
  207.750  177.540   84.111    0.495    0.162    3.410
  208.000  179.635   82.449    0.436    0.180    3.484
  208.250  181.729   81.370    0.465    0.265    3.561
  208.500  186.781   81.460    0.519    0.240    3.634
  208.750  190.822   82.155    0.528    0.241    3.860
  209.000  194.825   82.806    0.545    0.244    3.209
  209.250  199.876   83.479    0.526    0.231    3.339
  209.500  202.982   83.591    0.519    0.228    3.678
  209.750  204.029   81.929    0.580    0.235    3.825
  210.000  205.151   80.267    0.583    0.242    4.208
  210.250  205.300   77.999    0.569    0.244    4.632
  210.500  205.523   75.753    0.568    0.226    4.903
  210.750  205.635   72.339    0.542    0.241    5.499
  211.000  205.784   70.093    0.525    0.247    6.045
  211.250  205.896   67.847    0.507    0.247    6.906
  211.500  206.082   67.331    0.500    0.248    7.739
  211.750  206.268   66.859    0.488    0.246    9.000
  212.000  205.406   66.926    0.475    0.248   10.086
  212.250  205.518   67.037    0.445    0.250   10.120
  212.500  205.704   67.127    0.429    0.249    9.428
  212.750  205.890   67.238    0.413    0.247    8.766
  213.000  206.002   67.305    0.428    0.246    7.869
  213.250  205.141   66.788    0.435    0.240    7.598
  213.500  205.290   66.316    0.442    0.241    7.341
  213.750  204.466   66.406    0.463    0.236    7.097
  214.000  203.716   66.473    0.465    0.226    7.107
  214.250  201.882   67.774    0.465    0.229    7.259
  214.500  200.122   69.031    0.475    0.256    7.705
  214.750  197.314   70.288    0.470    0.259    7.860
  215.000  194.507   71.545    0.482    0.247    8.184
  215.250  186.872   71.657    0.496    0.246    8.354
  215.500  181.146   71.702    0.504    0.255    8.538
  215.750  175.456   69.456    0.485    0.266    8.555
  216.000  166.886   66.065    0.457    0.274    8.277
  216.250  160.223   63.796    0.440    0.283    7.840
  216.500  160.372   63.302    0.432    0.286    7.574
  216.750  161.494   66.916    0.438    0.277    7.052
  217.000  162.616   68.735    0.431    0.268    6.950
  217.250  164.711   70.576    0.425    0.257    6.964
  217.500  164.823   69.520    0.432    0.250    7.242
  217.750  162.090   66.690    0.445    0.244    7.820
  218.000  160.256   65.589    0.459    0.236    8.933
  218.250  157.523   63.927    0.452    0.239    8.957
  218.500  156.661   62.288    0.443    0.240    8.180
  218.750  156.810   61.209    0.433    0.224    7.076
  219.000  158.942   61.254    0.417    0.196    6.711
  219.250  160.027   63.095    0.381    0.173    6.729
  219.500  163.132   67.293    0.380    0.175    7.002
  219.750  166.237   70.908    0.420    0.225    7.147
  220.000  169.305   72.165    0.443    0.253    7.437
  220.250  169.380   71.670    0.440    0.245    7.744
  220.500  170.502   70.008    0.445    0.241    7.627
  220.750  168.742   70.097    0.459    0.255    7.497
  221.000  166.907   70.770    0.452    0.257    7.110
  221.250  167.094   72.611    0.436    0.254    6.615
  221.500  167.205   73.868    0.424    0.252    5.514
  221.750  168.364   74.541    0.420    0.243    5.529
  222.000  171.395   74.047    0.433    0.233    5.647
  222.250  175.436   75.304    0.449    0.255    5.768
