~VERSION INFORMATION
 VERS.                 2.0:   CWLS LOG ASCII STANDARD -VERSION 2.0
 WRAP.                  NO:   ONE LINE PER DEPTH STEP
~WELL INFORMATION BLOCK
#MNEM.UNIT           DATA                    DESCRIPTION OF MNEMONIC
#---------    -------------------            -------------------------------
# Generated from Intellog Unique Number	CX_WELLS/WELL/2909
WELL.         GULF                           : Well_name    - WELL
LOC .         AA/06-08-082-09W4/0            : Location     - LOCATION
UWI .         AA/06-08-082-09W400            : Uwi          - UNIQUE WELL ID
ENTR.         T                              : Entered      - ENTERED BY
SRVC.         SCHLUMBERGER                   : Scn          - SERVICE COMPANY
STRT.F        900                            : top_depth    - START DEPTH
STOP.F        1599.64                        : bot_depth    - STOP DEPTH
STEP.F        0.82                           : increment    - STEP LENGTH
 NULL. -999.2500:NULL Value
~CURVE INFORMATION BLOCK
#MNEM UNIT       ERCB CURVE CODE    CURVE DESCRIPTION
#-----------   ------------------   ----------------------------------
DEPT.F        00 001 00 00         : DEPTH        - DEPTH
GR  .API      00 310 00 00         : GR           - GAMMA RAY
NPHI.V/V      00 330 00 00         : PHIN         - NEUTRON POROSITY (SANDSTONE)
DPHI.V/V      00 890 00 00         : PHID         - DENSITY POROSITY (SANDSTONE)
ILD .OHMM     00 120 00 00         : RESD         - DEEP RESISTIVITY (OTHER)
~PARAMETER INFORMATION
#MNEM.UNIT           DATA             DESCRIPTION OF MNEMONIC
#---------         -----------     ------------------------------
GL  .F        2322                 : gl           - GROUND LEVEL ELEVATION
EREF.F        2335                 : kb           - ELEVATION OF DEPTH REFERENCE
DATM.F        2335                 : datum        - DATUM ELEVATION
TDD .F        1625                 : tdd          - TOTAL DEPTH DRILLER
RUN .         ONE                  : Run          - RUN NUMBER
ENG .         BILL                 : Engineer     - RECORDING ENGINEER
WIT .         JIM                  : Witness      - WITNESSED BY
MUD .         GEL                  : Mud_type     - MUD TYPE
MATR.         SANDSTONE            : Logunit      - NEUTRON MATRIX
TMAX.F        73                   : BHT          - MAXIMUM RECORDED TEMPERATURE
BHTD.F        1625                 : BHTDEP       - MAXIMUM RECORDED TEMPERATURE
MATR.         1                    : LOGUNIT      - NEUTRON MATRIX
RMT .F        68                   : MDTP         - TEMPERATURE OF MUD
NEUT.         1                    : NEUTRON      - NEUTRON TYPE
RESI.         8.52                 : RESIST       - RESISTIVITY TYPE
RMC .OHMM     7.76                 : RMC          - RESISTIVITY OF MUD CAKE
RMF .OHMM     7.76                 : RMF          - RESISTIVITY OF MUD FILTRATE
SUFT.F        37.4                 : SUFT         - SURFACE TEMPERATURE
~A  DEPTH       GR     PHIN     PHID     RESD
# ...
 1185.430   74.603    0.433    0.252    7.274
 1186.250   72.770    0.423    0.278    8.020
 1187.070   69.714    0.407    0.290    9.182
 1187.890   68.496    0.389    0.312   10.132
 1188.710   68.512    0.377    0.325   11.600
 1189.530   68.518    0.377    0.338   13.043
 1190.350   68.537    0.378    0.338   14.381
 1191.170   68.543    0.373    0.336   14.982
 1191.990   67.940    0.367    0.332   15.931
 1192.810   66.117    0.367    0.334   15.982
 1193.640   65.511    0.400    0.322   16.033
 1194.460   64.912    0.424    0.314   16.071
 1195.280   64.303    0.432    0.306   15.821
 1196.100   63.704    0.446    0.306   15.574
 1196.920   63.713    0.459    0.306   15.332
 1197.740   63.117    0.456    0.308   15.393
 1198.560   62.517    0.450    0.308   15.153
 1199.380   62.523    0.452    0.308   14.929
 1200.200   61.924    0.448    0.308   14.685
 1201.020   61.324    0.443    0.308   14.456
 1201.840   61.331    0.447    0.309   14.242
 1202.660   61.349    0.449    0.310   14.009
 1203.480   61.361    0.447    0.310   13.791
 1204.300   61.371    0.441    0.313   13.576
 1205.120   60.768    0.434    0.316   13.630
 1205.940   60.781    0.425    0.316   13.418
 1206.760   60.799    0.430    0.315   13.219
 1207.580   60.809    0.443    0.315   13.014
 1208.400   60.824    0.455    0.317   12.811
 1209.220   60.837    0.450    0.318   12.601
 1210.040   60.849    0.437    0.314   12.642
 1210.860   60.858    0.431    0.310   12.464
 1211.680   60.874    0.434    0.306   12.514
 1212.500   60.883    0.438    0.309   12.534
 1213.320   60.899    0.438    0.310   12.594
 1214.140   60.914    0.436    0.312   12.865
 1214.960   60.926    0.435    0.316   12.906
 1215.780   60.324    0.432    0.318   13.183
 1216.600   60.336    0.431    0.323   13.510
 1217.420   59.731    0.436    0.329   13.542
 1218.240   59.128    0.447    0.335   13.844
 1219.060   59.147    0.462    0.336   13.877
 1219.880   59.156    0.462    0.340   14.198
 1220.700   59.168    0.433    0.343   14.232
 1221.520   59.187    0.429    0.343   13.770
 1222.340   58.578    0.439    0.342   13.302
 1223.160   58.591    0.451    0.338   13.085
 1223.980   58.609    0.449    0.332   12.640
 1224.800   58.619    0.448    0.335   12.220
 1225.620   58.634    0.448    0.340   12.259
 1226.440   58.643    0.449    0.344   12.542
 1227.260   58.656    0.448    0.349   12.572
 1228.080   59.286    0.446    0.344   13.369
 1228.900   59.299    0.446    0.338   13.656
 1229.720   59.317    0.446    0.335   14.238
 1230.540   59.327    0.445    0.336   14.261
 1231.360   59.336    0.440    0.341   14.050
 1232.190   59.352    0.437    0.345   13.831
 1233.010   59.364    0.427    0.347   13.627
 1233.830   59.373    0.420    0.353   13.404
 1234.650   59.389    0.427    0.355   13.206
 1235.470   59.401    0.429    0.355   13.489
 1236.290   59.420    0.433    0.350   13.790
 1237.110   59.429    0.427    0.345   13.845
 1237.930   59.438    0.422    0.343   13.630
 1238.750   59.451    0.428    0.343   13.428
 1239.570   58.848    0.435    0.346   13.209
 1240.390   58.867    0.427    0.348   13.261
 1241.210   58.876    0.417    0.345   13.044
 1242.030   58.274    0.423    0.331   13.107
 1242.850   58.289    0.428    0.326   12.882
 1243.670   58.302    0.432    0.326   12.933
 1244.490   58.311    0.438    0.332   12.975
 1245.310   57.715    0.442    0.336   12.793
 1246.130   57.109    0.440    0.339   12.813
 1246.950   57.121    0.439    0.343   13.120
 1247.770   57.137    0.439    0.340   13.141
 1248.590   57.767    0.436    0.340   13.183
 1249.410   57.773    0.433    0.340   13.235
 1250.230   59.016    0.437    0.335   12.331
 1251.050   60.877    0.439    0.328   12.120
 1251.870   64.579    0.441    0.319   11.489
 1252.690   71.356    0.443    0.308   10.099
 1253.510   78.134    0.447    0.298    9.038
 1254.330   81.837    0.451    0.292    6.831
 1255.150   84.315    0.459    0.285    5.782
 1255.970   81.868    0.465    0.276    5.086
 1256.790   80.035    0.474    0.273    5.502
 1257.610   78.814    0.489    0.284    5.953
 1258.430   76.985    0.483    0.291    6.946
 1259.250   75.770    0.477    0.290    8.111
 1260.070   75.165    0.473    0.281    8.450
 1260.890   75.177    0.478    0.261    7.713
 1261.710   76.422    0.488    0.215    7.445
 1262.530   78.283    0.503    0.180    6.796
 1263.350   78.904    0.497    0.177    6.337
 1264.170   80.762    0.490    0.228    6.228
 1264.990   83.849    0.486    0.231    6.021
 1265.810   86.943    0.486    0.225    5.927
 1266.630   87.570    0.492    0.229    5.840
 1267.450   87.580    0.515    0.235    5.740
 1268.270   87.592    0.520    0.239    5.445
 1269.090   88.222    0.529    0.242    4.877
 1269.910   90.083    0.552    0.247    4.369
 1270.730   92.552    0.559    0.253    3.913
 1271.560   94.410    0.569    0.260    3.707
 1272.380   94.422    0.582    0.265    3.261
 1273.200   93.820    0.589    0.265    3.147
 1274.020   91.990    0.606    0.265    3.408
 1274.840   91.391    0.608    0.265    3.618
 1275.660   92.021    0.612    0.266    3.838
 1276.480   92.031    0.619    0.268    4.482
 1277.300   92.043    0.614    0.260    5.035
 1278.120   91.437    0.578    0.251    5.770
 1278.940   90.220    0.546    0.243    6.737
 1279.760   89.002    0.521    0.243    7.570
 1280.580   88.400    0.515    0.248    8.674
 1281.400   88.415    0.522    0.249    9.208
 1282.220   88.430    0.507    0.243    9.776
 1283.040   88.440    0.492    0.239   10.193
 1283.860   88.455    0.487    0.245   10.611
 1284.680   88.468    0.480    0.250   11.054
 1285.500   89.092    0.473    0.249   11.310
 1286.320   90.956    0.457    0.237   11.562
 1287.140   92.198    0.444    0.220   11.829
 1287.960   92.826    0.435    0.212   11.858
 1288.780   90.996    0.429    0.205   11.905
 1289.600   89.775    0.421    0.201   11.729
 1290.420   89.170    0.408    0.194   11.555
 1291.240   88.576    0.406    0.194   11.366
 1292.060   88.583    0.434    0.220   10.775
 1292.880   88.598    0.438    0.226   10.023
 1293.700   88.611    0.459    0.236    8.803
 1294.520   89.238    0.460    0.237    7.885
 1295.340   89.254    0.475    0.235    7.335
 1296.160   89.263    0.491    0.235    6.958
 1296.980   89.893    0.485    0.239    6.850
 1297.800   89.903    0.479    0.243    7.136
 1298.620   89.918    0.483    0.243    7.570
 1299.440   88.698    0.477    0.239    8.190
 1300.260   86.250    0.449    0.238    9.564
 1301.080   83.802    0.411    0.242   10.544
 1301.900   80.743    0.402    0.246   11.644
 1302.720   78.910    0.393    0.255   11.690
 1303.540   79.541    0.419    0.263   11.709
 1304.360   80.780    0.442    0.268   11.526
 1305.180   82.637    0.448    0.266   11.356
 1306.000   83.880    0.456    0.263   11.188
 1306.820   84.507    0.458    0.261   10.996
 1307.640   86.371    0.461    0.252   10.245
 1308.460   88.847    0.466    0.252    9.704
 1309.280   90.083    0.473    0.247    8.872
 1310.100   90.710    0.480    0.241    8.570
 1310.930   89.499    0.480    0.249    8.272
 1311.750   88.893    0.473    0.259    7.985
 1312.570   87.679    0.467    0.250    7.581
 1313.390   86.464    0.465    0.225    7.599
 1314.210   85.855    0.461    0.228    7.618
 1315.030   85.253    0.456    0.234    7.794
 1315.850   84.038    0.456    0.239    7.968
 1316.670   83.433    0.459    0.241    8.152
 1317.490   82.830    0.462    0.242    8.334
 1318.310   82.234    0.460    0.241    8.354
 1319.130   81.628    0.457    0.241    8.380
 1319.950   81.025    0.461    0.240    8.414
 1320.770   79.193    0.469    0.242    8.441
 1321.590   75.515    0.472    0.278    8.474
 1322.410   73.682    0.475    0.301    8.501
 1323.230   74.313    0.475    0.296    8.362
 1324.050   75.561    0.475    0.291    8.389
 1324.870   76.183    0.478    0.287    8.110
 1325.690   78.655    0.480    0.283    7.828
 1326.510   81.131    0.487    0.282    7.157
 1327.330   82.988    0.493    0.279    6.785
