~Version : LASO    vs 4.00 
VERS.                2.00:   CWLS Log ASCII Standard -VERSION 2.0
WRAP.                  NO:
~Well Information Block
#MNEM.UNIT       Data                        Description of Mnemonic
#----.----      -------------------------- : -----------------------------
STRT.M            15.0000:
STOP.M           207.0000:
STEP.M             0.2000:
NULL.           -999.2500:
COMP.  MOBIL OIL CANADA                   :COMPANY
WELL.  MOBIL CLARKE OV 1-2                :WELL
FLD.                                      :FIELD
LOC.   01-02-090-08W4                     :LOCATION
CTRY.  CANADA                             :COUNTRY
PROV.  ALBERTA                            :PROVINCE
SRVC.  SCHLUMBERGER                       :SERVICE COMPANY
DATE.  05-MAR-81                          :LOG DATE
UWI.   AA/01-02-090-08W400                :UNIQUE WELL ID
~Parameter Information Block
#MNEM.UNIT       Data                        Description of Mnemonic
#----.----      -------------------------- : -----------------------------
RUN .                   1                 : Run Number
GL  .M           444.4000                 : Ground Level Elevation
DREF.                  KB                 : Depth Reference
EREF.M           444.4000                 : Elevation of Depth Reference
TDL .M           207.0000                 : Total Depth Logger
TDD .M           206.0000                 : Total Depth Driller
CSGL.M            27.0000                 : Casing Bottom Logger
CSGD.M            26.4000                 : Casing Bottom Driller
CSGS.MM          219.0000                 : Casing Size
CSGW.KG/M          0.0000                 : Casing Weight
BS  .MM          159.0000                 : Bit Size
DFD .           9999.0000                 : Mud Weight (Density)
~Curve Information Block
#MNEM.UNIT        API CODE    Curve Description
#---------    ------------    -------------------------------------------
DEPT.M                    :   DEPTH
CALI.MM       42 280  1  1:   3 DENSITY CALIPER
DPHI.V/V                  :   DPHI
DT  .US/M     60 520  0  1:   2 SONIC INTERVAL TRANSIT TIME (COMPENSATED)
GR  .GAPI     42 310  1  1:   4 GAMMA RAY
ILD .OHMM      5 120 46  1:   7 DEEP INDUCTION
ILM .OHMM      5 120 44  1:   8 MEDIUM INDUCTION
NPHI.V/V      42 890  3  1:   5 NEUTRON POROSITY (SANDSTONE)
RHOB.K/M3     42 350  1  1:   6 BULK DENSITY
SFLU.OHMM      5 220  1  1:   9 FOCUSSED RESISTIVITY
SP  .MV        5  10  1  1:   10 SPONTANEOUS POTENTIAL
~A  Depth           CALI        DPHI          DT          GR         ILD         ILM        NPHI        RHOB        SFLU          SP
# ...
185.8000        154.3250      0.3029    395.2400     27.8700     86.2641     87.0623      0.3848   2142.0000    262.9238     64.6050
186.0000        160.6750      0.3057    383.2800     26.9700    119.0776    132.9933      0.3916   2168.0000    296.3671     65.0100
186.2000        160.6750      0.2883    384.9200     24.4800    136.7193    224.6104      0.3808   2172.0000    383.5570     68.8050
186.4000        160.6750      0.2859    388.2000     24.6750    135.4659    253.1803      0.3692   2172.0000    409.1004     70.2600
186.6000        160.6750      0.2790    385.7200     25.6800    134.2239    267.5654      0.3492   2184.0000    432.3445     72.4050
186.8000        159.4000      0.2780    374.9200     29.3700    101.8193    272.5398      0.3520   2202.0000    444.4572     70.4100
187.0000        158.1250      0.2733    373.4400     31.8750     79.4017    237.3722      0.3546   2205.0000    416.7061     74.3550
187.2000        158.1250      0.2706    375.4000     35.1750     58.0537    155.5356      0.3576   2213.0000    349.8081     82.8600
187.4000        159.4000      0.2639    380.0000     44.1750     33.4064     45.2720      0.3488   2202.0000    135.4659     92.7600
187.6000        159.4000      0.2509    379.0000     44.9850     27.7863     28.0692      0.3264   2237.0000     52.4602     95.1150
187.8000        155.5750      0.2252    375.5600     34.9800     24.4247     21.4897      0.3518   2307.8999     23.1116     96.9150
188.0000        153.0500      0.2067    372.7600     21.6750     22.0714     19.4191      0.3704   2334.0000     14.3163    102.4650
188.2000        151.7750      0.1919    368.0000     18.3750     19.5808     18.7167      0.3810   2336.0000     16.8978     99.4050
188.4000        150.5000      0.1918    386.7200     15.9750     19.9448     18.8899      0.3804   2362.0000     20.6933     96.0600
188.6000        149.2500      0.1949    410.3200     14.7750     21.2731     20.5225      0.3704   2283.0000     28.8290     85.6500
188.8000        147.9750      0.2126    422.9600     15.1650     27.0290     26.3166      0.3710   2281.0000     62.4928     68.9100
189.0000        149.2500      0.2285    411.8000     15.8700     31.0334     30.2155      0.3736   2272.8999     73.7615     69.4050
189.2000        147.9750      0.2353    409.2000     16.3650     35.3045     34.6920      0.3802   2244.0000     72.4152     68.8050
189.4000        149.2500      0.2536    403.9200     16.7700     40.1634     44.4457      0.3774   2206.0000     76.5297     64.4550
189.6000        150.5000      0.2652    408.2000     17.6700     39.7951     47.4056      0.3780   2216.0000     88.6809     60.7500
189.8000        151.7750      0.2615    419.0000     19.1700     37.6556     46.9710      0.3886   2216.0000     96.3452     61.6050
190.0000        151.7750      0.2726    420.8400     21.3750     28.3028     38.3557      0.3826   2201.0000     66.6546     60.6000
190.2000        150.5000      0.2832    420.0000     22.2750     23.9789     31.3495      0.3778   2164.8999     50.0991     67.2600
190.4000        153.0500      0.2916    411.8000     24.7800     20.6933     24.2231      0.3662   2148.0000     40.1634     64.2000
190.6000        149.2500      0.2983    414.2800     31.5750     18.3582     18.8899      0.3422   2164.0000     34.3423     68.8050
190.8000        149.2500      0.2554    422.9600     34.2750     16.4373     13.3116      0.3214   2216.0000     17.5319     73.9050
191.0000        149.2500      0.2233    408.0400     36.0750     16.4373     13.1895      0.3196   2278.0000      9.9044     78.4050
191.2000        149.2500      0.2027    384.7600     36.9750     16.8978     14.5959      0.3270   2329.8999      7.7238     76.2600
191.4000        149.2500      0.1716    338.8400     37.9800     19.4013     20.1479      0.3028   2522.0000     26.2924    102.2550
191.6000        153.0500      0.1267    320.2800     37.6800     22.0714     23.3469      0.2654   2593.8999     42.0562    107.3100
191.8000        155.5750      0.0316    305.2000     37.5750     26.5357     27.3042      0.2252   2652.0000     47.8443    109.7100
192.0000        155.5750      0.0000    273.0400     38.2800     34.3423     35.0131      0.2188   2698.0000     48.7338    109.8150
192.2000        155.5750      0.0000    268.1200     38.8800     35.6312     36.3270      0.2158   2716.0000     47.4056    112.4550
192.4000        155.5750      0.0000    267.6400     38.9850     35.6312     36.3270      0.2244   2701.0000     44.4457    113.3550
192.6000        155.5750      0.0000    273.4000     38.5800     35.6312     36.3270      0.2288   2729.0000     36.6294    112.2600
192.8000        154.3250      0.0000    277.3200     38.1750     36.2936     37.3104      0.2302   2735.0000     38.7106    111.8550
193.0000        154.3250      0.0000    277.1600     37.7850     36.9683     39.0688      0.2260   2722.0000     44.8570    116.5650
193.2000        154.3250      0.0000    268.9600     38.0850     38.3557     40.5350      0.2188   2713.0000     58.5909    118.0200
193.4000        155.5750      0.0000    261.5600     38.6850     38.7106     40.5350      0.2140   2670.8999     58.0537    117.9150
193.6000        155.5750      0.0000    255.5200     38.6850     38.3557     39.7951      0.2058   2658.0000     52.4602    114.7650
193.8000        155.5750      0.0000    253.2000     38.5800     37.6556     39.0688      0.2028   2679.0000     48.2870    115.6200
194.0000        155.5750      0.0000    251.7200     39.0750     35.6312     35.6640      0.2030   2684.0000     46.9710    122.2200
194.2000        154.3250      0.0000    252.2400     39.4800     35.3045     34.3740      0.2044   2700.0000     42.8381    124.1100
194.4000        153.0500      0.0000    253.3600     40.4850     34.9808     34.3740      0.2086   2732.0000     38.3557    124.2150
194.6000        155.5750      0.0000    259.2800     42.6750     34.9808     37.0024      0.2114   2740.0000     45.2720    124.1700
194.8000        155.5750      0.0000    263.3600     43.4850     34.6601     37.0024      0.2166   2721.0000     52.4602    125.9700
195.0000        155.5750      0.0000    264.0400     43.7850     34.9808     37.0024      0.2148   2695.0000     51.5027    126.7650
195.2000        155.5750      0.0000    265.5200     42.8850     35.6312     37.3104      0.2092   2684.0000     45.6909    126.2700
195.4000        155.5750      0.0000    266.3200     42.2850     35.3045     37.0024      0.2078   2690.0000     42.8381    126.1650
195.6000        155.5750      0.0000    268.9600     42.1800     34.9808     35.9940      0.2120   2709.0000     41.2886    124.4700
195.8000        153.0500      0.0000    271.7600     42.7800     33.7155     35.0131      0.2144   2687.0000     36.6294    123.7200
196.0000        151.7750      0.0000    274.5200     43.6800     33.7155     34.6920      0.2182   2657.0000     39.7951    124.0200
196.2000        153.0500      0.0040    275.8400     43.9800     33.1001     34.0588      0.2292   2661.0000     40.5350    118.8600
196.4000        153.0500      0.0127    279.4400     44.7750     33.1001     33.4372      0.2298   2646.0000     40.1634    116.6100
196.6000        155.5750      0.0251    279.6000     44.5800     32.7967     33.4372      0.2290   2622.0000     39.7951    119.5200
196.8000        155.5750      0.0300    280.9200     44.3850     32.4960     33.7466      0.2310   2595.0000     39.4303    118.1100
197.0000        151.7750      0.0221    281.2400     43.6800     32.4960     33.4372      0.2306   2624.0000     38.7106    121.4700
197.2000        151.7750      0.0156    280.1200     43.4850     33.1001     33.1306      0.2294   2615.0000     37.6556    122.8200
197.4000        153.0500      0.0126    281.2400     43.0800     33.1001     33.7466      0.2288   2626.8999     37.6556    123.3150
197.6000        153.0500      0.0109    281.2400     42.7800     33.4064     34.0588      0.2324   2665.0000     38.0041    125.8650
197.8000        154.3250      0.0095    280.7600     43.0800     33.1001     35.0131      0.2330   2626.0000     41.2886    126.7650
