~Version : LASO    vs 4.00
VERS.                2.00:   CWLS Log ASCII Standard -VERSION 2.0
WRAP.                  NO:
~Well Information Block
#MNEM.UNIT       Data                        Description of Mnemonic
#----.----      -------------------------- : -----------------------------
STRT.M            11.0000:
STOP.M           176.0000:
STEP.M             0.1000:
NULL.           -999.2500:
COMP.  MOBIL OIL CANADA LTD.  :COMPANY
WELL.  MOBIL CLARKE OV 5-32   :WELL
FLD.   CLARKE                 :FIELD
LOC.   05-32-089-08W4         :LOCATION
CTRY.  CANADA                 :COUNTRY
PROV.  ALBERTA                :PROVINCE
SRVC.  SCHLUMBERGER           :SERVICE COMPANY
DATE.  04-MAR-81              :LOG DATE
UWI.   AA/05-32-089-08W400    :UNIQUE WELL ID
~Parameter Information Block
#MNEM.UNIT       Data                        Description of Mnemonic
#----.----      -------------------------- : -----------------------------
RUN .                   1                 : Run Number
GL  .M           391.1000                 : Ground Level Elevation
DREF.                  KB                 : Depth Reference
EREF.M           394.5000                 : Elevation of Depth Reference
TDL .M           176.5000                 : Total Depth Logger
TDD .M           174.0000                 : Total Depth Driller
CSGL.M            16.0000                 : Casing Bottom Logger
CSGD.M            14.6000                 : Casing Bottom Driller
CSGS.MM          219.0000                 : Casing Size
CSGW.KG/M          0.0000                 : Casing Weight
BHT .DEGC         23.0000                 : Bottom Hole Temperature
BS  .MM          159.0000                 : Bit Size
DFD .           1110.0000                 : Mud Weight (Density)
DFV .             90.0000                 : Mud Viscosity
DFPH.             10.0000                 : Mud pH
RM  .OHMM          1.9600                 : Mud Resistivity
RMT .DEGC         20.0000                 : Mud Resistivity Temperature
~Curve Information Block
#MNEM.UNIT        API CODE    Curve Description
#---------    ------------    -------------------------------------------
DEPT.M                    :   DEPTH
CALI.MM       42 280  1  1:   3 DENSITY CALIPER
DPHI.V/V                  :   DPHI
DT  .US/M     60 520  0  1:   2 SONIC INTERVAL TRANSIT TIME (COMPENSATED)
GR  .GAPI     42 310  1  1:   4 GAMMA RAY
ILD .OHMM      5 120 46  1:   6 DEEP INDUCTION
ILM .OHMM      5 120 44  1:   7 MEDIUM INDUCTION
NPHI.V/V                  :   NPHI
RHOB.K/M3     42 350  1  1:   5 BULK DENSITY
SFLU.OHMM      5 220  1  1:   8 FOCUSSED RESISTIVITY
SP  .MV        5  10  1  1:   9 SPONTANEOUS POTENTIAL
~A  Depth           CALI        DPHI          DT          GR         ILD         ILM        NPHI        RHOB        SFLU          SP
# ...
90.3000         171.1250      0.2288    528.3600     83.7300     10.8600      9.9044      0.3667   2310.0000     16.5894    -94.5000
90.4000         167.2750      0.2307    538.5600     82.8750     12.0179     10.5640      0.3632   2268.0000     11.6904    -95.7600
90.5000         167.2750      0.2294    541.0800     82.0500     12.0179     10.5640      0.3618   2268.0000     11.6904    -95.7600
90.6000         167.2750      0.2283    542.8800     81.1800     12.7008     11.1643      0.3624   2275.0000     10.3712    -97.0050
90.7000         167.2750      0.2361    543.8000     82.6050     12.7008     11.1643      0.3667   2275.0000     10.3712    -97.0050
90.8000         166.0000      0.2345    543.4800     84.6300     12.1291     11.2676      0.3718   2253.0000     12.1291    -99.0000
90.9000         166.0000      0.2357    543.0000     86.6550     12.1291     11.2676      0.3747   2253.0000     12.1291    -99.0000
91.0000         166.0000      0.2473    547.0000     87.2250     11.7986     10.9605      0.3805   2261.0000     12.1291    -99.0000
91.1000         166.0000      0.2518    546.5600     87.9150     11.7986     10.9605      0.3833   2261.0000     12.1291    -99.0000
91.2000         166.0000      0.2531    545.8000     87.6000     11.5832     10.6618      0.3876   2261.8999     10.8600    -99.0000
91.3000         166.0000      0.2499    545.0400     87.1950     11.5832     10.6618      0.3916   2261.8999     10.8600    -99.0000
91.4000         166.0000      0.2462    544.2400     86.5950     10.8600     10.0886      0.3961   2221.0000     11.3718    -98.7600
91.5000         166.0000      0.2422    543.4000     86.7600     10.8600     10.0886      0.3992   2221.0000     11.3718    -98.7600
91.6000         169.8250      0.2406    542.5600     87.1050     10.8600     10.0886      0.4012   2235.0000     11.3718    -98.7600
91.7000         169.8250      0.2409    541.3600     88.1250     10.8600     10.0886      0.4021   2235.0000     11.3718    -98.7600
91.8000         172.3750      0.2487    539.3600     90.1650     10.5640      9.4587      0.4003   2255.0000     11.9078    -98.0100
91.9000         172.3750      0.2544    535.4400     91.6050     10.5640      9.4587      0.3992   2255.0000     11.9078    -98.0100
92.0000         168.5500      0.2629    532.7200     91.2600     10.7604      8.8681      0.3976   2203.0000      7.6530    -94.0050
92.1000         168.5500      0.2689    531.3600     90.9900     10.7604      8.8681      0.3931   2203.0000      7.6530    -94.0050
92.2000         166.0000      0.2721    544.3200     90.7950     11.1643      9.2860      0.3900   2202.0000      7.1751    -95.0100
92.3000         166.0000      0.2745    564.0000     90.6300     11.1643      9.2860      0.3851   2202.0000      7.1751    -95.0100
92.4000         164.7500      0.2747    591.8000     90.4200     11.3718      9.9961      0.3825   2207.0000      8.1626    -99.0000
92.5000         164.7500      0.2748    601.3200     94.4100     11.3718      9.9961      0.3802   2207.0000      8.1626    -99.0000
92.6000         164.7500      0.2738    610.8400    100.1100     11.4770     10.9605      0.3782   2182.0000     10.4672   -104.0100
92.7000         164.7500      0.2735    615.6800    102.9900     11.4770     10.9605      0.3762   2182.0000     10.4672   -104.0100
92.8000         164.7500      0.2724    616.0400    105.5550     10.8600     11.7986      0.3779   2181.0000     23.7591   -110.7600
92.9000         164.7500      0.2739    585.6400    107.1000     10.8600     11.7986      0.3841   2181.0000     23.7591   -110.7600
93.0000         174.9250      0.2686    553.0000    107.5350     10.7604     10.4672      0.3909   2208.0000     36.2936   -111.0000
93.1000         174.9250      0.2560    520.3600    107.8350     10.7604     10.4672      0.4003   2208.0000     36.2936   -111.0000
93.2000         174.9250      0.2326    500.0800    103.9500     10.8600      8.9501      0.4149   2274.0000     20.5036   -106.7550
93.3000         174.9250      0.2150    481.4800     98.3550     10.8600      8.9501      0.4310   2274.0000     20.5036   -106.7550
93.4000         174.9250      0.2071    483.2800     90.1500     11.6904      8.8681      0.4262   2315.0000      5.4933    -95.5050
93.5000         174.9250      0.2161    495.1200     81.2550     11.6904      8.8681      0.4171   2315.0000      5.4933    -95.5050
93.6000         167.2750      0.2500    501.2000     74.3250     12.2414      9.6345      0.3961   2278.0000      6.0232    -94.2600
93.7000         167.2750      0.2612    501.2000     70.6200     12.2414      9.6345      0.3828   2278.0000      6.0232    -94.2600
93.8000         163.4500      0.2695    512.7600     68.3400     12.4690     10.9605      0.3785   2211.0000      7.3085    -96.0000
93.9000         163.4500      0.2693    518.9200     67.3350     12.4690     10.9605      0.3756   2211.0000      7.3085    -96.0000
94.0000         163.4500      0.2670    514.4800     69.2400     14.7174     15.9893      0.3726   2208.0000     18.6995   -104.5050
94.1000         163.4500      0.2622    505.5600     72.3000     14.7174     15.9893      0.3696   2208.0000     18.6995   -104.5050
94.2000         164.7500      0.2572    500.3200     76.9050     16.2866     18.1899      0.3649   2210.0000     39.0688   -109.0050
94.3000         164.7500      0.2527    500.3200     81.3150     16.2866     18.1899      0.3627   2210.0000     39.0688   -109.0050
94.4000         164.7500      0.2495    494.4400     83.8350     18.3582     19.4013      0.3606   2210.0000     54.9326   -109.7550
94.5000         164.7500      0.2433    487.4400     84.6450     18.3582     19.4013      0.3593   2210.0000     54.9326   -109.7550
94.6000         166.0000      0.2372    481.6800     85.5900     20.8848     18.0231      0.3576   2243.0000     28.8290   -111.0000
94.7000         166.0000      0.2387    475.9200     85.4100     20.8848     18.0231      0.3558   2243.0000     28.8290   -111.0000
94.8000         168.5500      0.2435    472.3200     85.0500     20.1294     16.8978      0.3574   2266.0000     18.1899   -111.5100
94.9000         168.5500      0.2406    469.2000     84.6900     20.1294     16.8978      0.3591   2266.0000     18.1899   -111.5100
95.0000         164.7500      0.2357    467.5200     84.3300     18.5281     15.9893      0.3619   2261.8999     13.4224   -110.7600
95.1000         164.7500      0.2347    466.5200     83.8050     18.5281     15.9893      0.3662   2261.8999     13.4224   -110.7600
95.2000         163.4500      0.2391    466.1600     83.2950     15.5536     15.2697      0.3702   2268.0000     16.4373   -109.0050
95.3000         163.4500      0.2392    468.1600     82.7850     15.5536     15.2697      0.3739   2268.0000     16.4373   -109.0050
95.4000         164.7500      0.2348    470.6400     85.2450     14.7174     14.5824      0.3767   2281.0000     21.0780   -109.7550
95.5000         164.7500      0.2307    471.4400     87.5100     14.7174     14.5824      0.3779   2281.0000     21.0780   -109.7550
95.6000         163.4500      0.2256    471.6800     89.3400     14.5824     13.6719      0.3783   2247.0000     20.1294   -110.0100
95.7000         163.4500      0.2214    470.0400     89.6550     14.5824     13.6719      0.3774   2247.0000     20.1294   -110.0100
95.8000         162.1750      0.2207    469.3600     89.9400     14.7174     13.1774      0.3762   2253.0000     15.1297   -111.2550
95.9000         162.1750      0.2258    472.4400     89.1600     14.7174     13.1774      0.3749   2253.0000     15.1297   -111.2550
96.0000         162.1750      0.2311    474.3600     88.4550     14.9910     13.4224      0.3722   2277.0000     14.3163   -116.2500
96.1000         162.1750      0.2399    475.0800     87.6600     14.9910     13.4224      0.3687   2277.0000     14.3163   -116.2500
96.2000         162.1750      0.2467    473.7200     86.8500     14.8535     13.4224      0.3675   2268.0000     16.8978   -118.7550
96.3000         162.1750      0.2453    472.5600     86.0400     14.8535     13.4224      0.3719   2268.0000     16.8978   -118.7550
