~VERSION INFORMATION
 VERS.                 2.0:   CWLS LOG ASCII STANDARD -VERSION 2.0
 WRAP.                  NO:   ONE LINE PER DEPTH STEP
~WELL INFORMATION BLOCK
#MNEM.UNIT           DATA                    DESCRIPTION OF MNEMONIC
#---------    -------------------            -------------------------------
# Generated from Intellog Unique Number	CN_94_101/WELL/3240
WELL.         07-25-096-09W4                 : Well_name    - WELL
LOC .         AA/07-25-096-09W4/0            : Location     - LOCATION
UWI .         AA/07-25-096-09W400            : Uwi          - UNIQUE WELL ID
ENTR.         JOETTE                         : Entered      - ENTERED BY
SRVC.         SCHLUMBERGER                   : Scn          - SERVICE COMPANY
DATE.         07\20\92                       : Date         - LOG DATE
STRT.M        0                              : top_depth    - START DEPTH
STOP.M        100                            : bot_depth    - STOP DEPTH
STEP.M        0.25                           : increment    - STEP LENGTH
 NULL. -999.2500:NULL Value
~CURVE INFORMATION BLOCK
#MNEM UNIT       ERCB CURVE CODE    CURVE DESCRIPTION
#-----------   ------------------   ----------------------------------
DEPT.M        00 001 00 00         : DEPTH        - DEPTH
GR  .API      00 310 00 00         : GR           - GAMMA RAY
RHOB.KG/M3    00 350 00 00         : DENS         - BULK DENSITY
NPHI.V/V      00 330 00 00         : PHIN         - NEUTRON POROSITY (SANDSTONE)
ILD .OHMM     00 120 00 00         : RESD         - DEEP RESISTIVITY (DIL)
DPHI.V/V      00 890 00 00         : PHID         - DENSITY POROSITY (SANDSTONE)
~PARAMETER INFORMATION
#MNEM.UNIT           DATA             DESCRIPTION OF MNEMONIC
#---------         -----------     ------------------------------
GL  .M        288.69               : gl           - GROUND LEVEL ELEVATION
EREF.M        288.69               : kb           - ELEVATION OF DEPTH REFERENCE
DATM.M        288.69               : datum        - DATUM ELEVATION
TDD .M        107.8                : tdd          - TOTAL DEPTH DRILLER
RUN .         ONE                  : Run          - RUN NUMBER
ENG .         JO                   : Engineer     - RECORDING ENGINEER
WIT .         TIM                  : Witness      - WITNESSED BY
MUD .         GEL                  : Mud_type     - MUD TYPE
MATR.         SANDSTONE            : Logunit      - NEUTRON MATRIX
TMAX.C        5                    : BHT          - MAXIMUM RECORDED TEMPERATURE
BHTD.M        107.8                : BHTDEP       - MAXIMUM RECORDED TEMPERATURE
RMT .C        5                    : MDTP         - TEMPERATURE OF MUD
MUDD.KG/M     1000                 : MWT          - MUD DENSITY
NEUT.         1                    : NEUTRON      - NEUTRON TYPE
RESI.         0                    : RESIST       - RESISTIVITY TYPE
RM  .OHMM     5                    : RM           - RESISTIVITY OF MUD
RMC .OHMM     5                    : RMC          - RESISTIVITY OF MUD CAKE
RMF .OHMM     5                    : RMF          - RESISTIVITY OF MUD FILTRATE
SUFT.C        4                    : SUFT         - SURFACE TEMPERATURE
~A  DEPTH       GR     DENS     PHIN     RESD     PHID
    0.000    8.653 2006.160    0.601    0.000    0.390
    0.250    5.878 2000.480    0.601    0.000    0.394
    0.500    4.050 1992.780    0.601    0.000    0.398
    0.750    2.713 1985.030    0.600    0.000    0.403
    1.000    2.335 1973.240    0.600    0.000    0.410
    1.250    2.928 1953.400    0.600    0.000    0.422
    1.500    2.538 1917.380    0.600    0.000    0.444
    1.750    2.652 1877.270    0.601    0.000    0.468
    2.000    3.220 1964.720    0.600    0.000    0.415
    2.250    9.577 1983.360    0.600    0.000    0.404
    2.500   14.951 2066.670    0.571    0.000    0.354
    2.750   19.833 2637.730    0.554    0.000    0.007
    3.000   21.864 2852.600    0.526    0.000   -0.123
    3.250   20.048 2885.400    0.517    0.000   -0.143
    3.500   21.121 2897.920    0.514    0.000   -0.150
    3.750   19.771 2920.550    0.509    0.000   -0.164
    4.000   18.914 2884.540    0.506    0.000   -0.142
    4.250   15.660 2870.770    0.505    0.000   -0.134
    4.500   17.679 2877.220    0.500    0.000   -0.138
    4.750   20.656 2851.320    0.509    0.000   -0.122
    5.000   23.646 2839.570    0.517    0.000   -0.115
    5.250   25.664 2844.000    0.518    0.000   -0.118
    5.500   24.328 2836.300    0.518    0.000   -0.113
    5.750   20.115 2858.930    0.521    0.000   -0.127
    6.000   24.530 2847.190    0.526    0.000   -0.120
    6.250   28.958 2849.650    0.523    0.000   -0.121
    6.500   30.018 2856.050    0.530    0.000   -0.125
    6.750   41.156 2862.550    0.529    0.000   -0.129
    7.000   46.038 2856.870    0.533    0.000   -0.125
    7.250   40.375 2839.010    0.537    0.000   -0.115
    7.500   36.642 2788.790    0.530    4.873   -0.084
    7.750   38.181 2645.530    0.521   10.866    0.003
    8.000   32.051 2178.440    0.508   26.989    0.286
    8.250   28.318 2019.000    0.502   32.031    0.382
    8.500   26.515 2003.160    0.498   31.644    0.392
    8.750   24.699 2046.110    0.497   31.231    0.366
    9.000   26.238 2034.320    0.493   38.235    0.373
    9.250   24.889 2054.930    0.489   48.270    0.361
    9.500   24.044 2063.410    0.483   57.324    0.356
    9.750   23.174 2118.450    0.472   57.508    0.322
   10.000   22.809 2203.830    0.457   36.338    0.270
   10.250   26.732 2222.420    0.447   19.691    0.259
   10.500   47.961 2220.790    0.458    7.729    0.260
   10.750   59.553 2253.580    0.479    6.853    0.240
   11.000   58.696 2280.260    0.499    8.536    0.224
   11.250   37.215 2126.840    0.496    9.230    0.317
   11.500   24.388 2050.380    0.488    9.690    0.363
   11.750   20.163 2030.490    0.478    9.567    0.375
   12.000   26.974 2041.040    0.478    9.298    0.369
   12.250   32.827 2108.170    0.483    9.043    0.328
   12.500   40.623 2167.260    0.487    9.069    0.293
   12.750   38.315 2192.010    0.487    9.518    0.278
   13.000   36.512 2182.280    0.485    9.992    0.283
   13.250   37.080 2186.670    0.479   10.818    0.281
   13.500   37.206 2199.190    0.476   11.014    0.273
   13.750   36.816 2175.310    0.477    8.769    0.288
   14.000   51.296 2228.280    0.471    7.537    0.256
   14.250   49.480 2244.900    0.479    8.038    0.246
   14.500   46.226 2255.440    0.484    8.569    0.239
   14.750   36.729 2154.610    0.479    9.280    0.300
   15.000   34.434 2140.790    0.476   11.534    0.309
   15.250   28.796 2203.930    0.482   40.171    0.270
   15.500   24.596 2143.640    0.480   53.141    0.307
   15.750   24.193 2073.190    0.478   59.309    0.350
   16.000   20.939 2118.120    0.474   50.992    0.322
   16.250   26.312 2134.740    0.469   34.805    0.312
   16.500   31.220 2120.920    0.469   29.924    0.321
   16.750   34.663 2169.890    0.479   42.081    0.291
   17.000   33.352 2204.660    0.484   65.877    0.270
   17.250   28.156 2132.190    0.484   72.448    0.314
   17.500   24.914 2114.380    0.477   44.407    0.325
   17.750   28.850 2114.770    0.476   25.993    0.324
   18.000   36.141 2232.510    0.476   19.461    0.253
   18.250   43.911 2240.980    0.483   17.254    0.248
   18.500   44.492 2291.980    0.485   12.337    0.217
   18.750   51.316 2318.660    0.480   11.283    0.201
   19.000   52.389 2308.940    0.483   10.155    0.207
   19.250   55.366 2305.330    0.484   10.026    0.209
   19.500   53.058 2263.240    0.486   11.026    0.234
   19.750   54.610 2265.650    0.485   11.755    0.233
   20.000   50.385 2266.040    0.478   12.919    0.233
   20.250   53.362 2329.120    0.472    9.240    0.194
   20.500   62.116 2305.240    0.474    8.846    0.209
   20.750   65.094 2293.490    0.490    8.598    0.216
   21.000   59.922 2287.810    0.486    8.753    0.220
   21.250   49.946 2308.470    0.478    9.924    0.207
   21.500   39.010 2270.340    0.466   13.747    0.230
   21.750   29.512 2203.980    0.461   22.192    0.270
   22.000   26.271 2121.400    0.456   35.280    0.320
   22.250   33.096 2101.610    0.462   29.414    0.332
   22.500   50.452 2126.220    0.476   17.760    0.317
   22.750   60.619 2235.870    0.483    9.053    0.251
   23.000   61.225 2260.580    0.492    8.801    0.236
   23.250   56.520 2256.920    0.492    8.557    0.238
   23.500   57.101 2291.690    0.484    8.193    0.217
   23.750   56.231 2286.060    0.490    7.378    0.221
   24.000   64.972 2266.170    0.495    7.744    0.233
   24.250   55.488 2252.400    0.492    8.779    0.241
   24.500   44.552 2194.090    0.482   10.426    0.276
   24.750   34.575 2194.480    0.471   10.786    0.276
   25.000   43.809 2257.610    0.469    9.861    0.238
   25.250   43.897 2264.110    0.477    9.729    0.234
   25.500   43.532 2268.500    0.475    9.909    0.231
   25.750   43.621 2276.970    0.463    9.490    0.226
   26.000   45.160 2301.730    0.460    9.811    0.211
   26.250   36.154 2312.230    0.460   11.288    0.205
   26.500   32.421 2263.980    0.456   16.119    0.234
   26.750   31.097 2207.780    0.463   17.451    0.268
   27.000   31.186 2165.600    0.470   23.071    0.294
   27.250   26.986 2180.200    0.468   15.512    0.285
   27.500   31.401 2210.920    0.463   12.740    0.266
   27.750   38.200 2235.580    0.467   13.578    0.251
   28.000   38.301 2159.110    0.479   16.120    0.298
   28.250   27.391 2092.710    0.479   18.852    0.338
   28.500   27.026 2080.960    0.472   19.490    0.345
   28.750   29.511 2158.250    0.471   23.138    0.298
   29.000   26.736 2166.730    0.468   29.221    0.293
   29.250   24.441 2219.750    0.457   21.871    0.261
   29.500   26.447 2264.630    0.449   22.626    0.234
   29.750   27.507 2218.500    0.456   21.983    0.262
   30.000   26.650 2139.960    0.473   18.901    0.309
   30.250   27.230 2170.690    0.474   20.157    0.290
   30.500   32.137 2181.240    0.474   26.656    0.284
   30.750   34.648 2199.830    0.474   31.154    0.273
   31.000   32.340 2151.630    0.473   29.826    0.302
   31.250   32.920 2141.950    0.473   21.656    0.308
   31.500   33.022 2140.310    0.471   18.913    0.309
   31.750   34.574 2219.580    0.465   18.382    0.261
   32.000   29.390 2199.740    0.463   17.072    0.273
   32.250   26.136 2198.110    0.464   17.917    0.274
   32.500   25.783 2149.910    0.464   22.970    0.303
   32.750   27.297 2124.050    0.462   23.386    0.319
   33.000   25.986 2140.570    0.468   22.062    0.309
   33.250   25.103 2145.100    0.468   22.454    0.306
   33.500   25.205 2139.370    0.467   22.861    0.309
   33.750   27.715 2172.120    0.467   24.758    0.290
   34.000   26.858 2136.100    0.467   25.198    0.311
   34.250   26.013 2154.690    0.465   21.347    0.300
   34.500   26.089 2199.620    0.464   22.752    0.273
   34.750   26.191 2151.420    0.465   25.785    0.302
   35.000   23.429 2149.780    0.461   29.242    0.303
   35.250   24.009 2138.040    0.460   30.711    0.310
   35.500   20.743 2164.720    0.464   30.310    0.294
   35.750   23.253 2136.840    0.465   27.712    0.311
   36.000   25.751 2131.210    0.462   27.359    0.314
   36.250   27.290 2105.250    0.465   30.554    0.330
