~VERSION INFORMATION
 VERS.                 2.0:   CWLS LOG ASCII STANDARD -VERSION 2.0
 WRAP.                  NO:   ONE LINE PER DEPTH STEP
~WELL INFORMATION BLOCK
#MNEM.UNIT           DATA                    DESCRIPTION OF MNEMONIC
#---------    -------------------            -------------------------------
# Generated from Intellog Unique Number	CX_WELLS/WELL/3828
WELL.         ALGOR RIVER                    : Well_name    - WELL
LOC .         AA/04-18-086-15W4/0            : Location     - LOCATION
UWI .         AA/04-18-086-15W400            : Uwi          - UNIQUE WELL ID
ENTR.         T                              : Entered      - ENTERED BY
SRVC.         SCHLUMBERGER                   : Scn          - SERVICE COMPANY
DATE.         03/06/92                       : Date         - LOG DATE
STRT.F        200                            : top_depth    - START DEPTH
STOP.F        779.888                        : bot_depth    - STOP DEPTH
STEP.F        0.82                           : increment    - STEP LENGTH
 NULL. -999.2500:NULL Value
~CURVE INFORMATION BLOCK
#MNEM UNIT       ERCB CURVE CODE    CURVE DESCRIPTION
#-----------   ------------------   ----------------------------------
DEPT.F        00 001 00 00         : DEPTH        - DEPTH
GR  .API      00 310 00 00         : GR           - GAMMA RAY
NPHI.V/V      00 330 00 00         : PHIN         - NEUTRON POROSITY (SANDSTONE)
ILD .OHMM     00 120 00 00         : RESD         - DEEP RESISTIVITY (DIL)
~PARAMETER INFORMATION
#MNEM.UNIT           DATA             DESCRIPTION OF MNEMONIC
#---------         -----------     ------------------------------
GL  .F        1671.9               : gl           - GROUND LEVEL ELEVATION
EREF.F        1671.9               : kb           - ELEVATION OF DEPTH REFERENCE
DATM.F        1671.9               : datum        - DATUM ELEVATION
TDD .F        793                  : tdd          - TOTAL DEPTH DRILLER
RUN .         ONE                  : Run          - RUN NUMBER
ENG .         JO                   : Engineer     - RECORDING ENGINEER
WIT .         TIM                  : Witness      - WITNESSED BY
MUD .         GEL                  : Mud_type     - MUD TYPE
MATR.         SANDSTONE            : Logunit      - NEUTRON MATRIX
TMAX.F        50                   : BHT          - MAXIMUM RECORDED TEMPERATURE
BHTD.F        793                  : BHTDEP       - MAXIMUM RECORDED TEMPERATURE
RMT .F        62                   : MDTP         - TEMPERATURE OF MUD
MUDD.LB/G     9                    : MWT          - MUD DENSITY
NEUT.         1                    : NEUTRON      - NEUTRON TYPE
RESI.         0                    : RESIST       - RESISTIVITY TYPE
RM  .OHMM     7.78                 : RM           - RESISTIVITY OF MUD
RMC .OHMM     7.78                 : RMC          - RESISTIVITY OF MUD CAKE
RMF .OHMM     7.78                 : RMF          - RESISTIVITY OF MUD FILTRATE
SUFT.F        39.2                 : SUFT         - SURFACE TEMPERATURE
~A  DEPTH       GR     PHIN     RESD
  200.000   89.551    0.402   21.175
  200.820   96.437    0.412   18.642
  201.640   97.069    0.422   14.923
  202.461  101.120    0.433   13.413
  203.281  107.983    0.444   11.398
  204.101  112.011    0.456    9.895
  204.921  117.163    0.462   10.266
  205.741  119.528    0.456   10.993
  206.562  120.184    0.452   11.194
  207.382  120.277    0.453   11.210
  208.202  119.245    0.456   11.069
  209.022  121.610    0.456   10.263
  209.843  122.242    0.456    9.945
  210.663  122.897    0.457    9.457
  211.483  121.304    0.458    8.991
  212.303  118.609    0.447    9.006
  213.123  117.531    0.426   10.748
  213.944  114.274    0.403   14.031
  214.764  101.999    0.390   15.247
  215.584   99.797    0.376   16.641
  216.404   87.521    0.365   19.405
  217.224   83.656    0.360   20.473
  218.045   75.316    0.357   19.303
  218.865   70.373    0.370   18.993
  219.685   70.442    0.401   18.001
  220.505   76.719    0.397   16.320
  221.325   86.393    0.389   15.172
  222.146   91.545    0.385   15.699
  222.966   95.597    0.381   22.560
  223.786   82.760    0.372   23.784
  224.606   80.018    0.361   22.970
  225.427   66.596    0.353   22.481
  226.247   55.421    0.356   22.519
  227.067   48.768    0.359   23.735
  227.887   50.571    0.361   23.780
  228.707   51.788    0.361   22.959
  229.528   51.881    0.361   22.292
  230.348   51.951    0.365   21.641
  231.168   49.256    0.369   22.012
  231.988   47.663    0.379   23.754
  232.808   50.028    0.381   22.762
  233.629   50.660    0.379   22.282
  234.449   51.877    0.377   22.490
  235.269   53.680    0.378   22.691
  236.089   54.897    0.381   22.543
  236.909   52.764    0.385   23.093
  237.730   51.148    0.388   23.805
  238.550   51.241    0.394   24.517
  239.370   55.269    0.398   20.628
  240.190   60.445    0.405   16.553
  241.010   63.325    0.407   14.880
  241.831   65.714    0.399   13.880
  242.651   65.783    0.395   12.385
  243.471   62.503    0.389   12.593
  244.291   59.223    0.387   12.779
  245.112   54.233    0.387   12.654
  245.932   50.953    0.382   12.684
  246.752   51.046    0.379   16.642
  247.572   51.139    0.374   17.694
  248.392   51.817    0.368   17.376
  249.213   54.136    0.365   14.502
  250.033   50.856    0.366   13.518
  250.853   49.309    0.375   12.178
  251.673   54.438    0.386   11.364
  252.493   60.176    0.391   11.557
  253.314   60.246    0.384   12.269
  254.134   57.551    0.383   14.011
  254.954   55.395    0.387   17.968
  255.774   56.636    0.391   22.607
  256.594   57.245    0.395   25.712
  257.415   53.964    0.350   26.943
  258.235   43.399    0.341   27.833
  259.055   42.344    0.332   29.397
  259.875   46.373    0.322   29.768
  260.696   50.986    0.332   30.480
  261.516   52.227    0.334   34.437
  262.336   48.947    0.329   34.638
  263.156   46.206    0.321   34.839
  263.976   46.299    0.318   35.210
  264.797   44.728    0.318   35.581
  265.617   42.526    0.322   36.145
  266.437   37.559    0.331   36.161
  267.257   35.427    0.338   36.369
  268.077   34.372    0.348   36.400
  268.898   35.050    0.354   36.430
  269.718   35.682    0.353   36.120
  270.538   35.798    0.349   36.142
  271.358   35.915    0.346   35.677
  272.178   36.547    0.342   35.529
  272.999   38.888    0.343   35.567
  273.819   44.041    0.345   35.582
  274.639   49.217    0.347   35.442
  275.459   52.121    0.346   34.962
  276.280   51.090    0.342   34.310
  277.100   46.685    0.338   30.414
  277.920   41.718    0.339   28.911
  278.740   39.539    0.342   32.527
  279.560   39.070    0.343   33.417
  280.381   40.896    0.343   32.077
  281.201   41.528    0.344   28.010
  282.021   41.082    0.348   24.796
  282.841   41.152    0.364   23.470
  283.661   42.369    0.382   23.152
  284.482   44.711    0.368   22.501
  285.302   43.703    0.353   22.198
  286.122   39.837    0.354   22.229
  286.942   36.018    0.355   22.267
  287.762   33.277    0.355   22.119
  288.583   31.706    0.355   21.972
  289.403   30.675    0.352   21.847
  290.223   29.643    0.347   21.877
  291.043   30.275    0.341   21.908
  291.864   32.640    0.339   21.768
  292.684   33.858    0.337   21.294
  293.504   33.412    0.338   20.806
  294.324   33.505    0.343   20.488
  295.144   34.137    0.354   20.007
  295.965   34.815    0.357   20.038
  296.785   35.447    0.352   20.238
  297.605   37.227    0.348   20.447
  298.425   39.029    0.353   20.818
  299.245   40.247    0.359   21.027
  300.066   38.700    0.360   21.212
  300.886   38.207    0.360   21.258
  301.706   37.738    0.355   21.110
  302.526   37.269    0.350   21.148
  303.346   36.776    0.337   21.357
  304.167   35.206    0.329   21.372
  304.987   36.446    0.323   21.402
  305.807   38.179    0.324   21.270
  306.627   39.397    0.334   21.308
  307.448   38.389    0.341   21.153
  308.268   38.482    0.350   20.346
  309.088   38.575    0.353   20.028
  309.908   39.839    0.353   19.888
  310.728   40.470    0.354   20.771
  311.549   41.664    0.352   21.490
  312.369   42.905    0.350   21.188
  313.189   42.436    0.350   21.040
  314.009   41.381    0.350   20.900
  314.829   39.225    0.348   20.938
  315.650   38.779    0.343   20.961
  316.470   39.458    0.337   20.991
  317.290   39.504    0.329   20.518
  318.110   40.183    0.338   20.192
  318.930   40.861    0.342   20.060
  319.751   39.268    0.349   20.431
  320.571   37.089    0.360   20.454
  321.391   36.057    0.365   20.500
  322.211   36.736    0.368   20.345
  323.031   36.243    0.365   20.212
  323.852   35.258    0.363   20.242
  324.672   34.180    0.363   20.273
  325.492   33.711    0.364   20.303
  326.312   34.975    0.365   20.341
  327.133   36.708    0.365   20.194
  327.953   39.612    0.363   20.061
  328.773   43.687    0.361   19.751
  329.593   43.241    0.360   19.611
  330.413   41.624    0.358   19.463
  331.234   40.569    0.356   19.168
  332.054   37.851    0.353   19.021
  332.874   36.820    0.351   18.710
  333.694   38.037    0.349   18.741
  334.514   40.402    0.348   18.771
  335.335   41.034    0.344   18.794
  336.155   42.298    0.353   18.832
  336.975   41.290    0.359   18.529
  337.795   40.212    0.364   18.381
  338.615   40.328    0.364   18.241
  339.436   42.670    0.364   18.109
  340.256   43.302    0.367   18.310
  341.076   44.519    0.374   18.340
  341.896   42.386    0.381   18.038
  342.717   39.669    0.384   17.882
  343.537   38.614    0.376   17.920
  344.357   37.020    0.371   17.943
  345.177   35.989    0.376   18.314
  345.997   35.566    0.383   18.686
  346.818   35.636    0.385   19.242
  347.638   36.291    0.382   19.102
  348.458   38.071    0.376   18.962
  349.278   39.850    0.364   19.000
  350.098   39.381    0.356   18.853
  350.919   37.225    0.354   18.705
  351.739   35.632    0.352   18.573
  352.559   36.333    0.348   18.441
  353.379   37.527    0.346   18.456
  354.199   39.330    0.346   18.331
  355.020   39.377    0.353   18.183
  355.840   39.469    0.356   18.043
  356.660   40.125    0.358   17.896
  357.480   40.803    0.358   17.601
  358.301   39.795    0.356   17.445
  359.121   37.100    0.356   17.313
  359.941   36.022    0.363   17.521
  360.761   33.304    0.369   18.063
  361.581   31.711    0.378   18.442
  362.402   31.288    0.380   18.457
  363.222   31.334    0.367   18.495
  364.042   32.575    0.359   18.688
  364.862   33.207    0.345   20.267
  365.682   33.346    0.336   20.631
  366.503   33.416    0.334   20.499
  367.323   32.924    0.338   19.855
  368.143   33.625    0.341   19.707
  368.963   37.045    0.342   19.560
  369.783   39.410    0.347   19.420
  370.604   36.692    0.331   20.132
  371.424   34.513    0.302   22.896
  372.244   31.233    0.295   25.320
  373.064   29.077    0.288   23.476
  373.885   27.507    0.281   21.965
  374.705   29.263    0.313   20.462
  375.525   33.877    0.343   20.322
  376.345   38.490    0.347   20.190
  377.165   41.956    0.355   19.716
