~VERSION INFORMATION
 VERS.                 2.0:   CWLS LOG ASCII STANDARD -VERSION 2.0
 WRAP.                  NO:   ONE LINE PER DEPTH STEP
~WELL INFORMATION BLOCK
#MNEM.UNIT           DATA                    DESCRIPTION OF MNEMONIC
#---------    -------------------            -------------------------------
# Generated from Intellog Unique Number	CN_94_101/WELL/1179
WELL.         06-01-097-13W4                 : Well_name    - WELL
LOC .         AA/06-01-097-13W4/0            : Location     - LOCATION
UWI .         AA/06-01-097-13W400            : Uwi          - UNIQUE WELL ID
ENTR.         JOETTE                         : Entered      - ENTERED BY
SRVC.         SCHLUMBERGER                   : Scn          - SERVICE COMPANY
DATE.         08/17/92                       : Date         - LOG DATE
STRT.M        15.24                          : top_depth    - START DEPTH
STOP.M        191.99                         : bot_depth    - STOP DEPTH
STEP.M        0.25                           : increment    - STEP LENGTH
 NULL. -999.2500:NULL Value
~CURVE INFORMATION BLOCK
#MNEM UNIT       ERCB CURVE CODE    CURVE DESCRIPTION
#-----------   ------------------   ----------------------------------
DEPT.M        00 001 00 00         : DEPTH        - DEPTH
ILD .OHMM     00 120 00 00         : RESD         - DEEP RESISTIVITY (DIL)
GR  .API      00 310 00 00         : GR           - GAMMA RAY
NPHI.V/V      00 330 00 00         : PHIN         - NEUTRON POROSITY (SANDSTONE)
~PARAMETER INFORMATION
#MNEM.UNIT           DATA             DESCRIPTION OF MNEMONIC
#---------         -----------     ------------------------------
GL  .M        431.597              : gl           - GROUND LEVEL ELEVATION
EREF.M        431.597              : kb           - ELEVATION OF DEPTH REFERENCE
DATM.M        431.597              : datum        - DATUM ELEVATION
TDD .M        193.243              : tdd          - TOTAL DEPTH DRILLER
RUN .         ONE                  : Run          - RUN NUMBER
ENG .         JO                   : Engineer     - RECORDING ENGINEER
WIT .         TIM                  : Witness      - WITNESSED BY
MUD .         GEL                  : Mud_type     - MUD TYPE
MATR.         SANDSTONE            : Logunit      - NEUTRON MATRIX
TMAX.C        4.44444              : BHT          - MAXIMUM RECORDED TEMPERATURE
BHTD.M        193.243              : BHTDEP       - MAXIMUM RECORDED TEMPERATURE
RMT .C        4.44444              : MDTP         - TEMPERATURE OF MUD
MUDD.KG/M     1200                 : MWT          - MUD DENSITY
NEUT.         1                    : NEUTRON      - NEUTRON TYPE
RESI.         0                    : RESIST       - RESISTIVITY TYPE
RM  .OHMM     0.76                 : RM           - RESISTIVITY OF MUD
RMC .OHMM     0.76                 : RMC          - RESISTIVITY OF MUD CAKE
RMF .OHMM     0.76                 : RMF          - RESISTIVITY OF MUD FILTRATE
SUFT.C        4                    : SUFT         - SURFACE TEMPERATURE
~A  DEPTH     RESD       GR     PHIN
   15.240   32.884   60.681    0.454
   15.490   29.454   56.776    0.473
   15.740   28.416   52.084    0.394
   15.990   34.260   46.990    0.373
   16.240   42.106   48.607    0.358
   16.490   42.937   50.224    0.330
   16.740   58.954   47.098    0.308
   16.990   57.961   46.344    0.290
   17.240   72.525   48.355    0.304
   17.490   94.182   46.805    0.391
   17.740   55.031   47.240    0.385
   17.990   41.703   48.849    0.400
   18.240   34.062   48.883    0.372
   18.490   37.401   46.553    0.341
   18.740   50.440   45.807    0.348
   18.990   57.498   46.234    0.396
   19.240   48.710   46.662    0.381
   19.490   33.639   45.908    0.354
   19.740   30.695   45.145    0.344
   19.990   39.128   42.430    0.372
   20.240   47.189   41.668    0.401
   20.490   49.038   43.276    0.430
   20.740   52.904   42.128    0.435
   20.990   49.179   40.980    0.437
   21.240   50.165   41.022    0.435
   21.490   52.130   42.254    0.446
   21.740   55.188   43.066    0.456
   21.990   59.520   43.485    0.459
   22.240   58.500   47.063    0.471
   22.490   42.715   47.096    0.478
   22.740   32.988   48.714    0.463
   22.990   37.604   51.898    0.457
   23.240   33.062   53.112    0.440
   23.490   26.987   55.509    0.434
   23.740   28.053   52.785    0.472
   23.990   24.665   48.889    0.478
   24.240   20.133   52.081    0.467
   24.490   20.921   54.076    0.452
   24.740   27.169   56.874    0.458
   24.990   22.177   55.332    0.426
   25.240   16.806   52.995    0.421
   25.490   20.262   51.469    0.427
   25.740   18.154   52.282    0.430
   25.990   17.849   52.701    0.439
   26.240   17.214   53.145    0.453
   26.490   15.713   53.572    0.458
   26.740   15.159   54.787    0.472
   26.990   15.179   56.002    0.463
   27.240   15.198   55.248    0.450
   27.490   16.704   55.281    0.444
   27.740   15.237   57.276    0.439
   27.990   12.908   60.862    0.439
   28.240   19.812   62.864    0.445
   28.490   21.775   63.685    0.452
   28.740   15.602   61.758    0.449
   28.990    8.949   79.513    0.459
   29.240   11.625   87.046    0.486
   29.490   13.255   88.261    0.516
   29.740    9.326   87.900    0.500
   29.990    9.516   86.350    0.486
   30.240    9.353   86.400    0.486
   30.490    8.694   87.992    0.540
   30.740    8.231   94.335    0.535
   30.990    9.747   90.430    0.523
   31.240   10.126   81.012    0.496
   31.490    8.903   79.856    0.505
   31.740    9.257   82.654    0.510
   31.990    9.443   82.696    0.501
   32.240    9.449   80.769    0.479
   32.490    8.789   79.998    0.486
   32.740    8.639   78.062    0.503
   32.990    8.652   80.467    0.511
   33.240    8.986   82.855    0.476
   33.490    9.873   84.087    0.474
   33.740    9.710   82.537    0.466
   33.990    8.697   82.184    0.482
   34.240    8.233   80.634    0.529
   34.490    8.880   78.305    0.510
   34.740    8.255   74.015    0.486
   34.990    8.741   76.403    0.473
   35.240    9.090   78.414    0.492
   35.490    8.292   79.628    0.480
   35.740    7.288   80.450    0.444
   35.990    8.157   77.324    0.456
   36.240    8.168   73.419    0.455
   36.490    6.076   73.059    0.516
   36.740    5.971   69.154    0.499
   36.990    6.324   74.316    0.542
   37.240    5.456   77.894    0.572
   37.490    4.622   79.896    0.574
   37.740    5.080   85.451    0.563
   37.990    5.279   87.068    0.557
   38.240    5.386   84.345    0.568
   38.490    5.393   82.401    0.558
   38.740    5.505   80.080    0.558
   38.990    5.614   82.074    0.555
   39.240    5.833   84.470    0.524
   39.490    6.291   85.694    0.512
   39.740    6.415   86.129    0.526
   39.990    6.079   87.738    0.542
   40.240    5.977   88.551    0.527
   40.490    5.981   89.372    0.488
   40.740    5.880   89.414    0.540
   40.990    5.888   89.447    0.539
   41.240    6.350   87.511    0.552
   41.490    6.126   85.190    0.572
   41.740    5.695   86.799    0.545
   41.990    5.811   88.399    0.526
   42.240    6.154   85.684    0.504
   42.490    6.158   84.134    0.498
   42.740    6.052   83.380    0.496
   42.990    5.843   83.413    0.493
   43.240    5.850   82.659    0.514
   43.490    6.195   81.905    0.499
   43.740    6.434   82.332    0.523
   43.990    6.811   83.178    0.536
   44.240    6.332   83.589    0.554
   44.490    6.465   83.237    0.564
   44.740    6.469   81.695    0.556
   44.990    6.243   80.539    0.506
   45.240    5.386   79.391    0.496
   45.490    4.737   83.362    0.519
   45.740    5.016   86.563    0.522
   45.990    5.512   83.438    0.464
   46.240    6.054   81.108    0.462
   46.490    6.411   77.204    0.490
   46.740    6.071   79.608    0.499
   46.990    5.856   78.058    0.503
   47.240    6.932   74.547    0.467
   47.490    7.478   70.257    0.464
   47.740    8.217   71.078    0.453
   47.990    9.194   71.891    0.450
   48.240    7.789   74.287    0.438
   48.490    6.358   79.046    0.459
   48.740    7.252   81.057    0.451
   48.990    8.907   69.662    0.446
   49.240    9.970   64.575    0.441
   49.490   10.756   59.489    0.396
   49.740   12.968   56.372    0.375
   49.990   18.832   53.657    0.372
   50.240   12.527   52.501    0.362
   50.490   10.420   49.778    0.331
   50.740   13.039   49.417    0.352
   50.990   14.599   48.269    0.372
   51.240   13.567   46.342    0.326
   51.490   15.760   48.730    0.324
   51.740   17.003   57.838    0.379
   51.990   11.962   60.620    0.436
   52.240    9.232   63.016    0.473
   52.490   10.337   60.301    0.479
   52.740   13.676   58.751    0.488
   52.990   11.802   67.457    0.482
   53.240    9.634   71.034    0.453
   53.490    8.794   69.895    0.463
   53.740    8.172   72.291    0.483
   53.990    7.055   73.112    0.491
   54.240    7.331   71.570    0.489
   54.490    8.055   72.794    0.483
   54.740    7.771   70.850    0.486
   54.990    7.497   69.308    0.472
   55.240    8.392   73.288    0.472
   55.490    7.803   69.375    0.461
   55.740    7.813   65.864    0.430
   55.990   10.147   62.747    0.403
   56.240   14.202   59.236    0.386
   56.490    8.935   59.663    0.387
   56.740    8.151   68.377    0.417
   56.990    5.527   70.380    0.466
   57.240    4.681   73.162    0.494
   57.490    4.353   73.597    0.500
   57.740    4.694   74.812    0.479
   57.990    4.878   80.359    0.492
   58.240    4.886   81.976    0.521
   58.490    4.802   80.828    0.491
   58.740    4.718   83.233    0.492
   58.990    4.727   85.621    0.517
   59.240    4.821   87.238    0.488
   59.490    5.201   83.718    0.475
   59.740    5.930   79.026    0.478
   59.990    6.163   77.099    0.481
   60.240    5.946   79.881    0.500
   60.490    6.065   79.914    0.461
   60.740    6.186   76.018    0.460
   60.990    6.431   78.012    0.467
   61.240    6.681   80.425    0.468
   61.490    7.077   78.875    0.466
   61.740    6.577   71.032    0.469
   61.990    5.571   71.853    0.438
   62.240    5.377   72.674    0.441
   62.490    6.726   71.526    0.468
   62.740   12.904   64.865    0.460
   62.990   25.697   60.558    0.446
   63.240   20.210   56.653    0.415
   63.490   12.958   53.142    0.368
   63.740   10.775   55.161    0.335
   63.990    7.581   58.731    0.362
   64.240    6.543   61.915    0.423
   64.490    6.082   70.243    0.421
   64.740    7.068   68.693    0.425
   64.990    8.057   67.939    0.445
   65.240    7.352   67.579    0.457
   65.490    6.001   64.453    0.459
   65.740    7.373   64.889    0.457
   65.990    9.056   67.671    0.492
   66.240    8.900   66.129    0.520
   66.490    7.972   63.808    0.450
   66.740    7.838   65.014    0.454
   66.990    9.108   67.813    0.459
   67.240    9.119   65.885    0.455
   67.490    8.015   64.729    0.456
   67.740    6.790   67.134    0.507
   67.990    7.191   67.955    0.522
   68.240    7.200   68.382    0.496
   68.490    6.695   71.180    0.478
   68.740    6.580   70.426    0.479
   68.990    7.368   70.845    0.459
   69.240    7.941   75.605    0.440
