~VERSION INFORMATION
 VERS.                 2.0:   CWLS LOG ASCII STANDARD -VERSION 2.0
 WRAP.                  NO:   ONE LINE PER DEPTH STEP
~WELL INFORMATION BLOCK
#MNEM.UNIT           DATA                    DESCRIPTION OF MNEMONIC
#---------    -------------------            -------------------------------
# Generated from Intellog Unique Number	CN_94_101/WELL/3642
WELL.         08-25-096-13W4                 : Well_name    - WELL
LOC .         AA/08-25-096-13W4/0            : Location     - LOCATION
UWI .         AA/08-25-096-13W400            : Uwi          - UNIQUE WELL ID
ENTR.         J                              : Entered      - ENTERED BY
SRVC.         SCHLUMBERGER                   : Scn          - SERVICE COMPANY
DATE.         08/05/92                       : Date         - LOG DATE
STRT.F        50                             : top_depth    - START DEPTH
STOP.F        739.797                        : bot_depth    - STOP DEPTH
STEP.F        0.8202                         : increment    - STEP LENGTH
 NULL. -999.2500:NULL Value
~CURVE INFORMATION BLOCK
#MNEM UNIT       ERCB CURVE CODE    CURVE DESCRIPTION
#-----------   ------------------   ----------------------------------
DEPT.F        00 001 00 00         : DEPTH        - DEPTH
ILD .OHMM     00 120 00 00         : RESD         - DEEP RESISTIVITY (DIL)
GR  .API      00 310 00 00         : GR           - GAMMA RAY
DPHI.V/V      00 890 00 00         : PHID         - DENSITY POROSITY (SANDSTONE)
~PARAMETER INFORMATION
#MNEM.UNIT           DATA             DESCRIPTION OF MNEMONIC
#---------         -----------     ------------------------------
GL  .M        0                    : gl           - GROUND LEVEL ELEVATION
EREF.M        0                    : kb           - ELEVATION OF DEPTH REFERENCE
DATM.M        0                    : datum        - DATUM ELEVATION
TDD .M        229.972              : tdd          - TOTAL DEPTH DRILLER
RUN .         ONE                  : Run          - RUN NUMBER
ENG .         JO                   : Engineer     - RECORDING ENGINEER
WIT .         TIM                  : Witness      - WITNESSED BY
MUD .         GEL                  : Mud_type     - MUD TYPE
MATR.         SANDSTONE            : Logunit      - NEUTRON MATRIX
TMAX.F        0                    : BHT          - MAXIMUM RECORDED TEMPERATURE
BHTD.F        754.5                : BHTDEP       - MAXIMUM RECORDED TEMPERATURE
RMT .F        0                    : MDTP         - TEMPERATURE OF MUD
MUDD.LB/G     6.9                  : MWT          - MUD DENSITY
NEUT.         1                    : NEUTRON      - NEUTRON TYPE
RESI.         0                    : RESIST       - RESISTIVITY TYPE
RM  .OHMM     0                    : RM           - RESISTIVITY OF MUD
RMC .OHMM     0                    : RMC          - RESISTIVITY OF MUD CAKE
RMF .OHMM     0                    : RMF          - RESISTIVITY OF MUD FILTRATE
SUFT.F        39.2                 : SUFT         - SURFACE TEMPERATURE
~A  DEPTH     RESD       GR     PHID
# ...
  583.957   42.476   35.877    0.308
  584.777   52.159   30.645    0.317
  585.597   94.636   25.818    0.324
  586.417  181.497   22.206    0.334
  587.238  289.148   24.277    0.341
  588.058  289.446   26.332    0.358
  588.878  312.175   27.562    0.366
  589.698  330.492   31.650    0.360
  590.518  330.748   32.491    0.358
  591.339  157.444   30.506    0.352
  592.159   95.469   28.100    0.330
  592.979  106.808   24.091    0.356
  593.799  170.158   21.296    0.362
  594.619  212.869   21.311    0.371
  595.440  152.526   22.565    0.369
  596.260  144.444   23.406    0.368
  597.080  167.760   25.866    0.364
  597.900  194.840   29.946    0.359
  598.720  156.068   40.520    0.323
  599.541   57.279   44.592    0.313
  600.361   26.771   51.108    0.292
  601.181   22.679   55.188    0.270
  602.001   21.077   57.252    0.274
  602.822   19.222   59.712    0.270
  603.642   28.963   60.553    0.265
  604.462   98.851   41.143    0.288
  605.282  114.778   29.029    0.323
  606.102  133.339   27.853    0.352
  606.923  141.127   28.289    0.365
  607.743  124.046   29.130    0.353
  608.563  109.033   31.995    0.344
  609.383   95.837   36.885    0.348
  610.203   90.759   40.171    0.342
  611.024   89.157   43.028    0.304
  611.844   84.412   46.703    0.306
  612.664   57.205   47.552    0.293
  613.484   36.665   48.798    0.289
  614.304   30.489   49.242    0.289
  615.125   27.294   50.083    0.282
  615.945   25.366   45.248    0.296
  616.765   30.583   29.490    0.324
  617.585   41.211   27.092    0.304
  618.406   66.885   31.981    0.291
  619.226   36.940   39.308    0.283
  620.046   22.813   40.157    0.267
  620.866   27.506   37.346    0.288
  621.686   34.410   33.329    0.299
  622.507   44.677   29.311    0.322
  623.327   66.079   26.112    0.329
  624.147  141.708   28.572    0.345
  624.967  124.557   33.057    0.357
  625.787   76.903   39.161    0.318
  626.608   60.466   49.726    0.288
  627.428   28.791   42.470    0.261
  628.248   31.052   35.619    0.298
  629.068   43.426   32.411    0.316
  629.888   71.784   30.013    0.342
  630.709  100.416   28.425    0.342
  631.529   93.345   25.622    0.349
  632.349   91.698   21.605    0.292
  633.169  175.908   18.413    0.180
  633.990  275.016   17.619    0.186
  634.810  285.793   18.063    0.214
  635.630  246.581   20.523    0.260
  636.450  224.999   25.818    0.288
  637.270  242.605   40.432    0.300
  638.091  205.412   43.297    0.292
  638.911   75.389   37.660    0.288
  639.731   67.507   32.023    0.294
  640.551   78.425   27.609    0.294
  641.371   92.792   28.855    0.297
  642.192  100.052   31.315    0.310
  643.012  105.896   34.181    0.323
  643.832  110.046   39.070    0.315
  644.652  110.159   56.113    0.311
  645.472  104.296   46.833    0.309
  646.293   98.744   30.257    0.310
  647.113   80.578   23.810    0.321
  647.933   67.004   18.578    0.331
  648.753   70.917   16.601    0.326
  649.573   69.683   16.617    0.339
  650.394   54.789   19.490    0.344
  651.214   33.828   23.974    0.288
  652.034   18.693   38.184    0.334
  652.854   18.367   56.441    0.372
  653.675   16.751   69.436    0.466
  654.495   11.143   79.994    0.532
  655.315    6.885   89.344    0.455
  656.135    6.889  101.125    0.204
  656.955    6.522  105.204    0.210
  657.776    6.063  108.085    0.213
  658.596    5.957  105.680    0.199
  659.416    5.964   94.772    0.220
  660.236    5.971   84.682    0.264
  661.056    5.549   76.211    0.366
  661.877    4.969   85.157    0.398
  662.697    4.286   90.451    0.353
  663.517    3.498   95.341    0.280
  664.337    3.703   95.372    0.285
  665.157    4.382   89.330    0.282
  665.978    4.995   81.669    0.263
  666.798    6.487   90.210    0.158
  667.618    6.994   93.481    0.165
  668.438    6.873   93.917    0.160
  669.259    6.509   94.353    0.157
  670.079    6.162   97.226    0.169
  670.899    5.834  100.099    0.176
  671.719    5.629  104.981    0.198
  672.539    5.329  111.093    0.199
  673.360    5.335  107.885    0.208
  674.180    5.339  104.677    0.230
  675.000    5.344   96.207    0.225
  675.820    4.787   92.594    0.178
  676.640    4.367   89.791    0.172
  677.461    4.371   90.228    0.163
  678.281    4.626   92.688    0.167
  679.101    4.990  100.015    0.172
  679.921    5.380  107.746    0.174
  680.741    5.386  107.777    0.195
  681.562    5.099  101.736    0.195
  682.382    5.010   97.718    0.190
  683.202    5.109   96.130    0.179
  684.022    5.116  107.092    0.178
  684.843    5.028  109.966    0.211
  685.663    4.940  105.543    0.197
  686.483    4.678  103.550    0.190
  687.303    4.429  109.654    0.213
  688.123    4.271  114.552    0.242
  688.944    4.044  101.620    0.280
  689.764    3.829   87.076    0.297
  690.584    3.978   95.205    0.312
  691.404    4.371   98.078    0.268
  692.224    4.540   92.846    0.176
  693.045    5.082   88.828    0.161
  693.865    5.582   85.216    0.158
  694.685    6.019   84.040    0.136
  695.505    6.253   86.501    0.131
  696.325    6.260   89.366    0.151
  697.146    5.930   88.985    0.162
  697.966    5.823   87.412    0.167
  698.786    5.314   89.468    0.156
  699.606    5.319   91.920    0.157
  700.427    5.631   88.308    0.179
  701.247    5.851   72.549    0.176
  702.067    5.966   51.925    0.163
  702.887    6.086   45.479    0.166
  703.707    6.207   39.032    0.165
  704.528    6.099   34.602    0.157
  705.348    5.991   29.378    0.210
  706.168    5.674   28.195    0.256
  706.988    5.080   27.416    0.254
  707.808    4.635   27.043    0.263
  708.629    4.307   26.272    0.285
  709.449    3.858   25.898    0.277
  710.269    3.519   26.739    0.278
  711.089    3.210   28.795    0.290
  711.909    2.983   31.255    0.256
  712.730    3.276   35.335    0.232
  713.550    3.879   41.447    0.191
  714.370    3.882   48.361    0.180
  715.190    3.886   44.344    0.211
  716.010    4.113   22.512    0.235
  716.831    3.174   19.297    0.278
  717.651    2.688   24.195    0.291
  718.471    2.899   29.084    0.287
  719.291    3.070   20.629    0.284
  720.112    2.960   19.835    0.289
  720.932    2.602   15.817    0.291
  721.752    2.330   12.610    0.297
  722.572    2.333   13.451    0.301
  723.392    2.469   21.182    0.279
  724.213    2.518   23.643    0.274
  725.033    2.616   27.730    0.277
  725.853    2.983   21.292    0.260
  726.673    3.400   12.400    0.243
  727.493    3.405   10.415    0.239
  728.314    3.283   19.353    0.215
  729.134    3.607   19.789    0.212
  729.954    3.890   20.630    0.272
  730.774    4.273   12.977    0.236
  731.594    4.783   13.008    0.221
  732.415    3.759   19.517    0.223
  733.235    3.011   24.812    0.258
  734.055    2.504   21.207    0.285
  734.875    2.907   11.927    0.243
  735.696    4.548    9.116    0.195
  736.516    5.281    8.338    0.165
  737.336    9.761   20.943    0.167
  738.156   10.524   20.943    0.170
  738.976   11.777   17.377    0.155
  739.797   13.682    6.446    0.212
