~Version : LASO    vs 4.00
VERS.                2.00:   CWLS Log ASCII Standard -VERSION 2.0
WRAP.                  NO:
~Well Information Block
#MNEM.UNIT       Data                        Description of Mnemonic
#----.----      -------------------------- : -----------------------------
STRT.M            15.0000:
STOP.M           186.3750:
STEP.M             0.1250:
NULL.           -999.2500:
COMP.  MOBIL OIL OF CANADA                :COMPANY
WELL.  MOBIL CLARKE OV 2-19               :WELL
FLD.                                      :FIELD
LOC.   02-19-090-07W4                     :LOCATION
CTRY.  CANADA                             :COUNTRY
PROV.  ALBERTA                            :PROVINCE
SRVC.  DRESSER ATLAS                      :SERVICE COMPANY
DATE.  24-FEB-81                          :LOG DATE
UWI.   AA/02-19-090-07W400                :UNIQUE WELL ID
~Parameter Information Block
#MNEM.UNIT       Data                        Description of Mnemonic
#----.----      -------------------------- : -----------------------------
RUN .                   1                 : Run Number
GL  .M           444.6000                 : Ground Level Elevation
DREF.                  KB                 : Depth Reference
EREF.M           444.6000                 : Elevation of Depth Reference
TDL .M           186.3000                 : Total Depth Logger
TDD .M           185.0000                 : Total Depth Driller
CSGL.M            14.7000                 : Casing Bottom Logger
CSGD.M            14.7000                 : Casing Bottom Driller
CSGS.MM          219.0000                 : Casing Size
CSGW.KG/M          0.0000                 : Casing Weight
BHT .DEGC         20.0000                 : Bottom Hole Temperature
BS  .MM          159.0000                 : Bit Size
DFD .           9999.0000                 : Mud Weight (Density)
DFV .             90.0000                 : Mud Viscosity
RM  .OHMM          2.5000                 : Mud Resistivity
RMT .DEGC         20.0000                 : Mud Resistivity Temperature
~Curve Information Block
#MNEM.UNIT        API CODE    Curve Description
#---------    ------------    -------------------------------------------
DEPT.M                    :   DEPTH
CALI.MM       42 280  1  1:   3 DENSITY CALIPER
DPHI.V/V                  :   DPHI
DT  .US/M     60 520 32  1:   2 SONIC INTERVAL TRANSIT TIME (COMPENSATED)
GR  .GAPI     42 310  1  1:   4 GAMMA RAY
ILD .OHMM      5 120 45  1:   7 DEEP INDUCTION
NPHI.V/V      42 890  3  1:   5 NEUTRON POROSITY (SANDSTONE)
RHOB.K/M3     42 350  1  1:   6 BULK DENSITY
SN  .OHMM      5  40 16  1:   8 SHORT NORMAL
SP  .MV        5  10  1  1:   9 SPONTANEOUS POTENTIAL
~A  Depth           CALI        DPHI          DT          GR         ILD        NPHI        RHOB          SN          SP
# ...
123.8750        199.7500      0.3084    926.0000     48.3750     17.4100      0.3638   2161.6001     47.3300    -60.0300
124.0000        199.1500      0.3154    926.0800     46.4100     20.5100      0.3476   2162.8999     63.6000    -66.4950
124.1250        198.2500      0.3243    926.1200     44.1450     24.9000      0.3346   2156.2000     68.1500    -68.3550
124.2500        197.9250      0.3317    926.2000     41.5050     28.3850      0.3180   2142.1001     66.9999    -69.0450
124.3750        199.1500      0.3374    926.2400     38.8650     32.9050      0.2801   2123.2000     62.9999    -69.9300
124.5000        199.4500      0.3468    926.3200     35.5200     37.8150      0.2629   2104.3000     60.9000    -71.0850
124.6250        199.4500      0.3557    926.3600     29.6400     39.7500      0.2381   2059.8000     57.3000    -72.1050
124.7500        198.5500      0.3668    926.4400     30.5400     40.3300      0.2254   2028.7000     60.1000    -73.3350
124.8750        197.3250      0.3724    926.2000     32.1450     40.0750      0.2014   2020.8000     74.5500    -74.3700
125.0000        197.6250      0.3762    926.3600     33.7500     39.3000      0.1942   2019.0000     83.6500    -74.6100
125.1250        197.0250      0.3781    918.3600     36.0750     39.2350      0.1954   2022.6000     74.2000    -74.6400
125.2500        196.7250      0.3785    925.1600     35.7900     39.8150      0.2017   2023.2000     66.9500    -74.6700
125.3750        196.7250      0.3769    922.8400     33.1200     40.2650      0.2152   2029.3000     62.2500    -73.5900
125.5000        197.0250      0.3746    915.8800     29.0100     39.8800      0.2190   2037.3000     57.8000    -72.9300
125.6250        197.6250      0.3721    920.8000     26.7150     39.3650      0.2205   2041.5000     53.1000    -72.3600
125.7500        197.9250      0.3708    913.5200     29.0250     38.2650      0.2201   2033.0000     56.4000    -72.9900
125.8750        198.5500      0.3699    902.0800     31.0950     36.7800      0.2197   2016.5000     58.7000    -73.6200
126.0000        199.7500      0.3718    843.6800     33.2100     35.5550      0.2231   2017.1000     58.1500    -73.5900
126.1250        200.0500      0.3772    841.8000     35.5800     34.2600      0.2276   2020.8000     59.1500    -72.4800
126.2500        199.4500      0.3777    813.6400     35.2950     33.2300      0.2340   2029.9000     58.7000    -71.9100
126.3750        198.8500      0.3734    823.4800     34.9800     32.2600      0.2426   2036.6000     54.9500    -71.9550
126.5000        199.7500      0.3705    834.2000     35.4600     31.1650      0.2452   2036.0000     46.3550    -71.9850
126.6250        199.4500      0.3712    809.9200     35.9250     30.7100      0.2494   2033.6000     43.1850    -72.0150
126.7500        198.8500      0.3742    768.6800     36.3900     29.6800      0.2460   2040.9000     42.8200    -72.0450
126.8750        198.2500      0.3746    746.9600     36.8550     28.8400      0.2445   2046.4000     43.0600    -71.4750
127.0000        198.2500      0.3727    726.2000     37.3200     28.3850      0.2505   2045.2000     41.7200    -71.5050
127.1250        198.2500      0.3722    709.3600     37.7850     27.8050      0.2603   2037.9000     38.5500    -70.9350
127.2500        198.2500      0.3729    704.0800     38.6400     27.4850      0.2730   2032.4000     34.4050    -70.9650
127.3750        198.5500      0.3712    698.9200     39.9600     27.0950      0.3045   2038.5000     34.7100    -73.0500
127.5000        198.8500      0.3678    698.0400     39.9600     26.7100      0.3226   2046.4000     38.5500    -76.9500
127.6250        199.1500      0.3630    705.6800     40.1700     26.1900      0.3341   2054.3000     39.3400    -80.7000
127.7500        198.8500      0.3579    699.7200     40.6650     26.0650      0.3409   2063.5000     38.4900    -81.3450
127.8750        198.8500      0.3503    627.4000     41.1600     26.0650      0.3518   2069.6001     37.6350    -81.3750
128.0000        198.5500      0.3436    626.0400     41.8050     25.8700      0.3657   2080.5000     35.9250    -80.8050
128.1250        199.4500      0.3343    627.6800     42.4650     25.4150      0.3777   2115.3000     33.9150    -79.4550
128.2500        199.1500      0.3221    629.2000     43.1250     24.5800      0.3882   2139.1001     33.1250    -76.6500
128.3750        199.4500      0.3171    542.4000     43.7850     24.0600      0.3848   2136.6001     34.2200    -75.3300
128.5000        199.1500      0.3176    522.7600     44.4450     23.6100      0.3818   2130.5000     37.8800    -74.3100
128.6250        198.8500      0.3193    527.5600     45.6750     22.9650      0.3777   2126.8999     37.3900    -74.1600
128.7500        198.8500      0.3222    520.6000     45.3300     22.5100      0.3766   2117.7000     28.8550    -73.5750
128.8750        198.8500      0.3230    454.3600     44.7000     22.1900      0.3803   2115.8999     30.7450    -73.2000
129.0000        198.2500      0.3246    457.7200     43.9650     21.8650      0.3856   2116.5000     32.2700    -73.2300
129.1250        198.5500      0.3278    467.5200     47.6100     21.7350      0.3874   2111.0000     29.3400    -73.2600
129.2500        198.2500      0.3311    465.3600     49.5000     21.6100      0.3904   2109.2000     25.5600    -72.0900
129.3750        196.4250      0.3326    455.8000     50.9250     21.4800      0.3946   2111.6001     27.2100    -72.1200
129.5000        191.0000      0.3318    460.3200     52.2450     21.3500      0.4062   2109.8000     28.0000    -72.3900
129.6250        188.9000      0.3306    468.0000     53.5650     21.2200      0.4069   2110.3999     29.3400    -71.5800
129.7500        188.6000      0.3321    478.7600     51.2550     21.1550      0.4096   2117.7000     31.0500    -68.8500
129.8750        188.3000      0.3358    499.8000     51.9150     21.2200      0.4295   2119.6001     32.9400    -67.4250
130.0000        188.9000      0.3421    496.2000     52.7100     21.0250      0.4426   2112.2000     28.6700    -67.8450
130.1250        189.8000      0.3466    482.3600     53.5050     20.7700      0.4516   2103.7000     27.1450    -69.1500
130.2500        190.1000      0.3528    474.6800     54.3450     20.6400      0.4583   2096.3999     28.4250    -69.3300
130.3750        189.5000      0.3609    469.4400     55.2000     20.5100      0.4888   2073.2000     28.6100    -68.7600
130.5000        188.9000      0.3713    466.8000     56.0550     20.5100      0.4940   2040.3000     29.8300    -68.2650
130.6250        188.9000      0.3662    467.7600     57.0900     20.6400      0.4940   2036.6000     27.7550    -66.5700
130.7500        188.0000      0.3628    476.1200     56.7300     21.0250      0.4858   2057.3999     25.1350    -64.7250
130.8750        187.7000      0.3617    495.9600     56.2800     21.1550      0.4718   2059.8000     23.5500    -63.4650
131.0000        188.0000      0.3604    497.4000     55.8300     20.7700      0.4685   2061.6001     24.4650    -64.0650
131.1250        188.3000      0.3610    497.1600     55.3800     20.1900      0.4753   2053.1001     27.9400    -65.9850
131.2500        188.3000      0.3663    500.2400     56.7600     19.6700      0.4738   2030.5000     33.0600    -66.5850
131.3750        188.6000      0.3718    384.7600     57.8400     18.8950      0.4587   2022.0000     42.8800    -65.3100
131.5000        188.3000      0.3755    357.9600     58.6050     18.5100      0.4576   2022.0000     51.1000    -62.4300
131.6250        188.9000      0.3780    405.8000     59.3700     18.1850      0.4561   2024.4000     37.2100    -63.1650
131.7500        189.5000      0.3730    445.5200     59.8800     17.9950      0.4501   2043.3000     27.4500    -64.9050
131.8750        190.1000      0.3085    446.0000     58.8750     17.6700      0.4426   2088.5000     21.6600    -64.9350
132.0000        190.4000      0.2952    437.1200     58.1100     16.8950      0.4388   2136.0000     18.4250    -64.3650
132.1250        189.5000      0.2869    436.1600     57.3450     16.5700      0.4411   2170.8000     18.3650    -62.9550
