~Version : LASO    vs 4.00
VERS.                2.00:   CWLS Log ASCII Standard -VERSION 2.0
WRAP.                  NO:
~Well Information Block
#MNEM.UNIT       Data                        Description of Mnemonic
#----.----      -------------------------- : -----------------------------
STRT.M            30.0000:
STOP.M           204.0000:
STEP.M             0.2000:
NULL.           -999.2500:
COMP.  MOBIL OIL OF CANADA                    :COMPANY
WELL.  MOBIL CLARKE OV PROGRAM 2-81 4-3       :WELL
FLD.                                          :FIELD
LOC.   04-03-090-07W4                         :LOCATION
CTRY.  CANADA                                 :COUNTRY
PROV.  ALBERTA                                :PROVINCE
SRVC.  SCHLUMBERGER                           :SERVICE COMPANY
DATE.  26-JAN-81                              :LOG DATE
UWI.   AA/04-03-090-07W400                    :UNIQUE WELL ID
~Parameter Information Block
#MNEM.UNIT       Data                        Description of Mnemonic
#----.----      -------------------------- : -----------------------------
RUN .                   1                 : Run Number
GL  .M           466.8000                 : Ground Level Elevation
DREF.                  GD                 : Depth Reference
EREF.M           466.8000                 : Elevation of Depth Reference
TDL .M           205.0000                 : Total Depth Logger
TDD .M           205.0000                 : Total Depth Driller
BHT .DEGC         19.0000                 : Bottom Hole Temperature
BS  .MM          159.0000                 : Bit Size
DFD .            980.0000                 : Mud Weight (Density)
DFV .             38.0000                 : Mud Viscosity
DFPH.             10.0000                 : Mud pH
~Curve Information Block
#MNEM.UNIT        API CODE    Curve Description
#---------    ------------    -------------------------------------------
DEPT.M                    :   DEPTH
CALI.MM       42 280  1  1:   3 DENSITY CALIPER
DPHI.V/V                  :   DPHI
DT  .US/M     60 520  0  1:   2 SONIC INTERVAL TRANSIT TIME (COMPENSATED)
GR  .GAPI     42 310  1  1:   4 GAMMA RAY
ILD .OHMM      5 120 46  1:   7 DEEP INDUCTION
ILM .OHMM      5 120 44  1:   8 MEDIUM INDUCTION
NPHI.V/V      42 890  3  1:   5 NEUTRON POROSITY (SANDSTONE)
RHOB.K/M3     42 350  1  1:   6 BULK DENSITY
SFLU.OHMM      5 220  1  1:   9 FOCUSSED RESISTIVITY
SP  .MV        5  10  1  1:   10 SPONTANEOUS POTENTIAL
~A  Depth           CALI        DPHI          DT          GR         ILD         ILM        NPHI        RHOB        SFLU          SP
# ...
164.2000        158.2750      0.3378    460.7200     60.7800     28.0434     22.2756      0.3360   2109.0000     39.7951    -67.7550
164.4000        158.2750      0.3322    470.8000     53.7750     33.7155     24.8788      0.3488   2106.0000     28.3028    -65.2050
164.6000        158.2750      0.3282    486.0000     48.9750     37.3104     29.0958      0.3524   2084.0000     28.0434    -65.7150
164.8000        158.2750      0.3315    488.2800     44.0700     42.0562     33.7155      0.3588   2038.9000     39.0688    -67.2450
165.0000        158.2750      0.3450    496.9200     41.3700     60.7897     43.6345      0.3708   2021.9000    186.9950    -70.5600
165.2000        158.2750      0.3561    493.4000     42.4800     77.2378     49.6398      0.3776   2026.9000    307.4892    -70.0500
165.4000        158.2750      0.3677    509.0400     44.3700     93.7195     55.9538      0.3710   2027.9000    319.0288    -69.0300
165.6000        159.5500      0.3706    508.8400     45.7800    103.7122     59.6802      0.3736   2030.9000    346.6011    -67.5000
165.8000        159.5500      0.3688    502.2000     48.0750     88.6809     53.9299      0.3686   2035.9000    343.4234    -68.0100
166.0000        159.5500      0.3709    490.3200     47.8800     80.8779     48.7338      0.3592   2069.8999    172.1194    -68.2650
166.2000        160.8250      0.3617    466.4800     46.6800     74.4440     45.6909      0.3760   2120.0000     94.5867    -68.0100
166.4000        157.0000      0.3426    462.4000     44.8800     54.4289     44.4457      0.3806   2068.8999     71.7513    -70.3050
166.6000        157.0000      0.3275    461.5600     44.0700     44.0382     39.4303      0.3844   2047.9000    103.7122    -73.8600
166.8000        157.0000      0.3316    459.9200     44.8800     36.9683     33.1001      0.4066   2055.8999    140.5497    -76.9200
167.0000        158.2750      0.3443    458.8800     52.2750     29.0958     24.6507      0.4060   2075.8999     54.9326    -74.3700
167.2000        158.2750      0.3521    459.0800     55.8750     26.0513     21.8691      0.3846   2037.9000     35.6312    -73.3650
167.4000        158.2750      0.3588    462.8000     58.4700     23.3254     19.9448      0.3644   2012.9000     29.6367    -73.8600
167.6000        158.2750      0.3698    466.4800     64.4700     19.5808     18.0231      0.3782   2000.8000     22.4817    -73.3650
167.8000        158.2750      0.3779    467.3200     65.6700     18.3582     17.0541      0.3888   1985.8000     23.3254    -73.8600
168.0000        157.0000      0.3845    472.8800     68.4750     17.3712     16.2866      0.3972   1973.8000     26.5357    -74.6250
168.2000        155.7500      0.3922    467.1200     74.0850     15.9893     14.8535      0.4134   2006.8000     22.2756    -73.1100
168.4000        155.7500      0.3968    482.7200     74.4750     15.4110     14.3163      0.4272   2059.8999     18.0231    -71.3250
168.6000        155.7500      0.3859    490.7200     73.7850     14.9910     13.7984      0.4398   2088.0000     16.1373    -69.7950
168.8000        155.7500      0.3670    497.3200     73.1850     14.5824     13.4224      0.4368   2112.0000     14.4487    -68.5200
169.0000        158.2750      0.3504    494.4400     67.8750     14.1850     13.1774      0.4224   2094.0000     12.5843    -68.7750
169.2000        157.0000      0.3381    487.0400     65.8800     14.1850     13.2993      0.4124   2061.8999     13.9261    -71.0700
169.4000        157.0000      0.3389    479.2400     63.6750     14.1850     13.4224      0.4224   2052.8999     15.9893    -73.8600
169.6000        155.7500      0.3488    477.1600     58.8750     14.7174     13.6719      0.4304   2093.0000     17.5319    -75.3900
169.8000        157.0000      0.3466    477.1600     55.9800     15.2697     14.0550      0.4152   2068.8999     18.1899    -76.1550
170.0000        157.0000      0.3418    470.6000     54.6750     15.8427     14.3163      0.3776   2049.8999     20.1294    -78.1950
170.2000        157.0000      0.3524    467.3200     52.4700     17.2119     15.5536      0.3768   2057.8999     24.4247    -80.7450
170.4000        158.2750      0.3573    456.2000     50.6700     17.8579     16.2866      0.3708   2053.8999     25.8125    -81.5100
170.6000        157.0000      0.3565    437.7200     49.6800     18.3582     16.8978      0.3654   2063.8999     29.6367    -82.0200
170.8000        157.0000      0.3533    435.0400     50.5800     19.7620     17.6942      0.3656   2098.0000     28.8290    -80.4900
171.0000        157.0000      0.3476    432.3600     49.0800     20.8848     18.0231      0.3682   2112.0000     23.5413    -79.4700
171.2000        157.0000      0.3404    435.6800     46.1700     22.4817     18.6995      0.3676   2109.0000     21.6686    -81.0000
171.4000        155.7500      0.3329    433.2000     40.8750     26.0513     21.6686      0.3644   2069.8999     25.8125    -84.8250
171.6000        154.4750      0.3296    430.7200     39.5700     29.0958     24.2008      0.3708   2059.8999     33.1001    -85.8450
171.8000        154.4750      0.3337    429.7200     37.5750     33.4064     28.0434      0.3924   2045.9000     47.8443    -89.6700
172.0000        154.4750      0.3423    438.9600     35.6700     40.1634     32.7967      0.4032   2035.9000     76.5297    -96.2850
172.2000        157.0000      0.3520    453.3200     34.2750     60.7897     43.6345      0.4124   2048.8999    248.7883   -108.0000
172.4000        157.0000      0.3603    465.6800     34.2750     75.8281     49.6398      0.4048   2032.9000    346.6011   -112.5900
172.6000        157.0000      0.3671    471.0000     35.2800     91.1654     54.4289      0.4004   2021.9000    432.3445   -115.6500
172.8000        157.0000      0.3662    464.8400     38.3700    110.6190     61.3522      0.4000   2023.9000    461.1369   -119.2200
173.0000        157.0000      0.3721    457.4400     38.3700    113.7182     61.9199      0.3962   2032.9000    529.4561   -119.7300
173.2000        157.0000      0.3745    449.2400     35.6700    110.6190     62.4928      0.3910   2056.8999    666.5457   -119.7300
173.4000        157.0000      0.3701    435.2400     31.8750     99.0444     60.2324      0.3794   2049.8999    596.8015   -117.1800
173.6000        157.0000      0.3616    438.5600     32.3700     92.8603     56.4716      0.3686   2040.9000    456.9092   -116.4150
173.8000        157.0000      0.3660    436.8800     33.8700     87.8678     52.9456      0.3656   2037.9000    301.8769   -115.1400
174.0000        158.2750      0.3699    422.7200     37.6800     74.4440     49.6398      0.3726   2019.9000    158.4273   -108.5100
174.2000        158.2750      0.3748    436.8800     38.1750     64.8381     49.6398      0.3784   2017.9000    151.2969   -105.4650
174.4000        158.2750      0.3788    458.6800     38.8800     55.4409     46.9710      0.3774   2017.9000    190.4715   -102.6600
174.6000        157.0000      0.3743    460.7200     44.6700     37.3104     34.9808      0.3812   2032.9000    290.9577    -99.6000
174.8000        157.0000      0.3682    461.9600     49.2750     32.1981     28.3028      0.3724   2051.8999    186.9950    -98.3250
175.0000        157.0000      0.3587    454.1600     54.2700     27.7863     23.7591      0.3734   2066.8999     86.2641    -95.7750
175.2000        155.7500      0.3509    447.6000     58.7700     24.4247     20.6933      0.3652   2088.0000     36.6294    -90.9300
175.4000        157.0000      0.3456    448.4000     61.6800     19.7620     17.5319      0.3568   2114.0000     19.7620    -83.8050
175.6000        157.0000      0.3382    451.6800     61.2750     19.0471     16.4373      0.3516   2106.0000     19.4013    -82.2750
175.8000        157.0000      0.3307    448.8000     58.8750     19.0471     16.2866      0.3704   2114.0000     18.6995    -81.2550
176.0000        155.7500      0.3267    440.8000     49.2750     22.4817     19.4013      0.3708   2100.0000     18.0231    -84.8250
176.2000        155.7500      0.3285    425.6000     44.2800     25.8125     22.6898      0.3694   2057.8999     26.7812    -90.9300
