~VERSION INFORMATION
 VERS.                 2.0:   CWLS LOG ASCII STANDARD -VERSION 2.0
 WRAP.                  NO:   ONE LINE PER DEPTH STEP
~WELL INFORMATION BLOCK
#MNEM.UNIT           DATA                    DESCRIPTION OF MNEMONIC
#---------    -------------------            -------------------------------
# Generated from Intellog Unique Number	CC_84_87/WELL/1179
NULL.         -999.25                        : NULL_VALUE
WELL.         TEXACO HANGINGSTONE            : Well_name    - WELL
LOC .         09-17-085-11W4                 : Location     - LOCATION          
UWI .         AA/09-17-085-11W400            : Uwi          - UNIQUE WELL ID    
ENTR.         DW                             : Entered      - ENTERED BY        
SRVC.         SCHLUMBERGER                   : Scn          - SERVICE COMPANY   
DATE.         12 FEB 80                      : Date         - LOG DATE
STRT.M        50                             : top_depth    - START DEPTH       
STOP.M        280.101                        : bot_depth    - STOP DEPTH        
STEP.M        0.3                            : increment    - STEP LENGTH       
~CURVE INFORMATION BLOCK
#MNEM UNIT       ERCB CURVE CODE    CURVE DESCRIPTION
#-----------   ------------------   ----------------------------------
DEPT.M        00 001 00 00         : DEPTH        - DEPTH                       
DPHI.V/V      00 890 00 00         : PHID         - DENSITY POROSITY (LIMESTONE)
NPHI.V/V      00 330 00 00         : PHIN         - NEUTRON POROSITY (LIMESTONE)
GR  .API      00 310 00 00         : GR           - GAMMA RAY                   
ILD .OHMM     00 120 00 00         : RESD         - DEEP RESISTIVITY (DIL)      
~PARAMETER INFORMATION       
#MNEM.UNIT           DATA             DESCRIPTION OF MNEMONIC
#---------         -----------     ------------------------------
GL  .M        534                  : gl           - GROUND LEVEL ELEVATION      
EREF.M        535.6                : kb           - ELEVATION OF DEPTH REFERENCE
DATM.M        535.6                : datum        - DATUM ELEVATION             
TDD .M        229                  : tdd          - TOTAL DEPTH DRILLER         
RUN .         ONE                  : Run          - RUN NUMBER                  
ENG .         BILL                 : Engineer     - RECORDING ENGINEER          
WIT .         JIM                  : Witness      - WITNESSED BY                
MUD .         GEL                  : Mud_type     - MUD TYPE                    
MATR.         LIMESTONE            : Logunit      - NEUTRON MATRIX              
TMAX.C        21                   : BHT          - MAXIMUM RECORDED TEMPERATURE
BHTD.M        281                  : BHTDEP       - MAXIMUM RECORDED TEMPERATURE
MATR.         1                    : LOGUNIT      - NEUTRON MATRIX              
RMT .C        25                   : MDTP         - TEMPERATURE OF MUD          
NEUT.         1                    : NEUTRON      - NEUTRON TYPE                
RESI.         0                    : RESIST       - RESISTIVITY TYPE            
RMC .OHMM     0.25                 : RMC          - RESISTIVITY OF MUD CAKE     
RMF .OHMM     0.25                 : RMF          - RESISTIVITY OF MUD FILTRATE 
SUFT.C        15                   : SUFT         - SURFACE TEMPERATURE         
~A  DEPTH     PHID     PHIN       GR     RESD
# ...
  206.601    0.221    0.484   68.579    0.000
  206.901    0.227    0.485   66.736    0.000
  207.201    0.228    0.480   69.812    0.000
  207.501    0.223    0.477   71.658    0.000
  207.801    0.208    0.476   72.275    0.000
  208.101    0.201    0.475   72.276    0.000
  208.401    0.199    0.490   71.049    0.000
  208.701    0.249    0.479   67.361    0.000
  209.001    0.250    0.456   62.445    0.000
  209.301    0.224    0.481   61.832    0.000
  209.601    0.202    0.471   58.760    0.000
  209.901    0.182    0.448   55.072    0.000
  210.201    0.141    0.440   53.844    0.000
  210.501    0.172    0.425   60.609    0.000
  210.801    0.226    0.444   58.767    0.000
  211.101    0.227    0.436   56.925    0.000
  211.401    0.245    0.429   60.000    0.000
  211.701    0.244    0.431   61.846    0.000
  212.001    0.231    0.446   65.537    0.000
  212.301    0.213    0.463   66.768    0.000
  212.601    0.198    0.478   67.385    0.000
  212.901    0.208    0.476   61.853    0.000
  213.201    0.217    0.484   60.011    0.000
  213.501    0.223    0.511   63.087    0.000
  213.801    0.201    0.489   69.237    0.000
  214.101    0.214    0.461   71.698    0.000
  214.401    0.193    0.474   70.470    0.000
  214.701    0.191    0.471   65.553    0.000
  215.001    0.206    0.468   61.866    0.000
  215.301    0.221    0.500   58.179    0.000
  215.602    0.216    0.539   56.337    0.000
  215.902    0.207    0.534   56.953    0.000
  216.202    0.208    0.506   60.029    0.000
  216.502    0.189    0.509   62.490    0.000
  216.802    0.201    0.511   60.647    0.000
  217.102    0.223    0.516   63.108    0.000
  217.402    0.239    0.552   63.110    0.000
  217.702    0.256    0.570   63.728    0.000
  218.002    0.264    0.604   66.189    0.000
  218.302    0.261    0.612   69.265    0.000
  218.602    0.222    0.587   71.111    0.000
  218.902    0.239    0.542   69.268    0.000
  219.202    0.242    0.524   66.196    0.000
  219.502    0.233    0.532   60.664    0.000
  219.802    0.192    0.541   55.747    0.000
  220.102    0.168    0.500   55.134    0.000
  220.402    0.161    0.475   55.136    0.000
  220.702    0.167    0.488   56.982    0.000
  221.002    0.163    0.493   59.444    0.000
  221.302    0.159    0.491   60.675    0.000
  221.602    0.167    0.471   59.447    0.000
  221.902    0.173    0.460   60.064    0.000
  222.202    0.196    0.458   62.525    0.000
  222.502    0.206    0.464   65.601    0.000
  222.802    0.188    0.481   68.676    0.000
  223.102    0.179    0.478   71.138    0.000
  223.402    0.193    0.490   71.754    0.000
  223.702    0.207    0.519   71.756    0.000
  224.002    0.196    0.526   69.914    0.000
  224.302    0.216    0.546   65.612    0.000
  224.602    0.212    0.580   57.006    0.000
  224.902    0.196    0.616   47.785    0.000
  225.202    0.198    0.607   46.557    0.000
  225.502    0.237    0.560   50.864    0.000
  225.802    0.273    0.514   50.865    0.000
  226.102    0.283    0.506   49.022    0.000
  226.402    0.295    0.535   47.794    0.000
  226.702    0.289    0.555   53.944    0.000
  227.002    0.276    0.552   57.635    0.000
  227.302    0.263    0.550   57.022    0.000
  227.602    0.259    0.556   53.335    0.000
  227.902    0.261    0.552   57.026    0.000
  228.202    0.257    0.509   61.331    0.000
  228.502    0.244    0.505   63.792    0.000
  228.802    0.219    0.514   59.490    0.000
  229.102    0.217    0.526   57.033    0.000
  229.402    0.252    0.494   58.265    0.000
  229.702    0.274    0.514   59.496    0.000
  230.002    0.281    0.554   65.646    0.000
  230.302    0.283    0.590   68.722    0.000
  230.602    0.292    0.591   67.494    0.000
  230.902    0.305    0.600   65.651    0.000
  231.202    0.330    0.622   63.194    0.000
  231.502    0.345    0.644   60.736    0.000
  231.802    0.454    0.637   44.753    0.000
  232.102    0.607    0.642   47.214    0.000
  232.402    0.609    0.661   53.364    0.000
  232.702    0.609    0.642   55.211    0.000
  233.002    0.606    0.651   53.368    0.000
  233.302    0.604    0.668   51.525    0.000
  233.602    0.601    0.660   54.601    0.000
  233.902    0.600    0.642   63.210    0.000
  234.202    0.600    0.642   74.894    0.000
  234.502    0.599    0.612   82.888    0.000
  234.802    0.566    0.594   81.046    0.000
  235.102    0.515    0.577   73.055    0.000
  235.402    0.479    0.562   64.449    0.000
  235.702    0.459    0.549   53.384    0.000
  236.002    0.530    0.545   42.934    9.447
  236.302    0.599    0.602   44.165   11.020
  236.602    0.620    0.644   50.930    9.275
  236.902    0.562    0.610   59.539    6.825
  237.202    0.451    0.514   64.460    6.085
  237.502    0.455    0.503   63.847    6.205
  237.802    0.541    0.551   60.775    7.521
  238.102    0.524    0.584   50.939    9.843
  238.402    0.403    0.490   46.638   11.048
  238.702    0.299    0.443   45.410   13.650
  239.002    0.308    0.469   50.330   15.620
  239.302    0.359    0.478   55.865   15.928
  239.602    0.334    0.435   58.941   15.043
  239.902    0.345    0.438   65.091   14.207
  240.202    0.380    0.440   73.085   13.417
  240.502    0.382    0.435   70.628   12.671
  240.802    0.349    0.417   73.089   11.966
  241.102    0.347    0.420   87.232   10.876
  241.402    0.430    0.464   92.153   10.271
  241.702    0.298    0.433   92.154    9.888
  242.002    0.263    0.417   89.697   10.083
  242.302    0.312    0.440   81.706   10.481
  242.602    0.344    0.476   71.256   11.322
  242.902    0.369    0.513   58.346   12.709
  243.202    0.263    0.454   50.970   15.702
  243.502    0.284    0.422   47.283   35.173
  243.802    0.338    0.377   43.596   54.714
  244.102    0.367    0.439   41.139   78.819
  244.402    0.316    0.397   40.525  109.273
  244.702    0.279    0.372   45.446  111.433
  245.002    0.262    0.363   57.129   83.585
  245.302    0.236    0.362   71.887   46.120
  245.602    0.217    0.363   76.192   28.011
  245.902    0.249    0.368   73.735   21.835
  246.202    0.281    0.379   71.277   20.619
  246.502    0.297    0.380   75.584   21.851
  246.802    0.281    0.357   78.044   23.154
  247.102    0.269    0.353   79.276   21.867
  247.402    0.257    0.404   74.359   20.258
  247.702    0.307    0.423   72.516   19.882
  248.002    0.293    0.387   73.133   21.476
  248.302    0.258    0.383   66.371   25.534
  248.602    0.297    0.404   60.225   34.064
  248.902    0.298    0.409   57.768   42.089
  249.202    0.304    0.400   63.918   47.245
  249.502    0.313    0.378   68.838   43.772
  249.802    0.303    0.372   72.529   36.141
  250.102    0.336    0.444   82.747   30.416
  250.402    0.297    0.474   92.029   22.817
  250.702    0.325    0.490   93.897   16.790
  251.002    0.360    0.487   87.126   13.598
  251.302    0.398    0.498   85.290   10.398
  251.602    0.394    0.530   86.541    8.922
  251.902    0.398    0.525   89.029    8.266
  252.202    0.412    0.506   90.285    7.807
  252.502    0.377    0.480   90.302    7.662
  252.802    0.372    0.489   86.612    7.664
  253.102    0.429    0.470   91.574    7.967
  253.402    0.349    0.453   94.061    8.282
  253.702    0.283    0.455   91.605    8.444
  254.002    0.365    0.512   87.300    8.949
  254.302    0.335    0.462   95.353    9.483
  254.602    0.282    0.457   97.839    9.305
  254.902    0.288    0.464   95.999    9.132
  255.202    0.319    0.449   87.372    8.793
  255.502    0.341    0.447   84.302    8.965
  255.802    0.361    0.476   86.796   10.064
  256.102    0.385    0.473   84.961   10.664
  256.402    0.355    0.408   80.034   10.875
  256.702    0.342    0.418   74.493   10.880
  257.002    0.293    0.444   81.307   10.474
  257.302    0.321    0.477   81.321   10.278
  257.602    0.334    0.512   78.254    9.895
  257.902    0.357    0.478   80.740    9.710
  258.202    0.407    0.470   83.851   10.095
  258.502    0.411    0.497   83.863   10.293
