~VERSION INFORMATION
 VERS.                 2.0:   CWLS LOG ASCII STANDARD -VERSION 2.0
 WRAP.                  NO:   ONE LINE PER DEPTH STEP
~WELL INFORMATION BLOCK
#MNEM.UNIT           DATA                    DESCRIPTION OF MNEMONIC
#---------    -------------------            -------------------------------
# Generated from Intellog Unique Number	CN_94_101/WELL/4984
WELL.         06-29-101-14W4                 : Well_name    - WELL
LOC .         AA/06-29-101-14W4/0            : Location     - LOCATION
UWI .         AA/06-29-101-14W400            : Uwi          - UNIQUE WELL ID
ENTR.         TIM                            : Entered      - ENTERED BY
SRVC.         SCHLUMBERGER                   : Scn          - SERVICE COMPANY
DATE.         08/11/92                       : Date         - LOG DATE
STRT.M        350                            : top_depth    - START DEPTH
STOP.M        540                            : bot_depth    - STOP DEPTH
STEP.M        0.25                           : increment    - STEP LENGTH
NULL. -999.2500:NULL Value
~CURVE INFORMATION BLOCK
#MNEM UNIT       ERCB CURVE CODE    CURVE DESCRIPTION
#-----------   ------------------   ----------------------------------
DEPT.M        00 001 00 00         : DEPTH        - DEPTH
GR  .API      00 310 00 00         : GR           - GAMMA RAY
ILD .OHMM     00 120 00 00         : RESD         - DEEP RESISTIVITY (DIL)
NPHI.V/V      00 330 00 00         : PHIN         - NEUTRON POROSITY (SANDSTONE)
DPHI.V/V      00 890 00 00         : PHID         - DENSITY POROSITY (SANDSTONE)
~PARAMETER INFORMATION
#MNEM.UNIT           DATA             DESCRIPTION OF MNEMONIC
#---------         -----------     ------------------------------
GL  .M        774.8                : gl           - GROUND LEVEL ELEVATION
EREF.M        778                  : kb           - ELEVATION OF DEPTH REFERENCE
DATM.M        778                  : datum        - DATUM ELEVATION
TDD .M        545                  : tdd          - TOTAL DEPTH DRILLER
RUN .         ONE                  : Run          - RUN NUMBER
ENG .         JO                   : Engineer     - RECORDING ENGINEER
WIT .         TIM                  : Witness      - WITNESSED BY
MUD .         GEL                  : Mud_type     - MUD TYPE
MATR.         SANDSTONE            : Logunit      - NEUTRON MATRIX
TMAX.C        17                   : BHT          - MAXIMUM RECORDED TEMPERATURE
BHTD.M        545                  : BHTDEP       - MAXIMUM RECORDED TEMPERATURE
RMT .C        10                   : MDTP         - TEMPERATURE OF MUD
MUDD.KG/M     1130                 : MWT          - MUD DENSITY
NEUT.         1                    : NEUTRON      - NEUTRON TYPE
RESI.         0                    : RESIST       - RESISTIVITY TYPE
RM  .OHMM     0.8                  : RM           - RESISTIVITY OF MUD
RMC .OHMM     0.8                  : RMC          - RESISTIVITY OF MUD CAKE
RMF .OHMM     0.8                  : RMF          - RESISTIVITY OF MUD FILTRATE
SUFT.C        4                    : SUFT         - SURFACE TEMPERATURE
~A  DEPTH       GR     RESD     PHIN     PHID
# ...
  480.500   97.797    2.747    0.568    0.343
  480.750   99.046    2.854    0.563    0.344
  481.000  100.918    3.082    0.558    0.361
  481.250  102.167    3.393    0.559    0.351
  481.500   99.061    3.665    0.559    0.342
  481.750   96.576    3.958    0.548    0.339
  482.000   94.715    4.274    0.528    0.330
  482.250   94.721    4.527    0.512    0.325
  482.500   96.591    4.889    0.503    0.316
  482.750  100.329    5.383    0.494    0.304
  483.000  102.823    5.813    0.481    0.303
  483.250  101.584    6.278    0.468    0.329
  483.500  100.345    6.650    0.477    0.345
  483.750   98.484    6.156    0.502    0.366
  484.000   96.622    5.699    0.500    0.376
  484.250   94.761    5.483    0.487    0.390
  484.500   96.632    5.275    0.479    0.390
  484.750   99.748    5.173    0.497    0.365
  485.000  100.998    5.172    0.513    0.354
  485.250  101.003    5.171    0.506    0.343
  485.500  100.386    5.072    0.501    0.336
  485.750  100.390    4.974    0.503    0.332
  486.000  100.396    4.879    0.511    0.325
  486.250  101.023    4.694    0.513    0.319
  486.500  101.027    4.430    0.512    0.318
  486.750  100.411    4.262    0.507    0.322
  487.000  100.416    4.100    0.496    0.323
  487.250  100.419    3.945    0.496    0.319
  487.500  101.669    3.795    0.508    0.318
  487.750  101.053    3.513    0.517    0.328
  488.000  100.434    3.380    0.523    0.333
  488.250  101.683    3.129    0.525    0.339
  488.500  104.178    3.069    0.528    0.346
  488.750  101.695    3.068    0.527    0.340
  489.000   98.590    3.068    0.534    0.328
  489.250   96.727    3.127    0.559    0.318
  489.500   95.488    3.249    0.555    0.320
  489.750   94.871    3.312    0.545    0.328
  490.000   94.255    3.376    0.525    0.319
  490.250   94.259    3.441    0.511    0.312
  490.500   94.264    3.507    0.498    0.308
  490.750   95.514    3.507    0.487    0.308
  491.000   96.762    3.575    0.483    0.308
  491.250   99.879    3.574    0.488    0.304
  491.500  103.618    3.574    0.494    0.302
  491.750  104.865    3.573    0.501    0.304
  492.000  107.981    3.572    0.506    0.305
  492.250  108.609    3.572    0.513    0.310
  492.500  107.369    3.572    0.520    0.328
  492.750  105.507    3.370    0.533    0.344
  493.000  101.780    3.181    0.540    0.351
  493.250   97.429    2.888    0.541    0.356
  493.500   90.590    2.524    0.536    0.359
  493.750   85.618    2.292    0.523    0.366
  494.000   81.268    2.121    0.503    0.373
  494.250   76.296    2.162    0.503    0.373
  494.500   71.324    3.499    0.508    0.368
  494.750   66.352    7.707    0.512    0.358
  495.000   57.647   12.472    0.476    0.352
  495.250   29.035   29.102    0.384    0.341
  495.500   27.795   39.600    0.379    0.332
  495.750   27.799   50.859    0.372    0.319
  496.000   28.427   60.475    0.360    0.307
  496.250   29.053   61.644    0.370    0.311
  496.500   29.680   57.065    0.378    0.324
  496.750   30.932   50.830    0.387    0.336
  497.000   31.557   46.154    0.394    0.341
  497.250   32.807   41.911    0.400    0.345
  497.500   34.680   38.057    0.404    0.350
  497.750   35.306   35.230    0.407    0.351
  498.000   37.179   32.613    0.410    0.341
  498.250   37.805   30.778    0.414    0.335
  498.500   39.053   28.492    0.423    0.334
  498.750   40.926   26.375    0.431    0.339
  499.000   41.552   23.491    0.436    0.342
  499.250   44.045   22.602    0.432    0.346
  499.500   45.296   19.748    0.421    0.347
  499.750   47.167   17.254    0.421    0.347
  500.000   49.662   15.973    0.421    0.341
  500.250   50.908   15.074    0.421    0.336
  500.500   52.781   13.954    0.429    0.334
  500.750   55.275   13.686    0.434    0.336
  501.000   57.145   12.916    0.421    0.337
  501.250   59.638   11.957    0.406    0.332
  501.500   63.377   10.248    0.399    0.331
  501.750   64.625    9.128    0.409    0.324
  502.000   68.363    6.969    0.445    0.317
  502.250   73.968    5.530    0.457    0.296
  502.500   77.705    4.305    0.474    0.289
  502.750   82.688    3.909    0.477    0.309
  503.000   87.048    3.482    0.484    0.340
  503.250   92.652    3.223    0.511    0.324
  503.500   97.012    3.042    0.519    0.320
  503.750  100.129    2.926    0.537    0.354
  504.000   98.889    2.870    0.546    0.366
  504.250   95.162    2.870    0.541    0.362
  504.500   92.055    2.869    0.534    0.357
  504.750   87.083    2.981    0.519    0.354
  505.000   82.110    3.220    0.499    0.351
  505.250   79.005    3.756    0.483    0.345
  505.500   74.656    4.215    0.488    0.363
  505.750   70.306    5.110    0.513    0.378
  506.000   67.199    6.690    0.506    0.375
  506.250   62.228    8.429    0.480    0.364
  506.500   58.500   10.416    0.473    0.353
  506.750   57.261   10.617    0.459    0.348
  507.000   58.511   10.616    0.447    0.346
  507.250   59.759   10.412    0.451    0.341
  507.500   61.007   10.410    0.448    0.336
  507.750   62.879   10.611    0.445    0.331
  508.000   65.372   10.609    0.440    0.326
  508.250   67.866   10.012    0.430    0.317
  508.500   72.228    9.269    0.416    0.314
  508.750   73.476    8.256    0.398    0.307
  509.000   75.346    6.679    0.398    0.300
  509.250   77.840    5.403    0.468    0.297
  509.500   80.957    4.287    0.490    0.327
  509.750   84.695    3.468    0.501    0.342
  510.000   87.188    2.972    0.514    0.351
  510.250   89.059    2.751    0.529    0.359
  510.500   89.686    2.699    0.535    0.351
  510.750   89.692    2.647    0.531    0.342
  511.000   88.452    2.596    0.521    0.330
  511.250   85.971    2.596    0.511    0.325
  511.500   84.729    2.697    0.507    0.322
  511.750   81.624    3.086    0.507    0.321
  512.000   78.517    3.464    0.509    0.332
  512.250   73.546    3.887    0.493    0.301
  512.500   70.440    4.448    0.456    0.285
  512.750   66.091    5.937    0.428    0.266
  513.000   63.606    9.794    0.442    0.258
  513.250   58.012   10.992    0.444    0.327
  513.500   53.041   12.337    0.399    0.321
  513.750   52.422   14.115    0.396    0.310
  514.000   52.427   13.844    0.396    0.317
  514.250   53.054   13.319    0.399    0.322
  514.500   54.304   13.063    0.422    0.323
  514.750   54.931   13.061    0.433    0.327
  515.000   55.559   13.313    0.442    0.333
  515.250   55.563   12.563    0.443    0.328
  515.500   56.194   11.857    0.436    0.331
  515.750   56.819   10.766    0.431    0.332
  516.000   57.445   10.160    0.434    0.332
  516.250   58.696    9.226    0.434    0.329
  516.500   59.944    7.908    0.431    0.323
  516.750   60.571    7.044    0.420    0.320
  517.000   63.066    6.037    0.405    0.313
  517.250   65.559    5.482    0.402    0.307
  517.500   68.675    4.978    0.407    0.301
  517.750   71.789    4.608    0.401    0.307
  518.000   75.527    4.433    0.400    0.312
  518.250   73.665    4.265    0.411    0.322
  518.500   69.938    4.103    0.424    0.329
  518.750   66.832    4.024    0.428    0.337
  519.000   63.104    3.872    0.428    0.347
  519.250   59.999    3.797    0.428    0.344
  519.500   60.627    3.797    0.429    0.327
  519.750   64.363    3.724    0.420    0.317
  520.000   68.723    3.723    0.400    0.313
  520.250   72.461    3.723    0.398    0.310
  520.500   74.954    3.722    0.394    0.303
  520.750   77.448    3.722    0.384    0.291
  521.000   79.941    3.793    0.371    0.280
  521.250   82.435    3.867    0.374    0.269
  521.500   83.684    4.018    0.375    0.271
  521.750   84.311    4.175    0.364    0.265
  522.000   86.182    4.256    0.359    0.245
  522.250   90.545    4.338    0.358    0.229
  522.500   89.305    4.422    0.366    0.228
  522.750   88.065    4.421    0.374    0.238
  523.000   86.827    4.420    0.381    0.248
  523.250   85.587    4.419    0.390    0.260
  523.500   84.970    4.419    0.398    0.271
  523.750   83.731    4.418    0.398    0.271
