~VERSION INFORMATION
 VERS.                 2.0:   CWLS LOG ASCII STANDARD -VERSION 2.0
 WRAP.                  NO:   ONE LINE PER DEPTH STEP
~WELL INFORMATION BLOCK
#MNEM.UNIT           DATA                    DESCRIPTION OF MNEMONIC
#---------    -------------------            -------------------------------
# Generated from Intellog Unique Number	CW_82_90/WELL/3417
WELL.         PCENT WOODEN HOUSE             : Well_name    - WELL
LOC .         AA/05-24-088-23W4/0            : Location     - LOCATION
UWI .         AA/05-24-088-23W4/0            : Uwi          - UNIQUE WELL ID
ENTR.         MAX                            : Entered      - ENTERED BY
SRVC.         COMPUTALOG                     : Scn          - SERVICE COMPANY
STRT.M        100                            : top_depth    - START DEPTH
STOP.M        306                            : bot_depth    - STOP DEPTH
STEP.M        0.25                           : increment    - STEP LENGTH
 NULL. -999.2500:NULL Value
~CURVE INFORMATION BLOCK
#MNEM UNIT       ERCB CURVE CODE    CURVE DESCRIPTION
#-----------   ------------------   ----------------------------------
DEPT.M        00 001 00 00         : DEPTH        - DEPTH
GR  .API      00 310 00 00         : GR           - GAMMA RAY
CALI.MM       00 280 01 00         : CAL          - CALIPER
DPHI.V/V      00 890 00 00         : PHID         - DENSITY POROSITY (SANDSTONE)
NPHI.V/V      00 330 00 00         : PHIN         - NEUTRON POROSITY (SANDSTONE)
ILD .OHMM     00 120 00 00         : RESD         - DEEP RESISTIVITY (DIL)
~PARAMETER INFORMATION
#MNEM.UNIT           DATA             DESCRIPTION OF MNEMONIC
#---------         -----------     ------------------------------
GL  .M        511                  : gl           - GROUND LEVEL ELEVATION
EREF.M        515.1                : kb           - ELEVATION OF DEPTH REFERENCE
DATM.M        511                  : datum        - DATUM ELEVATION
TDD .M        317.5                : tdd          - TOTAL DEPTH DRILLER
RUN .         ONE                  : Run          - RUN NUMBER
ENG .         BILL                 : Engineer     - RECORDING ENGINEER
WIT .         JIM                  : Witness      - WITNESSED BY
MUD .         GEL                  : Mud_type     - MUD TYPE
MATR.         SANDSTONE            : Logunit      - NEUTRON MATRIX
TMAX.C        26                   : BHT          - MAXIMUM RECORDED TEMPERATURE
BHTD.M        317.5                : BHTDEP       - MAXIMUM RECORDED TEMPERATURE
MATR.         1                    : LOGUNIT      - NEUTRON MATRIX
RMT .C        15                   : MDTP         - TEMPERATURE OF MUD
NEUT.         1                    : NEUTRON      - NEUTRON TYPE
RESI.         0                    : RESIST       - RESISTIVITY TYPE
RMC .OHMM     6                    : RMC          - RESISTIVITY OF MUD CAKE
RMF .OHMM     5                    : RMF          - RESISTIVITY OF MUD FILTRATE
SUFT.C        -10                  : SUFT         - SURFACE TEMPERATURE
~A  DEPTH       GR      CAL     PHID     PHIN     RESD
# ...
  246.000   88.924  224.140    0.197    0.378   13.455
  246.250   88.015  224.128    0.169    0.429   13.088
  246.500   85.906  222.114    0.144    0.452   12.850
  246.750   84.097  221.099    0.129    0.460   13.458
  247.000   83.189  220.587    0.140    0.407   13.836
  247.250   84.983  221.074    0.150    0.368   13.837
  247.500   86.478  222.064    0.172    0.361   13.711
  247.750   86.170  223.555    0.171    0.365   13.839
  248.000   85.863  224.542    0.163    0.337   13.462
  248.250   87.358  224.530    0.137    0.320   13.217
  248.500   88.553  224.021    0.131    0.340   13.218
  248.750   89.446  223.006    0.145    0.374   13.097
  249.000   90.040  223.495    0.163    0.425   12.624
  249.250   90.935  224.485    0.164    0.423   12.393
  249.500   92.130  225.475    0.170    0.363   12.861
  249.750   91.221  225.964    0.185    0.416   13.345
  250.000   86.707  225.451    0.202    0.443   13.848
  250.250   76.787  226.940    0.183    0.461   15.188
  250.500   65.965  226.429    0.144    0.380   16.968
  250.750   68.060  223.912    0.066    0.317   17.607
  251.000   77.667  223.402    0.086    0.293   17.609
  251.250   85.771  224.390    0.113    0.298   17.288
  251.500   90.871  225.879    0.142    0.342   16.662
  251.750   93.567  226.368    0.155    0.378   15.912
  252.000   92.359  226.356    0.148    0.372   15.056
  252.250   89.947  224.842    0.149    0.369   14.918
  252.500   87.236  222.325    0.166    0.409   14.920
  252.750   85.727  222.317    0.192    0.425   15.339
  253.000   84.219  223.306    0.195    0.414   15.340
  253.250   85.113  224.794    0.151    0.344   14.515
  253.500   89.912  225.284    0.081    0.319   14.120
  253.750   93.209  224.271    0.111    0.345   13.237
  254.000   94.103  223.258    0.158    0.368   12.183
  254.250   95.899  229.754    0.173    0.377   11.961
  254.500   97.094  229.742    0.182    0.363   12.073
  254.750   97.686  229.229    0.192    0.376   11.744
  255.000   97.378  229.219    0.197    0.374   11.530
  255.250   97.371  229.205    0.195    0.363   11.638
  255.500   96.164  229.196    0.189    0.367   11.965
  255.750   91.050  228.682    0.161    0.378   12.883
  256.000   85.335  227.670    0.129    0.310   14.130
  256.250   86.228  226.653    0.085    0.298   14.527
  256.500   89.527  226.642    0.122    0.332   15.075
  256.750   94.627  227.131    0.178    0.388   15.076
  257.000   96.722  227.620    0.188    0.371   14.530
  257.250   95.813  227.609    0.186    0.357   15.218
  257.500   92.201  226.594    0.182    0.339   18.474
  257.750   88.888  226.585    0.155    0.279   21.415
  258.000   88.582  226.573    0.095    0.226   21.025
  258.250   91.579  226.562    0.018    0.188   19.893
  258.500   96.379  226.549    0.049    0.183   17.974
  258.750  103.581  227.036    0.113    0.210   15.224
  259.000  100.870  227.526    0.161    0.259   13.380
  259.250   96.356  229.518    0.178    0.340   12.314
  259.500   95.748  229.504    0.180    0.357   12.544
  259.750   96.642  227.488    0.180    0.354   12.662
  260.000   93.332  226.478    0.172    0.357   13.018
  260.250   90.920  225.464    0.130    0.291   13.140
  260.500   91.514  224.953    0.075    0.268   12.205
  260.750   98.418  224.436    0.092    0.269   11.028
  261.000  101.415  224.926    0.133    0.311   10.056
  261.250  103.511  226.415    0.161    0.416    8.920
  261.500  105.607  226.906    0.184    0.445    7.839
  261.750  110.104  226.892    0.199    0.448    7.282
  262.000  110.699  226.884    0.198    0.431    7.487
  262.250  109.489  226.368    0.195    0.408    8.287
  262.500  105.277  225.857    0.190    0.381    9.089
  262.750   99.261  225.346    0.185    0.355   10.440
  263.000   96.250  224.832    0.167    0.327   11.663
  263.250   97.445  224.821    0.158    0.347   12.328
  263.500   98.640  225.308    0.170    0.363   12.675
  263.750   98.630  224.794    0.185    0.394   12.444
  264.000   98.022  224.785    0.187    0.413   12.105
  264.250   97.115  224.772    0.193    0.406   11.884
  264.500   96.807  224.260    0.195    0.402   11.776
  264.750   97.401  223.749    0.193    0.402   11.777
  265.000   98.597  223.736    0.193    0.399   11.778
  265.250   99.489  222.723    0.193    0.395   11.778
  265.500   96.179  222.709    0.192    0.390   12.335
  265.750   92.567  223.197    0.184    0.363   12.800
  266.000   91.056  223.687    0.117    0.325   13.161
  266.250   92.552  223.676    0.089    0.301   13.284
  266.500   96.148  223.665    0.106    0.304   13.042
  266.750   96.444  223.654    0.159    0.334   12.686
  267.000   96.136  224.640    0.177    0.346   12.341
  267.250   96.129  225.633    0.178    0.358   12.005
  267.500   96.122  227.120    0.160    0.359   11.786
  267.750   96.714  227.110    0.152    0.363   11.678
  268.000   97.009  226.598    0.143    0.373   11.466
  268.250   98.203  225.082    0.139    0.393   11.361
  268.500   99.997  224.071    0.140    0.411   11.052
  268.750  102.694  224.059    0.127    0.395   10.850
  269.000  106.894  224.047    0.136    0.369   10.751
  269.250  111.694  224.035    0.144    0.329   10.556
  269.500  114.389  223.021    0.181    0.355   10.459
  269.750  113.482  222.507    0.184    0.391   10.460
  270.000  109.269  222.497    0.181    0.378   10.364
  270.250  109.262  221.984    0.181    0.372   10.176
  270.500  108.654  222.473    0.181    0.380   10.271
  270.750  106.844  224.962    0.170    0.398   10.658
  271.000  102.931  225.454    0.134    0.410   11.370
  271.250   97.816  225.943    0.126    0.399   12.242
  271.500   94.205  226.432    0.116    0.381   13.551
  271.750   97.803  225.917    0.092    0.354   15.421
  272.000  108.610  225.407    0.017    0.233   15.565
  272.250  112.209  225.893    0.117    0.263   15.423
  272.500  110.700  225.880    0.164    0.334   13.935
  272.750  104.084  225.870    0.175    0.366   13.186
  273.000  103.174  225.859    0.149    0.373   14.197
  273.250  104.067  225.846    0.140    0.339   14.198
  273.500  104.662  225.335    0.134    0.325   13.684
  273.750  104.054  224.321    0.155    0.351   13.435
  274.000  102.844  222.808    0.178    0.365   13.941
  274.250   99.835  222.795    0.184    0.373   14.334
  274.500   93.819  222.783    0.166    0.334   15.433
  274.750   92.611  222.770    0.136    0.295   16.015
  275.000   97.110  223.261    0.052    0.230   15.869
  275.250  102.811  225.751    0.098    0.245   15.154
  275.500  103.704  229.244    0.171    0.324   13.947
  275.750   99.490  228.731    0.182    0.328   13.567
  276.000   99.483  225.213    0.158    0.332   13.443
  276.250  100.679  221.697    0.163    0.343   13.444
  276.500  102.775  219.685    0.164    0.356   13.696
  276.750  106.673  218.668    0.151    0.369   13.200
  277.000  111.172  218.155    0.151    0.380   12.037
  277.250  114.169  219.148    0.160    0.374   10.977
  277.500  113.862  221.139    0.179    0.363   10.580
  277.750  105.442  224.128    0.186    0.362    9.828
  278.000   96.723  225.620    0.164    0.387    9.213
  278.250  100.922  226.111    0.135    0.406    8.798
  278.500  112.631  225.098    0.123    0.426    8.480
  278.750  117.730  223.582    0.144    0.455    8.098
  279.000  117.724  223.070    0.180    0.438    8.174
  279.250  117.417  223.557    0.158    0.405    8.404
  279.500  117.409  223.547    0.140    0.383    8.405
  279.750  117.403  224.035    0.133    0.436    8.483
  280.000  117.995  224.024    0.138    0.447    8.722
  280.250  118.588  224.011    0.158    0.480    8.967
  280.500  118.883  225.002    0.163    0.450    9.051
  280.750  117.373  225.990    0.168    0.422    9.392
  281.000  106.552  227.479    0.167    0.375    9.836
  281.250   90.022  226.967    0.160    0.374   10.591
  281.500   74.092  225.453    0.160    0.389   11.832
  281.750   65.072  224.942    0.168    0.377   13.971
  282.000   57.855  221.423    0.173    0.367   15.465
  282.250   51.539  220.410    0.162    0.364   19.301
