~VERSION INFORMATION
 VERS.                 2.0:   CWLS LOG ASCII STANDARD -VERSION 2.0
 WRAP.                  NO:   ONE LINE PER DEPTH STEP
~WELL INFORMATION BLOCK
#MNEM.UNIT           DATA                    DESCRIPTION OF MNEMONIC
#---------    -------------------            -------------------------------
# Generated from Intellog Unique Number	CN_94_101/WELL/2374
WELL.         01-22-100-13W4                 : Well_name    - WELL
LOC .         AA/01-22-100-13W4/0            : Location     - LOCATION
UWI .         AA/01-22-100-13W400            : Uwi          - UNIQUE WELL ID
ENTR.         TIM                            : Entered      - ENTERED BY
SRVC.         SCHLUMBERGER                   : Scn          - SERVICE COMPANY
DATE.         08/13/92                       : Date         - LOG DATE
STRT.M        320.04                         : top_depth    - START DEPTH
STOP.M        542.54                         : bot_depth    - STOP DEPTH
STEP.M        0.25                           : increment    - STEP LENGTH
 NULL. -999.2500:NULL Value
~CURVE INFORMATION BLOCK
#MNEM UNIT       ERCB CURVE CODE    CURVE DESCRIPTION
#-----------   ------------------   ----------------------------------
DEPT.M        00 001 00 00         : DEPTH        - DEPTH
NPHI.V/V      00 330 00 00         : PHIN         - NEUTRON POROSITY (SANDSTONE)
ILD .OHMM     00 120 00 00         : RESD         - DEEP RESISTIVITY (DIL)
GR  .API      00 310 00 00         : GR           - GAMMA RAY
~PARAMETER INFORMATION
#MNEM.UNIT           DATA             DESCRIPTION OF MNEMONIC
#---------         -----------     ------------------------------
GL  .M        768.706              : gl           - GROUND LEVEL ELEVATION
EREF.M        772.058              : kb           - ELEVATION OF DEPTH REFERENCE
DATM.M        772.058              : datum        - DATUM ELEVATION
TDD .M        544.068              : tdd          - TOTAL DEPTH DRILLER
RUN .         ONE                  : Run          - RUN NUMBER
ENG .         JO                   : Engineer     - RECORDING ENGINEER
WIT .         TIM                  : Witness      - WITNESSED BY
MUD .         GEL                  : Mud_type     - MUD TYPE
MATR.         SANDSTONE            : Logunit      - NEUTRON MATRIX
TMAX.C        21.1111              : BHT          - MAXIMUM RECORDED TEMPERATURE
BHTD.M        544.068              : BHTDEP       - MAXIMUM RECORDED TEMPERATURE
RMT .C        7.22222              : MDTP         - TEMPERATURE OF MUD
MUDD.KG/M     9400                 : MWT          - MUD DENSITY
NEUT.         1                    : NEUTRON      - NEUTRON TYPE
RESI.         0                    : RESIST       - RESISTIVITY TYPE
RM  .OHMM     11                   : RM           - RESISTIVITY OF MUD
RMC .OHMM     7.07                 : RMC          - RESISTIVITY OF MUD CAKE
RMF .OHMM     7.07                 : RMF          - RESISTIVITY OF MUD FILTRATE
SUFT.C        4                    : SUFT         - SURFACE TEMPERATURE
~A  DEPTH     PHIN     RESD       GR
  320.040    0.562    2.953  106.638
  320.290    0.563    3.133  105.064
  320.540    0.563    3.195  107.813
  320.790    0.562    3.458  107.416
  321.040    0.558    3.132  106.235
  321.290    0.555    3.258  104.660
  321.540    0.551    3.323  105.836
  321.790    0.546    3.322  106.621
  322.040    0.542    3.322  107.405
  322.290    0.541    3.257  107.795
  322.540    0.539    3.193  107.792
  322.790    0.535    3.068  107.004
  323.040    0.528    2.891  104.250
  323.290    0.531    2.834  103.462
  323.540    0.534    2.724  102.281
  323.790    0.538    2.670  100.706
  324.040    0.541    2.670   99.918
  324.290    0.545    2.566   98.343
  324.540    0.548    2.466   97.948
  324.790    0.551    2.370   99.517
  325.040    0.553    2.233   99.907
  325.290    0.553    2.104   99.904
  325.540    0.552    2.063   99.903
  325.790    0.551    2.063   99.507
  326.040    0.548    2.188   99.112
  326.290    0.545    2.369   98.324
  326.540    0.542    2.563   95.570
  326.790    0.539    2.830   93.603
  327.040    0.539    3.003   91.635
  327.290    0.538    3.186   91.632
  327.540    0.535    3.250   91.629
  327.790    0.534    3.249   92.020
  328.040    0.532    3.061   92.804
  328.290    0.529    2.773   94.374
  328.540    0.529    2.462   95.157
  328.790    0.531    2.320   96.334
  329.040    0.534    2.229   97.117
  329.290    0.535    2.101   97.115
  329.540    0.538    2.059   96.719
  329.790    0.533    1.979   95.930
  330.040    0.529    2.059   94.356
  330.290    0.521    2.185   89.637
  330.540    0.514    2.364   86.098
  330.790    0.502    2.715   83.345
  331.040    0.490    3.119   83.736
  331.290    0.478    3.512   85.698
  331.540    0.470    4.114   86.088
  331.790    0.466    4.632   86.872
  332.040    0.471    4.632   88.441
  332.290    0.483    4.451   90.404
  332.540    0.493    3.952   91.188
  332.790    0.507    3.651   93.543
  333.040    0.519    3.116   93.148
  333.290    0.532    2.822   91.966
  333.540    0.549    2.556   91.177
  333.790    0.562    2.315   91.175
  334.040    0.570    2.181   91.958
  334.290    0.569    2.181   92.349
  334.540    0.560    2.360   93.526
  334.790    0.546    2.504   94.702
  335.040    0.539    2.605   96.665
  335.290    0.539    2.657   98.628
  335.540    0.540    2.605  102.163
  335.790    0.540    2.503  101.374
  336.040    0.539    2.359  100.193
  336.290    0.538    2.136   96.653
  336.540    0.536    1.974   93.507
  336.790    0.536    1.752   92.325
  337.040    0.536    1.684   92.323
  337.290    0.536    1.587   91.927
  337.540    0.536    1.556   90.353
  337.790    0.532    1.555   87.599
  338.040    0.525    1.650   84.452
  338.290    0.515    1.858   81.699
  338.540    0.504    1.972   79.731
  338.790    0.491    2.177   79.729
  339.040    0.483    2.310   80.906
  339.290    0.477    2.500   82.475
  339.540    0.468    2.499   84.831
  339.790    0.464    2.355   89.544
  340.040    0.485    2.133   94.258
  340.290    0.522    2.010   93.469
  340.540    0.539    2.010   91.502
  340.790    0.525    2.091   84.425
  341.040    0.505    2.354   71.061
  341.290    0.488    2.548   67.127
  341.540    0.475    2.812   75.379
  341.790    0.478    2.703   80.092
  342.040    0.498    2.598   83.233
  342.290    0.512    2.353   87.948
  342.540    0.529    2.261   91.876
  342.790    0.559    2.130   94.231
  343.040    0.550    2.007   95.014
  343.290    0.547    1.929   94.619
  343.540    0.546    1.818   93.830
  343.790    0.546    1.818   93.435
  344.040    0.547    1.929   92.647
  344.290    0.546    2.129   91.464
  344.540    0.536    2.259   90.677
  344.790    0.522    2.304   90.281
  345.040    0.508    2.397   89.885
  345.290    0.499    2.543   89.884
  345.540    0.498    2.752   90.666
  345.790    0.494    2.807   91.058
  346.040    0.488    2.863   93.020
  346.290    0.485    2.807   96.162
  346.540    0.492    2.698  100.483
  346.790    0.498    2.492  100.872
  347.040    0.511    2.443  100.477
  347.290    0.519    2.348  100.082
  347.540    0.522    2.347   99.294
  347.790    0.523    2.394   97.718
  348.040    0.523    2.540   97.323
  348.290    0.523    2.643   96.536
  348.540    0.519    2.860   95.353
  348.790    0.513    3.035   94.565
  349.040    0.509    3.220   94.170
  349.290    0.506    3.350   92.987
  349.540    0.502    3.625   92.593
  349.790    0.499    3.698   91.804
  350.040    0.496    3.771   92.195
  350.290    0.494    3.771   92.586
  350.540    0.492    3.770   93.369
  350.790    0.494    3.696   93.760
  351.040    0.498    3.623   93.364
  351.290    0.499    3.482   92.576
  351.540    0.503    3.482   91.787
  351.790    0.503    3.481   90.213
  352.040    0.503    3.481   87.459
  352.290    0.503    3.481   85.492
  352.540    0.503    3.621   84.309
  352.790    0.506    3.693   84.307
  353.040    0.512    3.693   84.305
  353.290    0.519    3.692   84.696
  353.540    0.526    3.411   86.658
  353.790    0.530    2.969   90.193
  354.040    0.534    2.636   93.335
  354.290    0.537    2.435   94.905
  354.540    0.536    2.206   94.902
  354.790    0.533    2.078   94.506
  355.040    0.523    2.037   94.504
  355.290    0.505    1.958   93.322
  355.540    0.493    1.997   92.533
  355.790    0.492    2.077   91.746
  356.040    0.489    2.248   90.957
  356.290    0.488    2.386   90.169
  356.540    0.486    2.531   89.379
  356.790    0.484    2.740   88.591
  357.040    0.478    2.907   87.409
  357.290    0.474    3.084   86.621
  357.540    0.469    3.209   85.832
  357.790    0.462    3.405   83.865
  358.040    0.454    3.472   81.112
  358.290    0.447    3.541   76.787
  358.540    0.441    3.612   82.679
  358.790    0.451    3.684   87.393
  359.040    0.467    3.757   88.962
  359.290    0.483    3.908   89.353
  359.540    0.495    3.908   89.350
  359.790    0.500    3.907   88.561
  360.040    0.503    3.682   88.167
  360.290    0.505    3.538   87.770
  360.540    0.506    3.401   87.376
  360.790    0.507    3.400   86.981
  361.040    0.510    3.468   86.585
  361.290    0.512    3.537   85.010
  361.540    0.516    3.607   83.434
  361.790    0.519    3.536   82.647
  362.040    0.522    3.466   82.644
  362.290    0.522    3.202   83.035
  362.540    0.523    3.078   83.819
  362.790    0.523    2.733   85.388
  363.040    0.523    2.575   86.565
  363.290    0.523    2.332   88.921
  363.540    0.521    2.286   91.276
  363.790    0.517    2.154   92.845
  364.040    0.514    2.154   92.844
  364.290    0.510    2.154   92.448
  364.540    0.509    2.196   92.053
  364.790    0.507    2.240   91.657
  365.040    0.506    2.330   92.047
  365.290    0.506    2.377   93.618
  365.540    0.506    2.424  100.296
  365.790    0.510    2.376  105.009
  366.040    0.520    2.239  106.186
  366.290    0.530    2.152  106.184
  366.540    0.540    1.988  105.002
  366.790    0.555    1.873  104.607
  367.040    0.567    1.800  103.819
  367.290    0.574    1.765  103.030
  367.540    0.576    1.764  103.027
  367.790    0.547    1.835  102.631
  368.040    0.538    1.947  102.630
  368.290    0.538    1.986  102.627
  368.540    0.540    2.108  102.232
  368.790    0.541    2.149  101.442
  369.040    0.541    2.192  101.047
  369.290    0.540    2.192   99.866
  369.540    0.537    2.192   99.078
  369.790    0.534    2.192   99.861
  370.040    0.531    2.148   99.465
  370.290    0.528    2.106   96.712
  370.540    0.521    2.065   91.208
  370.790    0.517    2.064   92.777
  371.040    0.514    2.105   97.098
  371.290    0.514    2.190   97.096
  371.540    0.511    2.324   93.163
  371.790    0.499    2.370   84.121
  372.040    0.482    2.722   75.472
  372.290    0.466    2.946   66.037
  372.540    0.454    3.317   56.209
  372.790    0.445    4.124   58.565
  373.040    0.441    5.549   65.637
  373.290    0.445    6.630   71.530
  373.540    0.455    6.762   82.925
  373.790    0.463    6.004   88.817
  374.040    0.476    5.657   89.993
