~VERSION INFORMATION
 VERS.                 2.0:   CWLS LOG ASCII STANDARD -VERSION 2.0
 WRAP.                  NO:   ONE LINE PER DEPTH STEP
~WELL INFORMATION BLOCK
#MNEM.UNIT           DATA                    DESCRIPTION OF MNEMONIC
#---------    -------------------            -------------------------------
# Generated from Intellog Unique Number	CN_91_93/WELL/2928
WELL.         MILL CITY                      : Well_name    - WELL
LOC .         AA/04-05-092-11W4/0            : Location     - LOCATION
UWI .         AA/04-05-092-11W400            : Uwi          - UNIQUE WELL ID
ENTR.         JOETTE                         : Entered      - ENTERED BY
SRVC.         SCHLUMBERGER                   : Scn          - SERVICE COMPANY
DATE.         03\31\92                       : Date         - LOG DATE
STRT.F        30                             : top_depth    - START DEPTH
STOP.F        409.757                        : bot_depth    - STOP DEPTH
STEP.F        0.8202                         : increment    - STEP LENGTH
 NULL. -999.2500:NULL Value
~CURVE INFORMATION BLOCK
#MNEM UNIT       ERCB CURVE CODE    CURVE DESCRIPTION
#-----------   ------------------   ----------------------------------
DEPT.F        00 001 00 00         : DEPTH        - DEPTH
GR  .API      00 310 00 00         : GR           - GAMMA RAY
NPHI.V/V      00 330 00 00         : PHIN         - NEUTRON POROSITY (SANDSTONE)
ILD .OHMM     00 120 00 00         : RESD         - DEEP RESISTIVITY (DIL)
~PARAMETER INFORMATION
#MNEM.UNIT           DATA             DESCRIPTION OF MNEMONIC
#---------         -----------     ------------------------------
GL  .M        393.101              : gl           - GROUND LEVEL ELEVATION
EREF.M        393.101              : kb           - ELEVATION OF DEPTH REFERENCE
DATM.M        393.101              : datum        - DATUM ELEVATION
TDD .M        125.273              : tdd          - TOTAL DEPTH DRILLER
RUN .         ONE                  : Run          - RUN NUMBER
ENG .         JO                   : Engineer     - RECORDING ENGINEER
WIT .         TIM                  : Witness      - WITNESSED BY
MUD .         GEL                  : Mud_type     - MUD TYPE
MATR.         SANDSTONE            : Logunit      - NEUTRON MATRIX
TMAX.C        15                   : BHT          - MAXIMUM RECORDED TEMPERATURE
BHTD.M        125.273              : BHTDEP       - MAXIMUM RECORDED TEMPERATURE
RMT .C        6.66667              : MDTP         - TEMPERATURE OF MUD
MUDD.KG/M     9000                 : MWT          - MUD DENSITY
NEUT.         1                    : NEUTRON      - NEUTRON TYPE
RESI.         0                    : RESIST       - RESISTIVITY TYPE
RM  .OHMM     6.7                  : RM           - RESISTIVITY OF MUD
RMC .OHMM     6.7                  : RMC          - RESISTIVITY OF MUD CAKE
RMF .OHMM     6.7                  : RMF          - RESISTIVITY OF MUD FILTRATE
SUFT.C        4                    : SUFT         - SURFACE TEMPERATURE
~A  DEPTH       GR     PHIN     RESD
# ...
  207.986   73.281    0.472   15.340
  208.806   72.132    0.456   15.436
  209.626   67.727    0.432   15.826
  210.446   62.855    0.391   15.041
  211.266   65.196    0.455   19.247
  212.087   68.469    0.465   27.073
  212.907   68.252    0.453   26.582
  213.727   68.736    0.482   15.425
  214.547   69.444    0.475   15.325
  215.367   68.299    0.508   15.127
  216.188   68.777    0.480   14.049
  217.008   70.188    0.474   12.678
  217.828   69.740    0.478   12.187
  218.648   70.682    0.486   12.184
  219.469   72.327    0.492   11.595
  220.289   68.618    0.500   10.321
  221.109   69.100    0.447   10.711
  221.929   71.676    0.459   13.547
  222.749   70.990    0.511   14.425
  223.570   70.076    0.497   15.109
  224.390   70.558    0.487   14.226
  225.210   72.199    0.496   15.007
  226.030   69.654    0.472   13.733
  226.850   68.041    0.490   12.752
  227.671   69.219    0.471   13.142
  228.491   69.468    0.495   12.553
  229.311   69.250    0.496   12.551
  230.131   71.359    0.493   13.626
  230.951   72.767    0.484   13.819
  231.772   72.786    0.475   13.132
  232.592   71.868    0.487   13.130
  233.412   69.090    0.497   13.422
  234.232   66.545    0.494   13.420
  235.052   64.465    0.455   13.125
  235.873   62.852    0.458   12.927
  236.693   63.799    0.463   13.121
  237.513   65.675    0.531   15.859
  238.333   66.621    0.553   14.781
  239.154   67.100    0.530   10.669
  239.974   68.978    0.525    7.731
  240.794   71.552    0.521    7.240
  241.614   72.732    0.492    6.847
  242.434   72.981    0.496    7.922
  243.255   71.596    0.520    9.877
  244.075   67.423    0.505   11.049
  244.895   65.575    0.450   11.928
  245.715   64.195    0.478   12.024
  246.535   63.744    0.460   11.533
  247.356   62.129    0.485   13.292
  248.176   60.982    0.549   13.584
  248.996   59.835    0.590   15.343
  249.816   53.565    0.573   19.255
  250.636   54.045    0.571    9.762
  251.457   57.782    0.578    7.509
  252.277   58.264    0.577    6.823
  253.097   55.952    0.543    6.625
  253.917   54.337    0.529    6.819
  254.738   56.217    0.486    7.208
  255.558   58.091    0.464    7.989
  256.378   59.502    0.503    8.868
  257.198   58.587    0.493   10.236
  258.018   58.134    0.490   11.310
  258.839   58.850    0.495   10.134
  259.659   60.028    0.488    9.839
  260.479   61.670    0.471   11.207
  261.299   64.249    0.533   12.575
  262.119   65.424    0.534   12.475
  262.940   65.903    0.518   13.843
  263.760   66.152    0.545   14.428
  264.580   66.634    0.525   10.610
  265.400   66.881    0.521    8.260
  266.220   66.897    0.520    7.866
  267.041   65.979    0.533    8.060
  267.861   64.832    0.503    8.156
  268.681   63.916    0.505    8.154
  269.501   63.928    0.505    8.250
  270.322   64.410    0.525    8.444
  271.142   66.055    0.501    8.736
  271.962   67.000    0.506    9.027
  272.782   67.713    0.526    8.536
  273.602   68.891    0.535    8.143
  274.423   69.605    0.537    8.924
  275.243   67.758    0.516    9.998
  276.063   63.117    0.488    8.626
  276.883   57.782    0.457    8.037
  277.703   55.933    0.438    8.622
  278.524   58.043    0.439   12.437
  279.344   55.033    0.421   18.012
  280.164   43.180    0.390   13.999
  280.984   27.370    0.352   13.214
  281.804   18.779    0.329   16.049
  282.625   20.420    0.340   18.690
  283.445   20.204    0.315   56.164
  284.265   19.287    0.348   76.417
  285.085   20.696    0.339   71.425
  285.906   23.041    0.401   68.389
  286.726   25.148    0.389   67.703
  287.546   28.420    0.387   40.401
  288.366   32.857    0.364   31.984
  289.186   35.897    0.398   22.001
  290.007   38.242    0.401   17.107
  290.827   39.885    0.400   16.127
  291.647   43.388    0.396   16.125
  292.467   48.058    0.388   20.624
  293.287   52.493    0.435   19.839
  294.108   57.394    0.441   17.978
  294.928   62.530    0.462   19.346
  295.748   65.338    0.442   17.779
  296.568   63.724    0.448   15.624
  297.388   60.948    0.455   14.643
  298.209   64.220    0.469   14.055
  299.029   65.396    0.491   14.053
  299.849   66.810    0.479   14.051
  300.669   67.055    0.485   13.266
  301.490   63.814    0.441   12.383
  302.310   60.104    0.420   11.794
  303.130   57.559    0.438   11.793
  303.950   55.944    0.420   12.378
  304.770   55.033    0.433   13.550
  305.591   55.511    0.416   14.820
  306.411   57.153    0.420   16.188
  307.231   60.196    0.441   15.697
  308.051   60.908    0.455   14.032
  308.871   61.154    0.439   13.443
  309.692   63.497    0.461   14.713
  310.512   65.140    0.453   13.733
  311.332   63.060    0.454   13.046
  312.152   65.171    0.483   13.630
  312.972   67.514    0.454   13.335
  313.793   69.854    0.471   12.648
  314.613   72.428    0.470   12.451
  315.433   72.446    0.470   12.253
  316.253   70.829    0.482   11.664
  317.073   67.819    0.461   11.271
  317.894   64.810    0.468   11.073
  318.714   64.590    0.472   10.974
  319.534   64.839    0.450   11.461
  320.354   64.854    0.470   12.339
  321.175   65.101    0.468   12.729
  321.995   65.115    0.487   13.314
  322.815   67.226    0.453   13.704
  323.635   66.777    0.471   14.094
  324.455   60.972    0.449   13.406
  325.276   31.201    0.410   13.306
  326.096   23.306    0.373   14.675
  326.916   24.484    0.395   14.379
  327.736   30.315    0.378   12.616
  328.556   40.803    0.382   16.920
  329.377   55.011    0.407   25.529
  330.197   60.612    0.371   42.846
  331.017   62.955    0.342   45.584
  331.837   64.596    0.379   19.065
  332.657   53.209    0.387   16.812
  333.478   49.501    0.362   20.039
  334.298   53.938    0.385   20.918
  335.118   58.142    0.408   18.861
  335.938   61.414    0.430   17.000
  336.759   63.990    0.404   19.640
  337.579   61.211    0.401   23.357
  338.399   52.383    0.397   22.572
  339.219   51.467    0.409   22.081
  340.039   56.137    0.390   17.969
  340.860   56.849    0.385   17.576
  341.680   52.675    0.365   16.889
  342.500   51.992    0.376   19.040
  343.320   57.825    0.372   24.909
  344.140   62.495    0.400   22.265
  344.961   61.579    0.391   16.979
  345.781   60.895    0.377   22.751
  346.601   57.652    0.396   20.987
  347.421   60.226    0.379   17.659
  348.241   62.337    0.412   20.690
  349.062   55.836    0.444   19.514
  349.882   49.570    0.413   19.512
  350.702   51.444    0.396   21.075
  351.522   54.483    0.381   19.508
  352.343   56.361    0.383   17.647
  353.163   52.652    0.378   20.679
  353.983   48.015    0.404   26.156
  354.803   45.703    0.385   26.057
  355.623   44.321    0.374   22.239
  356.444   43.174    0.371   21.552
  357.264   41.094    0.368   21.549
  358.084   30.868    0.334   20.863
  358.904   24.602    0.318   21.644
  359.724   25.080    0.342   22.131
  360.545   27.654    0.377   23.303
  361.365   31.393    0.370   40.523
  362.185   33.271    0.395   94.240
  363.005   36.076    0.397   94.043
  363.825   37.721    0.386   88.366
  364.646   32.849    0.386   74.175
  365.466   29.141    0.372   68.400
  366.286   30.786    0.363   47.850
  367.106   31.500    0.372   43.249
  367.927   31.513    0.372   63.894
  368.747   32.923    0.351   72.405
  369.567   30.378    0.372   76.708
  370.387   31.323    0.363   68.291
  371.207   37.389    0.354   66.919
  372.028   38.800    0.342   75.430
  372.848   35.328    0.339   81.593
  373.668   33.477    0.340   69.555
  374.488   31.166    0.353   68.086
  375.308   32.344    0.363   63.681
  376.129   34.918    0.351   66.712
  376.949   36.796    0.380   68.667
  377.769   36.811    0.392   78.744
  378.589   33.568    0.360   68.076
  379.409   30.328    0.356   48.700
  380.230   31.037    0.355   42.143
  381.050   35.009    0.359   58.579
  381.870   41.306    0.369   71.885
  382.690   46.441    0.350   80.787
  383.510   47.621    0.347   56.323
  384.331   46.470    0.393   33.131
  385.151   45.554    0.386   35.282
