~VERSION INFORMATION
 VERS.                 2.0:   CWLS LOG ASCII STANDARD -VERSION 2.0
 WRAP.                  NO:   ONE LINE PER DEPTH STEP
~WELL INFORMATION BLOCK
#MNEM.UNIT           DATA                    DESCRIPTION OF MNEMONIC
#---------    -------------------            -------------------------------
# Generated from Intellog Unique Number	CN_94_101/WELL/2379
WELL.         02-21-097-11W4                 : Well_name    - WELL
LOC .         AA/02-21-097-11W4/0            : Location     - LOCATION
UWI .         AA/02-21-097-11W400            : Uwi          - UNIQUE WELL ID
ENTR.         JOETTE                         : Entered      - ENTERED BY
SRVC.         SCHLUMBERGER                   : Scn          - SERVICE COMPANY
DATE.         08/13/92                       : Date         - LOG DATE
STRT.M        5                              : top_depth    - START DEPTH
STOP.M        120                            : bot_depth    - STOP DEPTH
STEP.M        0.25                           : increment    - STEP LENGTH
 NULL. -999.2500:NULL Value
~CURVE INFORMATION BLOCK
#MNEM UNIT       ERCB CURVE CODE    CURVE DESCRIPTION
#-----------   ------------------   ----------------------------------
DEPT.M        00 001 00 00         : DEPTH        - DEPTH
DPHI.V/V      00 890 00 00         : PHID         - DENSITY POROSITY (SANDSTONE)
NPHI.V/V      00 330 00 00         : PHIN         - NEUTRON POROSITY (SANDSTONE)
ILD .OHMM     00 120 00 00         : RESD         - DEEP RESISTIVITY (DIL)
GR  .API      00 310 00 00         : GR           - GAMMA RAY
~PARAMETER INFORMATION
#MNEM.UNIT           DATA             DESCRIPTION OF MNEMONIC
#---------         -----------     ------------------------------
GL  .M        336.25               : gl           - GROUND LEVEL ELEVATION
EREF.M        336.25               : kb           - ELEVATION OF DEPTH REFERENCE
DATM.M        336.25               : datum        - DATUM ELEVATION
TDD .M        118.8                : tdd          - TOTAL DEPTH DRILLER
RUN .         ONE                  : Run          - RUN NUMBER
ENG .         JO                   : Engineer     - RECORDING ENGINEER
WIT .         TIM                  : Witness      - WITNESSED BY
MUD .         GEL                  : Mud_type     - MUD TYPE
MATR.         SANDSTONE            : Logunit      - NEUTRON MATRIX
TMAX.C        15                   : BHT          - MAXIMUM RECORDED TEMPERATURE
BHTD.M        118.8                : BHTDEP       - MAXIMUM RECORDED TEMPERATURE
RMT .C        15                   : MDTP         - TEMPERATURE OF MUD
MUDD.KG/M     1000                 : MWT          - MUD DENSITY
NEUT.         1                    : NEUTRON      - NEUTRON TYPE
RESI.         0                    : RESIST       - RESISTIVITY TYPE
RM  .OHMM     13.8                 : RM           - RESISTIVITY OF MUD
RMC .OHMM     13.8                 : RMC          - RESISTIVITY OF MUD CAKE
RMF .OHMM     13.8                 : RMF          - RESISTIVITY OF MUD FILTRATE
SUFT.C        4                    : SUFT         - SURFACE TEMPERATURE
~A  DEPTH     PHID     PHIN     RESD       GR
# ...
   48.500    0.249    0.515   31.238   87.376
   48.750    0.245    0.519   29.543   81.334
   49.000    0.287    0.525   29.148   78.936
   49.250    0.397    0.525   31.315   84.428
   49.500    0.339    0.524   32.229   88.700
   49.750    0.356    0.521   33.648   88.122
   50.000    0.287    0.515   33.671   85.118
   50.250    0.251    0.507   33.216   89.996
   50.500    0.218    0.485   32.313   94.882
   50.750    0.239    0.493   31.441   91.878
   51.000    0.292    0.501   31.027   88.868
   51.250    0.337    0.504   31.038   85.871
   51.500    0.274    0.499   31.512   89.530
   51.750    0.246    0.500   31.523   89.558
   52.000    0.283    0.502   31.103   89.586
   52.250    0.300    0.501   29.838   90.826
   52.500    0.306    0.500   29.027   85.398
   52.750    0.275    0.500   29.456   86.032
   53.000    0.243    0.501   31.645   89.098
   53.250    0.247    0.504   32.112   87.308
   53.500    0.272    0.504   32.146   87.942
   53.750    0.205    0.504   32.151   92.207
   54.000    0.168    0.502   31.283   88.597
   54.250    0.147    0.504   30.866   87.412
   54.500    0.202    0.499   30.449   89.266
   54.750    0.219    0.490   30.909   91.113
   55.000    0.216    0.459   31.817   85.071
   55.250    0.223    0.453   32.757   80.249
   55.500    0.171    0.462   32.769   77.245
   55.750    0.189    0.481   32.791   83.942
   56.000    0.191    0.492   33.287   82.758
   56.250    0.211    0.500   34.265   81.573
   56.500    0.251    0.498   34.789   84.639
   56.750    0.258    0.491   34.801   81.023
   57.000    0.315    0.489   33.855   81.657
   57.250    0.238    0.493   36.358   84.730
   57.500    0.228    0.497   39.047   85.964
   57.750    0.198    0.497   36.409   83.567
   58.000    0.149    0.497   33.950   83.595
   58.250    0.248    0.499   30.343   90.292
   58.500    0.232    0.501   27.897   89.713
   58.750    0.225    0.505   25.288   90.348
   59.000    0.229    0.498   24.601   94.020
   59.250    0.228    0.487   26.796   95.254
   59.500    0.185    0.466   30.455   95.289
   59.750    0.176    0.420   33.638   90.466
   60.000    0.203    0.399   38.769   85.031
   60.250    0.246    0.388   42.829   79.003
   60.500    0.244    0.388   52.231   81.449
   60.750    0.131    0.388   61.934   85.115
   61.000    0.135    0.381   65.603   80.292
   61.250    0.108    0.370   65.626   76.690
   61.500    0.094    0.392   65.672   76.718
   61.750    0.143    0.359   66.676   76.739
   62.000    0.248    0.351   66.711   76.766
   62.250    0.089    0.394   68.671   82.251
   62.500    0.113    0.404   69.684   76.216
   62.750    0.118    0.398   69.733   79.275
   63.000    0.098    0.405   67.850   72.634
   63.250    0.120    0.383   64.156   75.087
   63.500    0.116    0.412   58.994   82.997
   63.750    0.174    0.414   57.380   85.450
   64.000    0.192    0.469   53.505   78.203
   64.250    0.142    0.483   48.518   73.994
   64.500    0.120    0.474   45.868   81.290
   64.750    0.117    0.475   42.170   86.775
   65.000    0.125    0.466   39.888   95.305
   65.250    0.151    0.469   39.916   94.719
   65.500    0.180    0.462   40.520   98.385
   65.750    0.180    0.480   40.534   92.956
   66.000    0.157    0.479   40.569   90.559
   66.250    0.148    0.471   40.598   89.981
   66.500    0.144    0.479   40.633   91.828
   66.750    0.154    0.484   40.077   91.856
   67.000    0.165    0.479   37.377   91.277
   67.250    0.165    0.495   36.355   97.368
   67.500    0.176    0.498   34.870   94.365
   67.750    0.246    0.472   34.417   95.605
   68.000    0.358    0.472   34.441   98.665
   68.250    0.264    0.492   33.970  117.501
   68.500    0.142    0.488   32.595  105.390
   68.750    0.156    0.493   32.154   94.504
   69.000    0.164    0.495   31.731   94.532
   69.250    0.169    0.484   31.748   90.316
   69.500    0.136    0.492   32.216   90.951
   69.750    0.138    0.491   32.709   92.191
   70.000    0.129    0.480   33.192   98.282
   70.250    0.130    0.480   33.693   92.853
   70.500    0.168    0.477   34.671   89.243
   70.750    0.155    0.471   35.195   90.484
   71.000    0.150    0.491   35.213   92.331
   71.250    0.143    0.476   34.750   86.902
   71.500    0.138    0.464   34.292   91.780
   71.750    0.181    0.468   34.304   92.415
   72.000    0.161    0.436   34.817   91.836
   72.250    0.157    0.440   35.846   90.666
   72.500    0.179    0.476   37.424   92.505
   72.750    0.190    0.484   37.976   94.959
   73.000    0.176    0.478   40.784   88.317
   73.250    0.186    0.485   48.360   82.896
   73.500    0.219    0.491   90.102   82.303
   73.750    0.277    0.485  124.780   87.189
   74.000    0.270    0.488  128.468   93.280
   74.250    0.271    0.479  121.474  103.614
   74.500    0.270    0.492  104.064   96.367
   74.750    0.266    0.492   79.623   96.395
   75.000    0.257    0.493   69.182   96.430
   75.250    0.233    0.493   60.110   96.451
   75.500    0.304    0.482   50.772   91.022
   75.750    0.291    0.490   54.526   96.507
   76.000    0.285    0.489   96.009   89.259
   76.250    0.282    0.488  157.550   95.350
   76.500    0.282    0.484  189.476   95.984
   76.750    0.279    0.479  176.678   88.737
   77.000    0.288    0.494  162.405   85.127
   77.250    0.285    0.489  127.823   90.005
   77.500    0.271    0.484   89.853   87.608
   77.750    0.274    0.474   79.168   80.967
   78.000    0.277    0.470   70.757   87.058
   78.250    0.269    0.480   63.251   99.211
   78.500    0.243    0.492   57.326   93.790
   78.750    0.201    0.485   52.704   91.386
   79.000    0.169    0.487   48.455   96.264
   79.250    0.204    0.496   42.700   96.898
   79.500    0.230    0.501   38.164   94.501
   79.750    0.233    0.501   34.115  102.418
   80.000    0.236    0.498   31.359  107.902
   80.250    0.198    0.501   32.286  110.962
   80.500    0.202    0.502   34.181  113.415
   80.750    0.177    0.502   32.326  109.199
   81.000    0.201    0.497   29.719  108.620
   81.250    0.227    0.495   27.333  109.861
   81.500    0.208    0.497   26.581  105.645
   81.750    0.200    0.496   25.138  109.917
   82.000    0.203    0.496   24.455  111.771
   82.250    0.202    0.496   23.794  114.217
   82.500    0.208    0.496   23.807  114.851
   82.750    0.212    0.495   23.160  119.123
   83.000    0.193    0.487   22.859  112.482
   83.250    0.216    0.489   22.871  120.391
   83.500    0.222    0.496   23.539  117.388
   83.750    0.170    0.491   23.555  115.597
   84.000    0.180    0.485   23.245  114.419
   84.250    0.195    0.486   22.931  114.440
   84.500    0.247    0.489   22.312  118.113
   84.750    0.240    0.495   21.701  114.510
   85.000    0.239    0.493   21.416  112.712
   85.250    0.247    0.488   21.431  114.559
   85.500    0.256    0.494   22.056  110.343
   85.750    0.251    0.499   23.355  106.127
   86.000    0.229    0.498   24.041  109.186
   86.250    0.224    0.497   24.756  107.395
   86.500    0.232    0.495   24.765  108.030
   86.750    0.241    0.490   24.443  109.877
   87.000    0.242    0.495   24.451  109.298
   87.250    0.244    0.496   24.468  110.539
   87.500    0.250    0.496   26.656  111.779
   87.750    0.249    0.494   29.872  108.169
   88.000    0.232    0.490   31.181   99.103
   88.250    0.240    0.492   33.486   96.100
   88.500    0.248    0.495   35.458   99.159
   88.750    0.248    0.492   37.545   99.187
   89.000    0.248    0.491   35.508  105.278
   89.250    0.250    0.492   32.650  104.093
   89.500    0.251    0.495   31.758  103.515
   89.750    0.253    0.496   34.597  101.724
   90.000    0.259    0.496   37.683  100.539
   90.250    0.259    0.494   39.335   98.755
   90.500    0.252    0.486   34.189  101.202
   90.750    0.252    0.479   33.248   98.804
   91.000    0.251    0.484   31.444  103.076
   91.250    0.245    0.492   29.737  108.561
   91.500    0.234    0.491   28.123  107.383
   91.750    0.222    0.494   26.228  109.829
