~VERSION INFORMATION
 VERS.                 2.0:   CWLS LOG ASCII STANDARD -VERSION 2.0
 WRAP.                  NO:   ONE LINE PER DEPTH STEP
~WELL INFORMATION BLOCK
#MNEM.UNIT           DATA                    DESCRIPTION OF MNEMONIC
#---------    -------------------            -------------------------------
# Generated from Intellog Unique Number	CC_80_83/WELL/2302
NULL.         -999.25                        : NULL_VALUE
WELL.         PEX PCEJ CHARD OV              : Well_name    - WELL              
LOC .         07-26-080-08W4                 : Location     - LOCATION          
UWI .         AA/07-26-080-08W400            : Uwi          - UNIQUE WELL ID    
ENTR.         DW                             : Entered      - ENTERED BY        
SRVC.         SCHLUMBERGER                   : Scn          - SERVICE COMPANY   
DATE.         05 feb 80                      : Date         - LOG DATE
STRT.M        220                            : top_depth    - START DEPTH       
STOP.M        450.092                        : bot_depth    - STOP DEPTH        
STEP.M        0.3                            : increment    - STEP LENGTH       
~CURVE INFORMATION BLOCK
#MNEM UNIT       ERCB CURVE CODE    CURVE DESCRIPTION
#-----------   ------------------   ----------------------------------
DEPT.M        00 001 00 00         : DEPTH        - DEPTH                       
DPHI.V/V      00 890 00 00         : PHID         - DENSITY POROSITY (LIMESTONE)
NPHI.V/V      00 330 00 00         : PHIN         - NEUTRON POROSITY (LIMESTONE)
GR  .API      00 310 00 00         : GR           - GAMMA RAY                   
ILD .OHMM     00 120 00 00         : RESD         - DEEP RESISTIVITY (DIL)      
~PARAMETER INFORMATION       
#MNEM.UNIT           DATA             DESCRIPTION OF MNEMONIC
#---------         -----------     ------------------------------
GL  .M        666.9                : gl           - GROUND LEVEL ELEVATION      
EREF.M        670.55               : kb           - ELEVATION OF DEPTH REFERENCE
DATM.M        670.55               : datum        - DATUM ELEVATION             
TDD .M        455                  : tdd          - TOTAL DEPTH DRILLER         
RUN .         ONE                  : Run          - RUN NUMBER                  
ENG .         BILL                 : Engineer     - RECORDING ENGINEER          
WIT .         JIM                  : Witness      - WITNESSED BY                
MUD .         GEL                  : Mud_type     - MUD TYPE                    
MATR.         LIMESTONE            : Logunit      - NEUTRON MATRIX              
TMAX.C        15                   : BHT          - MAXIMUM RECORDED TEMPERATURE
BHTD.M        455                  : BHTDEP       - MAXIMUM RECORDED TEMPERATURE
MATR.         1                    : LOGUNIT      - NEUTRON MATRIX              
RMT .C        25                   : MDTP         - TEMPERATURE OF MUD          
NEUT.         1                    : NEUTRON      - NEUTRON TYPE                
RESI.         0                    : RESIST       - RESISTIVITY TYPE            
RMC .OHMM     0.25                 : RMC          - RESISTIVITY OF MUD CAKE     
RMF .OHMM     0.25                 : RMF          - RESISTIVITY OF MUD FILTRATE 
SUFT.C        4                    : SUFT         - SURFACE TEMPERATURE         
~A  DEPTH     PHID     PHIN       GR     RESD
  220.000    0.178    0.420  108.754    3.764
  220.300    0.178    0.405  114.289    3.695
  220.600    0.195    0.404  115.521    3.695
  220.900    0.187    0.407  106.923    3.626
  221.200    0.168    0.412  100.784    3.559
  221.500    0.179    0.428  101.402    3.493
  221.800    0.184    0.440  103.250    3.365
  222.100    0.179    0.410  110.013    3.365
  222.400    0.180    0.419  106.945    3.303
  222.700    0.191    0.434  102.033    3.303
  223.000    0.199    0.439  111.255    3.365
  223.300    0.196    0.450  111.258    3.429
  223.600    0.188    0.417  100.818    3.429
  223.900    0.183    0.430  102.665    3.365
  224.200    0.189    0.456  102.055    3.303
  224.500    0.188    0.438  105.746    3.123
  224.800    0.189    0.455  106.364    3.065
  225.100    0.194    0.423   97.152    2.898
  225.400    0.196    0.407   96.542    2.845
  225.700    0.200    0.444  103.304    2.792
  226.000    0.204    0.433   93.478    2.690
  226.300    0.202    0.440   97.783    2.640
  226.600    0.200    0.465   94.101    2.543
  226.900    0.201    0.424   92.262    2.496
  227.200    0.178    0.415  101.483    2.496
  227.500    0.173    0.432   92.885    2.450
  227.800    0.217    0.455   87.973    2.450
  228.100    0.207    0.457   88.593    2.405
  228.400    0.184    0.458   87.368    2.405
  228.700    0.173    0.450   91.673    2.450
  229.000    0.166    0.432   99.050    2.496
  229.300    0.163    0.411   99.054    2.591
  229.600    0.206    0.424   89.842    2.591
  229.900    0.196    0.466   84.316    2.640
  230.200    0.186    0.461   95.380    2.690
  230.500    0.194    0.449   94.156    2.690
  230.800    0.200    0.436   88.631    2.690
  231.100    0.196    0.449   97.237    2.741
  231.400    0.192    0.455   97.240    2.792
  231.700    0.194    0.452   91.100    2.845
  232.000    0.186    0.453   98.478    2.953
  232.300    0.179    0.436   92.953    3.065
  232.600    0.202    0.432   91.113    3.182
  232.900    0.189    0.410   88.045    3.365
  233.200    0.183    0.396   95.422    3.559
  233.500    0.181    0.410   94.812    3.626
  233.800    0.202    0.407   99.732    3.764
  234.100    0.212    0.400  103.423    3.907
  234.400    0.180    0.422   99.740    3.981
  234.700    0.183    0.405  101.588    4.133
  235.000    0.187    0.395  102.206    4.133
  235.300    0.208    0.389   95.452    4.056
  235.600    0.200    0.419   94.842    3.835
  235.900    0.175    0.402   97.304    3.764
  236.200    0.169    0.392  105.910    3.764
  236.500    0.168    0.342   96.084    4.210
  236.800    0.100    0.295   86.871    5.075
  237.100    0.169    0.374   64.141    5.075
  237.400    0.180    0.394   88.723    4.981
  237.700    0.206    0.381   98.558    4.981
  238.000    0.152    0.357   68.455    5.268
  238.300    0.154    0.344   68.459    5.268
  238.600    0.208    0.378   84.439    5.268
  238.900    0.190    0.399   97.346    5.075
  239.200    0.198    0.390   96.736    4.622
  239.500    0.192    0.378  100.426    4.290
  239.800    0.157    0.356   88.142    4.133
  240.100    0.160    0.353   82.002    4.371
  240.400    0.165    0.375   82.007    4.798
  240.700    0.179    0.362   89.384    5.676
  241.000    0.190    0.375   86.930    6.232
  241.300    0.204    0.353   93.079    6.970
  241.600    0.207    0.341   91.854    7.943
  241.900    0.196    0.341   96.774    9.223
  242.200    0.175    0.336   89.405    9.938
  242.500    0.164    0.339   91.867   10.316
  242.800    0.132    0.372   86.955    9.938
  243.100    0.188    0.372   96.176    8.559
  243.400    0.181    0.377  104.782    7.372
  243.700    0.197    0.358  101.100    7.652
  244.000    0.199    0.340   83.900    9.397
  244.300    0.188    0.337   95.579   12.668
  244.600    0.187    0.335   92.511   14.169
  244.900    0.176    0.329   91.286   14.436
  245.200    0.179    0.345  105.423   13.907
  245.500    0.180    0.356  117.100   13.150
  245.800    0.177    0.350  110.960   11.756
  246.100    0.169    0.346  106.050   10.910
  246.400    0.183    0.359  108.511    9.754
  246.700    0.221    0.367  112.202    9.397
  247.000    0.224    0.375   87.015   10.125
  247.300    0.196    0.348   69.815   12.434
  247.600    0.214    0.331   63.060   15.268
  247.900    0.208    0.334   62.450   18.402
  248.200    0.127    0.325   67.370   19.829
  248.500    0.179    0.329   64.916   20.583
  248.800    0.232    0.348   67.379   21.366
  249.100    0.238    0.336   69.841   21.366
  249.400    0.237    0.323   75.374   21.366
  249.700    0.226    0.330   71.078   20.583
  250.000    0.216    0.350   65.552   19.829
  250.300    0.147    0.357   63.713   19.102
  250.600    0.199    0.342   58.801   18.402
  250.900    0.215    0.345   62.492   17.400
  251.200    0.214    0.335   55.738   16.762
  251.500    0.209    0.323   59.429   16.452
  251.800    0.203    0.317   70.492   16.148
  252.100    0.210    0.320   83.400   16.452
  252.400    0.224    0.342   73.573   17.400
  252.700    0.226    0.345   61.904   19.102
  253.000    0.224    0.348   63.751   20.583
  253.300    0.216    0.343   69.899   22.179
  253.600    0.217    0.339   71.132   22.179
  253.900    0.217    0.342   81.582   21.769
  254.200    0.215    0.337   80.359   21.366
  254.500    0.216    0.340   80.976   20.971
  254.800    0.220    0.331   82.209   19.829
  255.100    0.220    0.331   77.298   19.462
  255.400    0.219    0.330   80.989   19.102
  255.700    0.217    0.339   84.066   19.102
  256.000    0.214    0.353   82.840   18.749
  256.300    0.209    0.339   82.845   18.062
  256.600    0.200    0.346   88.379   17.078
  256.900    0.187    0.362  113.574   16.452
  257.200    0.190    0.354  109.892   15.849
  257.500    0.190    0.346   93.922   15.556
  257.800    0.190    0.320  103.142   14.709
  258.100    0.214    0.330  101.303   14.169
  258.400    0.236    0.349  100.080   14.436
  258.700    0.193    0.341   98.853   16.148
  259.000    0.218    0.334   81.653   17.078
  259.300    0.226    0.313   57.081   18.749
  259.600    0.226    0.320   52.171   20.583
  259.900    0.225    0.312   50.330   22.179
  260.200    0.227    0.326   48.492   23.023
  260.500    0.229    0.317   49.724   23.457
  260.800    0.229    0.306   42.356   23.023
  261.100    0.227    0.317   46.661   22.179
  261.400    0.221    0.332   57.725   21.366
  261.700    0.217    0.318   70.632   20.583
  262.000    0.194    0.318   79.853   18.402
  262.300    0.194    0.330   77.399   15.556
  262.600    0.189    0.348   80.475   12.204
  262.900    0.176    0.334   86.624   11.116
  263.200    0.192    0.310   74.340   11.539
  263.500    0.216    0.329   60.212   13.650
  263.800    0.234    0.330   46.700   16.148
  264.100    0.232    0.314   52.233   19.829
  264.400    0.223    0.314   44.864   23.457
  264.700    0.226    0.323   43.639   23.899
  265.000    0.228    0.336   46.101   23.457
  265.300    0.233    0.337   47.335   22.597
  265.600    0.235    0.323   45.495   21.769
  265.900    0.239    0.331   46.728   21.366
  266.200    0.243    0.332   55.949   20.583
  266.500    0.230    0.336   56.568   20.583
  266.800    0.224    0.341   50.428   19.462
  267.100    0.221    0.337   60.877   18.749
  267.400    0.190    0.320   62.110   18.062
  267.700    0.171    0.316   72.560   17.400
  268.000    0.171    0.330   71.337   17.078
  268.300    0.189    0.338   70.725   17.400
  268.600    0.200    0.337   79.331   17.727
  268.900    0.210    0.333   78.106   18.062
  269.200    0.210    0.325   81.798   18.402
  269.500    0.210    0.319   73.814   18.749
  269.800    0.204    0.327   71.361   18.749
  270.100    0.184    0.346   76.281   18.062
  270.400    0.167    0.349   83.657   15.268
  270.700    0.141    0.359   92.264   11.978
  271.000    0.140    0.376  116.845    9.397
  271.300    0.164    0.366  111.319    7.102
  271.600    0.164    0.361  120.540    6.116
  271.900    0.171    0.368  115.629    6.232
