~VERSION INFORMATION
 VERS.                 2.0:   CWLS LOG ASCII STANDARD -VERSION 2.0
 WRAP.                  NO:   ONE LINE PER DEPTH STEP
~WELL INFORMATION BLOCK
#MNEM.UNIT           DATA                    DESCRIPTION OF MNEMONIC
#---------    -------------------            -------------------------------
# Generated from Intellog Unique Number	CN_91_93/WELL/1070
WELL.         04-19-091-11W4                 : Well_name    - WELL
LOC .         AA/04-19-091-11W4/0            : Location     - LOCATION
UWI .         AA/04-19-091-11W400            : Uwi          - UNIQUE WELL ID
ENTR.         JOETTE                         : Entered      - ENTERED BY
SRVC.         WESTERN ATLAS                  : Scn          - SERVICE COMPANY
DATE.         01/22/92                       : Date         - LOG DATE
STRT.F        50                             : top_depth    - START DEPTH
STOP.F        550.328                        : bot_depth    - STOP DEPTH
STEP.F        0.8202                         : increment    - STEP LENGTH
 NULL. -999.2500:NULL Value
~CURVE INFORMATION BLOCK
#MNEM UNIT       ERCB CURVE CODE    CURVE DESCRIPTION
#-----------   ------------------   ----------------------------------
DEPT.F        00 001 00 00         : DEPTH        - DEPTH
GR  .API      00 310 00 00         : GR           - GAMMA RAY
CALI.IN       00 280 01 00         : CAL          - CALIPER
DPHI.V/V      00 890 00 00         : PHID         - DENSITY POROSITY (SANDSTONE)
ILD .OHMM     00 120 00 00         : RESD         - DEEP RESISTIVITY (DIL)
~PARAMETER INFORMATION
#MNEM.UNIT           DATA             DESCRIPTION OF MNEMONIC
#---------         -----------     ------------------------------
GL  .M        432.542              : gl           - GROUND LEVEL ELEVATION
EREF.M        432.542              : kb           - ELEVATION OF DEPTH REFERENCE
DATM.M        432.542              : datum        - DATUM ELEVATION
TDD .M        168.554              : tdd          - TOTAL DEPTH DRILLER
RUN .         ONE                  : Run          - RUN NUMBER
ENG .         JO                   : Engineer     - RECORDING ENGINEER
WIT .         TIM                  : Witness      - WITNESSED BY
MUD .         GEL                  : Mud_type     - MUD TYPE
MATR.         SANDSTONE            : Logunit      - NEUTRON MATRIX
TMAX.F        53.6                 : BHT          - MAXIMUM RECORDED TEMPERATURE
BHTD.F        553                  : BHTDEP       - MAXIMUM RECORDED TEMPERATURE
RMT .F        53.6                 : MDTP         - TEMPERATURE OF MUD
MUDD.LB/G     9                    : MWT          - MUD DENSITY
NEUT.         1                    : NEUTRON      - NEUTRON TYPE
RESI.         0                    : RESIST       - RESISTIVITY TYPE
RM  .OHMM     1.5                  : RM           - RESISTIVITY OF MUD
RMC .OHMM     1.8                  : RMC          - RESISTIVITY OF MUD CAKE
RMF .OHMM     1.1                  : RMF          - RESISTIVITY OF MUD FILTRATE
SUFT.F        39.2                 : SUFT         - SURFACE TEMPERATURE
~A  DEPTH       GR      CAL     PHID     RESD
# ...
  478.150   31.077    6.493    0.289   32.408
  478.970   30.813    6.511    0.293   50.541
  479.790   30.332    6.510    0.282   68.767
  480.610   31.021    6.509    0.280   98.138
  481.430   31.948    6.509    0.268  212.331
  482.251   32.401    6.506    0.262  166.324
  483.071   32.389    6.505    0.256  137.567
  483.891   31.671    6.505    0.299  129.511
  484.711   30.246    6.503    0.314   72.145
  485.532   29.055    6.502    0.318  134.322
  486.352   29.055    6.501    0.305  196.987
  487.172   28.561    6.499    0.313  309.306
  487.992   26.196    6.478    0.329  329.242
  488.812   25.714    6.478    0.332  291.563
  489.633   25.701    6.457    0.336  213.312
  490.453   26.157    6.475    0.340  175.282
  491.273   26.844    6.474    0.347  284.725
  492.093   27.064    6.492    0.355  275.497
  492.913   27.288    6.511    0.351  242.311
  493.734   28.918    6.529    0.350  205.954
  494.554   30.075    6.528    0.342  251.276
  495.374   29.827    6.527    0.346  132.548
  496.194   29.813    6.526    0.341  236.895
  497.014   30.269    6.524    0.341  259.169
  497.835   31.428    6.523    0.341  268.455
  498.655   32.587    6.522    0.330  278.113
  499.475   33.516    6.521    0.341  288.078
  500.295   35.615    6.520    0.343  315.120
  501.115   38.418    6.519    0.342  101.031
  501.936   41.926    6.537    0.343   60.249
  502.756   48.723    6.555    0.335  343.181
  503.576   54.108    6.553    0.313  121.060
  504.396   57.619    6.553    0.299   63.850
  505.217   63.241    6.552    0.276   35.806
  506.037   68.628    6.550    0.260   15.819
  506.857   77.066    6.549    0.274   14.010
  507.677   72.358    6.548    0.286   17.328
  508.497   68.585    6.547    0.288   20.713
  509.318   65.519    6.546    0.284   24.418
  510.138   63.861    6.545    0.285   21.042
  510.958   62.435    6.543    0.290   19.280
  511.778   60.778    6.542    0.295   32.407
  512.598   57.712    6.541    0.299   21.997
  513.419   53.471    6.540    0.304   18.956
  514.239   48.761    6.539    0.294   19.107
  515.059   47.102    6.538    0.285   38.344
  515.879   48.026    6.517    0.284  117.441
  516.699   59.520    6.516    0.285   59.866
  517.520   65.847    6.495    0.284   33.349
  518.340   68.647    6.474    0.283   21.293
  519.160   66.757    6.473    0.303   18.219
  519.980   64.628    6.472    0.306   15.488
  520.801   62.503    6.471    0.315   18.139
  521.621   60.845    6.469    0.321   18.283
  522.441   62.240    6.488    0.300   23.557
  523.261   64.573    6.487    0.290   36.488
  524.081   63.149    6.505    0.277   21.756
  524.902   63.840    6.504    0.268   34.161
  525.722   68.524    6.503    0.254   37.623
  526.542   69.918    6.501    0.256   30.493
  527.362   68.026    6.500    0.259   16.642
  528.182   65.662    6.499    0.272   19.891
  529.003   63.770    6.498    0.290   18.475
  529.823   56.007    6.497    0.295   20.212
  530.643   55.758    6.496    0.299   23.669
  531.463   55.741    6.494    0.281   19.848
  532.283   53.146    6.532    0.283   25.748
  533.104   54.775    6.551    0.289   22.194
  533.924   58.050    6.550    0.280   20.894
  534.744   66.725    6.568    0.237   23.169
  535.564   73.521    6.567    0.225   21.374
  536.385   76.326    6.566    0.204   19.590
  537.205   81.007    6.584    0.179   18.695
  538.025   86.860    6.602    0.182   22.342
  538.845   87.553    6.601    0.196   16.019
  539.665   82.609    6.620    0.214   14.877
  540.486   69.209    6.638    0.223   14.795
  541.306   62.855    6.656    0.225   13.740
  542.126   56.969    6.655    0.230   12.762
  542.946   58.834    6.654    0.217   25.610
  543.766   56.942    6.653    0.187   24.279
  544.587   51.525    6.652    0.177   21.500
  545.407   44.467    6.670    0.187   23.046
  546.227   42.571    6.669    0.195   75.049
  547.047   45.377    6.687    0.195   66.906
  547.867   49.354    6.706    0.194   62.568
  548.688   53.099    6.724    0.197   71.308
  549.508   54.021    6.742    0.206   41.099
  550.328   51.894    6.741    0.211   35.172
