~VERSION INFORMATION
 VERS.                 2.0:   CWLS LOG ASCII STANDARD -VERSION 2.0
 WRAP.                  NO:   ONE LINE PER DEPTH STEP
~WELL INFORMATION BLOCK
#MNEM.UNIT           DATA                    DESCRIPTION OF MNEMONIC
#---------    -------------------            -------------------------------
# Generated from Intellog Unique Number	CC_88_90/WELL/1054
WELL.         MOBIL CLARKE OV 4-11           : Well_name    - WELL
LOC .         04-11-090-08W4                 : Location     - LOCATION
UWI .         AA/04-11-090-08W400            : Uwi          - UNIQUE WELL ID
ENTR.         DW                             : Entered      - ENTERED BY
SRVC.         SCHLUMBERGER                   : Scn          - SERVICE COMPANY
STRT.M        25                             : top_depth    - START DEPTH
STOP.M        201.75                         : bot_depth    - STOP DEPTH
STEP.M        0.25                           : increment    - STEP LENGTH
 NULL. -999.2500:NULL Value
~CURVE INFORMATION BLOCK
#MNEM UNIT       ERCB CURVE CODE    CURVE DESCRIPTION
#-----------   ------------------   ----------------------------------
DEPT.M        00 001 00 00         : DEPTH        - DEPTH
GR  .API      00 310 00 00         : GR           - GAMMA RAY
DPHI.V/V      00 890 00 00         : PHID         - DENSITY POROSITY (SANDSTONE)
NPHI.V/V      00 330 00 00         : PHIN         - NEUTRON POROSITY (SANDSTONE)
ILD .OHMM     00 120 00 00         : RESD         - DEEP RESISTIVITY (DIL)
~PARAMETER INFORMATION
#MNEM.UNIT           DATA             DESCRIPTION OF MNEMONIC
#---------         -----------     ------------------------------
GL  .M        434.2                : gl           - GROUND LEVEL ELEVATION
EREF.M        0                    : kb           - ELEVATION OF DEPTH REFERENCE
DATM.M        434.2                : datum        - DATUM ELEVATION
TDD .M        207                  : tdd          - TOTAL DEPTH DRILLER
RUN .         ONE                  : Run          - RUN NUMBER
ENG .         BILL                 : Engineer     - RECORDING ENGINEER
WIT .         JIM                  : Witness      - WITNESSED BY
MUD .         GEL                  : Mud_type     - MUD TYPE
MATR.         SANDSTONE            : Logunit      - NEUTRON MATRIX
TMAX.C        16                   : BHT          - MAXIMUM RECORDED TEMPERATURE
BHTD.M        206                  : BHTDEP       - MAXIMUM RECORDED TEMPERATURE
MATR.         1                    : LOGUNIT      - NEUTRON MATRIX
RMT .C        25                   : MDTP         - TEMPERATURE OF MUD
NEUT.         1                    : NEUTRON      - NEUTRON TYPE
RESI.         0                    : RESIST       - RESISTIVITY TYPE
RMC .OHMM     0.25                 : RMC          - RESISTIVITY OF MUD CAKE
RMF .OHMM     0.25                 : RMF          - RESISTIVITY OF MUD FILTRATE
SUFT.C        4                    : SUFT         - SURFACE TEMPERATURE
~A  DEPTH       GR     PHID     PHIN     RESD
# ...
  155.500   63.849    0.268    0.445   25.830
  155.750   70.762    0.274    0.427   24.363
  156.000   73.983    0.281    0.428   23.478
  156.250   72.339    0.286    0.436   23.177
  156.500   66.733    0.280    0.441   22.875
  156.750   59.444    0.272    0.447   22.339
  157.000   54.538    0.283    0.447   21.989
  157.250   51.837    0.283    0.441   21.307
  157.500   49.977    0.297    0.433   20.506
  157.750   49.494    0.314    0.431   20.108
  158.000   50.956    0.318    0.423   19.500
  158.250   53.910    0.315    0.410   18.387
  158.500   58.796    0.315    0.416   17.730
  158.750   67.081    0.314    0.427   17.664
  159.000   73.622    0.285    0.422   18.077
  159.250   75.323    0.256    0.419   18.729
  159.500   73.198    0.257    0.431   19.914
  159.750   70.969    0.273    0.448   21.789
  160.000   70.571    0.268    0.457   23.655
  160.250   68.971    0.240    0.445   24.771
  160.500   68.472    0.231    0.446   24.998
  160.750   69.171    0.242    0.450   24.470
  161.000   70.580    0.263    0.451   23.253
  161.250   71.921    0.274    0.446   22.255
  161.500   71.768    0.251    0.428   22.319
  161.750   69.697    0.232    0.418   23.408
  162.000   62.493    0.247    0.428   31.522
  162.250   56.104    0.281    0.442   42.998
  162.500   52.164    0.305    0.447   53.342
  162.750   47.976    0.314    0.446   59.686
  163.000   45.052    0.317    0.445   60.812
  163.250   45.366    0.313    0.441   63.646
  163.500   46.886    0.305    0.424   71.298
  163.750   48.404    0.289    0.408   80.348
  164.000   50.015    0.281    0.402   93.517
  164.250   49.420    0.283    0.405  111.152
  164.500   44.404    0.278    0.416  128.360
  164.750   40.005    0.277    0.436  148.397
  165.000   38.018    0.307    0.442  154.185
  165.250   36.775    0.311    0.438  157.818
  165.500   36.347    0.298    0.438  140.173
  165.750   37.013    0.298    0.444  100.684
  166.000   37.514    0.293    0.451   77.725
  166.250   38.897    0.311    0.457   47.818
  166.500   41.398    0.329    0.450   30.819
  166.750   41.966    0.331    0.428   28.281
  167.000   54.978    0.318    0.399   25.041
  167.250   76.042    0.276    0.381   36.386
  167.500   76.579    0.220    0.383   82.706
  167.750   67.642    0.238    0.403  118.186
  168.000   51.016    0.275    0.457  147.234
  168.250   39.668    0.309    0.466  168.137
  168.500   36.607    0.334    0.449  174.037
  168.750   35.434    0.341    0.457  167.502
  169.000   35.565    0.322    0.438  158.698
  169.250   37.498    0.261    0.397  156.258
  169.500   40.773    0.231    0.361  158.662
  169.750   47.516    0.236    0.347  163.598
  170.000   53.037    0.253    0.360  173.015
  170.250   49.468    0.271    0.393  184.888
  170.500   39.282    0.276    0.421  190.956
  170.750   34.317    0.285    0.413  189.592
  171.000   30.911    0.298    0.396  183.914
  171.250   29.554    0.296    0.395  172.532
  171.500   30.212    0.287    0.403  152.038
  171.750   31.528    0.288    0.406  127.710
  172.000   34.231    0.290    0.401  107.062
  172.250   37.700    0.280    0.390   82.623
  172.500   42.436    0.277    0.377   61.035
  172.750   45.867    0.282    0.366   48.126
  173.000   48.200    0.240    0.353   40.993
  173.250   45.812    0.165    0.352   35.655
  173.500   35.475    0.160    0.378   32.761
  173.750   31.647    0.202    0.396   31.531
  174.000   33.208    0.226    0.391   30.014
  174.250   35.174    0.225    0.374   28.730
  174.500   35.101    0.203    0.360   27.628
  174.750   33.038    0.172    0.359   26.162
  175.000   30.442    0.176    0.376   24.976
  175.250   29.209    0.219    0.388   24.289
  175.500   29.784    0.225    0.376   23.282
  175.750   31.676    0.214    0.355   22.428
  176.000   35.108    0.211    0.346   22.197
  176.250   40.144    0.209    0.351   22.500
  176.500   44.648    0.207    0.356   23.004
  176.750   44.391    0.198    0.350   23.035
  177.000   37.155    0.201    0.356   22.730
  177.250   31.550    0.218    0.356   22.239
  177.500   29.673    0.232    0.343   21.706
  177.750   28.342    0.236    0.332   21.144
  178.000   28.484    0.233    0.330   20.423
  178.250   29.535    0.213    0.341   19.700
  178.500   29.960    0.223    0.355   19.186
  178.750   28.953    0.232    0.359   19.281
  179.000   28.692    0.227    0.359   19.647
  179.250   30.854    0.230    0.365   20.037
  179.500   33.401    0.232    0.366   20.733
  179.750   34.066    0.230    0.371   21.130
  180.000   33.612    0.215    0.372   20.897
  180.250   33.219    0.218    0.370   20.373
  180.500   33.722    0.234    0.371   19.338
  180.750   34.795    0.247    0.376   18.259
  181.000   36.454    0.264    0.375   18.152
  181.250   40.645    0.252    0.361   17.917
  181.500   43.991    0.233    0.361   18.267
  181.750   52.096    0.235    0.367   18.827
  182.000   55.862    0.231    0.370   19.358
  182.250   47.501    0.224    0.375   19.757
  182.500   38.929    0.247    0.378   19.715
  182.750   35.502    0.240    0.374   19.862
  183.000   34.526    0.221    0.368   19.945
  183.250   37.739    0.223    0.368   19.682
  183.500   42.075    0.226    0.377   19.333
  183.750   45.300    0.223    0.387   19.203
  184.000   50.626    0.237    0.391   19.200
  184.250   54.080    0.231    0.386   19.190
  184.500   54.197    0.233    0.376   19.081
  184.750   53.072    0.234    0.371   18.651
  185.000   52.137    0.223    0.365   18.138
  185.250   51.929    0.210    0.352   17.814
  185.500   53.080    0.205    0.345   17.645
  185.750   54.672    0.221    0.350   17.806
  186.000   55.707    0.233    0.350   17.825
  186.250   57.146    0.227    0.347   17.842
  186.500   58.357    0.213    0.354   17.652
  186.750   61.716    0.202    0.369   17.016
  187.000   68.538    0.184    0.378   16.306
  187.250   66.861    0.153    0.381   15.735
  187.500   58.083    0.159    0.380   15.521
  187.750   49.676    0.190    0.363   15.232
  188.000   42.749    0.205    0.351   15.451
  188.250   36.532    0.207    0.358   16.398
  188.500   33.775    0.223    0.359   17.038
  188.750   33.636    0.232    0.359   17.430
  189.000   34.438    0.232    0.358   17.110
  189.250   36.146    0.207    0.355   16.247
  189.500   38.252    0.169    0.353   15.497
  189.750   39.420    0.155    0.351   15.318
  190.000   38.696    0.169    0.342   15.697
  190.250   36.117    0.197    0.336   16.368
  190.500   33.879    0.198    0.336   17.025
  190.750   31.823    0.174    0.353   17.843
  191.000   29.960    0.146    0.364   18.568
  191.250   29.380    0.130    0.355   18.715
  191.500   30.573    0.136    0.353   18.305
  191.750   32.693    0.161    0.364   17.610
  192.000   33.770    0.217    0.380   16.848
  192.250   32.947    0.238    0.386   16.343
  192.500   31.033    0.237    0.386   16.057
  192.750   31.838    0.245    0.381   15.620
  193.000   36.728    0.225    0.361   15.085
  193.250   38.018    0.204    0.350   15.074
  193.500   38.066    0.198    0.350   14.914
  193.750   40.123    0.205    0.355   14.843
  194.000   42.210    0.212    0.357   14.706
  194.250   43.222    0.213    0.353   14.321
  194.500   45.377    0.215    0.357   14.157
  194.750   45.499    0.223    0.373   13.988
  195.000   39.744    0.233    0.371   13.660
  195.250   38.367    0.238    0.358   13.269
  195.500   42.846    0.220    0.348   12.956
  195.750   45.565    0.186    0.348   12.834
  196.000   43.500    0.174    0.354   12.820
  196.250   37.166    0.188    0.363   12.610
  196.500   33.505    0.205    0.370   12.761
  196.750   32.229    0.215    0.372   13.457
  197.000   31.383    0.218    0.371   14.361
  197.250   31.006    0.178    0.366   15.513
  197.500   31.030    0.102    0.356   17.074
  197.750   31.033    0.124    0.357   18.145
  198.000   31.160    0.145    0.355   18.761
  198.250   33.133    0.153    0.343   18.151
  198.500   36.981    0.159    0.342   17.110
  198.750   41.051    0.157    0.358   16.419
