~VERSION INFORMATION
 VERS.                 2.0:   CWLS LOG ASCII STANDARD -VERSION 2.0
 WRAP.                  NO:   ONE LINE PER DEPTH STEP
~WELL INFORMATION BLOCK
#MNEM.UNIT           DATA                    DESCRIPTION OF MNEMONIC
#---------    -------------------            -------------------------------
# Generated from Intellog Unique Number	CN_94_101/WELL/2347
WELL.         01-05-101-13W4                 : Well_name    - WELL
LOC .         AA/01-05-101-13W4/0            : Location     - LOCATION
UWI .         AA/01-05-101-13W400            : Uwi          - UNIQUE WELL ID
ENTR.         TIM                            : Entered      - ENTERED BY
SRVC.         SCHLUMBERGER                   : Scn          - SERVICE COMPANY
DATE.         08/13/92                       : Date         - LOG DATE
STRT.M        350                            : top_depth    - START DEPTH
STOP.M        550                            : bot_depth    - STOP DEPTH
STEP.M        0.25                           : increment    - STEP LENGTH
NULL. -999.2500:NULL Value
~CURVE INFORMATION BLOCK
#MNEM UNIT       ERCB CURVE CODE    CURVE DESCRIPTION
#-----------   ------------------   ----------------------------------
DEPT.M        00 001 00 00         : DEPTH        - DEPTH
DPHI.V/V      00 890 00 00         : PHID         - DENSITY POROSITY (SANDSTONE)
NPHI.V/V      00 330 00 00         : PHIN         - NEUTRON POROSITY (SANDSTONE)
ILD .OHMM     00 120 00 00         : RESD         - DEEP RESISTIVITY (DIL)
GR  .API      00 310 00 00         : GR           - GAMMA RAY
~PARAMETER INFORMATION
#MNEM.UNIT           DATA             DESCRIPTION OF MNEMONIC
#---------         -----------     ------------------------------
GL  .M        775.3                : gl           - GROUND LEVEL ELEVATION
EREF.M        778.7                : kb           - ELEVATION OF DEPTH REFERENCE
DATM.M        778.7                : datum        - DATUM ELEVATION
TDD .M        554                  : tdd          - TOTAL DEPTH DRILLER
RUN .         ONE                  : Run          - RUN NUMBER
ENG .         JO                   : Engineer     - RECORDING ENGINEER
WIT .         TIM                  : Witness      - WITNESSED BY
MUD .         GEL                  : Mud_type     - MUD TYPE
MATR.         SANDSTONE            : Logunit      - NEUTRON MATRIX
TMAX.C        29                   : BHT          - MAXIMUM RECORDED TEMPERATURE
BHTD.M        554                  : BHTDEP       - MAXIMUM RECORDED TEMPERATURE
RMT .C        10                   : MDTP         - TEMPERATURE OF MUD
MUDD.KG/M     1000                 : MWT          - MUD DENSITY
NEUT.         1                    : NEUTRON      - NEUTRON TYPE
RESI.         0                    : RESIST       - RESISTIVITY TYPE
RM  .OHMM     6                    : RM           - RESISTIVITY OF MUD
RMC .OHMM     6                    : RMC          - RESISTIVITY OF MUD CAKE
RMF .OHMM     6                    : RMF          - RESISTIVITY OF MUD FILTRATE
SUFT.C        4                    : SUFT         - SURFACE TEMPERATURE
~A  DEPTH     PHID     PHIN     RESD       GR
# ...
  393.500    0.275    0.548    1.431  136.444
  393.750    0.269    0.549    1.438  136.474
  394.000    0.264    0.552    1.656  136.493
  394.250    0.260    0.547    1.875  136.529
  394.500    0.261    0.537    2.093  136.554
  394.750    0.268    0.532    2.317  135.326
  395.000    0.272    0.524    2.530  132.845
  395.250    0.276    0.510    2.540  129.112
  395.500    0.277    0.490    2.340  126.011
  395.750    0.281    0.485    2.144  125.403
  396.000    0.284    0.496    1.942  124.802
  396.250    0.278    0.517    1.742  124.820
  396.500    0.272    0.514    1.754  127.349
  396.750    0.263    0.514    1.970  130.505
  397.000    0.269    0.526    2.402  129.909
  397.250    0.273    0.540    2.616  127.429
  397.500    0.270    0.550    3.255  124.948
  397.750    0.268    0.525    3.265  123.720
  398.000    0.264    0.514    2.856  127.496
  398.250    0.263    0.504    2.237  132.531
  398.500    0.261    0.493    1.826  138.818
  398.750    0.260    0.492    1.419  143.226
  399.000    0.258    0.500    1.426  148.266
  399.250    0.256    0.526    1.435  150.796
  399.500    0.253    0.529    1.444  153.946
  399.750    0.250    0.554    1.665  151.483
  400.000    0.246    0.564    2.093  149.611
  400.250    0.240    0.582    2.311  136.490
  400.500    0.229    0.599    2.537  133.377
  400.750    0.212    0.570    2.544  127.139
  401.000    0.185    0.541    2.342  135.305
  401.250    0.157    0.527    1.930  147.240
  401.500    0.136    0.522    1.316  148.517
  401.750    0.267    0.517    1.112  148.535
  402.000    0.259    0.525    0.493  149.812
  402.250    0.257    0.551    0.294  151.095
  402.500    0.253    0.577    0.307  151.126
  402.750    0.252    0.584    0.312  151.144
  403.000    0.251    0.591    0.321  150.549
  403.250    0.249    0.599    0.331  149.935
  403.500    0.249    0.605    0.549  149.965
  403.750    0.253    0.559    0.558  149.990
  404.000    0.259    0.541    0.568  150.640
  404.250    0.265    0.532    0.582  153.176
  404.500    0.272    0.525    0.798  153.814
  404.750    0.278    0.517    1.016  155.098
  405.000    0.281    0.521    1.026  153.869
  405.250    0.284    0.548    1.456  150.763
  405.500    0.284    0.550    1.674  148.902
  405.750    0.281    0.549    1.683  143.917
  406.000    0.276    0.543    1.904  140.184
  406.250    0.271    0.524    1.909  135.824
  406.500    0.267    0.520    1.920  132.091
  406.750    0.266    0.522    2.141  137.126
  407.000    0.267    0.528    2.146  142.786
  407.250    0.267    0.540    2.364  142.817
  407.500    0.264    0.549    2.590  140.963
  407.750    0.261    0.546    2.804  139.735
  408.000    0.252    0.548    2.811  140.385
  408.250    0.243    0.573    2.820  140.404
  408.500    0.232    0.578    2.415  142.319
  408.750    0.207    0.553    2.215  143.596
  409.000    0.168    0.509    1.802  146.746
  409.250    0.195    0.510    1.606  152.406
  409.500    0.226    0.538    1.613  154.936
  409.750    0.235    0.586    1.416  156.213
  410.000    0.246    0.602    1.425  156.243
  410.250    0.255    0.613    1.225  155.021
  410.500    0.275    0.634    1.234  153.167
  410.750    0.277    0.627    1.034  151.301
  411.000    0.279    0.620    1.044  148.200
  411.250    0.284    0.623    0.846  144.467
  411.500    0.294    0.628    0.642  141.360
  411.750    0.298    0.632    0.446  139.506
  412.000    0.298    0.635    0.451  140.156
  412.250    0.299    0.624    0.465  140.807
  412.500    0.300    0.627    0.472  140.838
  412.750    0.300    0.632    0.483  140.230
  413.000    0.297    0.630    0.488  138.381
  413.250    0.296    0.619    0.707  138.394
  413.500    0.292    0.603    0.718  139.044
  413.750    0.291    0.578    0.727  139.701
  414.000    0.289    0.562    0.946  139.099
  414.250    0.286    0.589    1.162  136.613
  414.500    0.284    0.597    1.385  134.758
  414.750    0.281    0.586    1.601  130.405
  415.000    0.279    0.565    2.031  126.672
  415.250    0.276    0.575    2.457  122.307
  415.500    0.280    0.584    3.303  116.695
  415.750    0.276    0.534    4.149  109.204
  416.000    0.278    0.515    4.995  105.471
  416.250    0.297    0.492    5.214  104.869
  416.500    0.309    0.475    5.014  105.520
  416.750    0.297    0.431    4.398  108.049
  417.000    0.282    0.429    3.986  113.084
  417.250    0.273    0.458    2.954  116.866
  417.500    0.262    0.467    2.540  116.896
  417.750    0.231    0.476    2.131  118.167
  418.000    0.173    0.476    1.934  125.713
  418.250    0.155    0.502    1.943  130.121
  418.500    0.176    0.516    1.950  132.651
  418.750    0.254    0.527    2.171  132.049
  419.000    0.276    0.503    2.598  128.942
  419.250    0.281    0.473    3.026  124.583
  419.500    0.282    0.450    3.244  119.603
  419.750    0.281    0.447    3.256  120.880
  420.000    0.275    0.480    3.056  124.042
  420.250    0.269    0.488    2.856  124.681
  420.500    0.266    0.499    2.865  121.574
  420.750    0.277    0.506    2.872  113.457
  421.000    0.303    0.497    3.302  104.087
  421.250    0.307    0.473    4.355   95.964
  421.500    0.308    0.464    5.411   89.100
  421.750    0.283    0.441    6.048   81.609
  422.000    0.244    0.422    6.692   84.139
  422.250    0.214    0.416    6.696   96.068
  422.500    0.263    0.447    6.499   99.856
  422.750    0.293    0.448    5.880  101.760
  423.000    0.307    0.447    5.055  101.784
  423.250    0.320    0.444    4.641  103.061
  423.500    0.320    0.443    3.814  105.584
  423.750    0.318    0.445    2.991  109.366
  424.000    0.315    0.450    2.577  113.775
  424.250    0.306    0.461    1.754  117.557
  424.500    0.305    0.483    1.552  122.591
  424.750    0.302    0.494    1.350  126.373
  425.000    0.296    0.513    1.154  127.036
  425.250    0.281    0.520    1.161  127.061
  425.500    0.271    0.527    1.168  125.839
  425.750    0.274    0.530    1.391  125.225
  426.000    0.285    0.541    1.605  125.888
  426.250    0.304    0.553    1.824  126.526
  426.500    0.299    0.527    2.251  128.435
  426.750    0.293    0.518    2.470  130.339
  427.000    0.283    0.507    2.481  131.622
  427.250    0.283    0.512    2.281  132.260
  427.500    0.289    0.525    2.079  134.163
  427.750    0.292    0.552    1.466  134.826
  428.000    0.276    0.582    1.470  133.586
  428.250    0.258    0.595    1.484  129.853
  428.500    0.218    0.545    1.496  124.867
  428.750    0.193    0.515    1.500  121.767
  429.000    0.243    0.547    1.719  132.431
  429.250    0.258    0.557    1.937  139.351
  429.500    0.276    0.550    2.156  137.490
  429.750    0.284    0.543    2.374  133.137
  430.000    0.286    0.536    2.593  130.024
  430.250    0.286    0.531    3.025  126.291
  430.500    0.280    0.524    3.034  125.063
  430.750    0.277    0.516    3.251  124.461
  431.000    0.274    0.510    3.258  121.981
  431.250    0.266    0.506    3.269  118.874
  431.500    0.260    0.500    3.276  117.652
  431.750    0.254    0.494    3.078  118.296
  432.000    0.252    0.486    3.088  118.953
  432.250    0.251    0.463    2.888  119.604
  432.500    0.254    0.460    2.690  120.881
  432.750    0.257    0.452    2.699  122.152
  433.000    0.262    0.454    2.709  121.550
  433.250    0.272    0.504    2.718  119.702
  433.500    0.294    0.538    2.725  118.474
  433.750    0.306    0.556    2.739  115.993
  434.000    0.309    0.557    2.955  114.759
  434.250    0.285    0.525    2.967  111.032
  434.500    0.278    0.500    2.764  108.551
  434.750    0.272    0.492    2.774  107.323
  435.000    0.271    0.483    2.781  112.358
  435.250    0.284    0.515    2.374  117.392
  435.500    0.291    0.549    2.381  121.180
  435.750    0.292    0.572    1.976  121.831
  436.000    0.292    0.564    1.986  121.229
  436.250    0.291    0.539    1.993  120.627
  436.500    0.286    0.530    2.000  119.399
  436.750    0.281    0.517    2.218  121.303
