~VERSION INFORMATION
 VERS.                 2.0:   CWLS LOG ASCII STANDARD -VERSION 2.0
 WRAP.                  NO:   ONE LINE PER DEPTH STEP
~WELL INFORMATION BLOCK
#MNEM.UNIT           DATA                    DESCRIPTION OF MNEMONIC
#---------    -------------------            -------------------------------
# Generated from Intellog Unique Number	CN_94_101/WELL/2654
WELL.         06-01-094-15W4                 : Well_name    - WELL
LOC .         AA/06-01-094-15W4/0            : Location     - LOCATION
UWI .         AA/06-01-094-15W400            : Uwi          - UNIQUE WELL ID
ENTR.         JOETTE                         : Entered      - ENTERED BY
SRVC.         SCHLUMBERGER                   : Scn          - SERVICE COMPANY
DATE.         06/18/92                       : Date         - LOG DATE
STRT.F        60                             : top_depth    - START DEPTH
STOP.F        510.295                        : bot_depth    - STOP DEPTH
STEP.F        0.8202                         : increment    - STEP LENGTH
 NULL. -999.2500:NULL Value
~CURVE INFORMATION BLOCK
#MNEM UNIT       ERCB CURVE CODE    CURVE DESCRIPTION
#-----------   ------------------   ----------------------------------
DEPT.F        00 001 00 00         : DEPTH        - DEPTH
GR  .API      00 310 00 00         : GR           - GAMMA RAY
DPHI.V/V      00 890 00 00         : PHID         - DENSITY POROSITY (SANDSTONE)
ILD .OHMM     00 120 00 00         : RESD         - DEEP RESISTIVITY (DIL)
~PARAMETER INFORMATION
#MNEM.UNIT           DATA             DESCRIPTION OF MNEMONIC
#---------         -----------     ------------------------------
GL  .M        435.498              : gl           - GROUND LEVEL ELEVATION
EREF.M        436.26               : kb           - ELEVATION OF DEPTH REFERENCE
DATM.M        436.26               : datum        - DATUM ELEVATION
TDD .M        155.448              : tdd          - TOTAL DEPTH DRILLER
RUN .         ONE                  : Run          - RUN NUMBER
ENG .         JO                   : Engineer     - RECORDING ENGINEER
WIT .         TIM                  : Witness      - WITNESSED BY
MUD .         GEL                  : Mud_type     - MUD TYPE
MATR.         SANDSTONE            : Logunit      - NEUTRON MATRIX
TMAX.F        40                   : BHT          - MAXIMUM RECORDED TEMPERATURE
BHTD.F        510                  : BHTDEP       - MAXIMUM RECORDED TEMPERATURE
RMT .F        45                   : MDTP         - TEMPERATURE OF MUD
MUDD.LB/G     1                    : MWT          - MUD DENSITY
NEUT.         1                    : NEUTRON      - NEUTRON TYPE
RESI.         0                    : RESIST       - RESISTIVITY TYPE
RM  .OHMM     10.1                 : RM           - RESISTIVITY OF MUD
RMC .OHMM     10.1                 : RMC          - RESISTIVITY OF MUD CAKE
RMF .OHMM     10.1                 : RMF          - RESISTIVITY OF MUD FILTRATE
SUFT.F        39.2                 : SUFT         - SURFACE TEMPERATURE
~A  DEPTH       GR     PHID     RESD
   60.000   81.076    0.226   19.986
   60.820   83.210    0.223   19.697
   61.640   85.349    0.210   19.847
   62.461   84.311    0.204   20.145
   63.281   83.978    0.208   20.076
   64.101   85.055    0.214   19.493
   64.921   82.613    0.220   18.839
   65.742   80.518    0.225   18.329
   66.562   78.423    0.236   17.821
   67.382   77.380    0.246   17.312
   68.202   75.990    0.249   16.877
   69.022   74.605    0.248   17.321
   69.843   76.035    0.240   18.056
   70.663   76.754    0.205   18.792
   71.483   76.079    0.200   20.114
   72.303   72.217    0.210   20.264
   73.123   68.008    0.219   18.585
   73.944   70.494    0.221   18.661
   74.764   78.972    0.224   20.568
   75.584   80.758    0.228   19.987
   76.404   77.601    0.219   18.233
   77.224   75.159    0.221   16.919
   78.045   79.413    0.212   16.339
   78.865   76.608    0.211   16.123
   79.685   68.879    0.213   15.687
   80.505   66.784    0.192   15.032
   81.326   65.747    0.186   14.597
   82.146   66.819    0.195   15.260
   82.966   70.010    0.207   15.775
   83.786   77.083    0.221   16.147
   84.606   78.870    0.231   16.370
   85.427   78.889    0.237   16.812
   86.247   77.852    0.241   18.793
   87.067   78.576    0.243   20.407
   87.887   81.068    0.236   14.115
   88.707   82.497    0.245   10.459
   89.528   81.107    0.255   10.903
   90.348   78.655    0.257   10.833
   91.168   78.327    0.249   10.543
   91.988   79.756    0.237   11.060
   92.808   82.248    0.231   11.065
   93.629   80.853    0.237   10.704
   94.449   79.463    0.247   10.706
   95.269   81.597    0.256   11.002
   96.089   84.788    0.254   10.494
   96.909   86.218    0.230   11.157
   97.730   83.780    0.218   11.014
   98.550   82.385    0.220   10.507
   99.370   81.705    0.229   10.363
  100.190   81.729    0.238   10.221
  101.010   81.739    0.236   10.153
  101.831   81.406    0.238   10.084
  102.651   82.483    0.241   10.087
  103.471   83.565    0.237   10.091
  104.291   81.470    0.225   10.168
  105.112   74.794    0.231   10.244
  105.932   71.999    0.232   10.321
  106.752   70.257    0.232   10.400
  107.572   69.576    0.243   10.475
  108.392   69.586    0.249   11.139
  109.213   70.663    0.242   11.655
  110.033   73.150    0.227   11.879
  110.853   74.579    0.216   10.126
  111.673   72.141    0.197    9.397
  112.493   71.104    0.183    9.694
  113.314   70.071    0.179   11.309
  114.134   68.319    0.181   12.704
  114.954   67.638    0.191   12.999
  115.774   69.773    0.201   13.662
  116.594   71.907    0.216   14.180
  117.415   72.636    0.208   14.329
  118.235   71.246    0.178   14.040
  119.055   68.442    0.176   13.312
  119.875   64.937    0.171   11.999
  120.696   60.375    0.168   12.148
  121.516   56.166    0.158   15.519
  122.336   51.604    0.144   15.304
  123.156   52.328    0.146   16.040
  123.976   54.463    0.152   16.630
  124.797   55.892    0.155   16.340
  125.617   57.679    0.173   19.126
  126.437   58.056    0.186   20.082
  127.257   58.075    0.185   20.306
  128.077   57.742    0.172   20.089
  128.898   57.057    0.165   20.313
  129.718   56.372    0.170   14.826
  130.538   57.449    0.168   17.686
  131.358   59.231    0.156   21.569
  132.178   60.307    0.160   16.668
  132.999   60.332    0.185   17.697
  133.819   61.414    0.204   16.383
  134.639   62.481    0.207   15.728
  135.459   64.967    0.212   14.634
  136.280   68.516    0.210   14.857
  137.100   69.241    0.198   15.301
  137.920   65.031    0.178   13.914
  138.740   60.469    0.163   14.503
  139.560   55.908    0.163   13.336
  140.381   52.760    0.159   11.437
  141.201   54.537    0.153   12.905
  142.021   55.971    0.166   16.056
  142.841   56.339    0.187   17.086
  143.661   59.182    0.198   17.090
  144.482   62.726    0.210   17.167
  145.302   65.918    0.223   17.390
  146.122   72.286    0.228   16.808
  146.942   74.777    0.227   13.737
  147.762   77.611    0.226   11.105
  148.583   80.455    0.227   10.230
  149.403   82.247    0.235   10.674
  150.223   82.256    0.247    9.873
  151.043   80.871    0.254    9.072
  151.864   79.129    0.256    9.295
  152.684   79.148    0.259    9.225
  153.504   81.630    0.262    8.791
  154.324   85.184    0.251    8.648
  155.144   84.851    0.220    8.434
  155.965   81.694    0.204    8.509
  156.785   77.485    0.189    8.879
  157.605   74.690    0.178    9.395
  158.425   73.295    0.178   10.351
  159.245   70.153    0.184   10.794
  160.066   69.457    0.192   11.018
  160.886   69.487    0.195   11.315
  161.706   69.849    0.202   11.612
  162.526   71.288    0.210   11.762
  163.346   71.308    0.214   11.766
  164.167   69.913    0.203   11.476
  164.987   66.761    0.179   10.601
  165.807   62.199    0.179    9.873
  166.627   58.695    0.180   10.829
  167.448   55.190    0.180   12.663
  168.268   53.805    0.179   15.376
  169.088   55.582    0.177   16.770
  169.908   59.126    0.180   17.946
  170.728   66.903    0.187   15.899
  171.549   69.390    0.195   15.538
  172.369   73.638    0.202   15.322
  173.189   72.248    0.194   12.764
  174.009   68.391    0.179   10.278
  174.829   64.887    0.178    9.184
  175.650   63.864    0.190   10.945
  176.470   64.584    0.202   12.266
  177.290   65.656    0.199   13.662
  178.110   67.790    0.194   14.031
  178.930   69.924    0.194   11.546
  179.751   71.363    0.198   10.525
  180.571   71.383    0.198   10.457
  181.391   72.460    0.191   10.900
  182.211   74.589    0.190   11.122
  183.031   76.018    0.194   10.833
  183.852   70.751    0.194   10.399
  184.672   69.009    0.188   10.111
  185.492   69.386    0.187   10.042
  186.312   71.525    0.190   10.264
  187.133   74.364    0.194   10.634
  187.953   77.550    0.203   10.784
  188.773   81.104    0.215   10.715
  189.593   80.419    0.215   11.158
  190.413   76.557    0.205   10.649
  191.234   70.585    0.174   10.726
  192.054   67.086    0.168   10.804
  192.874   67.101    0.175   10.149
  193.694   71.349    0.213    9.860
  194.514   84.061    0.241   11.913
  195.335   85.843    0.256   15.211
  196.155   89.749    0.262   17.264
  196.975   90.463    0.269   17.416
  197.795   91.897    0.263    8.634
  198.615   95.446    0.238    8.272
  199.436   95.466    0.238    7.691
  200.256   93.366    0.248    7.622
  201.076   88.452    0.250    7.625
  201.896   90.591    0.259    7.409
  202.717   89.906    0.262    8.145
  203.537   87.806    0.258    8.662
  204.357   86.778    0.248    7.494
  205.177   88.202    0.237    7.132
  205.997   86.460    0.233    7.210
  206.818   84.365    0.245    7.359
  207.638   82.270    0.251    7.657
  208.458   81.585    0.247    7.953
  209.278   85.481    0.237    8.835
  210.098   88.325    0.229    9.498
  210.919   86.230    0.216    9.283
  211.739   83.783    0.206    7.456
  212.559   80.631    0.200    8.119
  213.379   75.717    0.191    9.074
  214.199   74.327    0.180   12.299
  215.020   73.641    0.169   13.035
  215.840   71.194    0.142   12.674
  216.660   72.628    0.150   13.849
  217.480   72.648    0.165   14.365
  218.301   70.196    0.166   13.711
  219.121   67.044    0.157   14.299
  219.941   67.068    0.146   16.499
  220.761   69.912    0.142   17.528
  221.581   71.694    0.169   18.923
  222.402   73.123    0.182   19.878
  223.222   73.143    0.176   13.735
  224.042   71.400    0.175   14.029
  224.862   72.834    0.179   14.474
  225.682   74.259    0.181   14.478
  226.503   75.341    0.175   14.408
  227.323   75.008    0.170   14.705
  228.143   73.965    0.164   14.634
  228.963   71.175    0.154   14.053
  229.783   70.128    0.147   14.204
  230.604   67.338    0.134   14.281
  231.424   65.948    0.138   14.577
  232.244   64.906    0.145   17.144
  233.064   65.278    0.150   20.514
  233.885   66.359    0.143   16.639
  234.705   65.322    0.156   16.057
  235.525   65.341    0.171   14.743
  236.345   67.833    0.164   14.674
  237.165   67.148    0.129   12.262
