~VERSION INFORMATION
 VERS.                 2.0:   CWLS LOG ASCII STANDARD -VERSION 2.0
 WRAP.                  NO:   ONE LINE PER DEPTH STEP
~WELL INFORMATION BLOCK
#MNEM.UNIT           DATA                    DESCRIPTION OF MNEMONIC
#---------    -------------------            -------------------------------
# Generated from Intellog Unique Number	CW_82_90/WELL/3417
WELL.         PCENT WOODEN HOUSE             : Well_name    - WELL
LOC .         AA/05-24-088-23W4/0            : Location     - LOCATION
UWI .         AA/05-24-088-23W4/0            : Uwi          - UNIQUE WELL ID
ENTR.         MAX                            : Entered      - ENTERED BY
SRVC.         COMPUTALOG                     : Scn          - SERVICE COMPANY
STRT.M        100                            : top_depth    - START DEPTH
STOP.M        306                            : bot_depth    - STOP DEPTH
STEP.M        0.25                           : increment    - STEP LENGTH
 NULL. -999.2500:NULL Value
~CURVE INFORMATION BLOCK
#MNEM UNIT       ERCB CURVE CODE    CURVE DESCRIPTION
#-----------   ------------------   ----------------------------------
DEPT.M        00 001 00 00         : DEPTH        - DEPTH
GR  .API      00 310 00 00         : GR           - GAMMA RAY
CALI.MM       00 280 01 00         : CAL          - CALIPER
DPHI.V/V      00 890 00 00         : PHID         - DENSITY POROSITY (SANDSTONE)
NPHI.V/V      00 330 00 00         : PHIN         - NEUTRON POROSITY (SANDSTONE)
ILD .OHMM     00 120 00 00         : RESD         - DEEP RESISTIVITY (DIL)
~PARAMETER INFORMATION
#MNEM.UNIT           DATA             DESCRIPTION OF MNEMONIC
#---------         -----------     ------------------------------
GL  .M        511                  : gl           - GROUND LEVEL ELEVATION
EREF.M        515.1                : kb           - ELEVATION OF DEPTH REFERENCE
DATM.M        511                  : datum        - DATUM ELEVATION
TDD .M        317.5                : tdd          - TOTAL DEPTH DRILLER
RUN .         ONE                  : Run          - RUN NUMBER
ENG .         BILL                 : Engineer     - RECORDING ENGINEER
WIT .         JIM                  : Witness      - WITNESSED BY
MUD .         GEL                  : Mud_type     - MUD TYPE
MATR.         SANDSTONE            : Logunit      - NEUTRON MATRIX
TMAX.C        26                   : BHT          - MAXIMUM RECORDED TEMPERATURE
BHTD.M        317.5                : BHTDEP       - MAXIMUM RECORDED TEMPERATURE
MATR.         1                    : LOGUNIT      - NEUTRON MATRIX
RMT .C        15                   : MDTP         - TEMPERATURE OF MUD
NEUT.         1                    : NEUTRON      - NEUTRON TYPE
RESI.         0                    : RESIST       - RESISTIVITY TYPE
RMC .OHMM     6                    : RMC          - RESISTIVITY OF MUD CAKE
RMF .OHMM     5                    : RMF          - RESISTIVITY OF MUD FILTRATE
SUFT.C        -10                  : SUFT         - SURFACE TEMPERATURE
~A  DEPTH       GR      CAL     PHID     PHIN     RESD
# ...
  209.500   59.944  225.412    0.250    0.452   19.762
  209.750   57.838  225.434    0.230    0.261   25.406
  210.000   56.637  225.451    0.110    0.189   30.322
  210.250   56.044  224.968    0.090    0.187   30.053
  210.500   55.753  224.987    0.136    0.230   27.395
  210.750   57.883  224.500    0.185    0.352   24.061
  211.000   58.804  224.524    0.243    0.421   22.346
  211.250   55.787  224.036    0.291    0.479   22.561
  211.500   51.258  224.058    0.268    0.443   23.642
  211.750   48.847  224.075    0.167    0.265   24.319
  212.000   49.464  224.094    0.141    0.232   24.554
  212.250   51.291  223.609    0.165    0.246   24.337
  212.500   54.331  223.121    0.225    0.347   23.457
  212.750   57.979  223.141    0.239    0.359   22.398
  213.000   59.806  223.163    0.227    0.379   20.610
  213.250   57.394  223.185    0.246    0.402   19.680
  213.500   55.893  223.199    0.291    0.405   19.145
  213.750   56.509  223.221    0.301    0.390   16.973
  214.000   58.944  223.745    0.301    0.406   16.208
  214.250   61.075  223.769    0.301    0.400   16.062
  214.500   63.208  223.784    0.305    0.388   16.218
  214.750   64.430  224.313    0.303    0.382   16.375
  215.000   66.264  224.327    0.295    0.378   16.844
  215.250   67.481  224.349    0.254    0.408   17.166
  215.500   69.612  224.366    0.235    0.389   17.173
  215.750   71.441  224.388    0.258    0.378   17.177
  216.000   74.180  224.405    0.250    0.391   17.024
  216.250   76.612  224.424    0.197    0.364   15.958
  216.500   81.165  224.444    0.170    0.346   14.819
  216.750   88.447  224.970    0.168    0.323   13.636
  217.000   90.880  227.008    0.217    0.365   12.900
  217.250   89.985  229.049    0.224    0.349   12.667
  217.500   90.298  230.075    0.222    0.352   12.555
  217.750   91.522  230.599    0.219    0.368   12.442
  218.000   92.745  231.123    0.212    0.383   12.446
  218.250   93.968  232.154    0.204    0.395   12.450
  218.500   93.677  232.681    0.182    0.380   12.455
  218.750   90.660  233.203    0.166    0.352   12.459
  219.000   90.065  233.220    0.181    0.353   12.463
  219.250   90.683  233.239    0.191    0.364   12.126
  219.500   91.905  232.249    0.205    0.392   11.579
  219.750   93.128  231.261    0.207    0.402   11.057
  220.000   95.868  231.286    0.207    0.410   10.959
  220.250   95.879  230.796    0.202    0.393   11.168
  220.500   95.284  229.806    0.196    0.395   11.702
  220.750   94.086  228.818    0.191    0.397   12.494
  221.000   93.190  228.330    0.192    0.382   13.092
  221.250   90.475  227.340    0.200    0.367   14.239
  221.500   86.246  225.843    0.213    0.357   15.630
  221.750   78.688  223.846    0.210    0.397   19.544
  222.000   75.975  222.854    0.165    0.273   20.479
  222.250   77.200  221.364    0.108    0.232   21.066
  222.500   80.842  220.877    0.120    0.212   19.930
  222.750   87.820  219.889    0.211    0.241   18.856
  223.000   90.558  219.404    0.239    0.312   17.029
  223.250   90.264  219.423    0.236    0.330   14.957
  223.500   89.372  218.935    0.222    0.345   14.151
  223.750   89.682  218.960    0.221    0.363   14.025
  224.000   90.906  218.974    0.220    0.385   13.899
  224.250   93.039  219.501    0.203    0.389   13.775
  224.500   94.869  220.532    0.198    0.380   13.653
  224.750   95.787  221.051    0.200    0.364   13.531
  225.000   91.325  222.635    0.207    0.360   12.891
  225.250   89.817  223.121    0.219    0.363   13.254
  225.500   89.809  223.112    0.224    0.368   13.378
  225.750   91.304  221.098    0.219    0.363   13.503
  226.000   92.799  219.584    0.206    0.346   13.380
  226.250   94.896  218.569    0.207    0.343   12.777
  226.500   97.892  219.559    0.206    0.375   11.652
  226.750  100.590  221.049    0.203    0.384   10.625
  227.000   97.579  223.540    0.208    0.420   10.528
  227.250   90.060  225.532    0.195    0.396   10.925
  227.500   83.744  226.021    0.153    0.339   11.872
  227.750   83.137  224.004    0.131    0.316   12.094
  228.000   88.536  220.991    0.202    0.317   11.549
  228.250   90.633  219.477    0.245    0.408   10.150
  228.500   89.724  219.465    0.249    0.381    9.342
  228.750   91.821  219.953    0.233    0.406    7.986
  229.000   96.920  220.942    0.218    0.431    6.764
  229.250   96.012  220.931    0.216    0.451    5.573
  229.500   90.296  220.917    0.210    0.505    5.522
  229.750   85.483  220.906    0.208    0.455    5.730
  230.000   82.472  220.895    0.195    0.440    6.284
  230.250   79.761  220.881    0.170    0.420    7.021
  230.500   80.054  221.370    0.186    0.422    8.214
  230.750   80.348  221.358    0.220    0.433    9.699
  231.000   80.941  221.848    0.239    0.419   10.443
  231.250   79.132  222.837    0.209    0.392   10.737
  231.500   75.518  223.828    0.175    0.369   10.938
  231.750   74.610  224.317    0.143    0.372   10.939
  232.000   77.908  223.804    0.172    0.391   10.940
  232.250   82.406  226.794    0.195    0.426   10.940
  232.500   84.503  227.286    0.170    0.445   10.941
  232.750   86.299  226.271    0.173    0.416   10.942
  233.000   88.694  223.754    0.186    0.385   10.842
  233.250   91.089  223.744    0.207    0.390   10.743
  233.500   92.886  225.233    0.204    0.427   10.547
  233.750   94.382  225.221    0.207    0.451   10.548
  234.000   94.373  224.207    0.210    0.421   10.745
  234.250   92.863  224.198    0.212    0.373   10.846
  234.500   88.352  224.185    0.209    0.372   11.570
  234.750   78.431  224.173    0.192    0.408   14.574
  235.000   67.308  222.659    0.128    0.289   16.894
  235.250   61.593  221.646    0.083    0.217   23.338
  235.500   61.887  222.133    0.031    0.181   31.070
  235.750   63.981  222.122    0.032    0.183   36.688
  236.000   63.674  222.111    0.079    0.222   38.424
  236.250   61.563  222.600    0.078    0.243   38.427
  236.500   61.256  223.088    0.062    0.244   38.077
  236.750   62.451  223.078    0.044    0.216   37.039
  237.000   65.749  222.564    0.072    0.202   35.699
  237.250   71.450  221.551    0.104    0.236   32.255
  237.500   73.845  220.538    0.111    0.281   27.320
  237.750   73.838  220.526    0.164    0.325   23.354
  238.000   73.831  221.013    0.191    0.405   20.149
  238.250   73.823  221.502    0.204    0.349   17.546
  238.500   73.516  221.491    0.225    0.333   16.298
  238.750   72.307  220.477    0.264    0.417   15.139
  239.000   69.897  218.962    0.263    0.477   14.591
  239.250   69.890  218.453    0.249    0.511   14.326
  239.500   69.884  218.438    0.243    0.517   15.143
  239.750   67.773  218.928    0.217    0.385   16.455
  240.000   65.063  221.416    0.157    0.288   19.976
  240.250   60.548  222.408    0.075    0.217   29.165
  240.500   59.940  222.899    0.030    0.172   33.191
  240.750   63.539  222.886    0.067    0.210   26.598
  241.000   68.939  222.874    0.132    0.275   21.512
  241.250   76.742  222.861    0.190    0.393   17.561
  241.500   78.238  222.852    0.153    0.393   15.866
  241.750   78.531  222.339    0.130    0.361   17.242
  242.000   79.426  222.326    0.117    0.327   19.085
  242.250   80.620  221.814    0.116    0.317   17.729
  242.500   82.716  221.301    0.133    0.305   16.018
  242.750   85.112  221.288    0.165    0.325   14.879
  243.000   86.905  219.774    0.191    0.357   14.079
  243.250   86.299  218.261    0.197    0.357   13.695
  243.500   81.486  217.249    0.179    0.356   14.080
  243.750   76.672  216.736    0.100    0.327   15.586
  244.000   79.368  220.228    0.099    0.322   15.732
  244.250   84.168  222.219    0.151    0.331   14.748
  244.500   85.362  222.707    0.214    0.394   13.700
  244.750   82.352  222.695    0.204    0.410   13.956
  245.000   79.941  222.685    0.180    0.396   14.482
  245.250   81.135  222.670    0.149    0.379   14.617
  245.500   83.531  223.663    0.167    0.368   14.618
  245.750   87.128  224.152    0.184    0.366   14.089
