~VERSION INFORMATION
 VERS.                 2.0:   CWLS LOG ASCII STANDARD -VERSION 2.0
 WRAP.                  NO:   ONE LINE PER DEPTH STEP
~WELL INFORMATION BLOCK
#MNEM.UNIT           DATA                    DESCRIPTION OF MNEMONIC
#---------    -------------------            -------------------------------
# Generated from Intellog Unique Number	CX_WELLS/WELL/3778
LOC .         AA/07-04-086-15W4/0            : Location     - LOCATION
UWI .         AA/07-04-086-15W400            : Uwi          - UNIQUE WELL ID
ENTR.         T                              : Entered      - ENTERED BY
SRVC.         SCHLUMBERGER                   : Scn          - SERVICE COMPANY
STRT.F        200                            : top_depth    - START DEPTH
STOP.F        750.361                        : bot_depth    - STOP DEPTH
STEP.F        0.82                           : increment    - STEP LENGTH
 NULL. -999.2500:NULL Value
~CURVE INFORMATION BLOCK
#MNEM UNIT       ERCB CURVE CODE    CURVE DESCRIPTION
#-----------   ------------------   ----------------------------------
DEPT.F        00 001 00 00         : DEPTH        - DEPTH
GR  .API      00 310 00 00         : GR           - GAMMA RAY
NPHI.V/V      00 330 00 00         : PHIN         - NEUTRON POROSITY (SANDSTONE)
ILD .OHMM     00 120 00 00         : RESD         - DEEP RESISTIVITY (DIL)
~PARAMETER INFORMATION
#MNEM.UNIT           DATA             DESCRIPTION OF MNEMONIC
#---------         -----------     ------------------------------
GL  .F        1711                 : gl           - GROUND LEVEL ELEVATION
EREF.F        1711                 : kb           - ELEVATION OF DEPTH REFERENCE
DATM.F        1711                 : datum        - DATUM ELEVATION
TDD .F        753                  : tdd          - TOTAL DEPTH DRILLER
RUN .         ONE                  : Run          - RUN NUMBER
ENG .         BILL                 : Engineer     - RECORDING ENGINEER
WIT .         JIM                  : Witness      - WITNESSED BY
MUD .         GEL                  : Mud_type     - MUD TYPE
MATR.         SANDSTONE            : Logunit      - NEUTRON MATRIX
TMAX.F        55                   : BHT          - MAXIMUM RECORDED TEMPERATURE
BHTD.F        753                  : BHTDEP       - MAXIMUM RECORDED TEMPERATURE
MATR.         1                    : LOGUNIT      - NEUTRON MATRIX
RMT .F        65                   : MDTP         - TEMPERATURE OF MUD
NEUT.         1                    : NEUTRON      - NEUTRON TYPE
RESI.         7.1                  : RESIST       - RESISTIVITY TYPE
RMC .OHMM     6.5                  : RMC          - RESISTIVITY OF MUD CAKE
RMF .OHMM     5                    : RMF          - RESISTIVITY OF MUD FILTRATE
SUFT.F        35                   : SUFT         - SURFACE TEMPERATURE
~A  DEPTH       GR     PHIN     RESD
# ...
  555.971   90.252    0.422    9.870
  556.791   96.759    0.417   11.060
  557.612  101.207    0.417   12.759
  558.432  103.257    0.431   11.899
  559.252  103.593    0.447   10.527
  560.072  104.273    0.453    9.837
  560.892  105.295    0.457    8.975
  561.713  104.947    0.459    8.627
  562.533  103.572    0.451    8.618
  563.353  101.509    0.449    8.611
  564.173  101.160    0.451    8.775
  564.993  104.239    0.454    8.768
  565.814  106.973    0.456    8.757
  566.634  109.024    0.448    8.754
  567.454  107.991    0.441    8.918
  568.274  105.244    0.420    9.083
  569.094  104.211    0.416    9.585
  569.915  104.203    0.413   10.093
  570.735  102.486    0.409   10.769
  571.555   98.709    0.404   11.784
  572.375   96.305    0.404   12.289
  573.196   95.955    0.406   12.451
  574.016   98.350    0.410   12.444
  574.836  100.400    0.417   12.267
  575.656   99.709    0.422   11.920
  576.476   97.305    0.423   11.742
  577.297   94.556    0.423   11.392
  578.117   93.865    0.424   11.215
  578.937   93.516    0.425   11.377
  579.757   93.511    0.422   11.542
  580.577   94.191    0.417   11.534
  581.398   93.842    0.410   11.527
  582.218   92.466    0.404   12.032
  583.038   92.803    0.393   13.392
  583.858   92.112    0.384   14.579
  584.678   91.421    0.379   14.400
  585.499   90.383    0.378   14.564
  586.319   90.036    0.378   14.900
  587.139   88.660    0.379   15.233
  587.959   86.598    0.380   15.227
  588.780   85.908    0.385   15.048
  589.600   84.189    0.390   14.872
  590.420   82.813    0.388   14.519
  591.240   81.091    0.384   14.513
  592.060   81.428    0.385   14.508
  592.881   81.765    0.390   14.329
  593.701   81.759    0.394   14.153
  594.521   81.411    0.396   13.632
  595.341   81.064    0.397   13.284
  596.161   79.002    0.397   13.106
  596.982   80.025    0.393   13.101
  597.802   81.731    0.391   13.601
  598.622   84.809    0.390   13.768
  599.442   86.859    0.392   13.930
  600.262   88.909    0.392   13.752
  601.083   91.304    0.392   13.576
  601.903   93.354    0.392   13.399
  602.723   92.320    0.392   13.049
  603.543   90.601    0.397   12.532
  604.364   88.879    0.400   11.156
  605.184   88.877    0.407   11.663
  606.004   90.237    0.411   12.507
  606.824   90.920    0.410   13.183
  607.644   92.628    0.408   13.859
  608.465   93.992    0.406   14.024
  609.285   93.642    0.408   13.847
  610.105   92.952    0.409   13.328
  610.925   91.234    0.408   12.809
  611.745   87.801    0.406   12.117
  612.566   86.080    0.405   11.940
  613.386   86.074    0.405   11.757
  614.206   88.468    0.409   11.584
  615.026   91.205    0.415   11.065
  615.846   94.967    0.429   10.034
  616.667   95.649    0.449    9.174
  617.487   96.671    0.472    7.972
  618.307   97.693    0.471    6.765
  619.127   99.058    0.468    6.421
  619.948  100.766    0.465    6.069
  620.768  104.186    0.462    6.065
  621.588  106.922    0.453    6.055
  622.408  107.258    0.445    6.393
  623.228  100.742    0.429    7.408
  624.049   98.338    0.411    8.425
  624.869   93.535    0.404    9.103
  625.689   87.703    0.399   10.289
  626.509   85.299    0.393   10.795
  627.329   80.837    0.385   12.666
  628.150   77.061    0.381   13.683
  628.970   72.258    0.373   15.212
  629.790   66.084    0.372   22.203
  630.610   59.910    0.377   19.806
  631.430   54.763    0.389   18.605
  632.251   55.100    0.398   18.255
  633.071   58.521    0.403   20.808
  633.891   61.941    0.405   23.531
  634.711   61.594    0.408   26.769
  635.531   58.504    0.411   32.906
  636.352   53.701    0.415   36.142
  637.172   55.408    0.414   38.183
  637.992   59.171    0.411   41.248
  638.812   59.849    0.410   42.777
  639.633   59.845    0.410   43.453
  640.453   59.839    0.404   44.299
  641.273   60.862    0.405   45.315
  642.093   62.911    0.412   44.968
  642.913   64.619    0.422   39.156
  643.734   65.298    0.433   30.445
  644.554   66.321    0.434   23.439
  645.374   67.686    0.423   19.165
  646.194   69.392    0.420   17.793
  647.014   71.100    0.420   18.810
  647.835   73.149    0.421   18.972
  648.655   76.231    0.422   18.110
  649.475   80.337    0.423   17.081
  650.295   85.815    0.426   15.538
  651.115   89.579    0.428   12.800
  651.936   92.657    0.439   11.086
  652.756   95.050    0.472    6.982
  653.576   96.073    0.497    5.268
  654.396   96.067    0.509    5.599
  655.217   97.431    0.500    5.766
  656.037   97.768    0.489    5.930
  656.857   96.734    0.479    5.923
  657.677   93.987    0.476    5.742
  658.497   89.526    0.479    5.564
  659.318   89.519    0.485    5.730
  660.138   92.599    0.494    5.892
  660.958   96.362    0.496    6.055
  661.778   96.356    0.495    6.221
  662.598   96.008    0.488    6.381
  663.419   94.289    0.477    6.548
  664.239   91.198    0.467    6.882
  665.059   88.452    0.453    7.558
  665.879   84.677    0.446    8.401
  666.699   79.872    0.438    8.908
  667.520   77.466    0.429    9.923
  668.340   75.747    0.427   10.771
  669.160   73.001    0.422   14.517
  669.980   70.254    0.417   15.538
  670.801   70.934    0.415   17.408
  671.621   72.299    0.410   19.620
  672.441   71.608    0.407   32.072
  673.261   69.203    0.425   33.260
  674.081   66.799    0.425   30.863
  674.902   65.764    0.422   26.248
  675.722   68.157    0.425   36.994
  676.542   70.550    0.431   32.720
  677.362   73.286    0.437   16.668
  678.182   75.335    0.450    9.150
  679.003   77.043    0.463    8.460
  679.823   77.724    0.463    8.453
  680.643   77.717    0.456    9.127
  681.463   76.340    0.448    9.634
  682.283   75.649    0.431   10.993
  683.104   75.987    0.419   13.034
  683.924   78.035    0.407   15.245
  684.744   79.402    0.402   29.747
  685.564   81.795    0.400   50.393
  686.385   83.846    0.400   58.237
  687.205   86.924    0.404   61.473
  688.025   92.744    0.408   61.805
  688.845   97.879    0.412   61.459
  689.665   90.334    0.419   59.575
  690.486   82.445    0.419   60.080
  691.306   78.327    0.413   16.888
  692.126   71.811    0.389   18.587
  692.946   65.293    0.383   20.458
  693.766   66.316    0.366   24.206
  694.587   70.080    0.385   33.758
  695.407   76.928    0.392   52.185
  696.227   81.378    0.402   69.075
  697.047   80.000    0.406   65.654
  697.867   77.253    0.392   54.723
  698.688   74.162    0.379   59.667
  699.508   72.444    0.376   63.927
  700.328   70.725    0.373   66.650
  701.148   68.662    0.367   65.790
  701.969   70.028    0.365   61.685
  702.789   70.364    0.364   57.582
  703.609   70.358    0.365   52.626
  704.429   72.066    0.372   47.668
  705.249   75.144    0.381   43.223
  706.070   77.880    0.390   39.119
  706.890   81.302    0.395   36.552
  707.710   84.380    0.397   33.302
  708.530   83.346    0.398   31.076
  709.350   80.942    0.397   26.289
  710.171   75.453    0.396   27.306
  710.991   74.761    0.393   30.200
  711.811   75.098    0.387   31.896
  712.631   73.036    0.384   30.357
  713.451   67.547    0.383   28.473
  714.272   54.862    0.382   27.100
  715.092   50.401    0.375   28.117
  715.912   48.680    0.367   36.815
  716.732   48.674    0.357   96.891
  717.552   50.039    0.342  101.492
  718.373   51.748    0.329  100.631
  719.193   55.855    0.354   96.356
  720.013   65.443    0.365   54.019
  720.833   69.209    0.390   43.258
  721.654   74.343    0.416   35.057
  722.474   81.191    0.457   29.077
  723.294   89.753    0.451   22.241
  724.114   92.487    0.430   19.331
  724.934   78.431    0.407   20.350
  725.755   73.628    0.385   24.098
  726.575   65.741    0.376   33.478
  727.395   62.992    0.370   48.662
  728.215   61.616    0.368   71.358
  729.035   61.267    0.364   81.762
  729.856   61.262    0.363   83.974
  730.676   61.256    0.363   82.431
  731.496   61.593    0.364   72.864
  732.316   63.644    0.372   36.843
  733.136   66.722    0.377   28.812
