~VERSION INFORMATION
 VERS.                 2.0:   CWLS LOG ASCII STANDARD -VERSION 2.0
 WRAP.                  NO:   ONE LINE PER DEPTH STEP
~WELL INFORMATION BLOCK
#MNEM.UNIT           DATA                    DESCRIPTION OF MNEMONIC
#---------    -------------------            -------------------------------
# Generated from Intellog Unique Number	CN_91_93/WELL/3670
WELL.         04-04-093-09W4                 : Well_name    - WELL
LOC .         AA/04-04-093-09W4/0            : Location     - LOCATION
UWI .         AA/04-04-093-09W400            : Uwi          - UNIQUE WELL ID
ENTR.         JOETTE                         : Entered      - ENTERED BY
SRVC.         SCHLUMBERGER                   : Scn          - SERVICE COMPANY
DATE.         03\22\92                       : Date         - LOG DATE
STRT.M        0                              : top_depth    - START DEPTH
STOP.M        125                            : bot_depth    - STOP DEPTH
STEP.M        0.25                           : increment    - STEP LENGTH
 NULL. -999.2500:NULL Value
~CURVE INFORMATION BLOCK
#MNEM UNIT       ERCB CURVE CODE    CURVE DESCRIPTION
#-----------   ------------------   ----------------------------------
DEPT.M        00 001 00 00         : DEPTH        - DEPTH
CALI.MM       00 280 01 00         : CAL          - CALIPER
GR  .API      00 310 00 00         : GR           - GAMMA RAY
NPHI.V/V      00 330 00 00         : PHIN         - NEUTRON POROSITY (SANDSTONE)
DPHI.V/V      00 890 00 00         : PHID         - DENSITY POROSITY (SANDSTONE)
ILD .OHMM     00 120 00 00         : RESD         - DEEP RESISTIVITY (DIL)
~PARAMETER INFORMATION
#MNEM.UNIT           DATA             DESCRIPTION OF MNEMONIC
#---------         -----------     ------------------------------
GL  .M        341.6                : gl           - GROUND LEVEL ELEVATION
EREF.M        341.6                : kb           - ELEVATION OF DEPTH REFERENCE
DATM.M        341.6                : datum        - DATUM ELEVATION
TDD .M        125.8                : tdd          - TOTAL DEPTH DRILLER
RUN .         ONE                  : Run          - RUN NUMBER
ENG .         JO                   : Engineer     - RECORDING ENGINEER
WIT .         TIM                  : Witness      - WITNESSED BY
MUD .         GEL                  : Mud_type     - MUD TYPE
MATR.         SANDSTONE            : Logunit      - NEUTRON MATRIX
TMAX.C        16                   : BHT          - MAXIMUM RECORDED TEMPERATURE
BHTD.M        125.8                : BHTDEP       - MAXIMUM RECORDED TEMPERATURE
RMT .C        14                   : MDTP         - TEMPERATURE OF MUD
MUDD.KG/M     9000                 : MWT          - MUD DENSITY
NEUT.         1                    : NEUTRON      - NEUTRON TYPE
RESI.         0                    : RESIST       - RESISTIVITY TYPE
RM  .OHMM     4.8                  : RM           - RESISTIVITY OF MUD
RMC .OHMM     4.8                  : RMC          - RESISTIVITY OF MUD CAKE
RMF .OHMM     4.8                  : RMF          - RESISTIVITY OF MUD FILTRATE
SUFT.C        4                    : SUFT         - SURFACE TEMPERATURE
~A  DEPTH      CAL       GR     PHIN     PHID     RESD
# ...
   73.000  125.764   79.188    0.600    0.513   55.550
   73.250  125.832   84.809    0.609    0.543   57.215
   73.500  124.872   88.566    0.617    0.559   58.903
   73.750  124.964   97.259    0.625    0.576   59.813
   74.000  125.055   87.442    0.632    0.581   59.010
   74.250  125.146   73.292    0.638    0.567   56.600
   74.500  124.255   65.326    0.642    0.535   53.523
   74.750  124.324   60.444    0.640    0.437   53.572
   75.000  124.392   54.946    0.579    0.376   57.553
   75.250  124.529   50.065    0.545    0.320   58.429
   75.500  124.575   48.269    0.498    0.283   59.318
   75.750  124.712   47.090    0.387    0.266   73.482
   76.000  124.803   42.839    0.323    0.246   75.684
   76.250  124.872   47.816    0.301    0.247   67.603
   76.500  124.940   60.828    0.330    0.245   60.398
   76.750  125.055   70.165    0.353    0.231   54.733
   77.000  125.123   78.227    0.352    0.200   54.795
   77.250  125.260   74.580    0.352    0.215   58.867
   77.500  125.329   75.252    0.337    0.248   62.378
   77.750  125.443   65.435    0.314    0.255   66.083
   78.000  125.534   58.703    0.299    0.251   69.006
   78.250  125.626   60.005    0.309    0.241   78.502
   78.500  124.689   57.578    0.305    0.241   91.857
   78.750  124.757   54.548    0.278    0.235  109.020
   79.000  124.848   57.702    0.278    0.196  120.522
   79.250  124.940   52.807    0.273    0.164  127.711
   79.500  124.003   47.925    0.242    0.153  127.827
   79.750  117.924   51.682    0.198    0.156  124.360
   80.000  123.157   52.354    0.208    0.168  117.600
   80.250  127.362   54.274    0.227    0.179  109.639
   80.500  128.504   53.094    0.244    0.193  100.799
   80.750  128.573   56.221    0.279    0.237   91.324
   81.000  126.653   62.459    0.303    0.215   80.441
   81.250  126.699   69.918    0.291    0.201   74.995
   81.500  125.785   78.611    0.306    0.226   68.933
   81.750  125.853   74.347    0.317    0.235   63.361
   82.000  125.945   76.869    0.298    0.247   59.072
   82.250  126.082   83.094    0.276    0.237   55.873
   82.500  126.150   78.830    0.260    0.206   58.357
   82.750  126.287   70.864    0.268    0.189   59.246
   83.000  126.356   57.345    0.255    0.215   54.444
   83.250  126.424   58.017    0.261    0.222   50.043
   83.500  127.590   60.539    0.278    0.216   46.008
   83.750  127.658   64.310    0.290    0.200   42.894
   84.000  127.727   61.280    0.278    0.198   40.562
   84.250  127.841   58.853    0.271    0.202   40.035
   84.500  126.927   56.440    0.268    0.206   39.489
   84.750  126.973   57.111    0.273    0.210   39.525
   85.000  127.087   49.145    0.317    0.218   41.291
   85.250  127.178   48.583    0.334    0.231   43.734
   85.500  127.247   56.042    0.326    0.248   45.679
   85.750  127.338   58.565    0.292    0.259   43.814
   86.000  126.424   50.598    0.281    0.253   41.432
   86.250  126.492   51.887    0.278    0.243   40.308
   86.500  126.584   48.871    0.287    0.235   39.785
   86.750  127.726   47.061    0.295    0.240   39.260
   87.000  127.795   51.435    0.308    0.245   37.656
   87.250  127.932   60.758    0.333    0.252   36.127
   87.500  126.995   68.217    0.388    0.259   39.366
   87.750  126.058   66.421    0.372    0.266   59.478
   88.000  126.126   57.221    0.342    0.271   53.912
   88.250  125.235   52.326    0.318    0.267   55.502
   88.500  124.253   53.011    0.300    0.264   64.043
   88.750  123.338   53.066    0.305    0.270   71.813
   89.000  123.430   51.270    0.304    0.263   79.407
   89.250  123.498   47.623    0.299    0.257   82.957
   89.500  123.635   47.074    0.304    0.264   82.995
   89.750  123.704   48.966    0.307    0.279   73.121
   90.000  123.772   51.489    0.291    0.268   66.247
   90.250  124.915   54.026    0.287    0.257   61.777
   90.500  124.983   51.599    0.296    0.263   64.523
   90.750  125.098   57.207    0.309    0.265   63.657
   91.000  125.166   59.730    0.324    0.269   58.511
   91.250  125.280   55.465    0.313    0.258   51.538
   91.500  125.349   53.669    0.283    0.246   46.715
   91.750  125.463   59.894    0.301    0.222   46.746
   92.000  125.532   69.835    0.320    0.255   57.092
   92.250  125.669   58.783    0.352    0.267   60.484
   92.500  125.737   53.285    0.323    0.253   57.209
   92.750  125.874   50.255    0.307    0.232   52.572
   93.000  124.914   58.331    0.291    0.226   47.641
   93.250  124.983   59.633    0.288    0.222   43.810
   93.500  125.120   56.589    0.297    0.252   42.602
   93.750  125.166   52.942    0.296    0.247   42.040
   94.000  126.285   54.848    0.281    0.238   43.290
   94.250  126.400   59.839    0.283    0.235   45.215
   94.500  126.468   60.511    0.288    0.240   47.912
   94.750  126.559   58.715    0.291    0.241   47.944
   95.000  126.651   55.081    0.285    0.241   44.709
   95.250  126.742   52.037    0.278    0.236   42.873
   95.500  126.834   50.858    0.280    0.232   39.416
   95.750  126.948   49.062    0.282    0.235   38.896
   96.000  127.039   47.883    0.290    0.246   39.488
   96.250  127.130   49.788    0.297    0.264   40.089
   96.500  127.222   54.162    0.303    0.272   39.002
   96.750  127.290   54.217    0.305    0.265   36.882
   97.000  127.427   51.804    0.300    0.274   33.900
   97.250  127.519   51.242    0.295    0.273   32.981
   97.500  127.587   59.948    0.285    0.263   34.948
   97.750  127.679   56.301    0.278    0.246   34.988
   98.000  126.765   55.739    0.274    0.252   35.004
   98.250  126.856   55.807    0.281    0.241   34.541
   98.500  126.924   51.529    0.276    0.226   34.573
   98.750  127.061   54.052    0.268    0.226   35.099
   99.000  127.107   60.277    0.270    0.230   35.139
   99.250  127.198   60.346    0.276    0.232   35.170
   99.500  127.290   59.783    0.288    0.239   35.218
   99.750  127.450   61.689    0.300    0.256   35.242
  100.000  127.495   60.496    0.309    0.251   35.282
  100.250  127.564   61.785    0.293    0.245   35.306
  100.500  127.678   59.989    0.277    0.243   35.338
  100.750  127.792   55.725    0.276    0.249   34.879
  101.000  127.861   53.942    0.284    0.256   34.403
  101.250  127.975   57.685    0.298    0.266   32.998
  101.500  128.021   55.272    0.303    0.264   31.204
  101.750  129.163   52.859    0.300    0.259   31.679
  102.000  129.277   51.680    0.288    0.245   36.039
  102.250  129.392   54.833    0.278    0.231   38.726
  102.500  129.460   59.221    0.267    0.222   39.877
  102.750  129.529   61.744    0.256    0.209   39.351
  103.000  129.666   64.253    0.258    0.211   36.687
  103.250  129.711   59.989    0.275    0.229   33.253
  103.500  128.843   53.873    0.290    0.256   31.002
  103.750  128.889   57.013    0.319    0.276   29.317
  104.000  128.957   58.919    0.337    0.293   30.182
  104.250  129.049   54.052    0.342    0.301   31.975
  104.500  128.157   54.710    0.337    0.275   32.926
  104.750  127.197   57.850    0.330    0.265   32.491
  105.000  127.312   61.017    0.323    0.270   31.617
  105.250  127.357   61.661    0.320    0.268   30.760
  105.500  127.472   62.950    0.321    0.263   30.788
  105.750  127.563   74.125    0.328    0.259   30.388
  106.000  126.626   77.264    0.341    0.267   29.973
  106.250  126.717   73.000    0.353    0.278   30.007
  106.500  125.780   71.204    0.359    0.282   29.611
  106.750  125.849   62.004    0.357    0.288   29.644
  107.000  125.963   60.838    0.356    0.297   29.671
  107.250  125.072   59.042    0.347    0.297   30.553
  107.500  125.117   60.331    0.343    0.282   32.361
  107.750  124.203   60.989    0.326    0.266   34.774
  108.000  124.318   59.824    0.318    0.263   35.808
  108.250  123.335   59.865    0.306    0.256   34.353
  108.500  123.426   61.167    0.291    0.247   32.021
  108.750  122.512   63.087    0.360    0.264   29.432
  109.000  122.626   65.582    0.410    0.279   28.647
  109.250  122.672   93.416    0.462    0.060   29.070
