~VERSION INFORMATION
 VERS.                 2.0:   CWLS LOG ASCII STANDARD -VERSION 2.0
 WRAP.                  NO:   ONE LINE PER DEPTH STEP
~WELL INFORMATION BLOCK
#MNEM.UNIT           DATA                    DESCRIPTION OF MNEMONIC
#---------    -------------------            -------------------------------
# Generated from Intellog Unique Number	CC_88_90/WELL/3143
WELL.         TRIAD OIL CO.                  : Well_name    - WELL
LOC .         AA/08-14-088-12W4/0            : Location     - LOCATION
UWI .         AA/08-14-088-12W400            : Uwi          - UNIQUE WELL ID
ENTR.         JOETTE                         : Entered      - ENTERED BY
SRVC.         SCHLUMBERGER                   : Scn          - SERVICE COMPANY
DATE.         03/06/92                       : Date         - LOG DATE
STRT.M        60.960                         : top_depth    - START DEPTH
STOP.M        161.960                        : bot_depth    - STOP DEPTH
STEP.M        0.25                           : increment    - STEP LENGTH
 NULL. -999.2500:NULL Value
~CURVE INFORMATION BLOCK
#MNEM UNIT       ERCB CURVE CODE    CURVE DESCRIPTION
#-----------   ------------------   ----------------------------------
DEPT.M        00 001 00 00         : DEPTH        - DEPTH
GR  .API      00 310 00 00         : GR           - GAMMA RAY
NPHI.V/V      00 330 00 00         : PHIN         - NEUTRON POROSITY (SANDSTONE)
ILD .OHMM     00 120 00 00         : RESD         - DEEP RESISTIVITY (DIL)
~PARAMETER INFORMATION
#MNEM.UNIT           DATA             DESCRIPTION OF MNEMONIC
#---------         -----------     ------------------------------
GL  .M        455.005              : gl           - GROUND LEVEL ELEVATION
EREF.M        456.743              : kb           - ELEVATION OF DEPTH REFERENCE
DATM.M        456.743              : datum        - DATUM ELEVATION
TDD .M        181.661              : tdd          - TOTAL DEPTH DRILLER
RUN .         ONE                  : Run          - RUN NUMBER
ENG .         JO                   : Engineer     - RECORDING ENGINEER
WIT .         TIM                  : Witness      - WITNESSED BY
MUD .         GEL                  : Mud_type     - MUD TYPE
MATR.         SANDSTONE            : Logunit      - NEUTRON MATRIX
TMAX.C        12.2222              : BHT          - MAXIMUM RECORDED TEMPERATURE
BHTD.M        181.661              : BHTDEP       - MAXIMUM RECORDED TEMPERATURE
RMT .C        17.7778              : MDTP         - TEMPERATURE OF MUD
MUDD.KG/M     1130                 : MWT          - MUD DENSITY
NEUT.         1                    : NEUTRON      - NEUTRON TYPE
RESI.         0                    : RESIST       - RESISTIVITY TYPE
RM  .OHMM     6.73                 : RM           - RESISTIVITY OF MUD
RMC .OHMM     6.73                 : RMC          - RESISTIVITY OF MUD CAKE
RMF .OHMM     6.73                 : RMF          - RESISTIVITY OF MUD FILTRATE
SUFT.C        4                    : SUFT         - SURFACE TEMPERATURE
~A  DEPTH       GR     PHIN     RESD
   60.960   85.425    0.385   20.846
   61.210   84.199    0.418   16.872
   61.460   87.275    0.424   14.486
   61.710   96.496    0.417   14.285
   61.960  112.478    0.403   15.078
   62.210  106.336    0.413   15.274
   62.460  105.725    0.416   14.080
   62.710  119.863    0.414   13.481
   62.960  127.241    0.414   13.677
   63.210  113.723    0.416   14.270
   63.460  111.268    0.410   15.458
   63.710  124.792    0.415   15.257
   63.960  121.108    0.400   14.857
   64.210  110.048    0.412   14.855
   64.460  109.437    0.396   13.860
   64.710  105.138    0.406   12.468
   64.960  102.683    0.411   13.458
   65.210  103.916    0.411   14.050
   65.460  112.523    0.411   15.239
   65.710  105.765    0.408   15.236
   65.960   93.477    0.390   14.440
   66.210  100.855    0.396   14.237
   66.460   95.942    0.401   14.633
   66.710  108.237    0.405   15.028
   66.960  115.614    0.399   14.032
   67.210  119.920    0.401   14.823
   67.460  127.297    0.414   14.027
   67.710  112.551    0.426   12.832
   67.960  104.565    0.436   12.433
   68.210  107.641    0.431   12.430
   68.460  118.706    0.417   12.428
   68.710  121.168    0.419   12.822
   68.960  121.171    0.422   13.019
   69.210  109.497    0.423   13.412
   69.460   90.449    0.422   13.012
   69.710   89.838    0.420   13.208
   69.960   93.528    0.414   13.801
   70.210   94.760    0.407   13.998
   70.460  108.899    0.404   13.201
   70.710  120.578    0.406   12.404
   70.960  126.727    0.409   11.806
   71.210  125.501    0.414   12.002
   71.460  106.453    0.424   12.396
   71.710   84.331    0.430   12.791
   71.960   97.856    0.432   13.781
   72.210   89.255    0.430   14.970
   72.460   91.102    0.432   14.967
   72.710   99.094    0.430   13.376
   72.960   99.712    0.440   11.388
   73.210  102.173    0.451   10.194
   73.460   96.030    0.451    9.198
   73.710  102.794    0.399    9.990
   73.960  124.307    0.401   14.951
   74.210  135.987    0.422   15.743
   74.460  129.230    0.438   13.358
   74.710  116.941    0.441   12.957
   74.960  102.195    0.432   12.159
   75.210  112.646    0.426   11.761
   75.460  114.493    0.429   10.766
   75.710  118.183    0.432   10.167
   75.960  121.874    0.433   10.165
   76.210  118.189    0.437    9.963
   76.460  115.734    0.445    9.762
   76.710  118.196    0.455    9.760
   76.960  120.043    0.447    9.559
   77.210  108.984    0.430    9.556
   77.460  100.998    0.428    9.752
   77.710  102.229    0.434    9.948
   77.960  113.295    0.434    9.946
   78.210  102.850    0.429    9.942
   78.460  101.625    0.422   10.138
   78.710  104.701    0.407   11.129
   78.960  110.849    0.394   16.685
   79.210  112.082    0.384   16.484
   79.460  105.325    0.376   16.481
   79.710  109.630    0.363   18.464
   79.960  109.633    0.371   20.447
   80.210  107.792    0.375   21.238
   80.460  108.410    0.355   21.434
   80.710   99.809    0.343   19.843
   80.960   99.812    0.371   17.458
   81.210   97.972    0.390   16.264
   81.460   83.225    0.392   18.842
   81.710   88.145    0.384   19.237
   81.960   94.909    0.377   18.440
   82.210   89.380    0.372   17.445
   82.460   91.842    0.371   16.448
   82.710  101.678    0.365   16.447
   82.960  102.296    0.362   16.641
   83.210   93.081    0.369   16.640
   83.460  105.375    0.382   16.438
   83.710  120.742    0.400   13.657
   83.960  120.131    0.423   10.478
   84.210  117.061    0.414   12.460
   84.460  120.137    0.396   13.251
   84.710  109.079    0.388   14.241
   84.960   99.249    0.379   14.438
   85.210   94.949    0.380   14.634
   85.460   98.640    0.379   14.432
   85.710   99.258    0.384   13.834
   85.960  100.490    0.392   12.839
   86.210   98.650    0.378   13.630
   86.460   91.892    0.390   17.201
   86.710   96.197    0.406   39.832
   86.960  108.492    0.385   38.836
   87.210   94.975    0.366   19.179
   87.460   95.593    0.329   17.388
   87.710  102.356    0.327   16.791
   87.960   92.526    0.352   16.392
   88.210  101.747    0.359   15.992
   88.460  100.522    0.373   15.988
   88.710   89.463    0.385   15.986
   88.960   88.852    0.391   15.388
   89.210   94.386    0.392   13.202
   89.460   98.691    0.410   10.221
   89.710   95.621    0.412   13.196
   89.960   88.864    0.384   14.981
   90.210   91.325    0.365   16.765
   90.460  118.369    0.354   16.166
   90.710  104.852    0.365   14.377
   90.960   93.178    0.379    9.014
   91.210   90.723    0.403    8.416
   91.460   89.498    0.420    8.214
   91.710  112.239    0.431    8.409
   91.960  123.919    0.418    8.606
   92.210  113.475    0.417    9.000
   92.460  114.708    0.413    9.990
   92.710  114.710    0.393   11.378
   92.960  104.266    0.404   13.361
   93.210   98.738    0.394   15.344
   93.460   97.512    0.371   15.540
   93.710  109.806    0.353   15.536
   93.960  120.258    0.359   15.732
   94.210  110.427    0.367   16.127
   94.460  107.357    0.375   16.124
   94.710  109.819    0.390   14.931
   94.960  108.593    0.398   13.935
   95.210  108.597    0.403   13.733
   95.460  116.589    0.403   13.930
   95.710  112.290    0.391   13.926
   95.960   93.241    0.376   14.520
   96.210   87.099    0.382   16.304
   96.460   82.800    0.385   15.904
   96.710   80.960    0.376   13.917
   96.960   72.974    0.363   13.715
   97.210   64.987    0.367   14.110
   97.460   74.823    0.365   14.306
   97.710   83.430    0.368   13.707
   97.960   88.350    0.365   14.102
   98.210   96.957    0.369   14.496
   98.460  116.012    0.369   14.890
   98.710  106.797    0.361   16.079
   98.960  117.862    0.373   14.885
   99.210  127.084    0.382   13.891
   99.460  120.327    0.388   13.490
   99.710  116.642    0.396   15.473
   99.960  120.948    0.387   15.867
  100.210  124.024    0.387   14.872
  100.460  128.329    0.398   13.877
  100.710  116.655    0.408   15.264
  100.960  110.512    0.397   16.453
  101.210   95.766    0.377   17.840
  101.460   90.239    0.365   19.226
  101.710   97.002    0.367   19.621
  101.960  102.536    0.355   19.220
  102.210  110.528    0.347   17.035
  102.460  106.844    0.361   15.047
  102.710  111.764    0.368   20.008
  102.960  106.850    0.358   20.203
  103.210  108.697    0.362   19.010
  103.460  105.627    0.369   18.014
  103.710   93.954    0.359   17.615
  103.960   93.957    0.356   18.604
  104.210  104.408    0.351   18.205
  104.460  102.567    0.361   16.614
  104.710  110.560    0.369   16.016
  104.960  116.708    0.372   15.815
  105.210  103.806    0.365   15.614
  105.460   81.685    0.369   16.207
  105.710   82.302    0.360   22.756
  105.960  101.972    0.347   23.944
  106.210  102.590    0.340   20.964
  106.460   88.457    0.346   16.991
  106.710   79.857    0.354   16.194
  106.960   83.548    0.359   16.787
  107.210   81.093    0.357   15.790
  107.460   77.408    0.359   14.796
  107.710   94.619    0.365   13.601
  107.960  107.528    0.377   13.797
  108.210  105.073    0.405   13.398
  108.460   96.472    0.397   12.602
  108.710  105.079    0.394   13.195
  108.960  108.770    0.392   13.787
  109.210   95.867    0.370   14.181
  109.460   91.568    0.380   14.973
  109.710   87.884    0.386   16.955
  109.960   89.116    0.374   16.358
  110.210   77.443    0.381   15.760
  110.460   80.519    0.384   16.154
  110.710  111.865    0.378   16.151
  110.960  114.941    0.382   16.148
  111.210  114.329    0.388   16.145
  111.460  111.260    0.373   17.532
  111.710   84.836    0.365   17.728
  111.960   81.767    0.373   17.329
  112.210   84.843    0.378   16.533
  112.460   89.148    0.375   16.530
  112.710  103.900    0.372   16.528
  112.960  130.330    0.371   17.319
  113.210  124.188    0.335   20.294
  113.460  111.899    0.310   26.843
  113.710  104.529    0.334   27.436
  113.960  105.146    0.346   21.676
  114.210   91.013    0.358   16.909
  114.460   85.486    0.379   16.708
  114.710   83.031    0.386   16.308
  114.960   82.420    0.388   15.907
