~VERSION INFORMATION
 VERS.                 2.0:   CWLS LOG ASCII STANDARD -VERSION 2.0
 WRAP.                  NO:   ONE LINE PER DEPTH STEP
~WELL INFORMATION BLOCK
#MNEM.UNIT           DATA                    DESCRIPTION OF MNEMONIC
#---------    -------------------            -------------------------------
# Generated from Intellog Unique Number	CN_94_101/WELL/2512
WELL.         04-11-094-10W4                 : Well_name    - WELL
LOC .         AA/04-11-094-10W4/0            : Location     - LOCATION
UWI .         AA/04-11-094-10W400            : Uwi          - UNIQUE WELL ID
ENTR.         JOETTE                         : Entered      - ENTERED BY
SRVC.         SCHLUMBERGER                   : Scn          - SERVICE COMPANY
DATE.         05/17/92                       : Date         - LOG DATE
STRT.M        0                              : top_depth    - START DEPTH
STOP.M        55                             : bot_depth    - STOP DEPTH
STEP.M        0.25                           : increment    - STEP LENGTH
 NULL. -999.2500:NULL Value
~CURVE INFORMATION BLOCK
#MNEM UNIT       ERCB CURVE CODE    CURVE DESCRIPTION
#-----------   ------------------   ----------------------------------
DEPT.M        00 001 00 00         : DEPTH        - DEPTH
GR  .API      00 310 00 00         : GR           - GAMMA RAY
NPHI.V/V      00 330 00 00         : PHIN         - NEUTRON POROSITY (SANDSTONE)
RHOB.KG/M3    00 350 00 00         : DENS         - BULK DENSITY
ILD .OHMM     00 120 00 00         : RESD         - DEEP RESISTIVITY (DIL)
~PARAMETER INFORMATION
#MNEM.UNIT           DATA             DESCRIPTION OF MNEMONIC
#---------         -----------     ------------------------------
GL  .M        311.6                : gl           - GROUND LEVEL ELEVATION
EREF.M        311.6                : kb           - ELEVATION OF DEPTH REFERENCE
DATM.M        311.6                : datum        - DATUM ELEVATION
TDD .M        57                   : tdd          - TOTAL DEPTH DRILLER
RUN .         ONE                  : Run          - RUN NUMBER
ENG .         JO                   : Engineer     - RECORDING ENGINEER
WIT .         TIM                  : Witness      - WITNESSED BY
MUD .         GEL                  : Mud_type     - MUD TYPE
MATR.         SANDSTONE            : Logunit      - NEUTRON MATRIX
TMAX.C        7                    : BHT          - MAXIMUM RECORDED TEMPERATURE
BHTD.M        57                   : BHTDEP       - MAXIMUM RECORDED TEMPERATURE
RMT .C        1                    : MDTP         - TEMPERATURE OF MUD
MUDD.KG/M     1010                 : MWT          - MUD DENSITY
NEUT.         1                    : NEUTRON      - NEUTRON TYPE
RESI.         0                    : RESIST       - RESISTIVITY TYPE
RM  .OHMM     6                    : RM           - RESISTIVITY OF MUD
RMC .OHMM     6                    : RMC          - RESISTIVITY OF MUD CAKE
RMF .OHMM     6                    : RMF          - RESISTIVITY OF MUD FILTRATE
SUFT.C        4                    : SUFT         - SURFACE TEMPERATURE
~A  DEPTH       GR     PHIN     DENS     RESD
    0.000    8.575    0.319    0.000    0.000
    0.250    3.529    0.312    0.000    0.000
    0.500    7.058    0.314    0.000    0.000
    0.750    5.042    0.327    0.000    0.000
    1.000    3.026    0.318    0.000    0.000
    1.250    4.119    0.305    0.000    0.000
    1.500    4.578    0.323    0.000    0.000
    1.750    3.810    0.309    0.000    0.000
    2.000    6.072    0.291    0.000    0.000
    2.250   10.848    0.266    0.000    0.000
    2.500   10.079    0.197 2002.020    0.000
    2.750   19.786    0.231 2185.460    0.000
    3.000   35.593    0.319 2277.950    0.000
    3.250   44.052    0.468 2356.040    0.000
    3.500   45.739    0.511 2390.800    0.000
    3.750   41.901    0.506 2411.010    0.000
    4.000   38.657    0.500 2408.610    0.000
    4.250   32.978    0.487 2418.550    0.000
    4.500   29.120    0.478 2418.170    0.000
    4.750   36.966    0.494 2442.560    0.000
    5.000   45.406    0.478 2462.770    0.000
    5.250   45.865    0.476 2452.120    0.000
    5.500   39.552    0.477 2472.330    0.000
    5.750   35.120    0.478 2445.170    0.000
    6.000   33.104    0.490 2407.640    0.000
    6.250   34.810    0.501 2394.830    0.000
    6.500   42.636    0.501 2386.200    0.000
    6.750   43.096    0.509 2394.080    0.000
    7.000   42.308    0.506 2403.970    0.000
    7.250   54.451    0.520 2409.880    0.000
    7.500   51.227    0.518 2401.150    0.000
    7.750   50.439    0.520 2398.750    0.000
    8.000   51.531    0.516 2390.070    0.000
    8.250   51.990    0.517 2383.500    0.000
    8.500   57.342    0.522 2378.990    0.000
    8.750   60.890    0.507 2269.230    0.000
    9.000   63.191    0.491 2167.680    0.000
    9.250   68.561    0.482 2119.740    0.000
    9.500   77.635    0.489 2129.680    0.000
    9.750   76.866    0.486 2139.660    0.000
   10.000   62.572    0.467 2149.600   48.065
   10.250   66.101    0.470 2186.420   55.747
   10.500   66.560    0.486 2157.100   85.895
   10.750   68.247    0.482 2131.910   50.384
   11.000   71.162    0.488 2139.790   53.136
   11.250   84.513    0.487 2153.850   39.120
   11.500   67.784    0.492 2161.780   48.024
   11.750   65.135    0.490 2157.220   34.693
   12.000   74.227    0.498 2171.340   44.234
   12.250   73.459    0.492 2154.450   40.858
   12.500   53.026    0.472 2123.110   30.668
   12.750   47.327    0.479 2114.480   39.102
   13.000   64.995    0.474 2163.630   50.808
   13.250   84.504    0.479 2179.760  356.554
   13.500   64.072    0.464 2208.280   40.219
   13.750   78.651    0.453 2197.580   27.451
   14.000   76.635    0.467 2213.710   43.087
   14.250   69.747    0.484 2188.560   53.927
   14.500   59.731    0.490 2169.560   44.480
   14.750   60.210    0.482 2152.670   34.661
   15.000   57.600    0.474 2135.780   47.671
   15.250   62.356    0.470 2127.150   40.071
   15.500   70.202    0.478 2139.150   99.165
   15.750   62.047    0.477 2151.200   80.193
   16.000   60.051    0.474 2165.220   96.638
   16.250   73.421    0.483 2193.790  107.960
   16.500   60.355    0.464 2166.580   73.656
   16.750   60.201    0.445 2178.580   55.264
   17.000   75.413    0.460 2231.810  153.218
   17.250   93.061    0.459 2210.800   54.908
   17.500   94.135    0.466 2216.610   40.425
   17.750  103.822    0.479 2226.600   55.597
   18.000  101.212    0.474 2217.910   47.608
   18.250   87.532    0.478 2219.650   36.389
   18.500   90.447    0.483 2219.270   31.768
   18.750   73.678    0.484 2218.840   52.843
   19.000   68.632    0.482 2204.060   27.656
   19.250   82.597    0.479 2218.080   32.063
   19.500   83.056    0.487 2197.070   35.819
   19.750   76.762    0.476 2184.300   27.913
   20.000   88.886    0.460 2252.030   32.979
   20.250   77.681    0.470 2280.640   58.064
   20.500   79.982    0.462 2302.960   34.696
   20.750   95.175    0.487 2279.790   27.037
   21.000   93.792    0.486 2291.890   29.615
   21.250   88.113    0.480 2274.950   17.703
   21.500   86.711    0.479 2249.760   24.813
   21.750   58.911    0.479 2232.910   23.804
   22.000   71.668    0.471 2267.620   26.582
   22.250   87.494    0.467 2275.400   31.420
   22.500   81.795    0.468 2244.160   34.457
   22.750   76.729    0.467 2237.540   23.498
   23.000   66.733    0.474 2210.330   24.337
   23.250   72.717    0.473 2187.250   33.484
   23.500   83.632    0.469 2172.430   37.392
   23.750   82.864    0.460 2159.660   40.956
   24.000   77.184    0.472 2142.770   45.736
   24.250   80.713    0.473 2158.860   82.031
   24.500   60.894    0.471 2166.780   59.236
   24.750   55.195    0.472 2151.960  202.346
   25.000   49.515    0.471 2126.760  221.813
   25.250   43.202    0.462 2142.900  267.192
   25.500   53.503    0.459 2126.010  200.394
   25.750   55.804    0.438 2129.750  250.809
   26.000   55.036    0.464 2147.950  467.017
   26.250   52.425    0.437 2180.640  706.370
   26.500   53.499    0.444 2200.900  406.403
   26.750   55.186    0.436 2332.650  148.424
   27.000   50.101    0.455 2332.270  142.389
   27.250   59.174    0.464 2224.530  108.921
   27.500   31.950    0.443 2187.000  279.953
   27.750   37.953    0.424 2234.090  149.319
   28.000   39.640    0.434 2233.660  130.307
   28.250   42.575    0.443 2210.630  145.515
   28.500   48.540    0.436 2185.430  131.942
   28.750   55.157    0.450 2191.290  147.400
   29.000   66.072    0.468 2203.300   71.517
   29.250   63.443    0.464 2225.620   47.877
   29.500   73.724    0.443 2223.180   38.749
   29.750   82.184    0.438 2243.390   35.134
   30.000   59.909    0.454 2230.680   30.074
   30.250   56.071    0.434 2217.910   28.332
   30.500   44.847    0.416 2207.220   32.874
   30.750   36.712    0.389 2184.090   36.022
   31.000   27.924    0.399 2189.850   36.592
   31.250   25.314    0.401 2177.090  247.148
   31.500   26.406    0.430 2178.770  115.456
   31.750   21.954    0.420 2188.760  203.193
   32.000   20.552    0.413 2200.720   64.970
   32.250   25.328    0.390 2210.710   41.895
   32.500   26.344    0.382 2212.390   58.720
   32.750   31.753    0.400 2224.350   68.077
   33.000   32.826    0.412 2190.990   67.885
   33.250   36.988    0.419 2184.380   70.249
   33.500   50.972    0.409 2184.000   49.817
   33.750   39.134    0.420 2179.540   52.538
   34.000   24.207    0.421 2168.790   69.599
   34.250   15.478    0.421 2143.650   65.543
   34.500   19.620    0.426 2147.400   74.592
   34.750   28.060    0.429 2132.570   52.833
   35.000   26.064    0.425 2138.340   57.939
   35.250   32.048    0.424 2158.590   53.539
   35.500   30.052    0.422 2158.260   37.937
   35.750   43.422    0.446 2155.770   35.056
   36.000   35.268    0.451 2157.460   26.805
   36.250   24.044    0.441 2146.810   31.089
   36.500   20.820    0.430 2129.920   26.633
   36.750   16.348    0.430 2119.170   25.070
   37.000   30.947    0.471 2114.660   25.478
   37.250   30.178    0.483 2060.630   23.082
   37.500   38.618    0.474 1948.750   23.017
   37.750   62.444    0.493 1851.330   23.838
   38.000  107.143    0.535 2092.510   21.201
   38.250  136.495    0.541 2131.390   21.528
   38.500  136.954    0.553 2163.980   15.558
   38.750  133.096    0.539 2171.910    8.298
   39.000  130.486    0.528 2185.980    8.591
   39.250  124.173    0.525 2233.060   10.743
   39.500  128.949    0.521 2230.620   10.117
   39.750  125.092    0.513 2238.500    9.528
   40.000  115.095    0.513 2250.550    9.493
   40.250  119.871    0.495 2285.210    9.647
   40.500   69.952    0.453 2282.760   11.408
   40.750   40.291    0.407 2206.020   10.743
   41.000   21.087    0.355 2123.050   15.351
   41.250   27.685    0.271 2139.220   24.566
   41.500   30.600    0.234 2293.680   32.531
   41.750   28.604    0.239 2939.600   43.095
   42.000   33.360    0.247 2691.470   66.401
   42.250   46.117    0.281 2575.430   59.055
   42.500   72.993    0.329 2560.600   56.699
   42.750   55.016    0.336 2529.260   53.395
   43.000   43.178    0.277 2551.540   34.403
   43.250   28.884    0.202 2590.420   26.306
