~Version : LASO    vs 4.00 - DATA COPYRIGHT - RILEYS DATASHARE INTERNATIONAL
 VERS.                2.0 :   CWLS Log ASCII Standard -VERSION 2.0
 WRAP.                 NO :   One line per depth step
~Well Information Block
#MNEM.UNIT       Data                        Description of Mnemonic
#----.----      -------------------------- : -----------------------------
 STRT.M             0.0000                 : Start Depth
 STOP.M           204.7500                 : End Depth
 STEP.M             0.1250                 : Depth Increment
 NULL.           -999.25                   : NULL Value
 COMP.                                     : COMPANY
 WELL.    MOBIL CLARKE OV 7-25             : WELL NAME
 FLD .    WILDCAT                          : FIELD NAME
 LOC .    07-25-090-08W4                   : WELL LOCATION
 PROV.    ALBERTA                          : PROVINCE
 SRVC.    DRESSER ATLAS                    : LOGGING SERVICE COMPANY
 DATE.    19-FEB-81                        : DATE LOGGED
 UWI .    AA/07-25-090-08W400              : UNIQUE WELL ID
~Curve Information Block
#MNEM.UNIT        API CODE                   Curve Description
#----.----      LG--CV-CL--M               : -----------------
 DEPT.M          0   1  0  0               : 1 DEPTH
 DT  .US/M      60 520 42  1               : 2 SONIC INTERVAL TRANSIT TIME (COMPENSATED)
 CALI.MM        42 280  1  1               : 3 DENSITY CALIPER
 GR  .GAPI      42 310  1  1               : 4 GAMMA RAY
 NPHI.V/V       42 890  3  1               : 5 NEUTRON POROSITY (SANDSTONE)
 RHOB.K/M3      42 350  1  1               : 6 BULK DENSITY
 IL  .OHMM       5 120 45  1               : 7 INDUCTION
 SFL .OHMM       5 220  6  1               : 8 FOCUSSED RESISTIVITY
 SP  .MV         5  10  1  1               : 9 SPONTANEOUS POTENTIAL
~Parameter Information Block
#MNEM.UNIT       Data                        Description of Mnemonic
#----.----      -------------------------- : -----------------------------
 RUN .                   1                 : Run Number
 GL  .M           449.0000                 : Ground Level Elevation
 DREF.                  KB                 : Depth Reference
 EREF.M           449.0000                 : Elevation of Depth Reference
 TDL .M           202.0000                 : Total Depth Logger
 TDD .M           205.0000                 : Total Depth Driller
 BHT .DEGC         20.0000                 : Bottom Hole Temperature
 BS  .MM          159.0000                 : Bit Size
 DFD .           9999.0000                 : Mud Weight (Density)
 DFV .            150.0000                 : Mud Viscosity
 RM  .OHMM          4.1000                 : Mud Resistivity
 RMT .DEGC         20.0000                 : Mud Resistivity Temperature
 RMF .OHMM          3.9000                 : Mud Filtrate Resistivity
 RMFT.DEGC          8.0000                 : RMF Temperature
 RMC .OHMM          7.8000                 : Mud Cake Resistivity
 RMCT.DEGC          8.0000                 : RMC Temperature
~Asc DEPTH      DT         CALI       GR         NPHI       RHOB       IL         SFL        SP   
# ...
  131.6250   468.0800   193.5000    55.9800     0.3040  2101.8999    22.5850    21.8750  -144.0000
  131.7500   464.1600   193.1750    58.3650     0.3132  2116.6001    22.0350    21.9950  -142.3350
  131.8750   459.4800   193.1750    62.7900     0.3297  2137.5000    21.6650    23.6500  -142.1400
  132.0000   454.3200   193.5000    68.5050     0.3341  2158.3000    21.9100    26.7750  -143.2500
  132.1250   454.3200   193.5000    71.0850     0.3338  2164.3999    22.5250    25.6100  -143.8050
  132.2500   460.9600   193.5000    71.8200     0.3345  2158.3000    23.3850    24.0800  -143.2500
  132.3750   463.6400   193.5000    72.1950     0.3297  2143.6001    24.4850    23.4050  -143.4450
  132.5000   466.1200   193.1750    73.8450     0.3290  2130.7000    25.9000    27.4500  -144.5550
  132.6250   462.4400   193.1750    74.7750     0.3268  2119.1001    27.1850    32.5950  -145.4850
  132.7500   447.6800   193.1750    74.9550     0.3253  2113.6001    28.2900    36.7600  -146.7750
  132.8750   416.7200   191.3500    70.9050     0.3165  2111.7000    29.0900    38.4800  -148.6350
  133.0000   371.2800   190.7250    69.4350     0.3146  2106.8000    29.2750    42.9500  -148.8150
  133.1250   438.1200   190.7250    69.6150     0.3088  2101.3000    29.1500    54.4000  -147.8850
  133.2500   459.2400   190.7250    69.0600     0.3044  2100.1001    29.0250    68.3000  -147.8850
  133.3750   453.3200   190.1250    65.7450     0.2985  2105.0000    28.9650    58.7000  -147.3300
  133.5000   450.8800   189.8250    62.0550     0.2941  2109.3000    28.9650    35.9050  -146.7750
  133.6250   489.9600   189.8250    60.5850     0.2941  2113.6001    28.8450    26.1000  -146.4000
  133.7500   494.1200   189.8250    60.2100     0.2956  2121.5000    28.5350    23.0350  -146.9550
  133.8750   489.4400   190.1250    59.8500     0.3051  2126.3999    28.0450    25.6100  -147.8850
  134.0000   473.0000   191.0500    60.7650     0.3084  2133.8000    27.7400    29.4700  -147.8850
  134.1250   399.0400   190.7250    60.9450     0.3099  2130.7000    27.6150    33.3900  -148.2600
  134.2500   392.4000   190.4250    60.9450     0.3077  2115.3999    27.4950    37.3750  -148.2600
  134.3750   385.5200   189.8250    59.2950     0.3092  2095.8000    27.4950    40.5600  -148.6350
  134.5000   391.9200   187.9750    55.7850     0.3117  2093.3000    27.7400    46.3800  -149.5500
  134.6250   403.2000   187.0500    54.8700     0.3092  2106.8000    28.1700    49.0800  -150.6450
  134.7500   366.8400   186.4500    54.3150     0.3073  2125.2000    28.4750    45.4000  -151.0200
  134.8750   332.9600   186.1500    53.7600     0.3080  2135.0000    28.5350    31.3700  -150.4650
  135.0000   367.3600   186.4500    54.8700     0.3125  2138.7000    28.6600    27.8150  -150.0900
  135.1250   420.6400   186.4500    55.6050     0.3154  2144.8000    28.5350    30.0850  -150.2850
  135.2500   428.7600   187.0500    57.6300     0.3191  2156.3999    28.2900    34.5550  -151.2000
  135.3750   438.8400   187.6750    59.4750     0.3224  2161.3000    28.1050    32.7200  -151.2000
  135.5000   455.3200   187.9750    60.5850     0.3238  2154.6001    28.3550    31.4300  -151.2000
  135.6250   456.0400   188.2750    57.6300     0.3242  2145.3999    28.5350    35.8450  -150.8400
  135.7500   434.4000   188.6000    55.2450     0.3293  2145.3999    28.8450    43.2550  -150.4650
  135.8750   428.2800   189.5000    53.4000     0.3224  2146.6001    29.1500    45.0350  -150.6450
  136.0000   423.1200   188.9000    51.7350     0.3176  2152.2000    29.7000    41.4200  -150.6450
  136.1250   421.8800   187.0500    51.0000     0.3165  2149.1001    30.3750    39.7650  -150.0900
  136.2500   421.8800   184.9250    50.4450     0.3180  2147.2000    30.8050    37.8050  -148.9950
  136.3750   420.6400   176.6500    51.3750     0.3246  2147.2000    31.1150    36.0900  -148.2600
  136.5000   419.2000   169.9000    54.6900     0.3238  2144.2000    31.2950    36.8250  -147.8850
  136.6250   418.4400   166.8500    58.1850     0.3260  2141.7000    31.2350    39.8850  -148.2600
  136.7500   418.4400   167.4500    58.3650     0.3253  2138.1001    30.9900    38.7250  -148.2600
  136.8750   418.4400   166.5250    58.5600     0.3213  2136.8000    30.6850    37.7400  -148.8150
  137.0000   417.2000   166.8500    60.2100     0.3213  2133.2000    30.6850    39.2750  -149.1900
  137.1250   408.8800   166.2250    59.8500     0.3227  2130.1001    31.0500    45.8300  -149.1900
  137.2500   406.1600   166.2250    59.4750     0.3297  2129.5000    31.8500    48.7100  -148.9950
  137.3750   402.4800   166.5250    58.5600     0.3283  2131.3000    32.7700    41.9100  -147.8850
  137.5000   400.7600   166.2250    58.7400     0.3272  2127.0000    33.8150    35.7800  -146.4000
  137.6250   397.5600   165.9250    57.2700     0.3246  2128.8999    35.2850    35.4750  -146.2200
  137.7500   398.8000   170.2000    57.4500     0.3209  2135.0000    36.3900    37.6800  -147.1500
  137.8750   401.0000   184.3000    60.0300     0.3202  2144.8000    37.7400    40.3150  -148.6350
  138.0000   402.2400   184.0000    59.6550     0.3198  2151.5000    39.6400    49.5700  -151.3950
  138.1250   404.2000   167.7500    57.4500     0.3205  2150.8999    41.7900    64.3500  -155.1150
  138.2500   403.2000   184.3000    53.0250     0.3275  2144.8000    43.9350    80.2500  -159.5550
  138.3750   402.4800   182.7750    47.8650     0.3231  2126.3999    46.4500    89.7500  -163.0800
  138.5000   402.0000   185.2250    45.1050     0.3202  2105.6001    48.5350    96.3500  -165.8550
  138.6250   402.9600   175.4250    43.4400     0.3231  2095.8000    50.3150    94.7000  -166.5900
  138.7500   405.1600   174.5000    41.4150     0.3198  2088.3999    50.9000    93.5000  -166.2300
  138.8750   407.1600   181.8500    39.9450     0.3213  2088.3999    50.5000    91.7500  -164.7450
  139.0000   409.3600   184.9250    40.3200     0.3209  2082.3000    49.1500    88.9500  -162.7050
  139.1250   416.9600   175.4250    39.3900     0.3213  2075.0000    47.1850    82.9000  -160.4850
  139.2500   422.6400   164.7000    40.1250     0.3172  2076.2000    45.2850    68.3000  -157.8900
  139.3750   421.6400   161.6250    41.4150     0.3176  2082.3000    43.3850    65.1500  -154.5600
  139.5000   418.4400   161.0250    42.9000     0.3194  2087.8000    41.8500    64.8500  -152.5200
  139.6250   420.1600   161.3250    45.1050     0.3205  2090.8999    40.9900    62.9500  -151.2000
  139.7500   425.3200   161.3250    47.3100     0.3194  2093.3000    40.7450    55.2500  -148.4400
  139.8750   436.1200   163.1500    47.5050     0.3235  2098.2000    40.3750    45.1550  -146.7750
  140.0000   449.4000   160.1000    47.3100     0.3253  2107.3999    39.9500    42.2150  -146.0400
  140.1250   427.8000   161.3250    48.6000     0.3260  2109.8999    39.8250    43.5650  -145.8450
  140.2500   425.3200   165.9250    52.1100     0.3326  2114.2000    39.9500    55.5000  -146.7750
  140.3750   435.6400   166.2250    53.9550     0.3562  2117.2000    40.3150    66.1000  -148.8150
  140.5000   451.1200   162.2500    54.4950     0.3481  2118.5000    40.8700    65.8500  -149.5500
  140.6250   489.9600   161.9250    52.8450     0.3451  2114.2000    41.5450    57.7500  -149.1900
  140.7500   468.3200   161.3250    51.9150     0.3437  2114.8000    41.6650    59.2500  -149.1900
  140.8750   428.2800   160.7000    50.6250     0.3400  2122.1001    40.6850    59.2500  -150.2850
  141.0000   411.3200   160.4000    51.3750     0.3326  2131.8999    39.1500    63.7000  -151.7700
  141.1250   422.3600   160.1000    51.5550     0.3238  2140.5000    37.3100    66.9500  -152.7000
  141.2500   428.5200   159.8000    52.4700     0.3198  2141.1001    35.8350    74.6500  -153.8100
  141.3750   436.6400   159.8000    51.5550     0.3235  2139.8999    34.4250    67.2500  -153.6300
  141.5000   434.4000   160.1000    51.1800     0.3235  2141.1001    33.0750    44.7900  -151.5900
  141.6250   431.4800   161.0250    51.5550     0.3205  2145.3999    31.8500    32.7200  -150.8400
