~VERSION INFORMATION
 VERS.                 2.0:   CWLS LOG ASCII STANDARD -VERSION 2.0
 WRAP.                  NO:   ONE LINE PER DEPTH STEP
~WELL INFORMATION BLOCK
#MNEM.UNIT           DATA                    DESCRIPTION OF MNEMONIC
#---------    -------------------            -------------------------------
# Generated from Intellog Unique Number	CN_94_101/WELL/4992
WELL.         08-19-098-11W4                 : Well_name    - WELL
LOC .         AA/08-19-098-11W4/0            : Location     - LOCATION
UWI .         AA/08-19-098-11W400            : Uwi          - UNIQUE WELL ID
ENTR.         TIM                            : Entered      - ENTERED BY
SRVC.         SCHLUMBERGER                   : Scn          - SERVICE COMPANY
DATE.         08/11/92                       : Date         - LOG DATE
STRT.M        0                              : top_depth    - START DEPTH
STOP.M        115                            : bot_depth    - STOP DEPTH
STEP.M        0.25                           : increment    - STEP LENGTH
 NULL. -999.2500:NULL Value
~CURVE INFORMATION BLOCK
#MNEM UNIT       ERCB CURVE CODE    CURVE DESCRIPTION
#-----------   ------------------   ----------------------------------
DEPT.M        00 001 00 00         : DEPTH        - DEPTH
GR  .API      00 310 00 00         : GR           - GAMMA RAY
ILD .OHMM     00 120 00 00         : RESD         - DEEP RESISTIVITY (DIL)
NPHI.V/V      00 330 00 00         : PHIN         - NEUTRON POROSITY (SANDSTONE)
DPHI.V/V      00 890 00 00         : PHID         - DENSITY POROSITY (SANDSTONE)
~PARAMETER INFORMATION
#MNEM.UNIT           DATA             DESCRIPTION OF MNEMONIC
#---------         -----------     ------------------------------
GL  .M        333.78               : gl           - GROUND LEVEL ELEVATION
EREF.M        333.78               : kb           - ELEVATION OF DEPTH REFERENCE
DATM.M        333.78               : datum        - DATUM ELEVATION
TDD .M        115.8                : tdd          - TOTAL DEPTH DRILLER
RUN .         ONE                  : Run          - RUN NUMBER
ENG .         JO                   : Engineer     - RECORDING ENGINEER
WIT .         TIM                  : Witness      - WITNESSED BY
MUD .         GEL                  : Mud_type     - MUD TYPE
MATR.         SANDSTONE            : Logunit      - NEUTRON MATRIX
TMAX.C        10                   : BHT          - MAXIMUM RECORDED TEMPERATURE
BHTD.M        115.8                : BHTDEP       - MAXIMUM RECORDED TEMPERATURE
RMT .C        10                   : MDTP         - TEMPERATURE OF MUD
MUDD.KG/M     0                    : MWT          - MUD DENSITY
NEUT.         1                    : NEUTRON      - NEUTRON TYPE
RESI.         0                    : RESIST       - RESISTIVITY TYPE
RM  .OHMM     13.8                 : RM           - RESISTIVITY OF MUD
RMC .OHMM     13.8                 : RMC          - RESISTIVITY OF MUD CAKE
RMF .OHMM     13.8                 : RMF          - RESISTIVITY OF MUD FILTRATE
SUFT.C        4                    : SUFT         - SURFACE TEMPERATURE
~A  DEPTH       GR     RESD     PHIN     PHID
# ...
   43.500  100.752    4.404    0.357    0.288
   43.750   98.216    4.659    0.392    0.299
   44.000   94.429    4.658    0.406    0.314
   44.250   93.143    4.790    0.415    0.329
   44.500  100.611    4.996    0.440    0.323
   44.750  106.828    4.926    0.457    0.300
   45.000  102.416    4.925    0.450    0.290
   45.250  103.007    4.994    0.438    0.284
   45.500   96.710    4.993    0.420    0.290
   45.750   95.416    4.993    0.416    0.300
   46.000   99.141    4.922    0.410    0.300
   46.250   99.722    4.784    0.407    0.286
   46.500  100.928    4.783    0.413    0.250
   46.750  104.037    4.989    0.415    0.224
   47.000  109.004    5.506    0.417    0.208
   47.250   90.211    9.544    0.416    0.192
   47.500   53.903   27.099    0.416    0.237
   47.750   31.984   35.926    0.417    0.260
   48.000   20.060   38.004    0.417    0.264
   48.250   18.766   37.999    0.417    0.255
   48.500   19.364   37.992    0.416    0.232
   48.750   19.946   37.986    0.405    0.195
   49.000   21.152   39.621    0.289    0.169
   49.250   22.385   40.748    0.311    0.145
   49.500   24.226   40.740    0.319    0.168
   49.750   23.565   40.735    0.313    0.182
   50.000   27.282   39.041    0.302    0.199
   50.250   27.872   35.867    0.305    0.216
   50.500   25.335   32.951    0.309    0.224
   50.750   23.424   34.858    0.312    0.227
   51.000   30.892   37.931    0.312    0.232
   51.250   30.848   41.859    0.312    0.238
   51.500   30.188   41.852    0.309    0.236
   51.750   30.778   40.112    0.309    0.237
   52.000   28.242   37.376    0.306    0.245
   52.250   26.965   33.381    0.303    0.250
   52.500   27.555   30.238    0.302    0.255
   52.750   27.511   27.391    0.305    0.256
   53.000   27.476   24.464    0.307    0.243
   53.250   30.576   21.241    0.311    0.237
   53.500   33.667   19.793    0.313    0.247
   53.750   29.255   17.678    0.313    0.253
   54.000   21.708   16.241    0.313    0.254
   54.250   16.045   16.009    0.310    0.262
   54.500   20.387   16.008    0.305    0.264
   54.750   29.105   16.233    0.299    0.252
   55.000   33.447   16.694    0.293    0.237
   55.250   34.037   17.167    0.288    0.216
   55.500   27.749   17.409    0.284    0.187
   55.750   20.836   17.163    0.279    0.168
   56.000   20.176   16.218    0.272    0.186
   56.250   28.269   15.112    0.267    0.190
   56.500   39.488   14.280    0.261    0.166
   56.750   48.215   13.495    0.253    0.150
   57.000   56.934   12.934    0.258    0.162
   57.250   57.524   12.572    0.262    0.181
   57.500   54.988   12.929    0.268    0.199
   57.750   58.061   13.486    0.274    0.216
   58.000   60.544   13.870    0.279    0.251
   58.250   68.638   14.467    0.289    0.268
   58.500   74.855   14.879    0.296    0.277
   58.750   76.695   16.421    0.302    0.286
   59.000   78.536   17.868    0.309    0.288
   59.250   75.375   19.443    0.311    0.288
   59.500   70.963   21.456    0.308    0.286
   59.750   69.034   22.698    0.304    0.282
   60.000   71.517   23.345    0.300    0.279
   60.250   78.360   23.672    0.296    0.269
   60.500   82.693   23.668    0.292    0.267
   60.750   80.791   24.000    0.288    0.268
   61.000   75.736   24.683    0.283    0.264
   61.250   73.825   25.385    0.281    0.250
   61.500   71.923   25.742    0.280    0.254
   61.750   70.012   26.850    0.280    0.259
   62.000   68.726   27.227    0.280    0.263
   62.250   71.817   26.841    0.281    0.265
   62.500   68.031   26.836    0.279    0.265
   62.750   62.368   27.991    0.276    0.259
   63.000   56.706   29.611    0.277    0.246
   63.250   52.919   31.771    0.298    0.199
   63.500   49.124   34.088    0.311    0.228
   63.750   47.213   34.081    0.319    0.247
   64.000   52.179   31.311    0.324    0.275
   64.250   58.406   27.966    0.324    0.267
   64.500   70.875   24.977    0.320    0.257
   64.750   77.084   25.326    0.313    0.248
   65.000   71.430   26.419    0.306    0.259
   65.250   65.759   28.747    0.301    0.272
   65.500   67.600   32.176    0.296    0.275
   65.750   68.815   34.522    0.294    0.273
   66.000   69.405   33.556    0.296    0.275
   66.250   72.496   29.551    0.297    0.279
   66.500   76.221   25.298    0.299    0.281
   66.750   81.813   24.246    0.301    0.283
   67.000   88.031   24.242    0.303    0.284
   67.250   94.864   25.645    0.304    0.287
   67.500   75.446   27.129    0.304    0.288
   67.750   67.283   27.900    0.301    0.286
   68.000   60.986   27.898    0.300    0.281
   68.250   60.326   27.892    0.298    0.275
   68.500   59.666   29.092    0.296    0.266
   68.750   62.766   30.347    0.300    0.253
   69.000   63.355   33.967    0.305    0.245
   69.250   64.571   34.444    0.301    0.271
   69.500   67.037   31.643    0.299    0.282
   69.750   70.753   28.262    0.309    0.292
   70.000   75.720   25.242    0.318    0.297
   70.250   78.811   23.520    0.323    0.298
   70.500   82.518   22.861    0.323    0.296
   70.750   68.111   29.052    0.318    0.291
   71.000   63.074   33.923    0.311    0.275
   71.250   51.150   33.917    0.300    0.257
   71.500   45.488   31.603    0.294    0.247
   71.750   58.574   29.446    0.284    0.252
   72.000   63.550   30.282    0.280    0.255
   72.250   67.891   33.893    0.289    0.242
   72.500   62.229   35.856    0.294    0.244
   72.750   58.433   37.931    0.302    0.263
   73.000   60.908   37.391    0.306    0.270
   73.250   58.363   35.837    0.304    0.278
   73.500   60.212   33.390    0.305    0.288
   73.750   67.055   31.556    0.315    0.295
   74.000   77.649   28.584    0.323    0.300
   74.250   86.376   25.172    0.330    0.295
   74.500   91.968   24.126    0.329    0.286
   74.750   78.169   23.450    0.324    0.265
   75.000   71.256   21.543    0.318    0.258
   75.250   76.848   20.941    0.312    0.252
   75.500   86.817   19.790    0.299    0.258
   75.750   91.158   21.232    0.290    0.262
   76.000   87.372   25.500    0.281    0.264
   76.250   84.210   29.360    0.286    0.266
   76.500   77.922   34.769    0.293    0.268
   76.750   62.256   47.413    0.294    0.272
   77.000   47.206   58.576    0.297    0.277
   77.250   49.672   50.149    0.302    0.281
   77.500   59.641   39.449    0.307    0.277
   77.750   64.608   37.279    0.307    0.199
   78.000   61.446   37.270    0.298    0.088
   78.250   67.663   37.265    0.237    0.065
   78.500   70.754   37.259    0.258    0.096
   78.750   66.968   35.710    0.266    0.131
   79.000   62.547   35.704    0.276    0.169
   79.250   58.769   35.200    0.286    0.201
   79.500   50.606   32.337    0.290    0.249
   79.750   63.683   30.558    0.296    0.282
   80.000   62.415   32.328    0.301    0.287
   80.250   62.380   38.828    0.301    0.287
   80.500   64.221   44.077    0.302    0.282
   80.750   58.549   46.628    0.306    0.277
   81.000   56.647   45.322    0.301    0.278
   81.250   74.744   41.635    0.301    0.277
   81.500   71.574   39.907    0.307    0.269
   81.750   69.663   37.183    0.310    0.275
   82.000   70.253   34.158    0.314    0.293
   82.250   68.342   33.205    0.320    0.300
   82.500   67.056   30.077    0.321    0.301
   82.750   67.021   26.116    0.324    0.298
   83.000   70.746   19.144    0.325    0.301
   83.250   76.964   18.349    0.325    0.303
   83.500   79.430   16.621    0.321    0.294
   83.750   95.651   15.270    0.316    0.288
   84.000   93.740   14.228    0.307    0.281
   84.250   89.944   13.071    0.292    0.278
   84.500   87.417   12.528    0.289    0.275
   84.750   86.757   12.006    0.287    0.268
   85.000   94.224   12.175    0.286    0.251
   85.250   91.063   12.880    0.286    0.229
   85.500   86.026   14.416    0.286    0.213
   85.750   77.862   15.910    0.286    0.212
   86.000   72.816   17.312    0.284    0.215
   86.250   65.903   19.105    0.283    0.218
   86.500   65.234   20.498    0.282    0.223
   86.750   67.700   19.645    0.282    0.224
