~Version : LASO    vs 4.00 - DATA COPYRIGHT - RILEYS DATASHARE INTERNATIONAL
 VERS.                2.0 :   CWLS Log ASCII Standard -VERSION 2.0
 WRAP.                 NO :   One line per depth step
~Well Information Block
#MNEM.UNIT       Data                        Description of Mnemonic
#----.----      -------------------------- : -----------------------------
 STRT.M             0.0000                 : Start Depth
 STOP.M           204.7500                 : End Depth
 STEP.M             0.1250                 : Depth Increment
 NULL.           -999.25                   : NULL Value
 COMP.                                     : COMPANY
 WELL.    MOBIL CLARKE OV 7-25             : WELL NAME
 FLD .    WILDCAT                          : FIELD NAME
 LOC .    07-25-090-08W4                   : WELL LOCATION
 PROV.    ALBERTA                          : PROVINCE
 SRVC.    DRESSER ATLAS                    : LOGGING SERVICE COMPANY
 DATE.    19-FEB-81                        : DATE LOGGED
 UWI .    AA/07-25-090-08W400              : UNIQUE WELL ID
~Curve Information Block
#MNEM.UNIT        API CODE                   Curve Description
#----.----      LG--CV-CL--M               : -----------------
 DEPT.M          0   1  0  0               : 1 DEPTH
 DT  .US/M      60 520 42  1               : 2 SONIC INTERVAL TRANSIT TIME (COMPENSATED)
 CALI.MM        42 280  1  1               : 3 DENSITY CALIPER
 GR  .GAPI      42 310  1  1               : 4 GAMMA RAY
 NPHI.V/V       42 890  3  1               : 5 NEUTRON POROSITY (SANDSTONE)
 RHOB.K/M3      42 350  1  1               : 6 BULK DENSITY
 IL  .OHMM       5 120 45  1               : 7 INDUCTION
 SFL .OHMM       5 220  6  1               : 8 FOCUSSED RESISTIVITY
 SP  .MV         5  10  1  1               : 9 SPONTANEOUS POTENTIAL
~Parameter Information Block
#MNEM.UNIT       Data                        Description of Mnemonic
#----.----      -------------------------- : -----------------------------
 RUN .                   1                 : Run Number
 GL  .M           449.0000                 : Ground Level Elevation
 DREF.                  KB                 : Depth Reference
 EREF.M           449.0000                 : Elevation of Depth Reference
 TDL .M           202.0000                 : Total Depth Logger
 TDD .M           205.0000                 : Total Depth Driller
 BHT .DEGC         20.0000                 : Bottom Hole Temperature
 BS  .MM          159.0000                 : Bit Size
 DFD .           9999.0000                 : Mud Weight (Density)
 DFV .            150.0000                 : Mud Viscosity
 RM  .OHMM          4.1000                 : Mud Resistivity
 RMT .DEGC         20.0000                 : Mud Resistivity Temperature
 RMF .OHMM          3.9000                 : Mud Filtrate Resistivity
 RMFT.DEGC          8.0000                 : RMF Temperature
 RMC .OHMM          7.8000                 : Mud Cake Resistivity
 RMCT.DEGC          8.0000                 : RMC Temperature
~Asc DEPTH      DT         CALI       GR         NPHI       RHOB       IL         SFL        SP   
# ...
   20.2500   406.4000   180.0000    56.8950     0.2218  2365.3999    33.4450    42.1550  -140.8500
   20.3750   540.8000   179.7000    57.6300     0.2243  2363.6001    33.2000    42.5200  -140.4750
   20.5000   591.9200   180.9250    57.8250     0.2291  2362.3000    32.9550    42.7650  -139.9200
   20.6250   574.2400   180.3250    57.4500     0.2324  2359.3000    32.7700    41.4200  -139.3650
   20.7500   545.7200   180.3250    56.3400     0.2339  2353.1001    32.6450    39.9500  -138.9900
   20.8750   488.2400   180.6250    54.3150     0.2357  2348.8000    32.5850    39.2750  -138.8100
   21.0000   376.2000   180.3250    53.0250     0.2372  2344.6001    32.7700    39.1500  -138.4350
   21.1250   171.5200   179.1000    52.2900     0.2365  2345.8000    33.0750    38.6600  -138.4350
   21.2500   163.1600   177.8750    52.2900     0.2346  2352.5000    33.3850    38.2350  -138.2550
   21.3750   163.1600   178.4750    51.9150     0.2342  2356.2000    33.4450    38.1700  -138.2550
   21.5000   185.7600   179.1000    50.8200     0.2335  2357.3999    33.6900    38.4150  -138.2550
   21.6250   349.1600   179.4000    50.2650     0.2332  2359.3000    33.9350    38.7850  -138.4350
   21.7500   487.2400   180.0000    49.8900     0.2328  2361.7000    33.4450    38.8450  -139.1850
   21.8750   470.2800   179.1000    48.4200     0.2313  2368.5000    33.3200    39.7050  -139.5450
   22.0000   433.4400   176.6500    48.9750     0.2354  2371.5000    33.7500    42.1550  -139.1850
   22.1250   383.3200   175.4250    51.3750     0.2398  2377.6001    33.9350    43.8100  -138.9900
   22.2500   322.1200   173.2750    54.8700     0.2431  2386.2000    33.6900    42.4600  -138.4350
   22.3750   207.8800   175.1000    56.3400     0.2456  2392.3000    33.4450    39.0300  -137.8800
   22.5000   160.7200   175.4250    57.8250     0.2460  2396.0000    33.7500    37.8050  -137.1450
   22.6250   498.8000   174.2000    57.8250     0.2467  2400.3000    33.1400    37.9250  -136.7700
   22.7500   461.9200   178.1750    56.3400     0.2460  2388.7000    32.0950    38.1700  -136.7700
   22.8750   368.3200   184.9250    53.0250     0.2446  2362.3000    31.5450    38.1700  -136.9650
   23.0000   379.6400   184.6000    50.2650     0.2471  2356.2000    31.1750    37.8650  -137.1450
   23.1250   497.8000   183.7000    50.4450     0.2508  2351.3000    31.2350    37.1300  -137.5200
   23.2500   444.4800   184.0000    53.0250     0.2522  2347.6001    31.4800    35.6600  -138.6300
   23.3750   386.5200   185.2250    54.1350     0.2482  2350.7000    32.2200    33.9450  -138.8100
   23.5000   374.7200   184.6000    55.2450     0.2482  2351.3000    33.3200    33.1450  -139.5450
   23.6250   377.1600   185.8250    56.1600     0.2512  2348.8000    34.0600    33.2700  -139.5450
   23.7500   405.4400   187.3750    55.9800     0.2526  2345.2000    34.0600    33.2100  -139.7400
   23.8750   455.3200   190.4250    54.3150     0.2618  2337.2000    33.5050    33.7000  -139.9200
   24.0000   562.9200   193.1750    53.9550     0.2658  2329.8000    31.6650    36.3950  -140.4750
   24.1250   622.0000   193.1750    53.0250     0.2695  2320.7000    29.1500    41.6650  -141.2250
   24.2500   619.6000   193.8000    52.4700     0.2739  2303.5000    27.1250    47.4250  -142.3350
   24.3750   587.7200   194.1000    53.4000     0.2772  2270.3999    26.3900    47.5450  -143.8050
   24.5000   537.8400   195.0250    53.5800     0.2801  2225.1001    26.3900    38.9050  -145.2900
   24.6250   270.2800   196.5500    53.4000     0.2875  2162.0000    26.9400    28.5500  -146.0400
   24.7500   183.0800   196.8750    51.7350     0.3029  2081.1001    27.4950    22.2400  -146.4000
   24.8750   188.7200   197.4750    47.6850     0.3392  1972.6001    27.3700    20.7700  -146.4000
   25.0000   193.6400   199.9250    43.9950     0.3676  1850.1001    26.6950    22.0550  -146.4000
   25.1250   181.3600   204.8250    41.4150     0.3767  1733.0000    25.9600    25.3650  -146.4000
   25.2500   178.8800   220.1500    39.3900     0.3767  1663.2000    26.0200    30.7550  -146.4000
   25.3750   177.1600   253.2250    38.8350     0.3598  1657.1001    27.3700    35.4150  -145.6650
   25.5000   177.6800   309.9250    38.8350     0.3518  1684.6001    29.5200    36.8250  -144.7350
   25.6250   196.3200   339.9500    40.3200     0.3422  1713.4000    31.9700    36.4550  -142.8900
   25.7500   247.2000   336.5750    42.7050     0.3323  1742.2000    35.1600    35.6000  -140.4750
   25.8750   331.2400   318.8000    43.8150     0.3250  1775.3000    37.6150    34.9850  -139.7400
   26.0000   437.3600   259.9750    43.9950     0.3250  1804.1001    39.2750    34.6800  -139.7400
   26.1250   521.8800   231.4750    44.9250     0.3235  1815.8000    39.8250    36.5150  -139.9200
   26.2500   370.0400   218.3000    46.2150     0.3224  1821.9000    39.5200    38.6000  -138.2550
   26.3750   273.7200   196.8750    46.3950     0.3194  1850.1001    39.3950    39.8250  -136.5900
   26.5000   271.5200   199.3250    46.0200     0.3044  1895.4000    39.3950    40.5000  -135.6600
   26.6250   270.0400   201.4500    46.9500     0.2897  1984.3000    38.7200    41.2350  -134.9250
   26.7500   274.7200   204.8250    48.4200     0.2776  2078.0000    37.2500    41.7250  -133.6200
   26.8750   293.4000   207.9000    48.0600     0.2765  2077.3999    35.8350    41.2350  -133.4400
   27.0000   331.2400   210.0250    48.2400     0.2834  2031.4000    34.6700    41.1750  -133.8150
   27.1250   279.4000   212.5000    49.3350     0.2915  1986.1001    33.0750    41.1750  -133.9950
   27.2500   258.2400   215.5500    50.6250     0.2985  1994.8000    31.2950    38.6000  -133.9950
   27.3750   315.0000   215.8500    51.3750     0.3117  2038.2000    30.0700    36.0250  -133.8150
   27.5000   390.9200   221.3750    51.9150     0.3139  2078.6001    29.4550    32.5350  -133.9950
   27.6250   144.2400   219.2250    52.8450     0.3220  2092.7000    28.9050    29.6550  -134.3700
   27.7500   128.2800   198.7000    53.4000     0.3323  2083.5000    28.1050    27.4500  -133.8150
   27.8750   234.1600   186.4500    53.7600     0.3448  2091.5000    27.6150    25.5500  -133.0650
   28.0000   289.9600   180.9250    54.4950     0.3440  2122.7000    27.4950    24.1400  -133.2600
   28.1250   219.6800   170.2000    53.9550     0.3470  2137.5000    27.2500    25.7950  -133.9950
   28.2500   166.1200   160.4000    51.5550     0.3492  2098.2000    26.7550    30.0200  -133.9950
   28.3750    99.5200   173.2750    49.5300     0.3392  2046.1000    26.7550    34.8000  -132.3300
   28.5000    95.8400   195.0250    48.0600     0.3293  1986.7000    27.0650    37.6200  -131.2200
   28.6250   133.6800   209.7250    47.1300     0.3205  1970.8000    27.3700    35.9050  -130.1100
   28.7500   184.0400   223.5250    46.9500     0.3128  2019.2000    27.4300    30.8800  -129.1800
   28.8750   282.0800   241.2750    49.1550     0.2989  2098.2000    27.4950    27.4500  -128.6250
   29.0000   431.7200   245.2750    51.7350     0.2963  2150.3000    27.3100    28.4900  -129.5550
   29.1250   490.4400   239.1500    55.0500     0.2938  2203.6001    27.0050    29.9600  -130.6650
   29.2500   367.6000   211.2500    57.8250     0.2923  2228.1001    26.7550    29.7750  -131.4000
   29.3750   320.1600   190.1250    58.9200     0.2930  2226.3000    26.7550    28.0600  -128.8050
   29.5000   282.5600   184.9250    58.9200     0.2948  2226.8999    26.5100    25.7350  -126.5850
   29.6250   374.4800   184.6000    59.2950     0.2963  2207.3000    26.1450    24.8150  -126.7650
   29.7500   446.7200   185.2250    60.4050     0.2992  2132.5000    26.0850    27.5100  -128.2500
   29.8750   500.7200   184.3000    60.7650     0.3011  2064.5000    26.0850    31.3100  -130.1100
   30.0000   537.6000   184.0000    61.3200     0.2971  1986.7000    25.9600    31.0650  -131.4000
   30.1250   454.0800   185.2250    61.6950     0.2846  1940.1001    25.6550    26.9600  -132.5100
   30.2500   455.3200   187.9750    63.5250     0.2779  1959.8000    25.2250    24.6300  -131.9550
