~VERSION INFORMATION
 VERS.                 2.0:   CWLS LOG ASCII STANDARD -VERSION 2.0
 WRAP.                  NO:   ONE LINE PER DEPTH STEP
~WELL INFORMATION BLOCK
#MNEM.UNIT           DATA                    DESCRIPTION OF MNEMONIC
#---------    -------------------            -------------------------------
# Generated from Intellog Unique Number	CX_WELLS/WELL/1050
WELL.         TEXACO McMURRAY                : Well_name    - WELL
LOC .         AA/03-16-088-09W4/0            : Location     - LOCATION
UWI .         AA/03-16-088-09W400            : Uwi          - UNIQUE WELL ID
ENTR.         RJA                            : Entered      - ENTERED BY
SRVC.         SCHLUMBERGER                   : Scn          - SERVICE COMPANY
STRT.M        75                             : top_depth    - START DEPTH
STOP.M        175                            : bot_depth    - STOP DEPTH
STEP.M        0.25                           : increment    - STEP LENGTH
 NULL. -999.2500:NULL Value
~CURVE INFORMATION BLOCK
#MNEM UNIT       ERCB CURVE CODE    CURVE DESCRIPTION
#-----------   ------------------   ----------------------------------
DEPT.M        00 001 00 00         : DEPTH        - DEPTH
GR  .API      00 310 00 00         : GR           - GAMMA RAY
NPHI.V/V      00 330 00 00         : PHIN         - NEUTRON POROSITY (SANDSTONE)
DPHI.V/V      00 890 00 00         : PHID         - DENSITY POROSITY (SANDSTONE)
ILD .OHMM     00 120 00 00         : RESD         - DEEP RESISTIVITY (DIL)
~PARAMETER INFORMATION
#MNEM.UNIT           DATA             DESCRIPTION OF MNEMONIC
#---------         -----------     ------------------------------
GL  .M        380.7                : gl           - GROUND LEVEL ELEVATION
EREF.M        384.7                : kb           - ELEVATION OF DEPTH REFERENCE
DATM.M        384.7                : datum        - DATUM ELEVATION
TDD .M        185.7                : tdd          - TOTAL DEPTH DRILLER
RUN .         ONE                  : Run          - RUN NUMBER
ENG .         BILL                 : Engineer     - RECORDING ENGINEER
WIT .         JIM                  : Witness      - WITNESSED BY
MUD .         GEL                  : Mud_type     - MUD TYPE
MATR.         SANDSTONE            : Logunit      - NEUTRON MATRIX
TMAX.C        14                   : BHT          - MAXIMUM RECORDED TEMPERATURE
BHTD.M        185.7                : BHTDEP       - MAXIMUM RECORDED TEMPERATURE
MATR.         1                    : LOGUNIT      - NEUTRON MATRIX
RMT .C        25                   : MDTP         - TEMPERATURE OF MUD
NEUT.         1                    : NEUTRON      - NEUTRON TYPE
RESI.         0                    : RESIST       - RESISTIVITY TYPE
RMC .OHMM     0.25                 : RMC          - RESISTIVITY OF MUD CAKE
RMF .OHMM     0.25                 : RMF          - RESISTIVITY OF MUD FILTRATE
SUFT.C        4                    : SUFT         - SURFACE TEMPERATURE
~A  DEPTH       GR     PHIN     PHID     RESD
   75.000   76.440    0.462    0.346    6.844
   75.250   78.823    0.470    0.358    8.064
   75.500   82.955    0.503    0.392    9.116
   75.750   84.755    0.525    0.295   11.408
   76.000   83.069    0.539    0.249   13.710
   76.250   79.621    0.273   -0.020   14.593
   76.500   76.743    0.263   -0.009   12.434
   76.750   70.950    0.270    0.003    7.821
   77.000   60.504    0.310   -0.002    4.917
   77.250   42.478    0.355    0.006    3.786
   77.500   35.518    0.429    0.058    3.292
   77.750   34.403    0.600    0.103    3.167
   78.000   33.287    0.638    0.154    3.172
   78.250   31.588    0.642    0.166    3.447
   78.500   31.639    0.617    0.162    3.900
   78.750   32.273    0.619    0.145    4.235
   79.000   35.251    0.625    0.048    4.694
   79.250   40.550    0.623    0.103    5.202
   79.500   49.347    0.597    0.123    5.650
   79.750   54.646    0.596    0.152    6.268
   80.000   61.707    0.579    0.192    6.535
   80.250   66.422    0.579    0.216    6.677
   80.500   69.389    0.580    0.236    6.968
   80.750   73.534    0.574    0.279    7.265
   81.000   77.083    0.476    0.442    7.895
   81.250   80.645    0.437    0.447    8.582
   81.500   81.849    0.444    0.439    8.769
   81.750   83.649    0.472    0.434    8.780
   82.000   86.032    0.489    0.454    8.115
   82.250   86.666    0.507    0.489    7.197
   82.500   86.716    0.548    0.491    5.888
   82.750   83.268    0.584    0.501    5.117
   83.000   81.569    0.602    0.503    4.728
   83.250   82.786    0.591    0.500    4.459
   83.500   83.420    0.520    0.466    4.377
   83.750   81.138    0.549    0.459    4.474
   84.000   80.022    0.584    0.384    4.480
   84.250   82.405    0.593    0.384    4.675
   84.500   84.218    0.611    0.395    4.881
   84.750   85.435    0.620    0.395    4.985
   85.000   88.414    0.611    0.390    5.100
   85.250   90.214    0.578    0.374    5.104
   85.500   91.430    0.542    0.356    5.115
   85.750   91.468    0.503    0.342    5.228
   86.000   91.519    0.482    0.330    5.345
   86.250   90.986    0.477    0.319    5.572
   86.500   88.704    0.474    0.313    6.305
   86.750   84.090    0.475    0.319    6.985
   87.000   79.476    0.463    0.347    9.106
   87.250   72.529    0.408    0.258   10.944
   87.500   67.902    0.432    0.250   14.850
   87.750   63.300    0.435    0.184   20.991
   88.000   61.589    0.335    0.147   19.797
   88.250   59.890    0.362    0.223   19.037
   88.500   57.608    0.384    0.261   17.946
   88.750   57.658    0.425    0.266   16.587
   89.000   58.875    0.435    0.267   15.949
   89.250   62.437    0.366    0.279   15.337
   89.500   72.426    0.376    0.307   14.754
   89.750   73.035    0.389    0.318   12.576
   90.000   73.085    0.395    0.347   11.386
   90.250   71.386    0.393    0.374   10.308
   90.500   70.271    0.453    0.385    9.717
   90.750   74.416    0.483    0.415    9.734
   91.000   77.382    0.489    0.427    9.950
   91.250   81.527    0.511    0.404   10.379
   91.500   83.897    0.529    0.378   10.614
   91.750   82.211    0.548    0.270   10.627
   92.000   80.513    0.569    0.270   10.641
   92.250   78.243    0.547    0.319   10.887
   92.500   77.685    0.554    0.357   11.361
   92.750   75.987    0.567    0.418   11.845
   93.000   74.288    0.579    0.422   12.602
   93.250   72.589    0.488    0.373   13.980
   93.500   70.890    0.475    0.337   14.570
   93.750   69.192    0.466    0.296   15.197
   94.000   68.076    0.461    0.288   15.541
   94.250   68.126    0.459    0.263   16.211
   94.500   67.023    0.460    0.246   16.571
   94.750   65.908    0.461    0.243   16.599
   95.000   65.971    0.454    0.258   16.628
   95.250   67.162    0.436    0.276   15.682
   95.500   68.962    0.431    0.306   15.073
   95.750   69.596    0.495    0.314   13.925
   96.000   67.314    0.537    0.308   13.955
   96.250   66.782    0.511    0.290   13.973
   96.500   70.927    0.442    0.277   13.717
   96.750   76.225    0.439    0.262   13.740
   97.000   79.204    0.463    0.239   13.218
   97.250   81.004    0.472    0.229   12.716
   97.500   81.042    0.490    0.257   11.998
   97.750   79.369    0.505    0.280   12.008
   98.000   77.657    0.527    0.323   12.787
   98.250   75.375    0.500    0.340   14.468
   98.500   74.843    0.467    0.274   15.400
   98.750   74.881    0.455    0.277   16.057
   99.000   74.957    0.442    0.277   16.084
   99.250   74.994    0.425    0.277   15.796
   99.500   75.628    0.400    0.277   15.506
   99.750   74.513    0.376    0.277   15.844
  100.000   73.397    0.376    0.275   17.216
  100.250   72.269    0.430    0.263   19.463
  100.500   70.582    0.454    0.251   22.932
  100.750   65.955    0.460    0.262   24.919
  101.000   59.008    0.448    0.275   22.550
  101.250   57.905    0.417    0.280   19.606
  101.500   66.690    0.403    0.282   17.742
  101.750   73.738    0.358    0.266   15.426
  102.000   73.801    0.387    0.248   14.251
  102.250   70.924    0.416    0.298   15.169
  102.500   66.322    0.472    0.321   16.153
  102.750   68.705    0.495    0.318   15.870
  103.000   73.433    0.473    0.285   15.572
  103.250   75.816    0.429    0.266   15.293
  103.500   77.616    0.433    0.256   15.306
  103.750   78.250    0.436    0.239   15.025
  104.000   77.717    0.429    0.228   15.359
  104.250   76.019    0.423    0.245   15.700
  104.500   74.320    0.429    0.239   17.401
  104.750   72.038    0.441    0.234   21.776
  105.000   68.577    0.454    0.291   28.956
  105.250   63.963    0.459    0.308   30.834
  105.500   60.514    0.418    0.332   34.175
  105.750   59.982    0.385    0.357   36.376
  106.000   61.795    0.354    0.328   38.735
  106.250   62.428    0.337    0.285   42.091
  106.500   60.730    0.328    0.285   43.867
  106.750   56.686    0.312    0.286   46.712
  107.000   51.501    0.315    0.297   48.745
  107.250   48.623    0.320    0.309   48.787
  107.500   52.755    0.326    0.283   47.892
  107.750   55.722    0.337    0.269   47.054
  108.000   52.869    0.351    0.317   48.057
  108.250   50.587    0.363    0.325   48.140
  108.500   52.400    0.373    0.318   48.264
  108.750   55.353    0.381    0.303   48.347
  109.000   57.724    0.375    0.290   43.770
  109.250   60.703    0.363    0.255   40.402
  109.500   65.431    0.331    0.235   35.861
  109.750   66.660    0.333    0.228   33.130
  110.000   67.294    0.346    0.230   31.245
  110.250   67.332    0.359    0.231   31.272
  110.500   66.787    0.370    0.231   33.301
  110.750   65.101    0.362    0.233   35.445
  111.000   62.819    0.344    0.234   36.248
  111.250   60.524    0.344    0.246   37.036
  111.500   59.992    0.339    0.277   39.438
  111.750   61.792    0.323    0.269   42.855
  112.000   62.425    0.352    0.247   46.527
  112.250   61.893    0.386    0.252   49.502
  112.500   57.278    0.392    0.293   54.889
  112.750   52.081    0.399    0.307   60.811
  113.000   51.548    0.451    0.331   71.680
  113.250   50.433    0.377    0.334   70.365
  113.500   45.248    0.411    0.323   67.690
  113.750   41.800    0.498    0.342   78.090
  114.000   39.505    0.563    0.341  114.892
  114.250   36.640    0.411    0.319  112.784
  114.500   40.202    0.388    0.302   92.323
  114.750   44.334    0.400    0.284   86.999
  115.000   44.385    0.424    0.309   92.641
  115.250   43.840    0.435    0.328  100.623
  115.500   43.890    0.462    0.345   98.777
  115.750   45.107    0.463    0.339   87.598
  116.000   48.669    0.436    0.327   74.636
  116.250   51.040    0.400    0.319   57.473
  116.500   55.768    0.391    0.327   42.502
  116.750   59.900    0.381    0.339   37.724
  117.000   64.033    0.388    0.347   37.000
  117.250   66.416    0.396    0.331   37.854
  117.500   67.632    0.410    0.310   38.678
  117.750   65.934    0.442    0.309   42.010
  118.000   63.652    0.413    0.320   51.519
  118.250   60.787    0.368    0.334   58.268
