~VERSION INFORMATION
 VERS.                 2.0:   CWLS LOG ASCII STANDARD -VERSION 2.0
 WRAP.                  NO:   ONE LINE PER DEPTH STEP
~WELL INFORMATION BLOCK
#MNEM.UNIT           DATA                    DESCRIPTION OF MNEMONIC
#---------    -------------------            -------------------------------
# Generated from Intellog Unique Number	CW_76_78/WELL/2565
WELL.         05-14-078-24W4                 : Well_name    - WELL
LOC .         AA/05-14-078-24W4/0            : Location     - LOCATION
UWI .         AA/05-14-078-24W4/0            : Uwi          - UNIQUE WELL ID
ENTR.         MAX                            : Entered      - ENTERED BY
SRVC.         SCHLUMBERGER                   : Scn          - SERVICE COMPANY
STRT.M        290                            : top_depth    - START DEPTH
STOP.M        545                            : bot_depth    - STOP DEPTH
STEP.M        0.25                           : increment    - STEP LENGTH
 NULL. -999.2500:NULL Value
~CURVE INFORMATION BLOCK
#MNEM UNIT       ERCB CURVE CODE    CURVE DESCRIPTION
#-----------   ------------------   ----------------------------------
DEPT.M        00 001 00 00         : DEPTH        - DEPTH
ILD .OHMM     00 120 00 00         : RESD         - DEEP RESISTIVITY (DIL)
NPHI.V/V      00 330 00 00         : PHIN         - NEUTRON POROSITY (SANDSTONE)
DPHI.V/V      00 890 00 00         : PHID         - DENSITY POROSITY (SANDSTONE)
CALI.MM       00 280 01 00         : CAL          - CALIPER
GR  .API      00 310 00 00         : GR           - GAMMA RAY
~PARAMETER INFORMATION
#MNEM.UNIT           DATA             DESCRIPTION OF MNEMONIC
#---------         -----------     ------------------------------
GL  .M        597.38               : gl           - GROUND LEVEL ELEVATION
EREF.M        602.13               : kb           - ELEVATION OF DEPTH REFERENCE
DATM.M        597.38               : datum        - DATUM ELEVATION
TDD .M        547                  : tdd          - TOTAL DEPTH DRILLER
RUN .         ONE                  : Run          - RUN NUMBER
ENG .         BILL                 : Engineer     - RECORDING ENGINEER
WIT .         JIM                  : Witness      - WITNESSED BY
MUD .         GEL                  : Mud_type     - MUD TYPE
MATR.         SANDSTONE            : Logunit      - NEUTRON MATRIX
TMAX.C        41.1                 : BHT          - MAXIMUM RECORDED TEMPERATURE
BHTD.M        547                  : BHTDEP       - MAXIMUM RECORDED TEMPERATURE
RMT .C        17.7                 : MDTP         - TEMPERATURE OF MUD
MUDD.KG/M     1115                 : MWT          - MUD DENSITY
NEUT.         1                    : NEUTRON      - NEUTRON TYPE
RESI.         0                    : RESIST       - RESISTIVITY TYPE
RM  .OHMM     6.28                 : RM           - RESISTIVITY OF MUD
RMC .OHMM     0.25                 : RMC          - RESISTIVITY OF MUD CAKE
RMF .OHMM     5.71                 : RMF          - RESISTIVITY OF MUD FILTRATE
SUFT.C        -20                  : SUFT         - SURFACE TEMPERATURE
~A  DEPTH     RESD     PHIN     PHID      CAL       GR
# ...
  436.000    9.962    0.422    0.186  199.931   88.584
  436.250   10.829    0.400    0.145  194.956   87.990
  436.500   11.345    0.354    0.121  193.965   91.878
  436.750   11.777    0.359    0.142  193.970   91.582
  437.000   12.453    0.371    0.157  193.478   86.804
  437.250   13.290    0.395    0.135  192.984   83.520
  437.500   14.183    0.399    0.149  192.989   83.225
  437.750   15.706    0.405    0.195  192.996   80.239
  438.000   18.385    0.402    0.184  193.498   70.979
  438.250   23.607    0.379    0.165  193.503   64.707
  438.500   26.143    0.340    0.140  193.508   57.838
  438.750   31.171    0.305    0.108  193.513   51.865
  439.000   38.930    0.290    0.086  193.519   51.270
  439.250   43.110    0.272    0.073  193.524   54.261
  439.500   46.868    0.256    0.045  193.528   57.253
  439.750   46.025    0.294    0.091  193.534   60.245
  440.000   43.157    0.302    0.126  193.539   62.339
  440.250   33.948    0.289    0.122  193.544   66.526
  440.500   31.832    0.306    0.120  192.555   69.218
  440.750   26.225    0.338    0.160  192.559   71.013
  441.000   22.419    0.356    0.163  192.564   70.718
  441.250   18.990    0.362    0.139  193.068   70.124
  441.500   17.807    0.390    0.148  193.073   73.114
  441.750   17.648    0.403    0.178  193.077   77.600
  442.000   18.152    0.391    0.178  192.087   80.591
  442.250   19.552    0.369    0.163  191.096   78.204
  442.500   22.466    0.344    0.140  189.607   74.621
  442.750   24.200    0.318    0.130  189.114   68.648
  443.000   22.692    0.308    0.122  188.123   61.778
  443.250   20.505    0.318    0.125  187.630   63.575
  443.500   18.359    0.356    0.153  187.635   65.371
  443.750   16.899    0.381    0.175  190.132   67.466
  444.000   16.141    0.412    0.185  192.129   70.158
  444.250   15.707    0.425    0.204  193.130   74.344
  444.500   15.711    0.402    0.204  193.135   73.152
  444.750   15.718    0.390    0.200  193.140   69.271
  445.000   15.723    0.372    0.189  194.141   69.871
  445.250   15.727    0.377    0.179  194.147   74.058
  445.500   15.727    0.369    0.178  194.152   77.049
  445.750   15.594    0.368    0.185  194.156   77.649
  446.000   15.600    0.381    0.181  193.663   75.262
  446.250   15.749    0.384    0.165  193.171   75.266
  446.500   16.199    0.379    0.166  192.678   75.568
  446.750   16.659    0.363    0.164  191.688   77.364
  447.000   17.294    0.345    0.172  191.692   77.366
  447.250   17.622    0.345    0.174  191.697   71.094
  447.500   18.124    0.372    0.168  191.205   67.811
  447.750   18.131    0.399    0.162  191.211   69.905
  448.000   17.642    0.397    0.166  190.717   70.506
  448.250   16.851    0.375    0.168  191.221   71.406
  448.500   16.094    0.346    0.168  192.221   75.891
  448.750   15.091    0.337    0.169  194.219   80.974
  449.000   14.151    0.353    0.166  194.722   81.275
  449.250   13.516    0.357    0.174  194.728   83.370
  449.500   13.031    0.388    0.175  194.732   84.569
  449.750   13.035    0.396    0.177  194.737   83.376
  450.000   13.040    0.395    0.181  194.742   80.990
  450.250   13.288    0.390    0.186  194.749   79.499
  450.500   13.416    0.387    0.189  194.754   78.904
  450.750   13.421    0.395    0.191  194.758   80.700
  451.000   13.425    0.411    0.192  194.763   83.990
  451.250   13.306    0.416    0.187  194.769   84.889
  451.500   13.068    0.416    0.147  194.774   81.904
  451.750   12.952    0.399    0.139  194.780   80.115
  452.000   12.719    0.396    0.147  194.785   81.014
  452.250   12.723    0.400    0.164  194.291   81.316
  452.500   12.846    0.401    0.138  194.297   80.722
  452.750   12.851    0.407    0.141  194.303   81.023
  453.000   12.855    0.415    0.149  194.806   87.003
  453.250   12.980    0.419    0.152  195.308   89.695
  453.500   12.984    0.400    0.156  195.811   86.710
  453.750   12.989    0.375    0.164  194.323   86.713
  454.000   12.874    0.369    0.171  193.829   86.716
  454.250   12.759    0.369    0.166  193.834   84.330
  454.500   12.647    0.381    0.159  194.337   82.241
  454.750   12.651    0.398    0.150  195.837   80.451
  455.000   12.655    0.411    0.126  195.842   81.650
  455.250   12.660    0.398    0.126  194.851   85.835
  455.500   12.664    0.370    0.147  194.359   87.931
  455.750   12.436    0.364    0.132  194.364   85.244
  456.000   12.213    0.391    0.122  194.370   86.144
  456.250   12.331    0.410    0.160  194.873   84.653
  456.500   12.450    0.405    0.169  195.376   83.162
  456.750   12.924    0.398    0.169  195.381   84.659
  457.000   13.539    0.402    0.169  195.884   86.455
  457.250   14.720    0.408    0.169  195.889   86.159
  457.500   16.003    0.408    0.159  195.396   83.174
  457.750   17.236    0.395    0.169  193.409   78.695
  458.000   18.913    0.371    0.189  191.921   78.101
  458.250   20.560    0.366    0.202  191.926   76.311
  458.500   23.194    0.404    0.210  193.924   76.314
  458.750   26.407    0.405    0.178  195.421   71.237
  459.000   29.243    0.380    0.135  196.423   64.369
  459.250   32.687    0.344    0.112  196.429   64.969
  459.500   33.306    0.308    0.082  196.434   64.673
  459.750   30.376    0.291    0.094  196.439   64.377
  460.000   24.117    0.285    0.107  195.950   64.380
  460.250   20.054    0.298    0.144  195.952   65.280
  460.500   18.122    0.338    0.153  195.957   67.972
  460.750   16.224    0.380    0.168  195.963   75.147
  461.000   14.661    0.410    0.188  195.967   82.022
  461.250   13.371    0.420    0.171  195.972   82.922
  461.500   12.422    0.409    0.163  196.475   83.821
  461.750   11.865    0.387    0.150  196.480   82.629
  462.000   11.762    0.388    0.142  196.485   83.230
  462.250   12.209    0.404    0.163  196.491   89.210
  462.500   13.029    0.412    0.173  196.496   89.511
  462.750   15.392    0.401    0.160  195.008   81.447
  463.000   19.045    0.296    0.119  193.021   68.004
  463.250   22.710    0.279    0.092  193.021   69.501
  463.500   25.857    0.279    0.149  192.536   74.882
  463.750   25.160    0.352    0.191  193.037   80.862
  464.000   22.947    0.390    0.211  194.535   79.371
  464.250   20.356    0.390    0.198  196.533   83.258
  464.500   18.394    0.364    0.175  197.035   85.950
  464.750   17.408    0.361    0.153  197.040   83.863
  465.000   17.094    0.353    0.143  196.547   85.957
  465.250   16.178    0.371    0.151  196.055   91.039
  465.500   15.169    0.384    0.169  196.060   98.812
  465.750   14.224    0.379    0.180  196.066  105.688
  466.000   14.229    0.385    0.165  196.070  106.886
  466.250   15.046    0.395    0.172  196.076  105.096
  466.500   16.817    0.392    0.180  196.081   99.422
  466.750   19.867    0.379    0.169  196.087   89.863
  467.000   23.691    0.374    0.154  195.593   81.201
  467.250   26.974    0.341    0.097  194.603   71.343
  467.500   26.984    0.285    0.056  194.109   72.542
  467.750   24.609    0.271    0.092  194.613   78.521
  468.000   21.430    0.335    0.151  195.614   85.396
  468.250   19.911    0.350    0.157  197.611   86.296
  468.500   19.917    0.346    0.163  199.110   84.507
  468.750   20.109    0.332    0.172  199.115   84.211
  469.000   20.116    0.354    0.180  198.124   82.719
  469.250   19.756    0.354    0.166  195.141   82.125
  469.500   19.756    0.341    0.156  192.658   82.427
  469.750   19.586    0.317    0.192  191.666   83.028
  470.000   18.030    0.309    0.192  190.675   83.031
  470.250   16.292    0.321    0.166  190.680   80.943
  470.500   13.801    0.321    0.117  190.686   77.659
  470.750   13.304    0.323    0.115  190.691   79.753
  471.000   13.309    0.397    0.142  190.198   89.916
  471.250   14.072    0.404    0.144  189.706   87.230
  471.500   16.935    0.378    0.111  189.711   79.464
  471.750   22.149    0.343    0.071  189.716   71.997
  472.000   31.775    0.315    0.086  189.222   54.968
  472.250   38.954    0.350    0.220  188.731   53.178
