~VERSION INFORMATION
 VERS.                 2.0:   CWLS LOG ASCII STANDARD -VERSION 2.0
 WRAP.                  NO:   ONE LINE PER DEPTH STEP
~WELL INFORMATION BLOCK
#MNEM.UNIT           DATA                    DESCRIPTION OF MNEMONIC
#---------    -------------------            -------------------------------
# Generated from Intellog Unique Number	CN_94_101/WELL/2374
WELL.         01-22-100-13W4                 : Well_name    - WELL
LOC .         AA/01-22-100-13W4/0            : Location     - LOCATION
UWI .         AA/01-22-100-13W400            : Uwi          - UNIQUE WELL ID
ENTR.         TIM                            : Entered      - ENTERED BY
SRVC.         SCHLUMBERGER                   : Scn          - SERVICE COMPANY
DATE.         08/13/92                       : Date         - LOG DATE
STRT.M        320.04                         : top_depth    - START DEPTH
STOP.M        542.54                         : bot_depth    - STOP DEPTH
STEP.M        0.25                           : increment    - STEP LENGTH
 NULL. -999.2500:NULL Value
~CURVE INFORMATION BLOCK
#MNEM UNIT       ERCB CURVE CODE    CURVE DESCRIPTION
#-----------   ------------------   ----------------------------------
DEPT.M        00 001 00 00         : DEPTH        - DEPTH
NPHI.V/V      00 330 00 00         : PHIN         - NEUTRON POROSITY (SANDSTONE)
ILD .OHMM     00 120 00 00         : RESD         - DEEP RESISTIVITY (DIL)
GR  .API      00 310 00 00         : GR           - GAMMA RAY
~PARAMETER INFORMATION
#MNEM.UNIT           DATA             DESCRIPTION OF MNEMONIC
#---------         -----------     ------------------------------
GL  .M        768.706              : gl           - GROUND LEVEL ELEVATION
EREF.M        772.058              : kb           - ELEVATION OF DEPTH REFERENCE
DATM.M        772.058              : datum        - DATUM ELEVATION
TDD .M        544.068              : tdd          - TOTAL DEPTH DRILLER
RUN .         ONE                  : Run          - RUN NUMBER
ENG .         JO                   : Engineer     - RECORDING ENGINEER
WIT .         TIM                  : Witness      - WITNESSED BY
MUD .         GEL                  : Mud_type     - MUD TYPE
MATR.         SANDSTONE            : Logunit      - NEUTRON MATRIX
TMAX.C        21.1111              : BHT          - MAXIMUM RECORDED TEMPERATURE
BHTD.M        544.068              : BHTDEP       - MAXIMUM RECORDED TEMPERATURE
RMT .C        7.22222              : MDTP         - TEMPERATURE OF MUD
MUDD.KG/M     9400                 : MWT          - MUD DENSITY
NEUT.         1                    : NEUTRON      - NEUTRON TYPE
RESI.         0                    : RESIST       - RESISTIVITY TYPE
RM  .OHMM     11                   : RM           - RESISTIVITY OF MUD
RMC .OHMM     7.07                 : RMC          - RESISTIVITY OF MUD CAKE
RMF .OHMM     7.07                 : RMF          - RESISTIVITY OF MUD FILTRATE
SUFT.C        4                    : SUFT         - SURFACE TEMPERATURE
~A  DEPTH     PHIN     RESD       GR
# ...
  428.540    0.479    4.536   98.499
  428.790    0.469    5.108   95.352
  429.040    0.450    5.313   95.743
  429.290    0.437    5.313   96.526
  429.540    0.442    5.312   95.344
  429.790    0.478    5.208   94.162
  430.040    0.489    5.105   93.767
  430.290    0.514    5.004   92.586
  430.540    0.523    4.906   90.225
  430.790    0.531    4.809   89.044
  431.040    0.537    4.809   88.648
  431.290    0.533    4.714   89.432
  431.540    0.485    4.621   88.250
  431.790    0.441    4.621   87.069
  432.040    0.406    4.712   85.101
  432.290    0.410    4.806   85.099
  432.540    0.423    4.711   85.882
  432.790    0.438    4.439   87.452
  433.040    0.444    4.352   88.236
  433.290    0.452    4.266   86.269
  433.540    0.451    4.266   84.693
  433.790    0.442    4.437   85.084
  434.040    0.425    4.996   85.867
  434.290    0.413    5.198   87.044
  434.540    0.406    5.197   87.828
  434.790    0.406    5.095   88.218
  435.040    0.401    4.801   89.002
  435.290    0.404    4.348   89.785
  435.540    0.437    3.938   90.176
  435.790    0.471    3.860   90.173
  436.040    0.486    3.784   90.171
  436.290    0.502    3.859   89.382
  436.540    0.469    4.177   88.201
  436.790    0.462    4.345   87.413
  437.040    0.451    4.520   86.232
  437.290    0.482    4.431   85.836
  437.540    0.499    4.344   88.978
  437.790    0.468    4.093   92.512
  438.040    0.452    3.707   92.902
  438.290    0.479    3.357   93.293
  438.540    0.511    3.226   94.863
  438.790    0.520    3.356   94.860
  439.040    0.537    3.561   92.893
  439.290    0.552    4.010   90.533
  439.540    0.549    4.515   85.421
  439.790    0.437    4.791   81.489
  440.040    0.380    4.790   84.629
  440.290    0.407    4.425   84.233
  440.540    0.414    4.008   85.803
  440.790    0.424    3.421   87.767
  441.040    0.437    2.919   90.123
  441.290    0.454    2.443   92.871
  441.540    0.480    2.085   92.083
  441.790    0.513    1.815   90.115
  442.040    0.523    1.676   87.361
  442.290    0.537    1.549   86.572
  442.540    0.565    1.518   86.176
  442.790    0.586    1.459   86.174
  443.040    0.611    1.348   86.172
  443.290    0.624    1.295   86.563
  443.540    0.620    1.245   88.133
  443.790    0.586    1.173   90.096
  444.040    0.585    1.127   91.665
  444.290    0.617    1.105   92.840
  444.540    0.628    1.150   92.446
  444.790    0.634    1.269   91.657
  445.040    0.630    1.578   91.262
  445.290    0.617    1.885   90.866
  445.540    0.600    2.438   90.078
  445.790    0.585    3.092   92.826
  446.040    0.568    3.843   93.611
  446.290    0.537    4.160   92.822
  446.540    0.527    4.242   93.998
  446.790    0.515    4.242   95.567
  447.040    0.510    4.241   97.137
  447.290    0.500    4.241   96.742
  447.540    0.482    4.240   96.739
  447.790    0.476    4.240   95.558
  448.040    0.470    4.240   93.984
  448.290    0.462    4.324   92.802
  448.540    0.456    4.324   92.800
  448.790    0.453    4.409   93.976
  449.040    0.451    4.497   94.367
  449.290    0.448    4.586   94.758
  449.540    0.445    4.771   94.755
  449.790    0.441    4.866   94.360
  450.040    0.438    5.062   95.536
  450.290    0.431    5.163   94.354
  450.540    0.422    5.265   93.173
  450.790    0.411    5.265   91.992
  451.040    0.395    5.264   92.382
  451.290    0.381    5.161   94.737
  451.540    0.376    4.862   96.700
  451.790    0.370    4.582   98.663
  452.040    0.369    4.491   97.088
  452.290    0.363    4.403   94.728
  452.540    0.366    4.316   92.368
  452.790    0.369    4.316   92.758
  453.040    0.371    4.402   93.541
  453.290    0.371    4.401   92.752
  453.540    0.370    4.670   91.964
  453.790    0.367    4.858   90.390
  454.040    0.363    5.154   88.815
  454.290    0.352    5.362   88.027
  454.540    0.340    5.578   92.741
  454.790    0.325    5.689   97.061
  455.040    0.323    5.918   95.094
  455.290    0.323    6.405   91.554
  455.540    0.325    7.071   89.193
  455.790    0.325    8.618   87.619
  456.040    0.323    9.327   86.438
  456.290    0.321    7.354   83.684
  456.540    0.314    6.276   78.573
  456.790    0.305    4.949   73.461
  457.040    0.298    4.141   67.956
  457.290    0.290    3.077   77.779
  457.540    0.291    2.332   84.851
  457.790    0.291    2.112   87.993
  458.040    0.290    2.112   92.707
  458.290    0.287    2.111   92.704
  458.540    0.287    2.029   93.487
  458.790    0.292    1.989   94.664
  459.040    0.298    1.802   95.841
  459.290    0.304    1.698   95.445
  459.540    0.319    1.507   98.194
  459.790    0.330    1.338  101.729
  460.040    0.340    1.212  102.119
  460.290    0.347    1.142  100.545
  460.540    0.354    1.098   94.647
  460.790    0.361    1.097   94.251
  461.040    0.367    1.212   94.249
  461.290    0.374    1.364   94.639
  461.540    0.378    1.630   95.030
  461.790    0.388    1.948   95.420
  462.040    0.394    2.193   94.632
  462.290    0.394    2.569   92.665
  462.540    0.390    2.836   91.090
  462.790    0.383    3.257   91.481
  463.040    0.373    3.389   93.836
  463.290    0.350    3.595   96.585
  463.540    0.351    3.667   97.761
  463.790    0.354    3.815   96.973
  464.040    0.357    4.048   96.577
  464.290    0.361    4.211   95.395
  464.540    0.364    4.295   93.822
  464.790    0.370    4.380   87.138
  465.040    0.373    4.294   80.061
  465.290    0.371    4.127   83.989
  465.540    0.366    3.888   90.274
  465.790    0.350    3.592   92.630
  466.040    0.337    3.521   93.020
  466.290    0.330    3.384   93.019
  466.540    0.335    3.252   92.623
  466.790    0.332    3.126   92.228
  467.040    0.326    2.945   92.618
  467.290    0.319    2.831   94.974
  467.540    0.313    2.775   98.116
  467.790    0.309    2.667   98.505
  468.040    0.306    2.614   96.538
  468.290    0.306    2.512   94.571
  468.540    0.309    2.463   94.568
  468.790    0.313    2.463   94.565
  469.040    0.313    2.414   94.957
  469.290    0.313    2.320   94.561
  469.540    0.309    2.230   91.415
  469.790    0.309    2.101   86.303
  470.040    0.318    1.903   87.479
  470.290    0.323    1.829   91.800
  470.540    0.316    1.689   96.120
  470.790    0.295    1.624   96.511
  471.040    0.289    1.656   95.723
  471.290    0.282    1.723   93.363
  471.540    0.281    1.828   91.002
  471.790    0.278    2.018   90.607
  472.040    0.277    2.141   92.175
  472.290    0.282    2.272   91.780
  472.540    0.296    2.363   90.991
  472.790    0.329    2.508   91.383
  473.040    0.347    2.558   93.738
  473.290    0.371    2.557   95.701
  473.540    0.394    2.507   96.878
  473.790    0.401    2.316   96.482
  474.040    0.370    2.139   99.624
  474.290    0.337    1.862  101.979
  474.540    0.326    1.755   98.833
  474.790    0.295    1.589   94.507
  475.040    0.286    1.383   91.361
  475.290    0.274    1.253   89.000
  475.540    0.264    1.008   87.425
  475.790    0.257    1.091   85.458
  476.040    0.271    1.253   82.705
  476.290    0.310    1.497   79.951
  476.540    0.340    1.936   79.162
  476.790    0.347    2.992   76.802
  477.040    0.324    4.272   72.083
  477.290    0.306    6.100   55.181
  477.540    0.285    7.289   45.353
  477.790    0.268    8.046   42.207
  478.040    0.252    8.538   44.562
  478.290    0.237    9.613   48.096
  478.540    0.230   11.262   48.487
  478.790    0.236   12.432   47.305
  479.040    0.247   13.455   44.159
  479.290    0.267   11.258   41.011
  479.540    0.283    8.877   41.403
  479.790    0.293    7.139   41.007
  480.040    0.299    3.715   39.040
  480.290    0.302    2.051   37.858
  480.540    0.305    1.649   38.642
  480.790    0.313    1.380   39.818
  481.040    0.329    1.300   41.388
  481.290    0.365    1.300   43.744
  481.540    0.405    1.380   88.153
  481.790    0.426    1.464   88.543
  482.040    0.464    1.523   83.825
  482.290    0.489    1.584   85.787
  482.540    0.472    1.648   90.501
