~VERSION INFORMATION
 VERS.                 2.0:   CWLS LOG ASCII STANDARD -VERSION 2.0
 WRAP.                  NO:   ONE LINE PER DEPTH STEP
~WELL INFORMATION BLOCK
#MNEM.UNIT           DATA                    DESCRIPTION OF MNEMONIC
#---------    -------------------            -------------------------------
# Generated from Intellog Unique Number	CN_94_101/WELL/3642
WELL.         08-25-096-13W4                 : Well_name    - WELL
LOC .         AA/08-25-096-13W4/0            : Location     - LOCATION
UWI .         AA/08-25-096-13W400            : Uwi          - UNIQUE WELL ID
ENTR.         J                              : Entered      - ENTERED BY
SRVC.         SCHLUMBERGER                   : Scn          - SERVICE COMPANY
DATE.         08/05/92                       : Date         - LOG DATE
STRT.F        50                             : top_depth    - START DEPTH
STOP.F        739.797                        : bot_depth    - STOP DEPTH
STEP.F        0.8202                         : increment    - STEP LENGTH
 NULL. -999.2500:NULL Value
~CURVE INFORMATION BLOCK
#MNEM UNIT       ERCB CURVE CODE    CURVE DESCRIPTION
#-----------   ------------------   ----------------------------------
DEPT.F        00 001 00 00         : DEPTH        - DEPTH
ILD .OHMM     00 120 00 00         : RESD         - DEEP RESISTIVITY (DIL)
GR  .API      00 310 00 00         : GR           - GAMMA RAY
DPHI.V/V      00 890 00 00         : PHID         - DENSITY POROSITY (SANDSTONE)
~PARAMETER INFORMATION
#MNEM.UNIT           DATA             DESCRIPTION OF MNEMONIC
#---------         -----------     ------------------------------
GL  .M        0                    : gl           - GROUND LEVEL ELEVATION
EREF.M        0                    : kb           - ELEVATION OF DEPTH REFERENCE
DATM.M        0                    : datum        - DATUM ELEVATION
TDD .M        229.972              : tdd          - TOTAL DEPTH DRILLER
RUN .         ONE                  : Run          - RUN NUMBER
ENG .         JO                   : Engineer     - RECORDING ENGINEER
WIT .         TIM                  : Witness      - WITNESSED BY
MUD .         GEL                  : Mud_type     - MUD TYPE
MATR.         SANDSTONE            : Logunit      - NEUTRON MATRIX
TMAX.F        0                    : BHT          - MAXIMUM RECORDED TEMPERATURE
BHTD.F        754.5                : BHTDEP       - MAXIMUM RECORDED TEMPERATURE
RMT .F        0                    : MDTP         - TEMPERATURE OF MUD
MUDD.LB/G     6.9                  : MWT          - MUD DENSITY
NEUT.         1                    : NEUTRON      - NEUTRON TYPE
RESI.         0                    : RESIST       - RESISTIVITY TYPE
RM  .OHMM     0                    : RM           - RESISTIVITY OF MUD
RMC .OHMM     0                    : RMC          - RESISTIVITY OF MUD CAKE
RMF .OHMM     0                    : RMF          - RESISTIVITY OF MUD FILTRATE
SUFT.F        39.2                 : SUFT         - SURFACE TEMPERATURE
~A  DEPTH     RESD       GR     PHID
# ...
  227.986   14.416   75.548    0.256
  228.806   12.905   73.150    0.254
  229.626   11.559   73.189    0.255
  230.446   11.146   78.484    0.262
  231.266   10.754   81.762    0.242
  232.087   10.762   79.356    0.231
  232.907   10.778   75.743    0.243
  233.727   10.787   77.394    0.244
  234.547   10.798   77.830    0.244
  235.367    9.850   77.464    0.255
  236.188    9.679   79.115    0.268
  237.008   10.831   73.073    0.284
  237.828   11.685   69.056    0.296
  238.648   11.697   64.245    0.281
  239.469   12.612   66.697    0.272
  240.289   12.393   70.365    0.266
  241.109   11.302   72.841    0.252
  241.929    9.398   69.625    0.247
  242.749    8.574   70.474    0.259
  243.570    8.272   73.339    0.281
  244.390    9.609   71.743    0.282
  245.210    9.981   67.726    0.258
  246.030   10.564   68.980    0.261
  246.850   10.380   75.084    0.261
  247.671   10.784   73.900    0.271
  248.491   12.071   71.502    0.251
  249.311   12.307   78.829    0.258
  250.131   12.093   82.512    0.259
  250.951    9.686   78.891    0.231
  251.772    7.616   73.660    0.237
  252.592    7.212   75.715    0.263
  253.412    8.536   76.572    0.223
  254.232    9.911   77.008    0.230
  255.052   13.613   78.261    0.273
  255.873   12.888   78.682    0.277
  256.693   10.514   81.158    0.288
  257.513    8.743   79.562    0.278
  258.333    8.591   80.403    0.262
  259.154    8.289   84.888    0.268
  259.974    8.140   84.117    0.269
  260.794    7.853   80.902    0.252
  261.614    7.861   77.289    0.251
  262.434    7.870   72.462    0.266
  263.255    7.878   74.533    0.285
  264.075    7.886   75.374    0.299
  264.895    7.749   78.637    0.286
  265.715    8.836   78.668    0.280
  266.535   10.851   75.055    0.280
  267.356    9.190   76.309    0.274
  268.176    5.270   81.603    0.261
  268.996    4.718   83.659    0.288
  269.816    3.641   82.079    0.302
  270.636    3.447   76.037    0.264
  271.457    4.313   76.878    0.282
  272.277    6.498   78.529    0.284
  273.097    7.833   77.750    0.271
  273.917    8.768   83.862    0.302
  274.738    7.153   85.918    0.319
  275.558    4.585   76.232    0.321
  276.378    3.285   74.239    0.309
  277.198    3.477   75.890    0.320
  278.018    3.681   78.755    0.348
  278.839    3.824   75.548    0.375
  279.659    4.201   72.745    0.380
  280.479    6.448   70.760    0.344
  281.299    7.085   71.196    0.325
  282.119    8.226   73.656    0.319
  282.940    9.916   73.688    0.287
  283.760   10.115   83.038    0.242
  284.580    8.409   83.474    0.242
  285.400    7.123   71.368    0.263
  286.220    7.266   68.962    0.250
  287.041    7.687   76.686    0.215
  287.861   10.361   82.393    0.140
  288.681   18.793   79.590    0.205
  289.501   20.643   78.002    0.240
  290.322   11.839   82.487    0.266
  291.142   14.270   85.360    0.266
  291.962   16.578   85.391    0.246
  292.782   13.276   81.786    0.262
  293.602   12.805   83.429    0.253
  294.423   13.807   81.841    0.236
  295.243   13.072   81.872    0.233
  296.063   11.490   83.936    0.263
  296.883   11.723   81.133    0.258
  297.703   12.874   79.957    0.271
  298.524   14.956   84.029    0.264
  299.344   15.830   82.036    0.254
  300.164   15.555   79.638    0.259
  300.984   14.456   82.916    0.262
  301.804   13.434   85.377    0.255
  302.625   12.722   84.614    0.238
  303.445   12.501   83.415    0.233
  304.265   12.745   79.802    0.238
  305.085   13.001   77.404    0.230
  305.906   13.018   75.816    0.229
  306.726   12.788   81.928    0.254
  307.546   12.338   88.032    0.232
  308.366   12.120   88.476    0.220
  309.186   11.912   86.086    0.235
  310.007   12.148   84.490    0.244
  310.827   12.161   82.910    0.245
  311.647   12.401   82.124    0.248
  312.467   12.414   87.013    0.244
  313.287   12.663   83.806    0.255
  314.108   13.403   78.169    0.247
  314.928   14.451   74.556    0.246
  315.748   13.437   75.810    0.262
  316.568   13.197   73.007    0.285
  317.388   12.732   70.609    0.304
  318.209   12.745   73.879    0.309
  319.029   12.527   75.125    0.281
  319.849   12.536   73.537    0.254
  320.669   12.791   71.544    0.268
  321.490   13.038   68.749    0.283
  322.310   13.549   69.185    0.293
  323.130   14.613   72.455    0.296
  323.950   16.659   75.725    0.269
  324.770   15.768   79.408    0.247
  325.591   13.608   74.581    0.246
  326.411   12.880   70.969    0.221
  327.231   14.967   66.547    0.224
  328.051   16.139   58.886    0.182
  328.871   17.397   53.646    0.145
  329.692   19.468   48.009    0.161
  330.512   26.240   60.599    0.137
  331.332   60.598   67.925    0.218
  332.152  148.001   73.625    0.265
  332.972   73.138   72.846    0.252
  333.793   22.710   73.687    0.256
  334.613   14.025   81.418    0.281
  335.433   11.030   89.960    0.249
  336.253   10.838   95.659    0.227
  337.073   10.454   90.832    0.235
  337.894    9.020   84.790    0.230
  338.714    6.961   78.344    0.243
  339.534    6.469   77.970    0.256
  340.354    6.976   85.701    0.261
  341.175    7.808   88.575    0.245
  341.995    8.112   89.820    0.237
  342.815    8.430   88.637    0.248
  343.635    8.758   89.470    0.259
  344.455    8.931   86.668    0.258
  345.276    8.615   76.577    0.210
  346.096    8.467   86.333    0.161
  346.916    8.792   90.413    0.205
  347.736   10.028   93.286    0.217
  348.556    8.812   96.151    0.255
  349.377    7.463   97.397    0.273
  350.197    6.683   92.570    0.263
  351.017    6.211   87.743    0.265
  351.837    6.217   90.608    0.282
  352.657    5.778   95.101    0.288
  353.478    4.985   96.751    0.297
  354.298    4.146   94.353    0.299
  355.118    4.308   89.526    0.263
  355.938    4.910   85.112    0.254
  356.759    5.809   84.746    0.281
  357.579    7.406   85.579    0.288
  358.399    8.443   88.453    0.296
  359.219    8.938   88.889    0.264
  360.039    8.152   88.118    0.237
  360.860    7.718   88.141    0.215
  361.680    8.020   88.578    0.216
  362.500    8.332   89.419    0.242
  363.320    8.821   91.879    0.249
  364.140    9.509   95.149    0.242
  364.961   10.844   93.156    0.219
  365.781   10.658   81.446    0.207
  366.601    9.902   72.166    0.183
  367.421   10.677   65.727    0.147
  368.241   12.870   75.872    0.140
  369.062   21.678   82.794    0.178
  369.882   36.516   89.303    0.199
  370.702   26.165   92.184    0.221
  371.522   15.857   92.207    0.248
  372.343    9.264   92.643    0.260
  373.163    9.623   92.278    0.235
  373.983   10.573   92.317    0.232
  374.803   10.984   91.943    0.221
  375.623   10.208   91.172    0.245
  376.444    9.141   90.386    0.249
  377.264    8.035   90.822    0.243
  378.084    7.467   92.473    0.259
  378.904    8.051   93.314    0.247
  379.724    9.356   92.130    0.226
  380.545    9.195   88.931    0.224
  381.365    9.031   88.144    0.241
  382.185    8.393   90.208    0.240
  383.005    7.800   91.859    0.243
  383.825    7.385   90.667    0.257
  384.646    6.866   87.880    0.262
  385.466    6.873   89.134    0.227
  386.286    6.879   89.150    0.216
  387.106    7.015   88.371    0.214
  387.927    7.564   79.495    0.197
  388.747    7.718   77.907    0.122
  389.567    7.305   82.003    0.191
  390.387    6.789   82.034    0.264
  391.207    6.923   82.470    0.279
  392.028    8.661   85.732    0.280
  392.848    6.207   89.002    0.264
  393.668    4.971   87.017    0.236
  394.488    5.071   87.049    0.238
  395.308    6.000   87.890    0.246
  396.129    6.469   89.135    0.247
  396.949    6.360   91.199    0.248
  397.769    6.131   89.206    0.245
  398.589    5.806   90.452    0.245
  399.409    5.707   94.531    0.247
  400.230    5.606   99.834    0.242
  401.050    5.613  100.675    0.235
  401.870    5.724   98.277    0.218
  402.690    5.836   95.474    0.228
  403.510    6.294   90.242    0.208
  404.331    6.662   78.937    0.278
  405.151    6.191   64.791    0.343
