~Version : LASO    vs 4.00 - DATA COPYRIGHT - RILEYS DATASHARE INTERNATIONAL
VERS.                2.00:   CWLS Log ASCII Standard -VERSION 2.0
WRAP.                  NO:
~Well Information Block
#MNEM.UNIT       Data                        Description of Mnemonic
#----.----      -------------------------- : -----------------------------
COMP.                                     : COMPANY
FLD .    WILDCAT                          : FIELD NAME
LOC .    03-06-091-07W4                   : WELL LOCATION
UWI .    AA/03-06-091-07W400              : UNIQUE WELL ID
STRT.M             9.0000:
STOP.M           161.0000:
STEP.M             0.1250:
NULL.           -999.2500:
COMP.  MOBIL OIL CANADA:COMPANY
WELL.  MOBIL CLARKE OV 3-6:WELL
FLD.   :FIELD
LOC.   03-06-091-07W4:LOCATION
CTRY.  CANADA:COUNTRY
PROV.  ALBERTA:PROVINCE
SRVC.  DRESSER ATLAS:SERVICE COMPANY
DATE.  08-FEB-81:LOG DATE
UWI.   AA/03-06-091-07W4/0:UNIQUE WELL ID
~Parameter Information Block
#MNEM.UNIT       Data                        Description of Mnemonic
#----.----      -------------------------- : -----------------------------
RUN .                   1                 : Run Number
GL  .M           418.1000                 : Ground Level Elevation
DREF.                  KB                 : Depth Reference
EREF.M           419.1000                 : Elevation of Depth Reference
TDL .M           162.8000                 : Total Depth Logger
TDD .M           160.0000                 : Total Depth Driller
BHT .DEGC         10.0000                 : Bottom Hole Temperature
BS  .MM          171.0000                 : Bit Size
DFD .           1090.0000                 : Mud Weight (Density)
DFV .             85.0000                 : Mud Viscosity
RM  .OHMM          1.9000                 : Mud Resistivity
RMT .DEGC         10.0000                 : Mud Resistivity Temperature
RMF .OHMM          1.1000                 : Mud Filtrate Resistivity
RMFT.DEGC         18.0000                 : RMF Temperature
RMC .OHMM          1.8000                 : Mud Cake Resistivity
RMCT.DEGC         18.0000                 : RMC Temperature
~Curve Information Block
#MNEM.UNIT        API CODE    Curve Description
#---------    ------------    -------------------------------------------
DEPT.M                    :   DEPTH
CALI.MM       42 280  1  1:   3 DENSITY CALIPER
DPHI.V/V                  :   DPHI
DT  .US/M     60 520 32  1:   2 SONIC INTERVAL TRANSIT TIME (COMPENSATED)
GR  .GAPI     42 310  1  1:   4 GAMMA RAY
ILD .OHMM      5 120 46  1:   7 DEEP INDUCTION
NPHI.V/V      42 890  3  1:   5 NEUTRON POROSITY (SANDSTONE)
RHOB.K/M3     42 350  1  1:   6 BULK DENSITY
SFL .OHMM      5 220  6  1:   8 FOCUSSED RESISTIVITY
SP  .MV        5  10  1  1:   9 SPONTANEOUS POTENTIAL
~A  Depth           CALI        DPHI          DT          GR         ILD        NPHI        RHOB         SFL          SP
# ...
84.3750        -999.2500   -999.2500    503.7200   -999.2500      2.3100   -999.2500   -999.2500      4.4000    -35.3200
84.5000        -999.2500   -999.2500    524.3200   -999.2500      2.3100   -999.2500   -999.2500      4.1600    -34.7200
84.6250        -999.2500   -999.2500    529.0000   -999.2500      2.3100   -999.2500   -999.2500      4.2800    -34.3600
84.7500        -999.2500   -999.2500    505.7200   -999.2500      2.1900   -999.2500   -999.2500      4.5200    -34.6000
84.8750        -999.2500   -999.2500    510.1200   -999.2500      2.1900   -999.2500   -999.2500      4.7700    -34.7200
85.0000        -999.2500   -999.2500    541.4800   -999.2500      2.3100   -999.2500   -999.2500      4.7700    -34.9600
85.1250        -999.2500   -999.2500    545.1600   -999.2500      2.1900   -999.2500   -999.2500      4.4000    -34.9600
85.2500        -999.2500   -999.2500    542.7200   -999.2500      2.1900   -999.2500   -999.2500      4.2800    -34.9500
85.3750        -999.2500   -999.2500    530.9600   -999.2500      2.1900   -999.2500   -999.2500      4.1600    -34.9400
85.5000        -999.2500   -999.2500    473.8400   -999.2500      2.1900   -999.2500   -999.2500      4.2800    -34.9300
85.6250        -999.2500   -999.2500    472.3600   -999.2500      2.1900   -999.2500   -999.2500      4.2800    -34.9200
85.7500        -999.2500   -999.2500    472.3600   -999.2500      2.1900   -999.2500   -999.2500      4.2800    -34.9100
85.8750        -999.2500   -999.2500    474.3200   -999.2500      2.3100   -999.2500   -999.2500      4.2800    -34.9000
86.0000        -999.2500   -999.2500    473.1200   -999.2500      2.4300   -999.2500   -999.2500      4.2800    -34.8900
86.1250        -999.2500   -999.2500    500.0000   -999.2500      2.4300   -999.2500   -999.2500      4.4000    -34.8800
86.2500        -999.2500   -999.2500    500.0000   -999.2500      2.5500   -999.2500   -999.2500      4.5200    -34.8700
86.3750        -999.2500   -999.2500    500.0000   -999.2500      2.6700   -999.2500   -999.2500      4.8900    -34.8600
86.5000        -999.2500   -999.2500    500.0000   -999.2500      2.6700   -999.2500   -999.2500      5.2600    -34.8500
86.6250        -999.2500   -999.2500    500.0000   -999.2500      2.8000   -999.2500   -999.2500      5.8700    -34.8400
86.7500        -999.2500   -999.2500    500.0000   -999.2500      2.8000   -999.2500   -999.2500      5.9900    -34.8400
86.8750        -999.2500   -999.2500    500.0000   -999.2500      2.9200   -999.2500   -999.2500      5.9900    -34.8300
87.0000        -999.2500   -999.2500    500.0000   -999.2500      3.0400   -999.2500   -999.2500      5.7500    -34.8200
87.1250        -999.2500   -999.2500    500.0000   -999.2500      2.9200   -999.2500   -999.2500      5.3800    -34.8100
87.2500        -999.2500   -999.2500    500.0000   -999.2500      2.9200   -999.2500   -999.2500      5.0100    -34.8000
87.3750        -999.2500   -999.2500    500.0000   -999.2500      3.0400   -999.2500   -999.2500      4.6500    -34.7900
87.5000        -999.2500   -999.2500    500.0000   -999.2500      2.9200   -999.2500   -999.2500      4.6500    -34.7800
87.6250        -999.2500   -999.2500    500.0000   -999.2500      2.9200   -999.2500   -999.2500      5.0100    -34.7700
87.7500        -999.2500   -999.2500    550.8000   -999.2500      2.8000   -999.2500   -999.2500      5.3800    -34.7600
87.8750        -999.2500   -999.2500    535.8400   -999.2500      2.8000   -999.2500   -999.2500      5.6300    -34.7500
88.0000        -999.2500   -999.2500    517.2400   -999.2500      2.8000   -999.2500   -999.2500      5.8700    -34.7400
88.1250        -999.2500   -999.2500    532.9200   -999.2500      2.9200   -999.2500   -999.2500      5.9900    -34.7300
88.2500        -999.2500   -999.2500    550.5600   -999.2500      3.0400   -999.2500   -999.2500      5.6300    -34.7200
88.3750        -999.2500   -999.2500    547.1200   -999.2500      3.1600   -999.2500   -999.2500      5.2600    -34.6000
88.5000        -999.2500   -999.2500    521.8800   -999.2500      3.2900   -999.2500   -999.2500      4.8900    -34.7200
88.6250        -999.2500   -999.2500    521.1600   -999.2500      3.5300   -999.2500   -999.2500      4.5200    -34.9600
88.7500        -999.2500   -999.2500    518.6801   -999.2500      3.7800   -999.2500   -999.2500      4.6500    -35.0800
88.8750        -999.2500   -999.2500    514.5200   -999.2500      4.1400   -999.2500   -999.2500      5.2600    -34.9600
89.0000        -999.2500      0.3117    509.4000   -999.2500      4.6300      0.3805   -999.2500      6.1100    -34.8400
89.1250        -999.2500      0.3068    508.6400   -999.2500      5.2500      0.3786   -999.2500      7.0900    -34.8400
89.2500        -999.2500      0.3019    510.1200   -999.2500      6.1000      0.3762   -999.2500      8.3200    -35.2000
89.3750        -999.2500      0.2983    512.0800   -999.2500      7.2000      0.3738   -999.2500      9.3000    -35.5600
89.5000        -999.2500      0.2952    519.2000   -999.2500      8.5500      0.3733   -999.2500     10.2800    -35.8000
89.6250        -999.2500      0.2983    538.8000   -999.2500     10.0200      0.3750   -999.2500     11.2600    -35.6800
89.7500        -999.2500      0.3169    602.2800   -999.2500     11.0000      0.3792   -999.2500     12.6000    -35.8000
89.8750        -999.2500      0.3324    597.3600   -999.2500     11.6100      0.3848   -999.2500     14.1900    -36.2800
90.0000        -999.2500      0.3426    568.6800   -999.2500     11.9800      0.3926   -999.2500     13.5800    -37.7200
90.1250        -999.2500      0.3286    572.3600   -999.2500     11.7300      0.3780   -999.2500     11.5000    -40.7300
90.2500        -999.2500      0.3168    577.7600   -999.2500     11.2400      0.3469   -999.2500     10.8900    -43.7300
90.3750        -999.2500      0.3056    580.9600   -999.2500     10.5100      0.3081   -999.2500     11.2600    -46.7400
90.5000        -999.2500      0.3009    581.2000   -999.2500      9.7700      0.2917   -999.2500     11.7500    -48.6600
90.6250        -999.2500      0.2960    576.8000   -999.2500      9.2800      0.2846   -999.2500     11.5000    -49.5000
90.7500        -999.2500      0.2778    568.4400   -999.2500      9.0400      0.2791   -999.2500     10.4000    -50.1000
90.8750        -999.2500      0.2701    532.4400   -999.2500      8.7900      0.2758   -999.2500      8.4400    -51.5400
91.0000        -999.2500      0.2575    483.1600   -999.2500      8.5500      0.2713   -999.2500      7.7100    -52.5100
91.1250        -999.2500      0.2069    494.9200   -999.2500      8.5500      0.2648   -999.2500      8.4400    -52.5100
91.2500        -999.2500      0.2422    552.2800   -999.2500      8.6700      0.2647   -999.2500      9.6600    -52.0200
91.3750        -999.2500      0.2663    520.1600   -999.2500      8.9200      0.2697   -999.2500     10.6400    -51.7800
91.5000        -999.2500      0.2855    543.4400   -999.2500      9.4100      0.2747   -999.2500     10.5200    -51.0600
91.6250        -999.2500      0.2956    530.4400   -999.2500     10.0200      0.2821   -999.2500     10.0300    -49.7400
91.7500        -999.2500      0.3013    533.6400   -999.2500     10.6300      0.2877   -999.2500     10.4000    -47.5800
91.8750        -999.2500      0.3072    537.0800   -999.2500     11.3700      0.2937   -999.2500     11.9900    -44.9300
92.0000        -999.2500      0.3116    580.7200   -999.2500     11.9800      0.2997   -999.2500     14.1900    -45.0500
92.1250        -999.2500      0.3130    579.4800   -999.2500     12.7100      0.3041   -999.2500     16.4000    -46.3800
92.2500        -999.2500      0.3139    574.8400   -999.2500     13.6900      0.3080   -999.2500     17.7400    -49.1400
92.3750        -999.2500      0.3149    564.7600   -999.2500     14.9100      0.3093   -999.2500     16.8900    -50.1000
92.5000        -999.2500      0.3125    554.7200   -999.2500     16.2600      0.3100   -999.2500     14.6800    -49.6200
92.6250        -999.2500      0.3124    555.7200   -999.2500     17.6100      0.3083   -999.2500     13.7000    -48.6600
