~VERSION INFORMATION
 VERS.                 2.0:   CWLS LOG ASCII STANDARD -VERSION 2.0
 WRAP.                  NO:   ONE LINE PER DEPTH STEP
~WELL INFORMATION BLOCK
#MNEM.UNIT           DATA                    DESCRIPTION OF MNEMONIC
#---------    -------------------            -------------------------------
# Generated from Intellog Unique Number	CN_94_101/WELL/3298
WELL.         06-01-095-08W4                 : Well_name    - WELL
LOC .         AA/06-01-095-08W4/0            : Location     - LOCATION
UWI .         AA/06-01-095-08W400            : Uwi          - UNIQUE WELL ID
ENTR.         JOETTE                         : Entered      - ENTERED BY
SRVC.         SCHLUMBERGER                   : Scn          - SERVICE COMPANY
DATE.         07/22/92                       : Date         - LOG DATE
STRT.M        20                             : top_depth    - START DEPTH
STOP.M        170                            : bot_depth    - STOP DEPTH
STEP.M        0.25                           : increment    - STEP LENGTH
 NULL. -999.2500:NULL Value
~CURVE INFORMATION BLOCK
#MNEM UNIT       ERCB CURVE CODE    CURVE DESCRIPTION
#-----------   ------------------   ----------------------------------
DEPT.M        00 001 00 00         : DEPTH        - DEPTH
GR  .API      00 310 00 00         : GR           - GAMMA RAY
ILD .OHMM     00 120 00 00         : RESD         - DEEP RESISTIVITY (DIL)
NPHI.V/V      00 330 00 00         : PHIN         - NEUTRON POROSITY (SANDSTONE)
RHOB.KG/M3    00 350 00 00         : DENS         - BULK DENSITY
~PARAMETER INFORMATION
#MNEM.UNIT           DATA             DESCRIPTION OF MNEMONIC
#---------         -----------     ------------------------------
GL  .M        401.7                : gl           - GROUND LEVEL ELEVATION
EREF.M        401.7                : kb           - ELEVATION OF DEPTH REFERENCE
DATM.M        401.7                : datum        - DATUM ELEVATION
TDD .M        174.5                : tdd          - TOTAL DEPTH DRILLER
RUN .         ONE                  : Run          - RUN NUMBER
ENG .         JO                   : Engineer     - RECORDING ENGINEER
WIT .         TIM                  : Witness      - WITNESSED BY
MUD .         GEL                  : Mud_type     - MUD TYPE
MATR.         SANDSTONE            : Logunit      - NEUTRON MATRIX
TMAX.C        8                    : BHT          - MAXIMUM RECORDED TEMPERATURE
BHTD.M        174.5                : BHTDEP       - MAXIMUM RECORDED TEMPERATURE
RMT .C        8                    : MDTP         - TEMPERATURE OF MUD
MUDD.KG/M     1090                 : MWT          - MUD DENSITY
NEUT.         1                    : NEUTRON      - NEUTRON TYPE
RESI.         0                    : RESIST       - RESISTIVITY TYPE
RM  .OHMM     7.5                  : RM           - RESISTIVITY OF MUD
RMC .OHMM     7.5                  : RMC          - RESISTIVITY OF MUD CAKE
RMF .OHMM     7.5                  : RMF          - RESISTIVITY OF MUD FILTRATE
SUFT.C        4                    : SUFT         - SURFACE TEMPERATURE
~A  DEPTH       GR     RESD     PHIN     DENS
# ...
   63.500  103.430    0.709    0.618 2076.680
   63.750   94.562    0.676    0.540 2089.180
   64.000  106.600    0.696    0.583 2123.990
   64.250  114.478    0.877    0.522 2142.640
   64.500  101.407    1.286    0.485 2159.270
   64.750  100.304    1.197    0.503 2131.180
   65.000  115.350    1.295    0.505 2113.380
   65.250   88.541    1.402    0.478 2121.840
   65.500   91.619    1.305    0.481 2225.500
   65.750   94.099    1.961    0.480 2292.620
   66.000   91.204    1.874    0.477 2210.010
   66.250  106.848    2.078    0.521 2127.490
   66.500  114.107    4.563    0.601 2107.570
   66.750  110.017    4.813    0.529 2089.870
   67.000  108.914    2.155    0.536 2090.160
   67.250  113.784    1.483    0.575 2078.420
   67.500  118.102    1.248    0.629 2072.640
   67.750  113.392    1.161    0.629 2085.330
   68.000  107.488    1.462    0.688 2093.780
   68.250  101.606    1.583    0.739 2106.190
   68.500  107.671    1.204    0.529 2108.580
   68.750  105.970    1.595    0.529 2090.880
   69.000  108.451    1.642    0.551 2101.260
   69.250  117.524    1.101    0.596 2105.770
   69.500  117.018    0.838    0.621 2104.130
   69.750  116.513    0.841    0.660 2094.320
   70.000  106.450    0.982    0.668 2098.740
   70.250  111.320    1.119    0.611 2133.640
   70.500  104.818    1.211    0.563 2113.730
   70.750   99.557    1.449    0.574 2099.870
   71.000   94.847    1.652    0.524 2088.130
   71.250  106.333    1.659    0.529 2094.570
   71.500  109.388    1.841    0.541 2105.050
   71.750  112.466    2.044    0.488 2192.460
   72.000   95.213    2.104    0.484 2308.240
   72.250   88.137    2.166    0.450 2363.240
   72.500   83.427    2.402    0.421 2306.980
   72.750   99.094    5.409    0.458 2224.360
   73.000   96.176    5.430    0.338 2178.190
   73.250   98.657    2.623    0.322 2178.670
   73.500   87.400    2.700    0.336 2174.910
   73.750   91.075    5.091    0.363 2157.210
   74.000   80.392    6.574    0.429 2147.390
   74.250   90.063    5.532    0.379 2131.520
   74.500   81.793    4.427    0.391 2135.940
   74.750   75.291    5.044    0.359 2138.340
   75.000   81.998    5.058    0.208 2134.680
   75.250   77.266    4.832    0.189 2129.000
   75.500   70.190    5.096    0.207 2097.060
   75.750   72.073    6.258    0.233 2065.030
   76.000   51.237    8.506    0.249 2063.390
   76.250   45.355   89.122    0.292 2059.820
   76.500   46.044  485.528    0.305 2058.090
   76.750   39.542  487.349    0.344 2070.680
   77.000   51.625  527.083    0.371 2079.040
   77.250   54.083  792.411    0.402 2097.790
   77.500   49.396 1571.670    0.413 2108.260
   77.750   43.515 1580.520    0.401 2114.700
   78.000   41.240 1584.960    0.387 2102.960
   78.250   40.114 1590.910    0.392 2095.170
   78.500   40.803 1639.140    0.396 2107.660
   78.750   49.256 1727.070    0.380 2120.160
   79.000   51.139 2176.710    0.384 2126.780
   79.250   47.647 1975.450    0.410 2127.260
   79.500   68.689  101.099    0.360 2127.450
   79.750   69.975   61.202    0.363 2135.900
   80.000   71.881  137.809    0.334 2158.590
   80.250   66.574   58.632    0.363 2146.760
   80.500   61.267   51.887    0.383 2179.550
   80.750   64.965   59.128    0.351 2234.550
   81.000   65.677   46.090    0.377 2182.420
   81.250   63.976  101.107    0.399 2170.580
   81.500   60.438  278.495    0.416 2148.650
   81.750   51.570  217.292    0.429 2126.810
   82.000   51.662  223.670    0.401 2127.380
   82.250   58.323  344.519    0.398 2133.630
   82.500   53.636  114.044    0.431 2142.180
   82.750   43.551  151.021    0.411 2136.600
   83.000   55.657   91.594    0.357 2134.770
   83.250   54.531   77.002    0.377 2135.140
   83.500   51.016  539.171    0.391 2137.640
   83.750   49.935 1153.340    0.402 2133.980
   84.000   53.588  516.532    0.369 2138.300
   84.250   54.874  203.956    0.360 2148.870
   84.500   50.187  106.247    0.344 2143.190
   84.750   62.270   96.423    0.376 2135.490
   85.000   62.935   54.173    0.387 2150.010
   85.250   95.923   28.220    0.426 2207.030
   85.500  121.743   30.550    0.443 2217.600
   85.750  114.070   33.947    0.415 2203.840
   86.000  117.745   27.137    0.422 2202.200
   86.250  113.656    7.343    0.419 2188.350
   86.500  114.344    7.559    0.440 2168.430
   86.750  111.427    7.035    0.363 2122.270
   87.000  110.944    6.379    0.324 2122.740
   87.250   93.668    8.463    0.376 2135.240
   87.500   75.221    8.925    0.399 2149.750
   87.750   60.955   23.354    0.391 2162.340
   88.000   51.490   27.988    0.422 2144.450
   88.250   73.106   59.869    0.398 2146.940
   88.500   85.763   20.823    0.422 2149.250
   88.750   69.705   19.397    0.410 2127.310
   89.000   55.462   24.425    0.407 2099.420
   89.250   56.725   38.581    0.425 2093.740
   89.500   48.455   42.871    0.426 2096.230
   89.750   39.564  117.977    0.422 2094.590
   90.000   29.501  397.888    0.372 2094.970
   90.250   45.742  441.306    0.387 2097.370
   90.500   41.653  584.940    0.386 2099.760
   90.750   30.396  544.398    0.398 2098.220
   91.000   32.853  635.597    0.423 2108.690
   91.250   47.900  185.326    0.424 2116.960
   91.500   59.362   85.117    0.374 2151.770
   91.750   54.078   94.493    0.364 2180.520
   92.000   74.500   61.808    0.387 2197.150
   92.250   94.325   26.297    0.409 2187.330
   92.500  109.968   13.026    0.412 2169.540
   92.750  117.250    8.737    0.403 2180.010
   93.000  111.989    7.930    0.402 2206.840
   93.250  112.057    7.575    0.379 2198.950
   93.500   95.999    7.044    0.391 2191.250
   93.750   85.317    7.827    0.412 2236.250
   94.000   88.395    9.855    0.422 2250.760
   94.250   94.505   10.669    0.403 2253.160
   94.500   91.587   10.433    0.407 2223.150
   94.750   96.456    9.003    0.456 2193.140
   95.000   92.367    7.776    0.415 2185.530
   95.250   78.101    7.997    0.432 2183.890
   95.500   82.970   11.735    0.415 2176.190
   95.750   86.645    9.147    0.486 2160.320
   96.000   83.153    9.656    0.436 2168.780
   96.250   91.032   12.787    0.407 2189.450
   96.500   86.943   13.162    0.402 2206.170
   96.750   82.830    9.054    0.384 2202.320
   97.000   78.143    8.435    0.410 2188.660
   97.250   87.814    7.641    0.436 2180.770
   97.500   87.906    8.929    0.437 2187.300
   97.750   95.164   10.165    0.507 2187.770
   98.000   82.690    9.950    0.491 2179.880
   98.250   87.008    7.763    0.440 2198.530
   98.500   84.090   10.811    0.402 2213.140
   98.750   83.584   17.977    0.391 2201.400
   99.000   90.269   12.355    0.383 2185.620
   99.250   93.921   10.933    0.455 2181.960
   99.500   89.832   15.241    0.415 2190.330
   99.750   79.769   13.487    0.389 2202.920
  100.000   82.847   10.782    0.415 2199.160
  100.250   83.558   10.553    0.426 2177.320
  100.500   86.039   12.026    0.402 2187.900
  100.750   90.886   14.040    0.383 2172.020
  101.000   87.991   17.679    0.400 2160.190
  101.250   86.290   10.996    0.420 2138.450
  101.500   81.006   16.105    0.418 2140.750
  101.750   72.736   15.763    0.424 2157.290
  102.000   71.035   13.950    0.459 2147.570
  102.250   74.733   19.941    0.425 2137.940
  102.500   69.403   25.750    0.385 2140.240
  102.750   69.495   48.563    0.388 2150.720
  103.000   83.347   55.288    0.412 2171.390
  103.250   76.868   24.145    0.474 2169.750
  103.500   78.751   15.018    0.437 2159.930
  103.750   79.440   12.947    0.399 2156.270
  104.000   71.169   15.912    0.417 2150.590
  104.250   68.275   19.538    0.437 2140.870
  104.500   65.379   37.787    0.450 2159.520
  104.750   67.860   44.117    0.538 2162.020
  105.000   80.494   31.916    0.458 2170.380
  105.250   77.599   15.033    0.411 2168.740
  105.500   84.881   26.312    0.480 2146.900
  105.750   77.805   23.857    0.407 2153.240
  106.000   72.498   20.568    0.414 2179.970
  106.250   73.784   16.457    0.455 2147.940
  106.500   66.134   31.038    0.419 2128.120
  106.750   66.202   17.438    0.405 2148.700
