~VERSION INFORMATION
 VERS.                 2.0:   CWLS LOG ASCII STANDARD -VERSION 2.0
 WRAP.                  NO:   ONE LINE PER DEPTH STEP
~WELL INFORMATION BLOCK
#MNEM.UNIT           DATA                    DESCRIPTION OF MNEMONIC
#---------    -------------------            -------------------------------
# Generated from Intellog Unique Number	CX_WELLS/WELL/2645
NULL.         -999.25                        : NULL_VALUE
WELL.         ARCO ACI MCMURRAY OV           : Well_name    - WELL              
LOC .         07-26-080-10W4                 : Location     - LOCATION          
UWI .         AA/07-26-080-10W400            : Uwi          - UNIQUE WELL ID    
ENTR.         T                              : Entered      - ENTERED BY        
SRVC.         SCHLUMBERGER                   : Scn          - SERVICE COMPANY   
DATE.         19 JAN 76                      : Date         - LOG DATE
STRT.F        800                            : top_depth    - START DEPTH       
STOP.F        1549.67                        : bot_depth    - STOP DEPTH        
STEP.F        0.82                           : increment    - STEP LENGTH       
~CURVE INFORMATION BLOCK
#MNEM UNIT       ERCB CURVE CODE    CURVE DESCRIPTION
#-----------   ------------------   ----------------------------------
DEPT.F        00 001 00 00         : DEPTH        - DEPTH                       
GR  .API      00 310 00 00         : GR           - GAMMA RAY                   
NPHI.V/V      00 330 00 00         : PHIN         - NEUTRON POROSITY (SANDSTONE)
ILD .OHMM     00 120 00 00         : RESD         - DEEP RESISTIVITY (DIL)      
~PARAMETER INFORMATION       
#MNEM.UNIT           DATA             DESCRIPTION OF MNEMONIC
#---------         -----------     ------------------------------
GL  .F        2280                 : gl           - GROUND LEVEL ELEVATION      
EREF.F        2289                 : kb           - ELEVATION OF DEPTH REFERENCE
DATM.F        2289                 : datum        - DATUM ELEVATION             
TDD .F        1556                 : tdd          - TOTAL DEPTH DRILLER         
RUN .         ONE                  : Run          - RUN NUMBER                  
ENG .         BILL                 : Engineer     - RECORDING ENGINEER          
WIT .         JIM                  : Witness      - WITNESSED BY                
MUD .         GEL                  : Mud_type     - MUD TYPE                    
MATR.         SANDSTONE            : Logunit      - NEUTRON MATRIX              
TMAX.F        77                   : BHT          - MAXIMUM RECORDED TEMPERATURE
BHTD.F        1556                 : BHTDEP       - MAXIMUM RECORDED TEMPERATURE
MATR.         1                    : LOGUNIT      - NEUTRON MATRIX              
RMT .F        77                   : MDTP         - TEMPERATURE OF MUD          
NEUT.         1                    : NEUTRON      - NEUTRON TYPE                
RESI.         0                    : RESIST       - RESISTIVITY TYPE            
RMC .OHMM     6                    : RMC          - RESISTIVITY OF MUD CAKE     
RMF .OHMM     6                    : RMF          - RESISTIVITY OF MUD FILTRATE 
SUFT.F        32                   : SUFT         - SURFACE TEMPERATURE         
~A  DEPTH       GR     PHIN     RESD
# ...
 1155.970   99.353    0.562    1.592
 1156.790   98.852    0.562    1.688
 1157.610   98.936    0.560    1.724
 1158.430   98.414    0.559    1.830
 1159.250   98.498    0.552    1.908
 1160.070   98.602    0.547    1.987
 1160.890   98.685    0.540    2.071
 1161.710   98.790    0.533    2.157
 1162.530   98.831    0.524    2.289
 1163.350   95.889    0.518    2.336
 1164.170   91.736    0.498    2.528
 1164.990   88.189    0.484    2.629
 1165.810   87.083    0.468    2.845
 1166.630   85.956    0.465    2.963
 1167.450   85.455    0.464    3.145
 1168.270   84.328    0.462    3.151
 1169.090   83.785    0.459    3.226
 1169.910   84.474    0.454    3.305
 1170.730   85.204    0.450    3.312
 1171.560   85.893    0.447    3.329
 1172.380   87.187    0.445    3.407
 1173.200   90.296    0.447    3.360
 1174.020   92.800    0.490    3.309
 1174.840   92.279    0.506    3.150
 1175.660   92.383    0.515    2.938
 1176.480   91.841    0.528    2.743
 1177.300   91.945    0.535    2.563
 1178.120   91.423    0.527    2.527
 1178.940   90.901    0.523    2.584
 1179.760   90.401    0.516    2.640
 1180.580   90.505    0.506    2.656
 1181.400   89.378    0.501    2.619
 1182.220   87.667    0.495    2.582
 1183.040   86.498    0.491    2.593
 1183.860   84.766    0.491    2.559
 1184.680   83.055    0.491    2.567
 1185.500   82.533    0.491    2.578
 1186.320   82.012    0.491    2.591
 1187.140   80.885    0.491    2.599
 1187.960   80.363    0.491    2.615
 1188.780   79.841    0.490    2.626
 1189.600   79.320    0.490    2.685
 1190.420   78.235    0.487    2.699
 1191.240   77.671    0.484    2.707
 1192.060   77.755    0.478    2.715
 1192.880   77.859    0.472    2.732
 1193.700   77.942    0.463    2.791
 1194.520   78.631    0.452    2.853
 1195.340   78.715    0.443    2.977
 1196.160   79.424    0.438    3.100
 1196.980   80.113    0.444    2.892
 1197.800   80.217    0.452    2.513
 1198.620   80.321    0.456    2.301
 1199.440   81.010    0.461    2.147
 1200.260   81.073    0.467    1.972
 1201.080   81.177    0.476    1.980
 1201.900   81.260    0.479    2.175
 1202.720   81.949    0.474    2.529
 1203.540   82.053    0.470    2.731
 1204.360   82.158    0.477    2.955
 1205.180   82.805    0.497    3.025
 1206.000   82.909    0.514    3.034
 1206.820   82.993    0.510    3.043
 1207.640   83.681    0.504    3.056
 1208.460   83.765    0.502    3.022
 1209.280   85.058    0.507    2.974
 1210.100   87.604    0.513    2.885
 1210.930   89.483    0.516    2.839
 1211.750   91.987    0.521    2.654
 1212.570   92.738    0.523    2.523
 1213.390   92.195    0.526    2.443
 1214.210   92.279    0.526    2.365
 1215.030   91.736    0.527    2.375
 1215.850   91.256    0.527    2.342
 1216.670   90.714    0.527    2.309
 1217.490   89.608    0.527    2.279
 1218.310   88.502    0.527    2.247
 1219.130   87.354    0.525    2.218
 1219.950   86.811    0.524    2.182
 1220.770   85.726    0.518    2.196
 1221.590   85.163    0.513    2.163
 1222.410   84.057    0.509    2.172
 1223.230   82.325    0.500    2.345
 1224.050   80.008    0.491    2.779
 1224.870   78.882    0.470    3.056
 1225.690   78.381    0.441    3.486
 1226.510   78.422    0.399    3.907
 1227.330   79.132    0.362    4.376
 1228.150   80.426    0.338    4.645
 1228.970   82.951    0.310    4.750
 1229.790   86.081    0.295    4.604
 1230.610   88.585    0.307    4.462
 1231.430   91.715    0.381    4.390
 1232.250   92.967    0.440    4.174
 1233.070   94.887    0.479    3.827
 1233.890   95.597    0.488    3.573
 1234.710   96.265    0.489    3.397
 1235.530   96.348    0.490    3.293
 1236.350   94.658    0.487    3.306
 1237.170   94.720    0.491    3.260
 1237.990   94.825    0.501    3.156
 1238.810   94.887    0.509    2.894
 1239.630   95.597    0.515    2.603
 1240.450   97.538    0.519    2.259
 1241.270   98.790    0.527    1.997
 1242.090  101.315    0.531    1.672
 1242.910  102.629    0.534    1.400
 1243.730  101.523    0.540    1.215
 1244.550  100.355    0.545    1.133
 1245.370   96.807    0.547    1.180
 1246.190   92.675    0.548    1.300
 1247.010   90.964    0.548    1.378
 1247.830   90.421    0.538    1.544
 1248.650   89.921    0.525    1.698
 1249.480   89.983    0.503    2.087
 1250.300   90.067    0.481    2.337
 1251.120   90.171    0.467    2.571
 1251.940   90.234    0.445    2.779
 1252.760   90.338    0.429    3.001
 1253.580   92.279    0.418    3.125
 1254.400   93.552    0.404    3.320
 1255.220   94.825    0.393    3.454
 1256.040   97.371    0.385    3.532
 1256.860   97.433    0.377    3.615
 1257.680   96.327    0.368    3.764
 1258.500   95.785    0.362    3.853
 1259.320   94.073    0.361    3.940
 1260.140   92.967    0.363    3.960
 1260.960   92.446    0.367    3.976
 1261.780   91.903    0.376    3.916
 1262.600   91.382    0.398    3.660
 1263.420   90.901    0.434    3.417
 1264.240   90.338    0.458    3.253
 1265.060   90.442    0.479    3.204
 1265.880   89.962    0.484    3.159
 1266.700   90.004    0.483    3.000
 1267.520   90.109    0.483    3.016
 1268.340   88.376    0.480    3.090
 1269.160   86.039    0.472    3.096
 1269.980   85.517    0.461    3.169
 1270.800   84.412    0.447    3.237
 1271.620   83.869    0.435    3.378
 1272.440   83.368    0.415    3.582
 1273.260   83.452    0.108    3.730
 1274.080   84.745    0.093    3.814
 1274.900   86.081    0.098    3.830
 1275.720   86.749    0.393    3.849
 1276.540   87.437    0.396    3.869
 1277.360   88.773    0.399    3.889
 1278.180   89.441    0.404    3.897
 1279.000   89.503    0.407    3.846
 1279.820   90.818    0.410    3.858
 1280.640   91.528    0.413    3.804
 1281.460   92.237    0.414    3.751
 1282.280   92.279    0.418    3.702
 1283.100   91.799    0.419    3.585
 1283.920   91.841    0.421    3.534
 1284.740   90.735    0.416    3.489
 1285.560   89.629    0.400    3.440
 1286.380   89.086    0.387    3.440
 1287.200   88.564    0.379    3.348
 1288.020   88.689    0.378    3.550
 1288.850   88.147    0.381    3.564
 1289.670   88.272    0.382    3.641
 1290.490   88.314    0.388    3.660
 1291.310   88.418    0.393    3.742
 1292.130   86.686    0.398    3.830
 1292.950   83.139    0.397    3.850
 1293.770   80.196    0.395    3.858
 1294.590   71.181    0.393    3.953
 1295.410   71.891    0.387    3.969
 1296.230   74.395    0.370    3.981
 1297.050   76.294    0.348    3.998
 1297.870   78.840    0.336    3.942
 1298.690   80.092    0.328    3.890
 1299.510   83.848    0.352    3.844
 1300.330   84.537    0.393    3.786
 1301.150   84.015    0.420    3.666
 1301.970   82.283    0.420    3.618
 1302.790   81.761    0.420    3.564
 1303.610   83.097    0.422    3.389
 1304.430   84.996    0.436    3.160
 1305.250   86.269    0.446    2.744
 1306.070   88.189    0.456    2.562
 1306.890   89.483    0.466    2.392
 1307.710   90.150    0.475    2.318
 1308.530   89.023    0.475    2.247
 1309.350   85.476    0.471    2.254
 1310.170   81.344    0.463    2.351
 1310.990   79.007    0.441    2.537
 1311.810   76.669    0.379    2.841
 1312.630   74.937    0.366    3.124
 1313.450   73.831    0.361    3.443
 1314.270   73.289    0.366    3.647
 1315.090   72.788    0.370    3.729
 1315.910   72.266    0.376    3.821
 1316.730   72.350    0.377    3.833
 1317.550   72.433    0.374    3.848
 1318.370   72.517    0.362    3.935
 1319.190   72.600    0.351    4.177
 1320.010   73.310    0.332    4.511
 1320.830   75.230    0.300    4.612
 1321.650   78.944    0.263    4.466
 1322.470   83.264    0.194    4.250
 1323.290   86.999    0.119    3.976
 1324.110   87.083    0.088    3.842
 1324.930   85.977    0.213    3.657
 1325.750   85.476    0.450    3.418
 1326.570   84.933    0.454    3.363
 1327.400   84.996    0.451    3.319
 1328.220   86.311    0.447    3.269
 1329.040   86.978    0.445    3.227
 1329.860   90.109    0.443    3.179
 1330.680   93.239    0.442    3.134
 1331.500   95.764    0.440    3.157
 1332.320   97.037    0.435    3.166
 1333.140   97.120    0.431    3.179
