~VERSION INFORMATION
 VERS.                 2.0:   CWLS LOG ASCII STANDARD -VERSION 2.0
 WRAP.                  NO:   ONE LINE PER DEPTH STEP
~WELL INFORMATION BLOCK
#MNEM.UNIT           DATA                    DESCRIPTION OF MNEMONIC
#---------    -------------------            -------------------------------
# Generated from Intellog Unique Number	CW_79_81/WELL/2445
WELL.         04-30-081-19W4                 : Well_name    - WELL
LOC .         AA/04-30-081-19W4/0            : Location     - LOCATION
UWI .         AA/04-30-081-19W400            : Uwi          - UNIQUE WELL ID
ENTR.         MAX                            : Entered      - ENTERED BY
SRVC.         COMPUTALOG                     : Scn          - SERVICE COMPANY
STRT.M        185                            : top_depth    - START DEPTH
STOP.M        374.75                         : bot_depth    - STOP DEPTH
STEP.M        0.25                           : increment    - STEP LENGTH
 NULL. -999.2500:NULL Value
~CURVE INFORMATION BLOCK
#MNEM UNIT       ERCB CURVE CODE    CURVE DESCRIPTION
#-----------   ------------------   ----------------------------------
DEPT.M        00 001 00 00         : DEPTH        - DEPTH
ILD .OHMM     00 120 00 00         : RESD         - DEEP RESISTIVITY (DIL)
NPHI.V/V      00 330 00 00         : PHIN         - NEUTRON POROSITY (SANDSTONE)
DPHI.V/V      00 890 00 00         : PHID         - DENSITY POROSITY (SANDSTONE)
GR  .API      00 310 00 00         : GR           - GAMMA RAY
CALI.MM       00 280 01 00         : CAL          - CALIPER
~PARAMETER INFORMATION
#MNEM.UNIT           DATA             DESCRIPTION OF MNEMONIC
#---------         -----------     ------------------------------
GL  .M        585                  : gl           - GROUND LEVEL ELEVATION
EREF.M        588.2                : kb           - ELEVATION OF DEPTH REFERENCE
DATM.M        585                  : datum        - DATUM ELEVATION
TDD .M        376                  : tdd          - TOTAL DEPTH DRILLER
RUN .         ONE                  : Run          - RUN NUMBER
ENG .         BILL                 : Engineer     - RECORDING ENGINEER
WIT .         JIM                  : Witness      - WITNESSED BY
MUD .         GEL                  : Mud_type     - MUD TYPE
MATR.         SANDSTONE            : Logunit      - NEUTRON MATRIX
TMAX.C        18                   : BHT          - MAXIMUM RECORDED TEMPERATURE
BHTD.M        376                  : BHTDEP       - MAXIMUM RECORDED TEMPERATURE
MATR.         1                    : LOGUNIT      - NEUTRON MATRIX
RMT .C        20                   : MDTP         - TEMPERATURE OF MUD
NEUT.         1                    : NEUTRON      - NEUTRON TYPE
RESI.         0                    : RESIST       - RESISTIVITY TYPE
RMC .OHMM     7                    : RMC          - RESISTIVITY OF MUD CAKE
RMF .OHMM     9                    : RMF          - RESISTIVITY OF MUD FILTRATE
SUFT.C        -15                  : SUFT         - SURFACE TEMPERATURE
~A  DEPTH     RESD     PHIN     PHID       GR      CAL
# ...
  331.000   10.894    0.350    0.176   96.088  257.915
  331.250   10.889    0.355    0.172   91.805  258.090
  331.500   10.864    0.349    0.174   91.179  257.454
  331.750   10.729    0.336    0.179   97.296  254.980
  332.000   10.482    0.355    0.190   96.260  254.956
  332.250   10.400    0.381    0.190   96.489  256.144
  332.500   10.376    0.393    0.185   97.081  257.030
  332.750   10.294    0.387    0.180   99.015  257.409
  333.000   10.178    0.370    0.176  100.891  257.282
  333.250   10.158    0.362    0.174   97.802  256.757
  333.500   10.075    0.365    0.169   92.196  256.307
  333.750   10.070    0.370    0.172   95.349  255.873
  334.000   10.065    0.389    0.173   98.136  255.741
  334.250   10.060    0.386    0.175   99.705  255.711
  334.500   10.056    0.362    0.181  100.116  255.786
  334.750   10.065    0.360    0.182   99.628  256.163
  335.000   10.137    0.394    0.168   96.053  256.128
  335.250   10.132    0.401    0.165  100.184  256.102
  335.500   10.072    0.381    0.170  102.851  256.686
  335.750   10.030    0.362    0.169  102.955  257.473
  336.000   10.026    0.356    0.164  101.230  258.156
  336.250    9.830    0.372    0.175  100.590  258.193
  336.500    8.974    0.398    0.173  102.352  256.470
  336.750    8.710    0.412    0.175  104.775  256.439
  337.000    8.691    0.399    0.167  105.003  256.410
  337.250    8.972    0.374    0.157  102.060  255.772
  337.500    9.476    0.356    0.154   97.715  254.526
  337.750    9.973    0.352    0.163   96.373  253.786
  338.000   10.357    0.317    0.151   95.846  256.297
  338.250   10.126    0.309    0.164  100.465  257.485
  338.500   10.343    0.338    0.172  103.070  258.369
  338.750   10.685    0.356    0.174  102.565  259.154
  339.000   11.056    0.350    0.172   99.377  259.738
  339.250   11.755    0.330    0.176   95.710  259.114
  339.500   12.396    0.310    0.188   96.961  256.121
  339.750   12.573    0.321    0.194   95.972  251.219
  340.000   12.892    0.334    0.207   94.614  249.360
  340.250   13.363    0.350    0.208   92.036  248.924
  340.500   14.005    0.357    0.194   87.510  248.897
  340.750   15.022    0.313    0.157   79.247  248.865
  341.000   15.965    0.235    0.065   73.387  248.833
  341.250   17.907    0.150    0.020   67.520  250.839
  341.500   20.938    0.136    0.008   66.223  252.236
  341.750   24.304    0.141    0.008   67.182  252.818
  342.000   26.341    0.140    0.009   68.628  253.195
  342.250   24.253    0.144    0.015   69.542  254.789
  342.500   19.823    0.156    0.029   70.543  254.760
  342.750   17.202    0.217    0.123   71.745  254.328
  343.000   15.474    0.288    0.197   74.227  254.199
  343.250   14.283    0.340    0.225   76.039  253.967
  343.500   13.473    0.358    0.211   77.242  253.532
  343.750   12.944    0.334    0.186   82.140  253.175
  344.000   12.743    0.316    0.170   93.297  253.574
  344.250   12.736    0.313    0.182   92.552  253.953
  344.500   12.801    0.312    0.199   93.449  254.026
  344.750   12.842    0.313    0.206   93.067  253.590
  345.000   12.905    0.321    0.203   91.039  252.748
  345.250   13.264    0.342    0.200   88.895  251.819
  345.500   13.669    0.322    0.192   85.573  251.366
  345.750   13.863    0.329    0.181   85.314  251.341
  346.000   14.137    0.338    0.164   83.592  251.315
  346.250   14.391    0.320    0.134   80.284  251.287
  346.500   14.543    0.275    0.101   76.549  251.765
  346.750   14.536    0.242    0.113   77.310  254.101
  347.000   14.527    0.292    0.180   89.739  255.762
  347.250   14.521    0.337    0.158   88.505  255.739
  347.500   14.515    0.297    0.114   83.427  255.406
  347.750   14.455    0.269    0.113   80.849  255.174
  348.000   14.262    0.282    0.149   81.808  255.251
  348.250   13.716    0.300    0.143   81.779  255.710
  348.500   13.099    0.291    0.124   80.489  256.104
  348.750   12.903    0.320    0.173   82.670  256.079
  349.000   12.779    0.338    0.190   86.676  256.356
  349.250   12.912    0.341    0.185   87.513  256.531
  349.500   13.241    0.327    0.171   84.145  256.503
  349.750   13.449    0.295    0.155   79.389  256.468
  350.000   13.545    0.298    0.139   78.864  256.436
  350.250   13.245    0.284    0.162   78.605  256.817
  350.500   12.736    0.290    0.180   78.710  256.587
  350.750   12.138    0.315    0.194   80.399  256.763
  351.000   11.550    0.339    0.197   83.246  258.158
  351.250   11.034    0.333    0.175   85.328  261.542
  351.500   10.944    0.340    0.162   86.076  262.360
  351.750   11.019    0.336    0.153   85.573  262.741
  352.000   11.095    0.335    0.159   87.263  263.122
  352.250   11.089    0.335    0.162   89.562  263.298
  352.500   10.983    0.332    0.158   91.251  263.371
  352.750   10.767    0.315    0.158   91.527  263.742
  353.000   10.520    0.322    0.149   91.763  263.718
  353.250   10.135    0.335    0.140   90.773  263.281
  353.500    9.711    0.338    0.151   92.890  264.371
  353.750    9.255    0.339    0.161   95.920  265.358
  354.000    8.790    0.342    0.163   98.829  265.936
  354.250    8.271    0.353    0.171  101.992  267.208
  354.500    7.900    0.346    0.168  103.245  267.599
  354.750    7.724    0.342    0.168  102.740  267.576
  355.000    7.763    0.338    0.175  105.163  267.856
  355.250    7.987    0.336    0.177  107.951  268.031
  355.500    8.371    0.333    0.171  108.482  267.901
  355.750    8.980    0.322    0.160  104.071  267.296
  356.000    9.543    0.325    0.161  104.053  266.417
  356.250   10.182    0.328    0.162  100.381  266.795
  356.500   11.272    0.334    0.157   92.134  267.783
  356.750   12.834    0.316    0.143   81.386  269.990
  357.000   14.822    0.270    0.110   73.077  270.471
  357.250   17.395    0.222    0.060   77.398  261.617
  357.500   20.135    0.224    0.153   89.321  256.084
  357.750   20.571    0.278    0.170   95.886  257.275
  358.000   20.223    0.296    0.167   98.430  257.854
  358.250   20.141    0.295    0.162   97.562  257.828
  358.500   20.651    0.291    0.159   95.352  257.600
  358.750   21.636    0.290    0.153   95.483  257.885
  359.000   22.814    0.286    0.147   96.228  257.436
  359.250   24.692    0.269    0.132   88.652  256.191
  359.500   25.342    0.251    0.098   86.745  254.944
  359.750   25.238    0.242    0.107   90.143  254.103
  360.000   24.337    0.252    0.157   95.126  253.872
  360.250   21.462    0.288    0.182   95.329  254.416
  360.500   18.603    0.287    0.174   98.865  255.231
  360.750   18.592    0.284    0.171  101.532  255.205
  361.000   20.341    0.289    0.178  100.908  255.176
  361.250   23.706    0.287    0.196   96.868  254.942
  361.500   28.231    0.273    0.221   87.951  254.507
  361.750   32.308    0.255    0.246   69.010  253.820
  362.000   36.813    0.246    0.257   57.308  252.518
  362.250   40.712    0.257    0.285   52.658  250.864
  362.500   45.991    0.264    0.300   48.008  250.127
  362.750   51.919    0.277    0.292   43.846  250.710
  363.000   56.876    0.296    0.267   41.148  252.408
  363.250   58.354    0.311    0.251   41.370  253.896
  363.500   57.446    0.363    0.252   41.352  251.333
  363.750   54.538    0.354    0.257   40.605  250.895
  364.000   51.201    0.324    0.252   40.588  251.374
  364.250   48.466    0.305    0.247   40.936  250.940
  364.500   46.456    0.306    0.244   41.529  249.491
  364.750   44.491    0.316    0.240   42.791  248.564
  365.000   43.138    0.327    0.239   44.294  248.108
  365.250   42.182    0.308    0.242   46.719  247.265
  365.500   40.335    0.297    0.251   50.422  246.730
  365.750   36.837    0.304    0.256   53.088  246.298
  366.000   32.746    0.322    0.253   55.206  245.866
  366.250   28.573    0.329    0.240   60.926  245.426
  366.500   24.402    0.342    0.230   65.229  245.399
  366.750   19.177    0.341    0.233   71.552  245.371
  367.000   16.050    0.326    0.220   78.789  245.343
  367.250   13.991    0.307    0.186   86.699  245.516
