~VERSION INFORMATION
 VERS.                 2.0:   CWLS LOG ASCII STANDARD -VERSION 2.0
 WRAP.                  NO:   ONE LINE PER DEPTH STEP
~WELL INFORMATION BLOCK
#MNEM.UNIT           DATA                    DESCRIPTION OF MNEMONIC
#---------    -------------------            -------------------------------
# Generated from Intellog Unique Number	CX_WELLS/WELL/2909
WELL.         GULF                           : Well_name    - WELL
LOC .         AA/06-08-082-09W4/0            : Location     - LOCATION
UWI .         AA/06-08-082-09W400            : Uwi          - UNIQUE WELL ID
ENTR.         T                              : Entered      - ENTERED BY
SRVC.         SCHLUMBERGER                   : Scn          - SERVICE COMPANY
STRT.F        900                            : top_depth    - START DEPTH
STOP.F        1599.64                        : bot_depth    - STOP DEPTH
STEP.F        0.82                           : increment    - STEP LENGTH
 NULL. -999.2500:NULL Value
~CURVE INFORMATION BLOCK
#MNEM UNIT       ERCB CURVE CODE    CURVE DESCRIPTION
#-----------   ------------------   ----------------------------------
DEPT.F        00 001 00 00         : DEPTH        - DEPTH
GR  .API      00 310 00 00         : GR           - GAMMA RAY
NPHI.V/V      00 330 00 00         : PHIN         - NEUTRON POROSITY (SANDSTONE)
DPHI.V/V      00 890 00 00         : PHID         - DENSITY POROSITY (SANDSTONE)
ILD .OHMM     00 120 00 00         : RESD         - DEEP RESISTIVITY (OTHER)
~PARAMETER INFORMATION
#MNEM.UNIT           DATA             DESCRIPTION OF MNEMONIC
#---------         -----------     ------------------------------
GL  .F        2322                 : gl           - GROUND LEVEL ELEVATION
EREF.F        2335                 : kb           - ELEVATION OF DEPTH REFERENCE
DATM.F        2335                 : datum        - DATUM ELEVATION
TDD .F        1625                 : tdd          - TOTAL DEPTH DRILLER
RUN .         ONE                  : Run          - RUN NUMBER
ENG .         BILL                 : Engineer     - RECORDING ENGINEER
WIT .         JIM                  : Witness      - WITNESSED BY
MUD .         GEL                  : Mud_type     - MUD TYPE
MATR.         SANDSTONE            : Logunit      - NEUTRON MATRIX
TMAX.F        73                   : BHT          - MAXIMUM RECORDED TEMPERATURE
BHTD.F        1625                 : BHTDEP       - MAXIMUM RECORDED TEMPERATURE
MATR.         1                    : LOGUNIT      - NEUTRON MATRIX
RMT .F        68                   : MDTP         - TEMPERATURE OF MUD
NEUT.         1                    : NEUTRON      - NEUTRON TYPE
RESI.         8.52                 : RESIST       - RESISTIVITY TYPE
RMC .OHMM     7.76                 : RMC          - RESISTIVITY OF MUD CAKE
RMF .OHMM     7.76                 : RMF          - RESISTIVITY OF MUD FILTRATE
SUFT.F        37.4                 : SUFT         - SURFACE TEMPERATURE
~A  DEPTH       GR     PHIN     PHID     RESD
  900.000   80.569    0.601    0.247    3.831
  900.820   81.200    0.589    0.253    3.852
  901.640   81.824    0.575    0.259    3.858
  902.461   81.840    0.570    0.261    4.023
  903.281   81.852    0.564    0.257    4.109
  904.101   81.868    0.559    0.251    4.284
  904.921   82.498    0.554    0.251    4.463
  905.741   82.504    0.547    0.248    4.661
  906.562   83.138    0.536    0.245    4.669
  907.382   83.762    0.528    0.251    4.680
  908.202   84.396    0.522    0.255    4.695
  909.022   84.402    0.524    0.260    4.629
  909.843   84.415    0.527    0.241    4.644
  910.663   84.436    0.534    0.243    4.658
  911.483   84.443    0.540    0.247    4.673
  912.303   84.458    0.565    0.249    4.688
  913.123   85.082    0.573    0.244    4.793
  913.944   85.095    0.588    0.249    4.808
  914.764   85.110    0.595    0.253    4.915
  915.584   85.120    0.597    0.256    5.025
  916.404   85.132    0.577    0.260    5.235
  917.224   85.148    0.550    0.265    5.352
  918.045   85.160    0.520    0.231    5.580
  918.865   85.791    0.496    0.178    5.813
  919.685   86.415    0.466    0.163    5.943
  920.505   86.427    0.445    0.142    6.440
  921.325   80.905    0.452    0.137    6.704
  922.146   72.307    0.514    0.209    7.544
  922.966   65.554    0.539    0.244    7.847
  923.786   60.035    0.512    0.273   11.945
  924.606   56.978    0.489    0.284   12.923
  925.427   53.913    0.477    0.251   14.796
  926.247   51.465    0.436    0.226   18.299
  927.067   53.937    0.398    0.195   20.159
  927.887   57.022    0.363    0.171   22.667
  928.707   61.954    0.360    0.149   25.974
  929.528   66.275    0.368    0.172   27.597
  930.348   69.980    0.377    0.244   28.168
  931.168   71.220    0.454    0.291   28.280
  931.988   72.462    0.455    0.316   28.416
  932.808   73.708    0.429    0.318   27.928
  933.629   74.947    0.419    0.305   27.515
  934.449   76.811    0.412    0.306   27.087
  935.269   78.668    0.414    0.315   26.166
  936.089   79.907    0.425    0.323   25.277
  936.909   82.383    0.439    0.321   23.961
  937.730   84.859    0.456    0.297   23.569
  938.550   85.483    0.469    0.292   22.804
  939.370   87.962    0.468    0.289   22.431
  940.190   88.586    0.471    0.285   22.082
  941.010   88.598    0.469    0.277   21.755
  941.831   85.533    0.462    0.269   21.416
  942.651   80.631    0.461    0.263   21.082
  943.471   79.410    0.456    0.271   20.754
  944.291   80.038    0.452    0.283   20.804
  945.112   84.970    0.456    0.282   19.721
  945.932   91.133    0.463    0.271   18.001
  946.752   97.295    0.475    0.263   16.124
  947.572  100.998    0.491    0.250   13.919
  948.392  105.937    0.511    0.235   12.937
  949.213  108.412    0.529    0.217   11.372
  950.033  109.648    0.527    0.210    9.995
  950.853  109.664    0.527    0.207    8.786
  951.673  109.683    0.530    0.198    8.173
  952.493  109.686    0.546    0.204    7.195
  953.314  109.089    0.567    0.210    6.810
  954.134  108.484    0.573    0.198    6.329
  954.954  106.654    0.584    0.185    6.114
  955.774  105.436    0.593    0.187    7.017
  956.594  104.216    0.587    0.231    7.299
  957.415   99.923    0.566    0.256    8.523
  958.235   92.555    0.564    0.285   10.524
  959.055   86.418    0.558    0.314   13.253
  959.875   79.056    0.546    0.328   17.332
  960.696   79.680    0.514    0.343   19.844
  961.516   83.998    0.488    0.330   21.486
  962.336   87.089    0.454    0.314   22.001
  963.156   87.716    0.453    0.298   22.456
  963.976   87.728    0.453    0.288   22.546
  964.797   87.741    0.452    0.278   22.617
  965.617   85.293    0.451    0.279   22.672
  966.437   81.001    0.449    0.289   21.936
  967.257   77.941    0.449    0.301   21.577
  968.077   78.568    0.449    0.303   19.327
  968.898   86.573    0.451    0.293   17.298
  969.718   97.659    0.454    0.283   14.641
  970.538  101.364    0.463    0.259   11.933
  971.358  101.992    0.473    0.248   10.100
  972.178  100.162    0.488    0.225    9.040
  972.999   99.553    0.499    0.192    9.433
  973.819   97.109    0.471    0.172    9.819
  974.639   94.658    0.468    0.170   10.826
  975.459   90.984    0.462    0.173   13.139
  976.280   91.611    0.453    0.213   15.031
  977.100   97.773    0.446    0.286   18.227
  977.920  101.476    0.434    0.287   20.096
  978.740   99.028    0.429    0.291   20.986
  979.560   90.431    0.432    0.308   21.020
  980.381   85.523    0.449    0.324   20.337
  981.201   92.304    0.477    0.292   19.615
  982.021   98.466    0.469    0.274   18.594
  982.841  104.017    0.462    0.263   16.986
  983.661  100.342    0.460    0.258   15.493
  984.482   99.118    0.462    0.256   14.412
  985.302   96.671    0.460    0.255   13.922
  986.122   92.999    0.438    0.251   14.232
  986.942   88.704    0.436    0.246   14.278
  987.762   85.026    0.431    0.244   14.596
  988.583   83.808    0.426    0.241   14.392
  989.403   83.821    0.444    0.239   14.156
  990.223   83.836    0.451    0.235   13.419
  991.043   84.467    0.442    0.234   12.963
  991.864   85.709    0.436    0.238   12.298
  992.684   86.952    0.426    0.241   11.649
  993.504   88.194    0.430    0.239   10.642
  994.324   89.436    0.440    0.234   10.088
  995.144   91.294    0.450    0.229    9.555
  995.965   92.533    0.460    0.222    8.895
  996.785   95.630    0.464    0.219    8.439
  997.605   96.251    0.468    0.217    8.452
  998.425   98.109    0.471    0.217    8.486
  999.245   99.351    0.477    0.217    8.513
 1000.070  102.442    0.482    0.216    8.540
 1000.890  104.302    0.487    0.215    8.567
 1001.710  102.470    0.487    0.216    9.095
 1002.530  102.482    0.487    0.222    9.848
 1003.350  101.876    0.482    0.229   10.455
 1004.170  100.044    0.476    0.242   11.536
 1004.990   96.981    0.472    0.254   12.709
 1005.810   94.534    0.470    0.261   14.290
 1006.630   90.859    0.470    0.265   15.184
 1007.450   95.177    0.474    0.260   14.124
 1008.270  100.724    0.477    0.254   12.641
 1009.090  105.656    0.486    0.253   10.903
 1009.910  102.597    0.494    0.254    9.961
 1010.730  100.761    0.506    0.254    9.615
 1011.550   97.087    0.505    0.255    9.661
 1012.370   91.567    0.499    0.257   10.056
 1013.190   91.576    0.497    0.257   10.468
 1014.010   91.595    0.497    0.259   11.114
 1014.830   91.604    0.497    0.260   12.283
 1015.650   89.772    0.497    0.262   12.775
 1016.470   87.321    0.496    0.265   13.320
 1017.290   84.873    0.496    0.267   13.888
 1018.110   79.357    0.490    0.272   14.469
 1018.930   75.676    0.483    0.280   15.061
 1019.750   70.772    0.477    0.293   16.003
 1020.570   67.091    0.473    0.299   17.313
 1021.390   59.108    0.471    0.306   18.395
 1022.210   56.660    0.472    0.318   19.514
 1023.030   56.058    0.472    0.333   20.346
 1023.850   56.070    0.471    0.346   21.213
 1024.670   56.089    0.466    0.346   21.669
 1025.490   55.483    0.465    0.347   22.611
 1026.310   54.887    0.465    0.352   23.079
 1027.130   54.893    0.466    0.358   24.101
 1027.950   54.291    0.473    0.359   24.599
 1028.770   55.533    0.477    0.360   24.678
 1029.590   56.782    0.471    0.361   26.241
 1030.410   55.564    0.463    0.359   26.304
 1031.230   53.731    0.454    0.352   26.430
 1032.050   52.514    0.449    0.331   25.977
 1032.870   51.911    0.447    0.316   26.080
 1033.690   53.157    0.449    0.340   26.163
 1034.510   54.396    0.451    0.351   26.226
 1035.330   56.872    0.456    0.358   26.331
 1036.150   59.344    0.462    0.359   26.393
 1036.980   60.583    0.474    0.358   27.025
 1037.800   61.214    0.481    0.356   27.112
 1038.620   60.608    0.481    0.355   27.176
 1039.440   58.776    0.476    0.352   27.263
 1040.260   53.874    0.470    0.346   27.350
 1041.080   52.657    0.464    0.342   27.459
 1041.900   51.439    0.466    0.341   27.053
