~VERSION INFORMATION
 VERS.                 2.0:   CWLS LOG ASCII STANDARD -VERSION 2.0
 WRAP.                  NO:   ONE LINE PER DEPTH STEP
~WELL INFORMATION BLOCK
#MNEM.UNIT           DATA                    DESCRIPTION OF MNEMONIC
#---------    -------------------            -------------------------------
# Generated from Intellog Unique Number	CN_94_101/WELL/3232
WELL.         03-23-096-08W4                 : Well_name    - WELL
LOC .         AA/03-23-096-08W4/0            : Location     - LOCATION
UWI .         AA/03-23-096-08W400            : Uwi          - UNIQUE WELL ID
ENTR.         JOETTE                         : Entered      - ENTERED BY
SRVC.         SCHLUMBERGER                   : Scn          - SERVICE COMPANY
DATE.         07/20/92                       : Date         - LOG DATE
STRT.F        0                              : top_depth    - START DEPTH
STOP.F        410.105                        : bot_depth    - STOP DEPTH
STEP.F        0.82021                        : increment    - STEP LENGTH
 NULL. -999.2500:NULL Value
~CURVE INFORMATION BLOCK
#MNEM UNIT       ERCB CURVE CODE    CURVE DESCRIPTION
#-----------   ------------------   ----------------------------------
DEPT.F        00 001 00 00         : DEPTH        - DEPTH
GR  .API      00 310 00 00         : GR           - GAMMA RAY
DPHI.V/V      00 890 00 00         : PHID         - DENSITY POROSITY (SANDSTONE)
ILD .OHMM     00 120 00 00         : RESD         - DEEP RESISTIVITY (DIL)
~PARAMETER INFORMATION
#MNEM.UNIT           DATA             DESCRIPTION OF MNEMONIC
#---------         -----------     ------------------------------
GL  .M        329.275              : gl           - GROUND LEVEL ELEVATION
EREF.M        324.703              : kb           - ELEVATION OF DEPTH REFERENCE
DATM.M        324.703              : datum        - DATUM ELEVATION
TDD .M        129.54               : tdd          - TOTAL DEPTH DRILLER
RUN .         ONE                  : Run          - RUN NUMBER
ENG .         JO                   : Engineer     - RECORDING ENGINEER
WIT .         TIM                  : Witness      - WITNESSED BY
MUD .         GEL                  : Mud_type     - MUD TYPE
MATR.         SANDSTONE            : Logunit      - NEUTRON MATRIX
TMAX.F        65                   : BHT          - MAXIMUM RECORDED TEMPERATURE
BHTD.F        425                  : BHTDEP       - MAXIMUM RECORDED TEMPERATURE
RMT .F        65                   : MDTP         - TEMPERATURE OF MUD
MUDD.LB/G     1.12                 : MWT          - MUD DENSITY
NEUT.         1                    : NEUTRON      - NEUTRON TYPE
RESI.         0                    : RESIST       - RESISTIVITY TYPE
RM  .OHMM     10.5                 : RM           - RESISTIVITY OF MUD
RMC .OHMM     10.5                 : RMC          - RESISTIVITY OF MUD CAKE
RMF .OHMM     10.5                 : RMF          - RESISTIVITY OF MUD FILTRATE
SUFT.F        39.2                 : SUFT         - SURFACE TEMPERATURE
~A  DEPTH       GR     PHID     RESD
    0.000   25.784    0.444 1308.820
    0.820   25.402    0.444 1172.160
    1.640   25.431    0.445 1358.170
    2.461   25.449    0.447 1545.100
    3.281   25.863    0.448 1573.970
    4.101   25.873    0.448 1435.800
    4.921   26.282    0.448 1334.050
    5.741   25.129    0.449 1239.510
    6.562   23.981    0.449 1130.700
    7.382   24.000    0.449 1130.820
    8.202   22.457    0.450 1262.940
    9.022   20.138    0.450 1463.440
    9.843   17.419    0.451 1334.940
   10.663   14.705    0.454 1217.720
   11.483   13.162    0.496 1360.020
   12.303   14.752    0.550 1575.940
   13.123   15.937    0.543 1491.460
   13.944   14.394    0.555 1411.500
   14.764   14.022    0.567 1519.520
   15.584   16.003    0.563 1666.100
   16.404   16.017    0.500 1793.560
   17.224   14.088    0.470 1793.750
   18.045   15.668    0.434 1697.630
   18.865   17.249    0.425 1520.330
   19.685   18.439    0.420 1492.810
   20.505   19.239    0.418 1607.010
   21.326   16.920    0.386 1729.940
   22.146   15.762    0.381 1795.040
   22.966   15.010    0.373 1730.360
   23.786   15.019    0.348 1698.940
   24.606   15.038    0.345 1578.590
   25.427   15.452    0.343 1521.710
   26.247   15.470    0.339 1440.090
   27.067   14.322    0.332 1414.060
   27.887   13.170    0.327 1467.190
   28.707   14.751    0.324 1550.670
   29.528   14.765    0.327 1579.640
   30.348   14.002    0.335 1440.940
   31.168   14.035    0.336 1266.950
   31.988   14.045    0.329 1155.700
   32.808   14.063    0.323 1114.060
   33.629   14.087    0.328 1114.180
   34.449   14.496    0.334 1114.300
   35.269   14.905    0.335 1054.590
   36.089   15.705    0.337  961.960
   36.910   15.724    0.341  815.222
   37.730   14.962    0.346  743.639
   38.550   13.809    0.342  703.773
   39.370   13.437    0.343  716.959
   40.190   14.237    0.337  642.062
   41.011   13.870    0.323  514.896
   41.831   13.108    0.324  405.388
   42.651   12.736    0.326  313.350
   43.471   12.760    0.326  242.214
   44.291   13.164    0.323  212.968
   45.111   13.964    0.324  201.551
   45.932   17.501    0.320  197.897
   46.752   19.472    0.303  194.309
   47.572   21.443    0.249  209.174
   48.392   22.243    0.220  233.624
   49.213   21.486    0.200  246.910
   50.033   24.633    0.185  225.230
   50.853   27.770    0.165  221.146
   51.673   30.132    0.119  261.008
   52.493   30.155    0.109  308.055
   53.314   30.564    0.110  275.881
   54.134   31.764    0.100  213.246
   54.954   31.383    0.119  201.814
   55.774   36.868    0.158  213.297
   56.594   46.262    0.214  156.016
   57.415   52.923    0.240   93.205
   58.235   51.766    0.248   69.441
   59.055   48.275    0.260   80.463
   59.875   47.904    0.264  132.266
   60.696   52.608    0.244  145.025
   61.516   55.750    0.243  104.144
   62.336   55.378    0.245  102.259
   63.156   53.454    0.251  118.487
   63.976   51.521    0.258  127.555
   64.797   49.973    0.263  114.233
   65.617   46.868    0.265   96.810
   66.437   42.202    0.270  100.448
   67.257   33.631    0.277  132.393
   68.077   27.797    0.278  454.344
   68.898   30.545    0.272  587.921
   69.718   39.544    0.257  706.800
   70.538   50.109    0.238  556.462
   71.358   54.032    0.224  206.023
   72.178   50.147    0.236   91.691
   72.999   45.480    0.255   98.706
   73.819   39.642    0.292  127.725
   74.639   42.399    0.284  225.981
   75.459   41.246    0.284  351.501
   76.279   35.799    0.292  707.422
   77.100   27.618    0.298  949.748
   77.920   28.027    0.292  761.621
   78.740   28.046    0.295  633.674
   79.560   29.236    0.301  527.221
   80.381   34.336    0.299  309.231
   81.201   38.259    0.307  247.992
   82.021   39.058    0.306  266.956
   82.841   37.515    0.270  309.330
   83.661   34.801    0.260  407.718
   84.482   32.868    0.266  321.004
   85.302   30.939    0.275  298.264
   86.122   33.305    0.288  499.356
   86.942   35.271    0.295 1062.010
   87.763   37.242    0.292 2300.630
   88.583   38.823    0.296 3851.850
   89.403   40.798    0.296 4381.980
   90.223   38.865    0.298 4146.960
   91.043   34.984    0.286 3514.380
   91.864   38.122    0.288 2716.560
   92.684   40.874    0.282 1987.020
   93.504   44.801    0.285 1480.390
   94.324   48.725    0.267  806.654
   95.144   51.872    0.242  253.070
   95.965   49.934    0.250  125.774
   96.785   45.267    0.262  243.983
   97.605   42.553    0.283  333.634
   98.425   39.453    0.287  568.962
   99.245   40.252    0.284  868.850
  100.066   41.833    0.288  837.565
  100.886   38.338    0.275  901.639
  101.706   33.281    0.270 1025.730
  102.526   33.304    0.270  970.744
  103.346   33.318    0.279 1007.250
  104.167   30.999    0.286 1566.710
  104.987   29.461    0.292 1815.390
  105.807   28.694    0.301 1686.740
  106.627   29.103    0.298  971.263
  107.448   30.683    0.283  710.427
  108.268   31.874    0.273  549.149
  109.088   33.068    0.278  316.211
  109.908   34.263    0.283  199.629
  110.728   31.935    0.286  117.086
  111.549   33.515    0.288  119.273
  112.369   33.148    0.293  211.033
  113.189   35.900    0.304  340.565
  114.009   35.919    0.301  474.340
  114.829   35.938    0.304  613.796
  115.650   39.080    0.304  954.723
  116.470   37.537    0.292 1305.560
  117.290   36.384    0.299 1598.660
  118.110   38.755    0.302 1921.860
  118.930   40.726    0.306 2146.510
  119.751   42.302    0.294 1957.980
  120.571   43.883    0.287 1690.170
  121.391   43.125    0.294 1355.410
  122.211   44.315    0.289 1355.560
  123.031   45.120    0.285 1570.730
  123.852   45.529    0.291 1107.390
  124.672   45.548    0.295  699.130
  125.492   44.781    0.279  244.941
  126.312   38.948    0.287  502.105
  127.133   33.891    0.298  992.100
  127.953   29.229    0.312 1543.150
  128.773   25.338    0.325 2071.700
  129.593   25.747    0.324 3049.330
  130.413   27.328    0.317 2681.060
  131.234   26.956    0.316 1890.240
  132.054   24.637    0.324 2230.900
  132.874   25.042    0.320 2111.360
  133.694   30.922    0.299  166.616
  134.514   41.878    0.269  121.874
  135.335   46.191    0.253  138.640
  136.155   47.772    0.251  157.722
  136.975   47.791    0.262  124.174
  137.795   55.228    0.264   90.829
  138.615   55.642    0.254   99.594
  139.436   49.804    0.257  169.842
  140.256   45.528    0.261  240.956
  141.076   40.866    0.253  207.993
  141.896   43.223    0.242  458.946
  142.717   37.385    0.247  627.583
  143.537   24.528    0.255  958.369
  144.357   26.495    0.267 1436.820
  145.177   28.461    0.274 2542.210
  145.997   29.265    0.268 4102.500
  146.818   27.718    0.284 4102.940
  147.638   23.446    0.304 1965.450
  148.458   21.517    0.311 1826.270
  149.278   24.655    0.301 1696.850
  150.098   29.359    0.300 1386.010
  150.919   41.096    0.285  103.501
  151.739   51.266    0.235   77.112
  152.559   63.784    0.212   59.604
  153.379   69.659    0.204   78.560
  154.199   71.240    0.199   65.365
  155.020   68.530    0.186   59.625
  155.840   64.649    0.206   66.593
  156.660   65.835    0.224   73.020
  157.480   67.025    0.215   71.695
  158.301   64.311    0.221   78.615
  159.121   58.868    0.226   83.086
  159.941   60.839    0.232   89.442
  160.761   63.981    0.219  101.749
  161.581   66.733    0.218   81.597
  162.402   67.537    0.221   70.438
  163.222   67.556    0.215   73.085
  164.042   69.527    0.205   63.087
  164.862   73.455    0.193   56.498
  165.682   72.298    0.196   54.462
  166.503   70.369    0.205   60.828
  167.323   71.950    0.203   65.481
  168.143   69.621    0.207   57.573
  168.963   70.811    0.204   48.791
  169.783   75.129    0.182   47.906
  170.604   70.463    0.194   59.752
  171.424   68.144    0.189   58.669
  172.244   70.500    0.194   43.710
  173.064   78.333    0.179   31.972
  173.885   82.646    0.184   41.371
  174.705   62.357    0.200   47.067
  175.525   51.444    0.218   56.581
  176.345   38.187    0.244   89.642
  177.165   36.254    0.275  144.665
