~VERSION INFORMATION
 VERS.                 2.0:   CWLS LOG ASCII STANDARD -VERSION 2.0
 WRAP.                  NO:   ONE LINE PER DEPTH STEP
~WELL INFORMATION BLOCK
#MNEM.UNIT           DATA                    DESCRIPTION OF MNEMONIC
#---------    -------------------            -------------------------------
# Generated from Intellog Unique Number	CN_94_101/WELL/2856
WELL.         06-25-095-16W4                 : Well_name    - WELL
LOC .         AA/06-25-095-16W4/0            : Location     - LOCATION
UWI .         AA/06-25-095-16W400            : Uwi          - UNIQUE WELL ID
ENTR.         JOETTE                         : Entered      - ENTERED BY
SRVC.         SCHLUMBERGER                   : Scn          - SERVICE COMPANY
DATE.         07/27/92                       : Date         - LOG DATE
STRT.F        400                            : top_depth    - START DEPTH
STOP.F        1079.95                        : bot_depth    - STOP DEPTH
STEP.F        0.82                           : increment    - STEP LENGTH
 NULL. -999.2500:NULL Value
~CURVE INFORMATION BLOCK
#MNEM UNIT       ERCB CURVE CODE    CURVE DESCRIPTION
#-----------   ------------------   ----------------------------------
DEPT.F        00 001 00 00         : DEPTH        - DEPTH
GR  .API      00 310 00 00         : GR           - GAMMA RAY
ILD .OHMM     00 120 00 00         : RESD         - DEEP RESISTIVITY (DIL)
DPHI.V/V      00 890 00 00         : PHID         - DENSITY POROSITY (SANDSTONE)
NPHI.V/V      00 330 00 00         : PHIN         - NEUTRON POROSITY (SANDSTONE)
~PARAMETER INFORMATION
#MNEM.UNIT           DATA             DESCRIPTION OF MNEMONIC
#---------         -----------     ------------------------------
GL  .F        1876.64              : gl           - GROUND LEVEL ELEVATION
EREF.F        1887.47              : kb           - ELEVATION OF DEPTH REFERENCE
DATM.F        1887.47              : datum        - DATUM ELEVATION
TDD .F        1100                 : tdd          - TOTAL DEPTH DRILLER
RUN .         ONE                  : Run          - RUN NUMBER
ENG .         JO                   : Engineer     - RECORDING ENGINEER
WIT .         TIM                  : Witness      - WITNESSED BY
MUD .         GEL                  : Mud_type     - MUD TYPE
MATR.         SANDSTONE            : Logunit      - NEUTRON MATRIX
TMAX.F        62.6                 : BHT          - MAXIMUM RECORDED TEMPERATURE
BHTD.F        1100                 : BHTDEP       - MAXIMUM RECORDED TEMPERATURE
RMT .F        44.6                 : MDTP         - TEMPERATURE OF MUD
MUDD.LB/G     1.073                : MWT          - MUD DENSITY
NEUT.         1                    : NEUTRON      - NEUTRON TYPE
RESI.         0                    : RESIST       - RESISTIVITY TYPE
RM  .OHMM     0.35                 : RM           - RESISTIVITY OF MUD
RMC .OHMM     0.35                 : RMC          - RESISTIVITY OF MUD CAKE
RMF .OHMM     0.35                 : RMF          - RESISTIVITY OF MUD FILTRATE
SUFT.F        39.2                 : SUFT         - SURFACE TEMPERATURE
~A  DEPTH       GR     RESD     PHID     PHIN
# ...
  828.150  112.339   15.123    0.178    0.287
  828.970  114.065   11.678    0.190    0.354
  829.790  111.116    9.355    0.191    0.388
  830.610  105.830    6.466    0.194    0.403
  831.430  101.128    6.342    0.198    0.404
  832.251   99.348    6.337    0.201    0.398
  833.071  103.411    6.331    0.194    0.382
  833.891  113.901    6.327    0.175    0.379
  834.711  122.055    6.930    0.167    0.394
  835.531  127.870    7.591    0.176    0.386
  836.352  127.843    7.585    0.199    0.378
  837.172  124.310    7.040    0.181    0.383
  837.992  123.698    6.776    0.167    0.373
  838.812  126.002    7.288    0.169    0.361
  839.633  128.312    8.284    0.182    0.338
  840.453  130.037    7.411    0.177    0.353
  841.273  130.010    5.937    0.168    0.371
  842.093  129.398    4.935    0.163    0.376
  842.913  128.196    5.927    0.169    0.379
  843.734  127.591    6.142    0.183    0.391
  844.554  126.979    5.596    0.192    0.409
  845.374  127.530    5.101    0.186    0.413
  846.194  129.833    4.734    0.176    0.421
  847.014  130.988    4.999    0.162    0.422
  847.835  132.714    5.894    0.171    0.413
  848.655  133.855    6.821    0.194    0.409
  849.475  132.659    6.330    0.188    0.401
  850.295  130.872    5.769    0.182    0.393
  851.115  128.514    5.259    0.182    0.376
  851.936  126.143    4.535    0.181    0.358
  852.756  124.363    4.367    0.172    0.355
  853.576  127.250    5.645    0.132    0.363
  854.396  129.567    6.535    0.067    0.376
  855.217  129.540    5.845    0.023    0.383
  856.037  128.921    5.425   -0.006    0.376
  856.857  128.901    5.833   -0.013    0.358
  857.677  127.121    6.510   -0.003    0.337
  858.497  123.587    8.893    0.123    0.337
  859.318  118.294   10.107    0.168    0.342
  860.138  120.611    9.210    0.168    0.345
  860.958  122.921    8.240    0.161    0.347
  861.778  124.063    7.509    0.167    0.350
  862.598  124.035    7.099    0.177    0.361
  863.419  123.994    6.835    0.185    0.365
  864.239  123.974    6.829    0.177    0.361
  865.059  118.681    7.077    0.164    0.360
  865.879  116.317    7.071    0.157    0.361
  866.699  116.867    6.212    0.164    0.368
  867.520  117.437    5.258    0.172    0.377
  868.340  116.819    4.535    0.181    0.396
  869.160  115.623    3.911    0.190    0.412
  869.980  115.596    3.433    0.183    0.427
  870.801  117.906    3.306    0.169    0.421
  871.621  117.879    3.364    0.167    0.417
  872.441  114.923    3.489    0.164    0.420
  873.261  112.565    3.891    0.154    0.431
  874.081  107.857    4.264    0.146    0.403
  874.902  104.914    4.757    0.132    0.320
  875.722   99.621    5.713    0.130    0.284
  876.542   97.841   11.277    0.153    0.256
  877.362   97.230   19.218    0.284    0.273
  878.182   97.787   18.506    0.287    0.258
  879.003   97.760   13.031    0.309    0.231
  879.823   93.642   10.249    0.339    0.180
  880.643   88.356    9.513    0.378    0.158
  881.463   80.732   37.109    0.382    0.162
  882.283   71.356   89.686    0.376    0.168
  883.104   66.070   91.270    0.365    0.173
  883.924   65.451   80.149    0.357    0.190
  884.744   67.177   73.054    0.352    0.209
  885.564   66.559   65.344    0.341    0.227
  886.385   65.363   59.533    0.335    0.235
  887.205   64.758   56.285    0.337    0.247
  888.025   61.225   53.202    0.338    0.255
  888.845   59.445   51.245    0.340    0.262
  889.665   58.249   49.360    0.338    0.272
  890.486   58.806   47.533    0.336    0.275
  891.306   60.518   47.491    0.332    0.283
  892.126   60.504   46.583    0.330    0.318
  892.946   61.054   44.860    0.324    0.350
  893.766   61.027   39.393    0.313    0.374
  894.587   61.000   39.358    0.297    0.385
  895.407   60.979   44.729    0.291    0.390
  896.227   61.530   48.103    0.286    0.394
  897.047   62.080   45.479    0.282    0.385
  897.867   62.053   42.997    0.281    0.385
  898.688   62.610   40.651    0.279    0.384
  899.508   62.589   35.055    0.269    0.373
  900.328   63.724   17.723    0.241    0.375
  901.148   63.703   11.597    0.235    0.379
  901.969   63.669   10.761    0.285    0.383
  902.789   63.065   12.460    0.273    0.384
  903.609   61.862   14.691    0.262    0.384
  904.429   60.666   17.968    0.255    0.384
  905.249   60.061   18.625    0.248    0.383
  906.070   59.450   19.660    0.248    0.380
  906.890   58.838   21.936    0.254    0.377
  907.710   59.388   23.160    0.274    0.359
  908.530   59.952   21.105    0.287    0.341
  909.350   59.918   20.324    0.299    0.333
  910.171   58.722   22.268    0.304    0.356
  910.991   57.519   27.240    0.313    0.369
  911.811   56.908   29.295    0.313    0.372
  912.631   54.543   32.082    0.306    0.353
  913.451   52.185   34.510    0.299    0.349
  914.272   49.821   39.219    0.299    0.363
  915.092   48.625   44.572    0.299    0.363
  915.912   48.007   46.202    0.299    0.362
  916.732   47.979   46.160    0.297    0.369
  917.552   47.959   42.846    0.296    0.375
  918.373   45.587   38.332    0.296    0.363
  919.193   43.794   30.695    0.297    0.344
  920.013   43.189   26.967    0.297    0.343
  920.833   43.168   22.831    0.297    0.350
  921.654   43.725   18.630    0.296    0.355
  922.474   44.282   15.481    0.294    0.355
  923.294   44.833   13.347    0.284    0.356
  924.114   45.397   12.621    0.265    0.365
  924.934   45.947   12.380    0.250    0.376
  925.755   46.504   13.810    0.239    0.393
  926.575   47.061   15.990    0.227    0.384
  927.395   47.027   20.293    0.232    0.372
  928.215   46.422   33.324    0.258    0.363
  929.035   45.810   41.522    0.270    0.373
  929.856   45.199   47.189    0.276    0.375
  930.676   47.509   53.629    0.274    0.284
  931.496   50.988   45.402    0.280    0.299
  932.316   52.706   20.185    0.289    0.327
  933.136   50.926   13.204    0.291    0.352
  933.957   49.737   12.484    0.293    0.351
  934.777   47.957   22.066    0.298    0.347
  935.597   46.754   33.671    0.297    0.338
  936.417   46.149   33.633    0.291    0.363
  937.238   46.693   23.256    0.296    0.361
  938.058   47.264   23.235    0.301    0.353
  938.878   48.989   36.776    0.301    0.353
  939.698   50.715   44.157    0.301    0.362
  940.518   51.272   42.523    0.299    0.372
  941.339   51.245   36.677    0.296    0.383
  942.159   51.218   35.976    0.296    0.382
  942.979   51.775   42.419    0.297    0.376
  943.799   52.332   38.647    0.293    0.372
  944.619   54.044   35.864    0.288    0.366
  945.440   54.601   33.907    0.286    0.351
  946.260   54.580   32.057    0.285    0.352
  947.080   55.137   31.444    0.280    0.349
  947.900   55.096   32.000    0.278    0.344
  948.720   54.498   31.971    0.278    0.339
  949.541   53.303   33.763    0.277    0.337
  950.361   52.684   40.549    0.279    0.337
  951.181   52.664   42.022    0.284    0.336
  952.001   53.207   41.984    0.289    0.351
  952.822   54.355   42.726    0.292    0.355
  953.642   55.490   45.111    0.294    0.350
  954.462   55.476   47.629    0.294    0.347
  955.282   56.033   47.586    0.283    0.347
  956.102   56.006   44.169    0.263    0.346
  956.923   55.979   43.325    0.248    0.350
  957.743   55.945   44.090    0.258    0.350
  958.563   55.333   45.702    0.295    0.349
  959.383   54.721   47.363    0.294    0.359
  960.203   54.103   50.006    0.283    0.361
  961.024   54.069   51.846    0.278    0.358
  961.844   54.048   54.740    0.278    0.354
  962.664   54.021   62.197    0.284    0.356
  963.484   53.994   66.903    0.296    0.360
  964.304   53.967   70.637    0.301    0.364
  965.125   53.362   74.563    0.308    0.366
  965.945   52.743   78.725    0.310    0.370
  966.765   52.716   84.682    0.308    0.371
  967.585   52.696   91.070    0.303    0.374
  968.406   52.084   74.297    0.300    0.378
  969.226   50.875   52.327    0.299    0.380
  970.046   50.270   43.492    0.296    0.379
