~VERSION INFORMATION
 VERS.                 2.0:   CWLS LOG ASCII STANDARD -VERSION 2.0
 WRAP.                  NO:   ONE LINE PER DEPTH STEP
~WELL INFORMATION BLOCK
#MNEM.UNIT           DATA                    DESCRIPTION OF MNEMONIC
#---------    -------------------            -------------------------------
# Generated from Intellog Unique Number	CN_94_101/WELL/2378
WELL.         02-12-097-11W4                 : Well_name    - WELL
LOC .         AA/02-12-097-11W4/0            : Location     - LOCATION
UWI .         AA/02-12-097-11W400            : Uwi          - UNIQUE WELL ID
ENTR.         JOETTE                         : Entered      - ENTERED BY
SRVC.         SCHLUMBERGER                   : Scn          - SERVICE COMPANY
DATE.         08/13/92                       : Date         - LOG DATE
STRT.M        0                              : top_depth    - START DEPTH
STOP.M        50                             : bot_depth    - STOP DEPTH
STEP.M        0.25                           : increment    - STEP LENGTH
 NULL. -999.2500:NULL Value
~CURVE INFORMATION BLOCK
#MNEM UNIT       ERCB CURVE CODE    CURVE DESCRIPTION
#-----------   ------------------   ----------------------------------
DEPT.M        00 001 00 00         : DEPTH        - DEPTH
DPHI.V/V      00 890 00 00         : PHID         - DENSITY POROSITY (SANDSTONE)
NPHI.V/V      00 330 00 00         : PHIN         - NEUTRON POROSITY (SANDSTONE)
ILD .OHMM     00 120 00 00         : RESD         - DEEP RESISTIVITY (DIL)
GR  .API      00 310 00 00         : GR           - GAMMA RAY
~PARAMETER INFORMATION
#MNEM.UNIT           DATA             DESCRIPTION OF MNEMONIC
#---------         -----------     ------------------------------
GL  .M        237.9                : gl           - GROUND LEVEL ELEVATION
EREF.M        237.9                : kb           - ELEVATION OF DEPTH REFERENCE
DATM.M        237.9                : datum        - DATUM ELEVATION
TDD .M        55                   : tdd          - TOTAL DEPTH DRILLER
RUN .         ONE                  : Run          - RUN NUMBER
ENG .         JO                   : Engineer     - RECORDING ENGINEER
WIT .         TIM                  : Witness      - WITNESSED BY
MUD .         GEL                  : Mud_type     - MUD TYPE
MATR.         SANDSTONE            : Logunit      - NEUTRON MATRIX
TMAX.C        15                   : BHT          - MAXIMUM RECORDED TEMPERATURE
BHTD.M        55                   : BHTDEP       - MAXIMUM RECORDED TEMPERATURE
RMT .C        2.5                  : MDTP         - TEMPERATURE OF MUD
MUDD.KG/M     1090                 : MWT          - MUD DENSITY
NEUT.         1                    : NEUTRON      - NEUTRON TYPE
RESI.         0                    : RESIST       - RESISTIVITY TYPE
RM  .OHMM     23                   : RM           - RESISTIVITY OF MUD
RMC .OHMM     23                   : RMC          - RESISTIVITY OF MUD CAKE
RMF .OHMM     23                   : RMF          - RESISTIVITY OF MUD FILTRATE
SUFT.C        4                    : SUFT         - SURFACE TEMPERATURE
~A  DEPTH     PHID     PHIN     RESD       GR
    0.000    0.369    0.636    2.035   59.814
    0.250    0.371    0.637    2.006  169.120
    0.500    0.372    0.640    1.909  161.850
    0.750    0.375    0.642    1.759  180.224
    1.000    0.376    0.646    1.675  162.586
    1.250    0.377    0.648    1.650  179.131
    1.500    0.379    0.652    1.709  204.840
    1.750    0.384    0.653    1.830  213.441
    2.000    0.392    0.652    1.865  203.731
    2.250    0.407    0.648    1.748   59.163
    2.500    0.414    0.634    1.693   55.567
    2.750    0.408    0.579    1.639   59.289
    3.000    0.373    0.509    1.614   64.231
    3.250    0.234    0.461    1.592   55.756
    3.500    0.184    0.495    1.593   52.176
    3.750    0.217    0.459    1.597   56.492
    4.000    0.229    0.465    1.571   52.912
    4.250    0.236    0.435    1.574   49.301
    4.500    0.257    0.503    1.578   58.512
    4.750    0.258    0.521    1.606   63.454
    5.000    0.264    0.536    1.635   53.149
    5.250    0.234    0.443    1.780   55.042
    5.500    0.203    0.507    2.142   55.715
    5.750    0.248    0.523    3.786   75.326
    6.000    0.275    0.478    9.498   84.521
    6.250    0.280    0.449   32.192   95.593
    6.500    0.305    0.439   54.110   91.981
    6.750    0.281    0.427   68.459   95.704
    7.000    0.319    0.440   77.065  103.085
    7.250    0.325    0.437   77.249   97.050
    7.500    0.303    0.438   76.031   98.942
    7.750    0.302    0.443   76.152  106.324
    8.000    0.297    0.439  115.806   93.580
    8.250    0.322    0.436  128.205   79.601
    8.500    0.346    0.446   95.092   67.467
    8.750    0.313    0.418  142.158   77.288
    9.000    0.303    0.425  100.292   79.180
    9.250    0.299    0.458   75.640   95.726
    9.500    0.323    0.461  131.404   82.372
    9.750    0.329    0.438  104.192   73.272
   10.000    0.318    0.422  104.358   74.555
   10.250    0.301    0.404   62.284   88.050
   10.500    0.286    0.386   97.931   74.071
   10.750    0.281    0.450   62.507   86.957
   11.000    0.311    0.506   52.087   99.843
   11.250    0.338    0.450   38.634   68.772
   11.500    0.339    0.417  130.937   56.012
   11.750    0.328    0.407  381.734   48.757
   12.000    0.318    0.428  220.351   51.870
   12.250    0.309    0.433   82.421   67.195
   12.500    0.315    0.425  140.869   59.940
   12.750    0.323    0.414  299.217   46.571
   13.000    0.326    0.395  289.856   37.486
   13.250    0.329    0.381  354.544   24.116
   13.500    0.332    0.389  349.232   22.960
   13.750    0.334    0.410  212.107   21.803
   14.000    0.346    0.432  192.204   20.647
   14.250    0.366    0.455  219.918   22.555
   14.500    0.372    0.472  223.974   20.163
   14.750    0.363    0.472  150.238   19.023
   15.000    0.351    0.461  430.925   22.135
   15.250    0.344    0.427  279.568   18.523
   15.500    0.347    0.413  294.389   14.927
   15.750    0.339    0.445  584.694   19.259
   16.000    0.328    0.431  321.026   24.811
   16.250    0.334    0.425  246.191   35.868
   16.500    0.333    0.428  277.138   31.662
   16.750    0.341    0.466  259.655   26.862
   17.000    0.340    0.414  239.250   25.674
   17.250    0.296    0.385  199.444   20.858
   17.500    0.306    0.371  145.425   19.108
   17.750    0.325    0.380   72.238   33.808
   18.000    0.334    0.381  207.200   28.992
   18.250    0.332    0.413  175.633   24.802
   18.500    0.333    0.411  204.420   23.020
   18.750    0.337    0.417  222.562   25.538
   19.000    0.318    0.388  242.315   28.635
   19.250    0.272    0.358  327.997   26.259
   19.500    0.254    0.374  407.948   23.883
   19.750    0.301    0.400  459.227   20.912
   20.000    0.316    0.400  467.699   19.114
   20.250    0.352    0.406  313.973   14.299
   20.500    0.380    0.460  228.843   19.850
   20.750    0.382    0.460   60.269   35.176
   21.000    0.343    0.468   40.459   45.013
   21.250    0.333    0.488   65.748   41.401
   21.500    0.343    0.483  165.016   35.365
   21.750    0.327    0.468   80.581   34.209
   22.000    0.312    0.419   89.209   39.167
   22.250    0.319    0.402   52.361   34.335
   22.500    0.319    0.375  125.001   25.267
   22.750    0.293    0.396  102.438   25.939
   23.000    0.275    0.370  138.605   32.086
   23.250    0.236    0.335   59.249   34.588
   23.500    0.239    0.397  211.115   40.750
   23.750    0.231    0.466   47.035   43.878
   24.000    0.234    0.446   17.016   98.251
   24.250    0.236    0.442   15.164  109.901
   24.500    0.237    0.463   15.444  104.475
   24.750    0.242    0.451   17.982   96.016
   25.000    0.242    0.462   18.928  105.212
   25.250    0.241    0.448   27.378   97.347
   25.500    0.254    0.464   15.032   94.376
   25.750    0.279    0.433   16.642   99.913
   26.000    0.294    0.421   17.819   99.366
   26.250    0.298    0.411   17.854   92.111
   26.500    0.304    0.411   24.158   83.010
   26.750    0.309    0.386   26.291   72.706
   27.000    0.281    0.372   29.596   77.664
   27.250    0.287    0.418   33.877   61.245
   27.500    0.313    0.406   44.333   45.436
   27.750    0.315    0.392   57.993   55.257
   28.000    0.306    0.426   49.985   57.775
   28.250    0.308    0.417   42.387   40.153
   28.500    0.314    0.424   68.881   42.045
   28.750    0.313    0.440   87.147   34.775
   29.000    0.312    0.449   77.662   29.333
   29.250    0.310    0.444   57.581   31.836
   29.500    0.309    0.438   72.879   44.112
   29.750    0.303    0.443   66.040   46.615
   30.000    0.296    0.459   61.874   37.530
   30.250    0.299    0.394   54.206   35.764
   30.500    0.291    0.384  115.093   44.365
   30.750    0.281    0.376   57.194   34.060
   31.000    0.282    0.425   42.405   40.222
   31.250    0.291    0.449   27.974   45.164
   31.500    0.301    0.417   34.244   50.732
   31.750    0.312    0.373  167.540   36.143
   32.000    0.310    0.403  201.619   30.717
   32.250    0.303    0.445   52.220   38.099
   32.500    0.293    0.424   65.026   39.992
   32.750    0.294    0.386   58.901   33.956
   33.000    0.286    0.393   56.114   34.019
   33.250    0.281    0.417   67.528   33.473
   33.500    0.295    0.421  148.244   28.641
   33.750    0.306    0.429  153.519   20.776
   34.000    0.312    0.458  117.732   34.882
   34.250    0.322    0.447  108.480   36.165
   34.500    0.333    0.443  173.368   31.349
   34.750    0.337    0.419  135.245   32.054
   35.000    0.342    0.384  159.998   33.305
   35.250    0.342    0.430  192.619   28.490
   35.500    0.329    0.452  239.666   21.844
   35.750    0.320    0.440  240.048   24.331
   36.000    0.304    0.375  181.043   22.565
   36.250    0.293    0.360  193.849   24.473
   36.500    0.303    0.388  245.353   23.927
   36.750    0.312    0.404  237.677   20.925
   37.000    0.314    0.364  215.289   20.378
   37.250    0.308    0.335  198.370   23.506
   37.500    0.311    0.372  205.429   25.399
   37.750    0.317    0.436   66.097   26.072
   38.000    0.328    0.448   79.637   36.503
   38.250    0.338    0.456   79.732   38.396
   38.500    0.347    0.464   92.763   34.206
   38.750    0.353    0.482  117.363   32.439
   39.000    0.362    0.448   84.193   30.047
   39.250    0.356    0.425  123.782   31.330
   39.500    0.344    0.439  126.065   36.882
   39.750    0.341    0.453  106.859   50.988
   40.000    0.342    0.399  101.884   54.726
   40.250    0.326    0.385  102.006   54.179
   40.500    0.287    0.362   85.001   50.584
   40.750    0.270    0.355   57.976   42.703
   41.000    0.275    0.363   68.642   34.212
   41.250    0.307    0.341   97.606   22.688
   41.500    0.327    0.393  111.768   15.417
   41.750    0.317    0.377   71.311   19.765
   42.000    0.314    0.394   84.396   20.438
   42.250    0.294    0.368   75.211   16.217
   42.500    0.333    0.361   86.090   15.670
   42.750    0.316    0.375   93.730   18.204
   43.000    0.285    0.416  110.973   17.016
   43.250    0.249    0.485   39.482   12.200
