~VERSION INFORMATION
 VERS.                 2.0:   CWLS LOG ASCII STANDARD -VERSION 2.0
 WRAP.                  NO:   ONE LINE PER DEPTH STEP
~WELL INFORMATION BLOCK
#MNEM.UNIT           DATA                    DESCRIPTION OF MNEMONIC
#---------    -------------------            -------------------------------
# Generated from Intellog Unique Number	CN_94_101/WELL/4993
WELL.         08-33-098-12W4                 : Well_name    - WELL
LOC .         AA/08-33-098-12W4/0            : Location     - LOCATION
UWI .         AA/08-33-098-12W400            : Uwi          - UNIQUE WELL ID
ENTR.         TIM                            : Entered      - ENTERED BY
SRVC.         SCHLUMBERGER                   : Scn          - SERVICE COMPANY
DATE.         08/11/92                       : Date         - LOG DATE
STRT.M        60.96                          : top_depth    - START DEPTH
STOP.M        267.71                         : bot_depth    - STOP DEPTH
STEP.M        0.25                           : increment    - STEP LENGTH
 NULL. -999.2500:NULL Value
~CURVE INFORMATION BLOCK
#MNEM UNIT       ERCB CURVE CODE    CURVE DESCRIPTION
#-----------   ------------------   ----------------------------------
DEPT.M        00 001 00 00         : DEPTH        - DEPTH
GR  .API      00 310 00 00         : GR           - GAMMA RAY
ILD .OHMM     00 120 00 00         : RESD         - DEEP RESISTIVITY (DIL)
NPHI.V/V      00 330 00 00         : PHIN         - NEUTRON POROSITY (SANDSTONE)
RHOB.KG/M3    00 350 00 00         : DENS         - BULK DENSITY
~PARAMETER INFORMATION
#MNEM.UNIT           DATA             DESCRIPTION OF MNEMONIC
#---------         -----------     ------------------------------
GL  .M        499.872              : gl           - GROUND LEVEL ELEVATION
EREF.M        502.92               : kb           - ELEVATION OF DEPTH REFERENCE
DATM.M        502.92               : datum        - DATUM ELEVATION
TDD .M        267.614              : tdd          - TOTAL DEPTH DRILLER
RUN .         ONE                  : Run          - RUN NUMBER
ENG .         JO                   : Engineer     - RECORDING ENGINEER
WIT .         TIM                  : Witness      - WITNESSED BY
MUD .         GEL                  : Mud_type     - MUD TYPE
MATR.         SANDSTONE            : Logunit      - NEUTRON MATRIX
TMAX.C        10                   : BHT          - MAXIMUM RECORDED TEMPERATURE
BHTD.M        267.614              : BHTDEP       - MAXIMUM RECORDED TEMPERATURE
RMT .C        10                   : MDTP         - TEMPERATURE OF MUD
MUDD.KG/M     1000                 : MWT          - MUD DENSITY
NEUT.         1                    : NEUTRON      - NEUTRON TYPE
RESI.         0                    : RESIST       - RESISTIVITY TYPE
RM  .OHMM     13.8                 : RM           - RESISTIVITY OF MUD
RMC .OHMM     13.8                 : RMC          - RESISTIVITY OF MUD CAKE
RMF .OHMM     13.8                 : RMF          - RESISTIVITY OF MUD FILTRATE
SUFT.C        4                    : SUFT         - SURFACE TEMPERATURE
~A  DEPTH       GR     RESD     PHIN     DENS
# ...
  191.460   93.573    5.976    0.366 2330.410
  191.710   95.148    5.868    0.363 2370.310
  191.960   95.674    5.655    0.359 2416.200
  192.210   96.724    5.552    0.351 2498.000
  192.460   98.822    5.452    0.344 2424.210
  192.710  100.920    5.352    0.348 2300.570
  192.960  102.494    5.064    0.354 2262.700
  193.210  103.021    4.704    0.367 2254.740
  193.460  103.023    4.533    0.378 2302.630
  193.710  103.026    4.369    0.387 2338.540
  193.960  102.504    4.134    0.386 2376.460
  194.210  101.984    4.135    0.379 2264.780
  194.460  101.463    4.136    0.381 2246.850
  194.710  100.418    4.213    0.392 2252.850
  194.960   99.896    4.137    0.405 2266.830
  195.210   98.851    4.062    0.416 2284.790
  195.460   97.282    3.704    0.423 2298.770
  195.710   93.094    3.636    0.421 2338.680
  195.960   87.859    3.505    0.417 2352.660
  196.210   89.434    3.505    0.411 2364.650
  196.460   89.960    3.571    0.406 2382.610
  196.710   92.582    3.706    0.402 2342.740
  196.960   93.632    3.639    0.400 2268.960
  197.210   95.206    3.508    0.402 2270.980
  197.460   95.732    3.444    0.404 2286.950
  197.710   96.783    3.381    0.405 2290.960
  197.960   97.309    3.320    0.405 2294.970
  198.210   98.360    3.320    0.404 2296.970
  198.460   98.885    3.321    0.403 2298.990
  198.710   99.412    3.384    0.400 2295.020
  198.960   99.938    3.447    0.399 2289.050
  199.210  100.465    3.578    0.398 2277.110
  199.460  100.992    3.783    0.396 2273.130
  199.710  100.470    3.579    0.393 2233.260
  199.960   97.854    2.975    0.389 2221.310
  200.210   95.237    2.663    0.390 2217.340
  200.460   90.002    2.519    0.402 2183.450
  200.710   84.243    2.340    0.425 2143.580
  200.960   79.531    2.214    0.435 2097.720
  201.210   76.392    2.018    0.458 2071.810
  201.460   75.346    1.840    0.477 2113.710
  201.710   73.255    1.742    0.477 2129.690
  201.960   72.209    1.710    0.470 2127.720
  202.210   70.117    1.679    0.466 2125.740
  202.460   69.596    1.742    0.459 2129.750
  202.710   69.076    1.876    0.448 2139.730
  202.960   69.077    2.136    0.428 2179.640
  203.210   69.081    2.524    0.392 2223.540
  203.460   69.083    3.094    0.377 2267.430
  203.710   69.085    3.723    0.375 2337.260
  203.960   69.088    4.085    0.383 2413.070
  204.210   68.043    4.240    0.386 2263.500
  204.460   66.998    4.163    0.391 2239.580
  204.710   67.525    4.012    0.393 2229.620
  204.960   70.147    3.796    0.398 2227.650
  205.210   72.767    3.526    0.404 2225.680
  205.460   78.532    3.398    0.411 2225.690
  205.710   84.296    3.215    0.422 2227.710
  205.960   89.538    2.987    0.431 2227.720
  206.210   90.064    2.932    0.437 2231.730
  206.460   90.066    2.826    0.442 2235.730
  206.710   89.545    2.826    0.437 2241.740
  206.960   89.023    2.880    0.432 2247.740
  207.210   87.980    2.880    0.418 2251.740
  207.460   86.934    2.935    0.408 2257.740
  207.710   85.366    2.990    0.405 2265.740
  207.960   84.321    2.990    0.405 2277.730
  208.210   83.276    3.104    0.403 2291.700
  208.460   81.706    3.221    0.400 2327.620
  208.710   78.566    3.469    0.397 2413.410
  208.960   75.427    3.806    0.392 2463.290
  209.210   72.287    4.333    0.386 2517.150
  209.460   70.718    4.933    0.372 2561.050
  209.710   69.672    6.048    0.368 2491.260
  209.960   63.389    7.014    0.367 2333.710
  210.210   45.059    9.260    0.360 2275.890
  210.460   34.062    8.924    0.350 2202.110
  210.710   26.733    8.601    0.333 2168.220
  210.960    4.737    8.764    0.300 2148.290
  211.210    3.691    8.929    0.306 2150.310
  211.460    3.694    9.267    0.313 2156.310
  211.710    4.221    9.618    0.322 2170.290
  211.960    4.222   10.749    0.333 2166.320
  212.210    3.702   15.565    0.338 2178.300
  212.460    3.181   16.155    0.337 2186.290
  212.710    3.707   15.571    0.327 2196.290
  212.960    5.805   15.007    0.303 2214.260
  213.210    8.951   14.464    0.297 2272.110
  213.460   15.239   13.685    0.287 2240.220
  213.710   23.622   12.711    0.280 2180.400
  213.960   29.386   12.252    0.302 2162.470
  214.210   34.102   12.253    0.329 2160.500
  214.460   33.057   12.484    0.381 2162.510
  214.710   29.393   12.957    0.386 2160.530
  214.960   25.730   13.448    0.380 2146.580
  215.210   26.257   14.218    0.375 2102.720
  215.460   26.783   14.756    0.372 2144.620
  215.710   26.786   16.190    0.365 2164.590
  215.960   23.645   16.802    0.361 2168.600
  216.210   18.410   17.439    0.359 2154.650
  216.460   12.651   18.100    0.356 2160.660
  216.710    9.511   18.785    0.353 2156.680
  216.960    9.514   19.860    0.347 2154.710
  217.210    9.518   19.863    0.339 2142.760
  217.460    9.519   19.867    0.341 2108.870
  217.710   10.570   19.870    0.349 2096.920
  217.960   14.762   19.509    0.358 2086.960
  218.210   17.384   19.512    0.360 2088.970
  218.460   18.958   19.158    0.361 2108.940
  218.710   20.008   18.808    0.361 2120.930
  218.960   21.058   18.467    0.364 2122.930
  219.210   22.633   17.799    0.365 2122.950
  219.460   23.683   17.155    0.368 2124.970
  219.710   24.733   16.232    0.370 2128.970
  219.960   25.783   15.357    0.371 2134.970
  220.210   26.833   14.802    0.368 2150.950
  220.460   28.931   13.749    0.362 2158.940
  220.710   31.554   13.498    0.359 2166.940
  220.960   32.604   13.254    0.356 2168.950
  221.210   34.178   12.774    0.355 2162.990
  221.460   34.703   12.774    0.353 2163.010
  221.710   36.278   12.088    0.349 2169.010
  221.960   36.803   11.022    0.349 2173.010
  222.210   38.903   10.237    0.349 2175.030
  222.460   39.428    9.686    0.353 2175.040
  222.710   41.528    9.687    0.355 2175.060
  222.960   42.577    9.689    0.359 2181.060
  223.210   43.626    9.690    0.360 2187.060
  223.460   45.725    9.873    0.362 2195.060
  223.710   47.823   10.059    0.361 2197.070
  223.960   48.872   10.060    0.355 2199.080
  224.210   51.494   10.250    0.353 2209.080
  224.460   54.639   10.444    0.355 2223.060
  224.710   57.784   10.446    0.360 2225.070
  224.960   63.025   10.446    0.372 2229.070
  225.210   66.171   10.449    0.413 2280.960
  225.460   69.840   10.451    0.414 2284.950
  225.710   71.937   10.452    0.421 2201.200
  225.960   75.606   10.454    0.433 2195.230
  226.210   81.372   10.650    0.441 2213.210
  226.460   71.422   11.903    0.366 2227.180
  226.710   45.759   16.921    0.331 2227.200
  226.960   20.619   21.526    0.281 2183.340
  227.210   14.860   24.507    0.282 2161.420
  227.460   16.434   21.534    0.286 2151.470
  227.710   18.008   19.273    0.283 2149.490
  227.960   20.107   17.573    0.275 2173.440
  228.210   25.871   15.159    0.272 2215.340
  228.460   43.682   14.882    0.272 2237.300
  228.710   58.351   14.081    0.273 2251.280
  228.960   70.925   13.572    0.275 2243.320
  229.210   73.546   13.573    0.277 2203.450
  229.460   77.215   13.327    0.278 2195.480
  229.710   73.551   13.579    0.282 2207.470
  229.960   70.412   13.834    0.291 2235.410
  230.210   74.080   14.359    0.298 2225.460
  230.460   77.749   14.628    0.308 2213.500
  230.710   77.229   15.183    0.311 2171.640
  230.960   71.470   15.185    0.314 2157.700
  231.210   66.759   14.909    0.317 2149.740
  231.460   66.238   14.369    0.317 2141.770
  231.710   68.335   13.596    0.308 2143.790
  231.960   74.099   12.629    0.295 2159.760
  232.210   81.435   12.399    0.295 2199.670
  232.460   84.581   12.174    0.288 2211.660
  232.710   82.488   12.635    0.285 2221.640
  232.960   78.300   13.113    0.279 2237.620
  233.210   73.588   14.656    0.291 2255.590
  233.460   69.926   15.494    0.298 2253.610
  233.710   67.833   16.381    0.304 2211.740
  233.960   66.787   15.788    0.308 2189.820
  234.210   65.219   14.132    0.311 2147.960
  234.460   64.173   12.418    0.314 2149.970
  234.710   63.129   11.533    0.314 2151.980
