~VERSION INFORMATION
 VERS.                 2.0:   CWLS LOG ASCII STANDARD -VERSION 2.0
 WRAP.                  NO:   ONE LINE PER DEPTH STEP
~WELL INFORMATION BLOCK
#MNEM.UNIT           DATA                    DESCRIPTION OF MNEMONIC
#---------    -------------------            -------------------------------
# Generated from Intellog Unique Number	CC_80_83/WELL/2324
NULL.         -999.25                        : NULL_VALUE
WELL.         ARCO ACI McMURRAY              : Well_name    - WELL              
LOC .         09-26-083-12W4                 : Location     - LOCATION          
UWI .         AA/09-26-083-12W400            : Uwi          - UNIQUE WELL ID    
ENTR.         DW                             : Entered      - ENTERED BY        
SRVC.         SCHLUMBERGER                   : Scn          - SERVICE COMPANY   
DATE.         06 FEB 74                      : Date         - LOG DATE
STRT.M        137.16                         : top_depth    - START DEPTH       
STOP.M        366.98                         : bot_depth    - STOP DEPTH        
STEP.M        0.305                          : increment    - STEP LENGTH       
~CURVE INFORMATION BLOCK
#MNEM UNIT       ERCB CURVE CODE    CURVE DESCRIPTION
#-----------   ------------------   ----------------------------------
DEPT.M        00 001 00 00         : DEPTH        - DEPTH                       
DPHI.V/V      00 890 00 00         : PHID         - DENSITY POROSITY (LIMESTONE)
GR  .API      00 310 00 00         : GR           - GAMMA RAY                   
NPHI.V/V      00 330 00 00         : PHIN         - NEUTRON POROSITY (LIMESTONE)
ILD .OHMM     00 120 00 00         : RESD         - DEEP RESISTIVITY (DIL)      
~PARAMETER INFORMATION       
#MNEM.UNIT           DATA             DESCRIPTION OF MNEMONIC
#---------         -----------     ------------------------------
GL  .M        609.6                : gl           - GROUND LEVEL ELEVATION      
EREF.M        611.124              : kb           - ELEVATION OF DEPTH REFERENCE
DATM.M        611.124              : datum        - DATUM ELEVATION             
TDD .M        369.113              : tdd          - TOTAL DEPTH DRILLER         
RUN .         ONE                  : Run          - RUN NUMBER                  
ENG .         BILL                 : Engineer     - RECORDING ENGINEER          
WIT .         JIM                  : Witness      - WITNESSED BY                
MUD .         GEL                  : Mud_type     - MUD TYPE                    
MATR.         LIMESTONE            : Logunit      - NEUTRON MATRIX              
TMAX.C        18.3333              : BHT          - MAXIMUM RECORDED TEMPERATURE
BHTD.M        369.113              : BHTDEP       - MAXIMUM RECORDED TEMPERATURE
MATR.         1                    : LOGUNIT      - NEUTRON MATRIX              
RMT .C        25                   : MDTP         - TEMPERATURE OF MUD          
NEUT.         1                    : NEUTRON      - NEUTRON TYPE                
RESI.         0                    : RESIST       - RESISTIVITY TYPE            
RMC .OHMM     0.25                 : RMC          - RESISTIVITY OF MUD CAKE     
RMF .OHMM     0.25                 : RMF          - RESISTIVITY OF MUD FILTRATE 
SUFT.C        4                    : SUFT         - SURFACE TEMPERATURE         
~A  DEPTH     PHID       GR     PHIN     RESD
# ...
  296.265    0.091   70.776    0.194   10.125
  296.569    0.170   80.513    0.334   11.336
  296.874    0.251   85.376    0.367   12.233
  297.179    0.256   88.205    0.391   11.800
  297.484    0.269   91.038    0.401   10.967
  297.789    0.247   89.802    0.412   10.009
  298.094    0.235   89.784    0.427    9.306
  298.398    0.285   90.585    0.477    8.973
  298.703    0.296   88.938    0.445    8.657
  299.008    0.290   88.521    0.438    8.670
  299.313    0.273   82.406    0.436    8.522
  299.618    0.299   79.954    0.444    8.222
  299.922    0.240   81.564    0.424    8.235
  300.227    0.246   78.295    0.394    8.401
  300.532    0.248   76.250    0.405    8.568
  300.837    0.253   75.828    0.400    9.077
  301.142    0.244   79.063    0.398    9.087
  301.446    0.261   85.142    0.411    8.765
  301.751    0.263   84.722    0.459    7.708
  302.056    0.304   85.520    0.468    7.295
  302.361    0.336   87.132    0.484    6.413
  302.666    0.312   86.706    0.480    5.637
  302.970    0.302   88.316    0.467    4.687
  303.275    0.316   93.589    0.491    3.825
  303.580    0.293  100.481    0.521    3.622
  303.885    0.273  104.938    0.458    3.836
  304.190    0.234   98.822    0.476    4.713
  304.495    0.245   89.869    0.469    6.011
  304.799    0.229   82.519    0.395    7.668
  305.104    0.221   87.005    0.379    7.825
  305.409    0.247   82.545    0.393    8.137
  305.714    0.227   74.837    0.377    8.781
  306.019    0.195   81.761    0.354    9.129
  306.323    0.184   82.995    0.320    9.492
  306.628    0.265   85.044    0.411    9.505
  306.933    0.258   83.836    0.384    9.703
  307.238    0.237   81.818    0.373    9.191
  307.543    0.246   83.458    0.386    8.871
  307.847    0.230   82.656    0.392    8.405
  308.152    0.221   80.640    0.405    8.113
  308.457    0.192   83.097    0.410    7.977
  308.762    0.214   83.515    0.436    7.992
  309.067    0.205   87.592    0.457    8.004
  309.371    0.244   93.295    0.427    7.869
  309.676    0.240   94.124    0.430    8.031
  309.981    0.267   87.632    0.432    6.555
  310.286    0.280   72.606    0.443    4.281
  310.591    0.319   64.897    0.486    3.305
  310.896    0.288   65.318    0.428    3.018
  311.200    0.291   66.144    0.431    3.317
  311.505    0.291   68.599    0.449    4.233
  311.810    0.274   72.268    0.437    5.105
  312.115    0.279   78.791    0.433    6.889
  312.420    0.276   83.275    0.456    7.434
  312.724    0.281   88.163    0.456    7.729
  313.029    0.281   86.959    0.448    7.190
  313.334    0.275   88.598    0.450    5.758
  313.639    0.254   82.514    0.433    4.446
  313.944    0.237   86.593    0.425    3.838
  314.248    0.228   78.884    0.394    3.705
  314.553    0.213   82.559    0.391    4.997
  314.858    0.237   82.166    0.415    5.701
  315.163    0.274   85.025    0.433    6.505
  315.468    0.288   89.509    0.421    5.615
  315.772    0.295   89.930    0.414    4.335
  316.077    0.283   88.724    0.461    3.539
  316.382    0.269   87.924    0.445    3.172
  316.687    0.258   90.783    0.437    3.297
  316.992    0.250   94.863    0.412    3.834
  317.297    0.264   96.097    0.420    4.059
  317.601    0.244   94.485    0.434    4.300
  317.906    0.227   92.468    0.427    3.999
  318.211    0.211   89.228    0.429    4.158
  318.516    0.195   93.306    0.431    4.243
  318.821    0.234   99.826    0.439    4.020
  319.125    0.267  103.903    0.469    3.536
  319.430    0.268  107.575    0.451    3.412
  319.735    0.255  103.526    0.438    3.613
  320.040    0.263   81.588    0.406    4.786
  320.345    0.269   73.877    0.379    5.564
  320.649    0.252   70.233    0.419    6.230
  320.954    0.240   73.499    0.425    6.723
  321.259    0.287   75.545    0.461    7.532
  321.564    0.275   68.650    0.442    8.592
  321.869    0.314   72.727    0.417    9.987
  322.173    0.309   65.018    0.395   11.827
  322.478    0.263   67.067    0.376   14.010
  322.783    0.258   61.796    0.360   14.841
  323.088    0.261   56.930    0.369   13.547
  323.393    0.266   65.890    0.341   12.831
  323.698    0.246   74.031    0.353   11.938
  324.002    0.254   67.134    0.346   11.518
  324.307    0.281   63.489    0.336   10.516
  324.612    0.264   70.821    0.344    9.779
  324.917    0.250   80.997    0.384    9.433
  325.222    0.263   93.612    0.387    9.453
  325.526    0.242   92.814    0.388   10.009
  325.831    0.243   89.986    0.352   11.215
  326.136    0.267   91.215    0.350   11.875
  326.441    0.241   94.075    0.351   12.118
  326.746    0.234  100.185    0.341   12.606
  327.050    0.239  102.231    0.328   13.348
  327.355    0.210   90.051    0.305   16.714
  327.660    0.230   59.173    0.324   24.749
  327.965    0.244   53.496    0.323   35.304
  328.270    0.273   55.136    0.332   40.279
  328.574    0.302   59.215    0.363   41.101
  328.879    0.308   61.666    0.364   41.182
  329.184    0.292   62.085    0.363   36.210
  329.489    0.279   67.790    0.337   28.494
  329.794    0.251   73.903    0.309   25.048
  330.099    0.231   77.980    0.310   21.619
  330.403    0.215   87.344    0.323   17.985
  330.708    0.197  100.366    0.378   15.813
  331.013    0.217  104.444    0.361   13.653
  331.318    0.231   83.321    0.352   12.932
  331.623    0.260   76.019    0.330   14.759
  331.927    0.255   76.440    0.353   17.808
  332.232    0.244   71.983    0.328   20.705
  332.537    0.247   69.149    0.316   21.129
  332.842    0.228   72.822    0.315   19.647
  333.147    0.231   74.055    0.335   18.957
  333.451    0.243   70.817    0.357   18.295
  333.756    0.286   72.457    0.371   19.378
  334.061    0.328   66.779    0.383   21.706
  334.366    0.315   72.080    0.371   21.749
  334.671    0.273   72.905    0.358   23.032
  334.975    0.277   50.563    0.351   30.494
  335.280    0.330   41.227    0.346   39.638
  335.585    0.332   33.110    0.345   58.689
  335.890    0.336   37.597    0.360   83.708
  336.195    0.338   40.455    0.388   93.774
  336.500    0.339   38.032    0.386   80.953
  336.804    0.343   42.515    0.409   60.200
  337.109    0.379   53.100    0.384   47.358
  337.414    0.336   50.268    0.373   38.664
  337.719    0.309   54.349    0.358   33.380
  338.024    0.304   57.611    0.356   30.456
  338.328    0.288   64.537    0.356   24.406
  338.633    0.264   73.085    0.333   19.928
  338.938    0.246   85.702    0.336   17.521
  339.243    0.227   89.779    0.322   15.994
  339.548    0.224   71.908    0.323   16.022
  339.852    0.237   75.173    0.319   16.054
  340.157    0.247   84.132    0.317   15.488
  340.462    0.247   89.838    0.346   14.139
  340.767    0.238   94.729    0.339   12.909
  341.072    0.240   97.182    0.351   12.227
  341.376    0.251   95.567    0.343   12.246
  341.681    0.243   96.804    0.334   13.720
  341.986    0.235   95.189    0.322   18.162
  342.291    0.216   83.820    0.336   25.433
  342.596    0.214   61.885    0.388   37.654
  342.901    0.293   35.884    0.359   56.796
  343.205    0.325   25.328    0.347   81.003
  343.510    0.335   22.903    0.330  103.351
  343.815    0.331   25.356    0.342  122.429
  344.120    0.331   34.313    0.370  127.254
  344.425    0.328   42.866    0.360  129.868
  344.729    0.326   48.568    0.360  120.764
  345.034    0.313   56.712    0.379  100.452
  345.339    0.329   62.009    0.377   88.327
  345.644    0.348   64.869    0.366   77.696
  345.949    0.338   66.916    0.371   73.606
  346.253    0.337   73.433    0.384   82.423
  346.558    0.332   62.065    0.384   94.046
  346.863    0.343   58.828    0.392   81.187
  347.168    0.329   62.906    0.375   56.062
  347.473    0.307   58.043    0.382   43.284
  347.777    0.305   48.301    0.364   38.774
  348.082    0.312   55.224    0.360   34.743
  348.387    0.304   53.208    0.416   31.721
  348.692    0.313   56.880    0.381   34.873
  348.997    0.309   58.518    0.362   37.625
