~VERSION INFORMATION
 VERS.                 2.0:   CWLS LOG ASCII STANDARD -VERSION 2.0
 WRAP.                  NO:   ONE LINE PER DEPTH STEP
~WELL INFORMATION BLOCK
#MNEM.UNIT           DATA                    DESCRIPTION OF MNEMONIC
#---------    -------------------            -------------------------------
# Generated from Intellog Unique Number	CN_94_101/WELL/2800
WELL.         03-25-096-16W4                 : Well_name    - WELL
LOC .         AA/03-25-096-16W4/0            : Location     - LOCATION
UWI .         AA/03-25-096-16W400            : Uwi          - UNIQUE WELL ID
ENTR.         JOETTE                         : Entered      - ENTERED BY
SRVC.         SCHLUMBERGER                   : Scn          - SERVICE COMPANY
DATE.         07/07/92                       : Date         - LOG DATE
STRT.M        140                            : top_depth    - START DEPTH
STOP.M        395                            : bot_depth    - STOP DEPTH
STEP.M        0.25                           : increment    - STEP LENGTH
 NULL. -999.2500:NULL Value
~CURVE INFORMATION BLOCK
#MNEM UNIT       ERCB CURVE CODE    CURVE DESCRIPTION
#-----------   ------------------   ----------------------------------
DEPT.M        00 001 00 00         : DEPTH        - DEPTH
CALI.MM       00 280 01 00         : CAL          - CALIPER
GR  .API      00 310 00 00         : GR           - GAMMA RAY
NPHI.V/V      00 330 00 00         : PHIN         - NEUTRON POROSITY (SANDSTONE)
DPHI.V/V      00 890 00 00         : PHID         - DENSITY POROSITY (SANDSTONE)
ILD .OHMM     00 120 00 00         : RESD         - DEEP RESISTIVITY (DIL)
~PARAMETER INFORMATION
#MNEM.UNIT           DATA             DESCRIPTION OF MNEMONIC
#---------         -----------     ------------------------------
GL  .M        651.2                : gl           - GROUND LEVEL ELEVATION
EREF.M        655                  : kb           - ELEVATION OF DEPTH REFERENCE
DATM.M        655                  : datum        - DATUM ELEVATION
TDD .M        398                  : tdd          - TOTAL DEPTH DRILLER
RUN .         ONE                  : Run          - RUN NUMBER
ENG .         JO                   : Engineer     - RECORDING ENGINEER
WIT .         TIM                  : Witness      - WITNESSED BY
MUD .         GEL                  : Mud_type     - MUD TYPE
MATR.         SANDSTONE            : Logunit      - NEUTRON MATRIX
TMAX.C        20                   : BHT          - MAXIMUM RECORDED TEMPERATURE
BHTD.M        398                  : BHTDEP       - MAXIMUM RECORDED TEMPERATURE
RMT .C        13                   : MDTP         - TEMPERATURE OF MUD
MUDD.KG/M     1120                 : MWT          - MUD DENSITY
NEUT.         1                    : NEUTRON      - NEUTRON TYPE
RESI.         0                    : RESIST       - RESISTIVITY TYPE
RM  .OHMM     0.84                 : RM           - RESISTIVITY OF MUD
RMC .OHMM     0.84                 : RMC          - RESISTIVITY OF MUD CAKE
RMF .OHMM     0.88                 : RMF          - RESISTIVITY OF MUD FILTRATE
SUFT.C        4                    : SUFT         - SURFACE TEMPERATURE
~A  DEPTH      CAL       GR     PHIN     PHID     RESD
# ...
  249.500  168.839   85.648    0.504    0.287    4.493
  249.750  166.986   83.944    0.479    0.271    5.041
  250.000  166.122   82.813    0.471    0.271    5.238
  250.250  166.245   81.127    0.491    0.262    5.664
  250.500  166.369   79.404    0.495    0.220    5.673
  250.750  167.480   87.223    0.471    0.154    5.582
  251.000  169.611   89.057    0.476    0.273    5.383
  251.250  170.692   88.538    0.485    0.275    5.009
  251.500  170.846   87.427    0.491    0.263    4.833
  251.750  169.981   83.943    0.521    0.276    4.756
  252.000  170.105   76.903    0.534    0.287    5.043
  252.250  171.216   68.065    0.535    0.302    5.341
  252.500  168.344   60.450    0.518    0.326    5.764
  252.750  164.546   62.895    0.498    0.332    6.584
  253.000  166.615   66.508    0.496    0.334    6.974
  253.250  168.745   71.918    0.500    0.299    7.261
  253.500  169.857   78.551    0.512    0.300    7.272
  253.750  169.980   81.590    0.506    0.288    6.767
  254.000  171.061   84.017    0.493    0.271    6.405
  254.250  171.215   87.667    0.560    0.249    5.847
  254.500  170.351   85.962    0.555    0.259    5.142
  254.750  169.455   84.239    0.548    0.255    4.782
  255.000  167.664   81.349    0.527    0.228    3.558
  255.250  167.726   78.458    0.522    0.217    4.060
  255.500  166.892   74.382    0.514    0.225    4.550
  255.750  167.015   73.863    0.495    0.277    5.005
  256.000  167.108   76.902    0.478    0.305    5.615
  256.250  165.255   79.366    0.493    0.309    5.837
  256.500  162.414   79.440    0.487    0.302    6.074
  256.750  162.537   74.752    0.453    0.306    5.864
  257.000  163.680   76.605    0.459    0.291    5.658
  257.250  166.768   80.848    0.474    0.265    5.168
  257.500  168.867   85.072    0.535    0.222    4.899
  257.750  170.967   89.296    0.567    0.191    4.724
  258.000  173.098   92.928    0.562    0.172    4.476
  258.250  173.221   97.763    0.555    0.185    4.242
  258.500  172.356   97.245    0.544    0.226    4.097
  258.750  172.449   95.540    0.544    0.244    4.029
  259.000  172.603   99.171    0.544    0.238    3.965
  259.250  172.696  103.414    0.556    0.244    3.969
  259.500  173.807  103.470    0.566    0.253    3.977
  259.750  174.919  103.544    0.576    0.260    3.988
  260.000  176.061  104.211    0.568    0.257    3.924
  260.250  177.142  106.063    0.563    0.248    3.928
  260.500  177.358  107.342    0.560    0.248    3.936
  260.750  177.451  106.230    0.558    0.251    3.944
  261.000  177.543  105.118    0.552    0.251    3.956
  261.250  177.728  103.432    0.542    0.259    3.962
  261.500  177.790  102.284    0.542    0.267    3.971
  261.750  177.913  101.765    0.547    0.237    3.981
  262.000  177.049  101.264    0.553    0.207    3.987
  262.250  174.208  100.134    0.565    0.200    3.997
  262.500  172.386   99.041    0.549    0.198    4.001
  262.750  177.481   97.355    0.551    0.231    4.085
  263.000  178.531   97.392    0.563    0.248    4.170
  263.250  179.642   97.503    0.557    0.244    4.260
  263.500  179.766   98.170    0.552    0.262    4.519
  263.750  177.944   95.835    0.546    0.254    4.695
  264.000  175.103   90.592    0.532    0.260    4.884
  264.250  172.262   89.462    0.536    0.275    5.080
  264.500  171.397   87.183    0.550    0.276    5.286
  264.750  171.520   87.831    0.549    0.249    5.394
  265.000  171.675   89.684    0.535    0.222    5.311
  265.250  171.736   92.759    0.518    0.212    5.218
  265.500  171.891   91.648    0.512    0.172    4.858
  265.750  172.014   91.722    0.529    0.140    4.690
  266.000  172.107   96.539    0.541    0.127    4.281
  266.250  172.230  100.170    0.547    0.173    4.131
  266.500  172.384  102.023    0.560    0.171    3.840
  266.750  172.508  101.523    0.585    0.218    3.380
  267.000  172.600  101.578    0.604    0.234    3.261
  267.250  174.731  100.467    0.606    0.272    3.089
  267.500  176.831   99.948    0.593    0.274    2.927
  267.750  176.954   99.410    0.578    0.270    2.825
  268.000  176.089   99.503    0.572    0.286    2.779
  268.250  173.248   98.373    0.572    0.286    2.684
  268.500  172.414   96.075    0.566    0.286    2.640
  268.750  171.519   97.928    0.560    0.293    2.644
  269.000  171.673   99.818    0.597    0.290    2.651
  269.250  171.766   99.280    0.608    0.296    2.655
  269.500  171.889   96.964    0.592    0.298    2.712
  269.750  173.001   94.074    0.601    0.293    2.767
  270.000  173.124   91.776    0.576    0.264    2.825
  270.250  173.247   93.036    0.548    0.260    2.995
  270.500  173.371   97.279    0.539    0.281    2.946
  270.750  174.544   95.000    0.544    0.282    2.791
  271.000  174.637   94.481    0.564    0.272    2.696
  271.250  174.729   95.741    0.559    0.269    2.701
  271.500  174.914   94.018    0.544    0.272    2.860
  271.750  173.988   88.737    0.551    0.272    3.393
  272.000  172.228   82.290    0.548    0.267    3.732
  272.250  172.289   77.028    0.532    0.235    4.182
  272.500  170.467   68.801    0.513    0.210    4.513
  272.750  169.541   61.149    0.480    0.171    5.058
  273.000  166.700   58.889    0.345    0.132    6.114
  273.250  165.835   61.909    0.315    0.216    6.977
  273.500  165.959   64.354    0.315    0.268    8.745
  273.750  166.144   64.428    0.326    0.302   10.178
  274.000  166.206   65.095    0.398    0.323    9.291
  274.250  166.329   68.134    0.434    0.298    8.020
  274.500  166.483   72.951    0.462    0.284    7.056
  274.750  168.583   77.768    0.475    0.232    6.805
  275.000  171.702   82.030    0.494    0.260    6.100
  275.250  172.813   82.697    0.497    0.245    5.670
  275.500  170.960   83.364    0.480    0.248    5.580
  275.750  171.084   85.216    0.454    0.246    5.485
  276.000  171.207   87.662    0.446    0.220    5.499
  276.250  175.345   89.515    0.495    0.244    5.412
  276.500  177.383   88.996    0.517    0.258    5.420
  276.750  180.502   84.308    0.513    0.272    5.533
  277.000  181.552   79.046    0.487    0.285    6.093
  277.250  184.732   70.801    0.462    0.306    6.214
  277.500  182.817   66.132    0.456    0.315    6.835
  277.750  178.988   67.392    0.486    0.290    7.387
  278.000  171.207   66.280    0.488    0.276    7.538
  278.250  167.346   58.647    0.474    0.258    7.696
  278.500  165.524   58.739    0.445    0.211    7.296
  278.750  165.617   63.538    0.433    0.195    7.036
  279.000  165.771   72.543    0.447    0.224    5.851
  279.250  165.895   76.748    0.490    0.252    4.957
  279.500  166.975   80.991    0.511    0.284    4.608
  279.750  168.087   84.623    0.536    0.286    3.977
  280.000  169.229   93.590    0.535    0.286    3.370
  280.250  171.329   94.850    0.531    0.282    3.378
  280.500  174.448   95.517    0.525    0.270    3.582
  280.750  175.529   90.848    0.517    0.262    3.722
  281.000  175.683   86.178    0.487    0.273    3.944
  281.250  174.818   88.050    0.488    0.270    4.260
  281.500  174.942   89.310    0.512    0.265    4.600
  281.750  176.053   88.791    0.515    0.269    4.966
  282.000  178.153   88.272    0.512    0.243    5.266
  282.250  178.276   91.310    0.527    0.241    5.086
  282.500  178.400   93.756    0.516    0.252    4.997
  282.750  178.492   92.644    0.509    0.247    4.735
  283.000  174.694   87.364    0.524    0.216    4.657
  283.250  170.834   71.430    0.538    0.137    4.669
  283.500  167.993   65.556    0.516    0.224    4.676
  283.750  168.147   78.100    0.465    0.248    4.599
  284.000  169.259   93.015    0.455    0.278    4.528
  284.250  169.382   96.072    0.553    0.280    4.367
  284.500  169.475   95.553    0.560    0.273    4.138
  284.750  170.617   94.423    0.576    0.268    3.848
  285.000  171.729   91.532    0.576    0.266    3.931
  285.250  171.852   86.289    0.549    0.260    4.086
  285.500  171.976   82.194    0.540    0.227    4.497
  285.750  172.130   79.285    0.523    0.186    5.137
