~VERSION INFORMATION
 VERS.                 2.0:   CWLS LOG ASCII STANDARD -VERSION 2.0
 WRAP.                  NO:   ONE LINE PER DEPTH STEP
~WELL INFORMATION BLOCK
#MNEM.UNIT           DATA                    DESCRIPTION OF MNEMONIC
#---------    -------------------            -------------------------------
# Generated from Intellog Unique Number	CX_WELLS/WELL/2595
NULL.         -999.25                        : NULL_VALUE
WELL.         ARCO                           : Well_name    - WELL              
LOC .         AA/07-08-080-10W4/0            : Location     - LOCATION          
UWI .         AA/07-08-080-10W400            : Uwi          - UNIQUE WELL ID    
ENTR.         T                              : Entered      - ENTERED BY        
SRVC.         SCHLUMBERGER                   : Scn          - SERVICE COMPANY   
STRT.F        940                            : top_depth    - START DEPTH       
STOP.F        1569.92                        : bot_depth    - STOP DEPTH        
STEP.F        0.82                           : increment    - STEP LENGTH       
~CURVE INFORMATION BLOCK
#MNEM UNIT       ERCB CURVE CODE    CURVE DESCRIPTION
#-----------   ------------------   ----------------------------------
DEPT.F        00 001 00 00         : DEPTH        - DEPTH                       
GR  .API      00 310 00 00         : GR           - GAMMA RAY                   
NPHI.V/V      00 330 00 00         : PHIN         - NEUTRON POROSITY (SANDSTONE)
ILD .OHMM     00 120 00 00         : RESD         - DEEP RESISTIVITY (DIL)      
~PARAMETER INFORMATION       
#MNEM.UNIT           DATA             DESCRIPTION OF MNEMONIC
#---------         -----------     ------------------------------
GL  .F        2245                 : gl           - GROUND LEVEL ELEVATION      
EREF.F        2260                 : kb           - ELEVATION OF DEPTH REFERENCE
DATM.F        2260                 : datum        - DATUM ELEVATION             
TDD .F        1562                 : tdd          - TOTAL DEPTH DRILLER         
RUN .         ONE                  : Run          - RUN NUMBER                  
ENG .         BILL                 : Engineer     - RECORDING ENGINEER          
WIT .         JIM                  : Witness      - WITNESSED BY                
MUD .         GEL                  : Mud_type     - MUD TYPE                    
MATR.         SANDSTONE            : Logunit      - NEUTRON MATRIX              
TMAX.F        73                   : BHT          - MAXIMUM RECORDED TEMPERATURE
BHTD.F        1562                 : BHTDEP       - MAXIMUM RECORDED TEMPERATURE
MATR.         1                    : LOGUNIT      - NEUTRON MATRIX              
RMT .F        65                   : MDTP         - TEMPERATURE OF MUD          
NEUT.         1                    : NEUTRON      - NEUTRON TYPE                
RESI.         7.1                  : RESIST       - RESISTIVITY TYPE            
RMC .OHMM     6.5                  : RMC          - RESISTIVITY OF MUD CAKE     
RMF .OHMM     5                    : RMF          - RESISTIVITY OF MUD FILTRATE 
SUFT.F        35                   : SUFT         - SURFACE TEMPERATURE         
~A  DEPTH       GR     PHIN     RESD
  940.000   90.509    0.451    3.133
  940.820   91.195    0.439    2.802
  941.640   93.202    0.434    3.024
  942.461   92.573    0.436    3.201
  943.281   90.623    0.431    3.584
  944.101   88.018    0.421    4.576
  944.921   84.747    0.408    5.952
  945.741   83.451    0.396    7.184
  946.562   80.841    0.383    8.353
  947.382   78.237    0.370   10.083
  948.202   77.595    0.356   10.878
  949.022   74.330    0.346   10.101
  949.843   73.034    0.343    8.869
  950.663   69.763    0.335    7.645
  951.483   68.467    0.344    6.837
  952.303   70.474    0.358    5.782
  953.123   75.129    0.381    5.076
  953.944   80.445    0.405    5.082
  954.764   86.427    0.418    5.381
  955.584   91.076    0.417    6.616
  956.404  100.354    0.417    7.839
  957.224  110.954    0.422    7.993
  958.045  116.270    0.491    7.705
  958.865  103.085    0.554    8.009
  959.685   90.566    0.500    8.478
  960.505   80.030    0.481    9.676
  961.325   74.110    0.385   10.242
  962.146   58.289    0.349   10.252
  962.966   54.358    0.330   10.456
  963.786   50.420    0.327   10.664
  964.606   45.173    0.333   10.874
  965.427   41.236    0.340   11.090
  966.247   47.872    0.350    9.736
  967.067   60.453    0.361    8.711
  967.887   63.121    0.365    8.883
  968.707   55.232    0.367    9.950
  969.528   53.943    0.369   10.338
  970.348   54.628    0.371    9.421
  971.168   57.962    0.370    8.429
  971.988   61.957    0.366    7.541
  972.808   65.945    0.366    8.289
  973.629   64.668    0.372    7.555
  974.449   64.039    0.383    7.016
  975.269   64.064    0.384    6.640
  976.089   66.071    0.382    6.646
  976.909   67.424    0.380    7.039
  977.730   68.115    0.380    7.177
  978.550   68.141    0.381    7.457
  979.370   68.178    0.381    7.749
  980.190   70.852    0.380    8.204
  981.010   72.198    0.376    8.524
  981.831   74.211    0.369    9.026
  982.651   72.255    0.367    9.378
  983.471   65.675    0.363    9.743
  984.291   58.441    0.362   10.124
  985.112   57.818    0.358   10.523
  985.932   57.183    0.357   10.933
  986.752   55.233    0.356   11.363
  987.572   53.282    0.354   11.369
  988.392   53.320    0.353   11.383
  989.213   55.987    0.352   11.391
  990.033   61.957    0.351   10.193
  990.853   67.933    0.350    8.948
  991.673   72.582    0.350    7.857
  992.493   77.243    0.353    7.296
  993.314   79.917    0.373    7.035
  994.134   82.584    0.389    7.313
  994.954   87.246    0.387    7.456
  995.774   87.277    0.378    7.746
  996.594   86.642    0.367    8.204
  997.415   84.692    0.362    8.366
  998.235   83.396    0.361    8.374
  999.055   84.748    0.362    8.382
  999.875   90.064    0.364    8.233
 1000.700   98.022    0.366    7.938
 1001.520  103.331    0.375    7.371
 1002.340  108.646    0.389    6.352
 1003.160  114.641    0.418    5.683
 1003.980  115.975    0.432    5.084
 1004.800  118.655    0.445    4.463
 1005.620  118.680    0.454    3.705
 1006.440  119.372    0.456    3.192
 1007.260  118.749    0.456    2.910
 1008.080  118.114    0.450    2.703
 1008.900  118.139    0.447    2.418
 1009.720  117.510    0.441    2.375
 1010.540  112.912    0.432    2.468
 1011.360  107.659    0.414    2.816
 1012.180   99.764    0.398    3.732
 1013.000   94.505    0.380    5.432
 1013.820   88.599    0.376    6.807
 1014.640   87.976    0.374    8.371
 1015.460   87.995    0.370    9.032
 1016.280   88.687    0.368    9.210
 1017.100   88.051    0.368    9.217
 1017.920   85.441    0.368    8.725
 1018.740   83.491    0.366    8.254
 1019.560   86.825    0.361    7.812
 1020.380   93.461    0.358    7.531
 1021.200   99.431    0.384    6.489
 1022.020  106.068    0.409    4.906
 1022.840  111.390    0.413    4.730
 1023.660  111.421    0.404    4.560
 1024.480  111.446    0.397    4.650
 1025.300  112.799    0.389    5.113
 1026.120  112.836    0.379    5.514
 1026.940  109.565    0.370    6.175
 1027.760  108.263    0.362    7.047
 1028.580  104.992    0.362    7.460
 1029.400   99.733    0.362    7.751
 1030.220   94.481    0.359    7.336
 1031.040   89.895    0.358    7.072
 1031.860   96.531    0.357    6.692
 1032.680   99.859    0.359    6.332
 1033.500  100.551    0.365    6.106
 1034.320   99.928    0.366    6.112
 1035.140   98.626    0.360    6.117
 1035.960   94.701    0.360    6.238
 1036.780   94.726    0.367    6.481
 1037.600   94.757    0.371    6.863
 1038.430   94.122    0.374    7.980
 1039.250   92.172    0.379    8.771
 1040.070   88.234    0.381    9.112
 1040.890   82.988    0.385    9.471
 1041.710   81.031    0.386    9.838
 1042.530   81.069    0.388   10.034
 1043.350   81.094    0.390   10.045
 1044.170   81.120    0.390    9.506
 1044.990   81.812    0.386    9.164
 1045.810   83.170    0.385    8.509
 1046.630   85.190    0.382    7.614
 1047.450   86.536    0.382    7.340
 1048.270   87.215    0.383    6.820
 1049.090   87.920    0.386    6.697
 1049.910   87.951    0.388    6.459
 1050.730   87.977    0.388    6.344
 1051.550   87.341    0.388    6.349
 1052.370   87.366    0.389    6.238
 1053.190   86.750    0.390    6.242
 1054.010   86.775    0.392    6.249
 1054.830   86.800    0.395    6.255
 1055.650   87.499    0.396    6.261
 1056.470   88.184    0.396    6.151
 1057.290   89.530    0.395    6.155
 1058.110   91.550    0.396    6.046
 1058.930   92.235    0.397    5.830
 1059.750   93.594    0.394    5.621
 1060.570   94.274    0.391    5.627
 1061.390   92.990    0.383    5.633
 1062.210   90.373    0.379    5.638
 1063.030   89.751    0.375    5.642
 1063.850   89.776    0.376    5.973
 1064.670   87.826    0.382    6.326
 1065.490   83.888    0.386    6.213
 1066.310   79.956    0.393    5.991
 1067.130   77.339    0.395    5.885
 1067.950   81.340    0.396    5.891
 1068.770   82.032    0.391    5.898
 1069.590   78.761    0.386    6.012
 1070.410   75.484    0.378    6.610
 1071.230   71.552    0.376    6.996
 1072.050   68.281    0.373    7.836
 1072.870   66.985    0.375    8.295
 1073.690   69.678    0.379    7.421
 1074.510   71.672    0.385    6.276
 1075.330   77.641    0.390    4.240
 1076.150   86.260    0.402    3.723
 1076.980   94.217    0.416    3.457
 1077.800  101.521    0.428    3.273
 1078.620  106.836    0.436    3.214
 1079.440  108.849    0.442    3.218
 1080.260  108.220    0.443    3.343
 1081.080  106.924    0.442    3.540
 1081.900  104.968    0.439    3.678
 1082.720  101.703    0.435    4.043
 1083.540  100.407    0.430    4.362
 1084.360   94.494    0.427    4.706
 1085.180   89.235    0.426    4.981
 1086.000   82.662    0.424    5.475
 1086.820   75.427    0.415    6.247
 1087.640   67.526    0.398    6.865
 1088.460   59.632    0.381    8.287
 1089.280   53.725    0.375    9.815
 1090.100   50.447    0.375   11.200
 1090.920   50.473    0.373   11.005
 1091.740   51.165    0.368   10.807
 1092.560   51.857    0.358   10.421
 1093.380   52.549    0.354   10.237
 1094.200   53.234    0.355    9.874
 1095.020   53.266    0.356    9.697
 1095.840   53.297    0.358    9.526
 1096.660   52.681    0.360    9.534
 1097.480   52.700    0.364    9.368
 1098.300   52.071    0.368    9.375
 1099.120   51.435    0.372    9.384
 1099.940   51.479    0.379    9.751
 1100.760   51.498    0.379    9.945
 1101.580   51.523    0.378   10.336
 1102.400   50.907    0.378   10.538
 1103.220   50.926    0.378   10.747
 1104.040   50.303    0.377   11.170
 1104.860   49.674    0.375   11.179
 1105.680   49.032    0.374   11.834
 1106.500   49.064    0.373   11.410
 1107.320   48.447    0.372   11.211
 1108.140   48.479    0.375   11.014
 1108.960   49.158    0.381   11.024
 1109.780   47.202    0.381   11.242
 1110.600   49.228    0.379   11.250
 1111.420   49.907    0.373   11.478
 1112.240   49.938    0.369   11.489
 1113.060   49.970    0.371   11.711
 1113.880   50.008    0.372   11.722
 1114.700   49.366    0.371   11.736
 1115.520   48.737    0.370   11.747
 1116.350   48.768    0.370   11.763
 1117.170   48.806    0.374   11.768
