~VERSION INFORMATION
 VERS.                 2.0:   CWLS LOG ASCII STANDARD -VERSION 2.0
 WRAP.                  NO:   ONE LINE PER DEPTH STEP
~WELL INFORMATION BLOCK
#MNEM.UNIT           DATA                    DESCRIPTION OF MNEMONIC
#---------    -------------------            -------------------------------
# Generated from Intellog Unique Number	CS_77_79/WELL/925
WELL.         PEX PCEJ ALGAR OV              : Well_name    - WELL
LOC .         AA/09-11-079-15W4/0            : Location     - LOCATION
UWI .         AA/09-11-079-15W4/0            : Uwi          - UNIQUE WELL ID
ENTR.         JHS                            : Entered      - ENTERED BY
SRVC.         SCHLUMBERGER                   : Scn          - SERVICE COMPANY
STRT.M        225                            : top_depth    - START DEPTH
STOP.M        455                            : bot_depth    - STOP DEPTH
STEP.M        0.25                           : increment    - STEP LENGTH
 NULL. -999.2500:NULL Value
~CURVE INFORMATION BLOCK
#MNEM UNIT       ERCB CURVE CODE    CURVE DESCRIPTION
#-----------   ------------------   ----------------------------------
DEPT.M        00 001 00 00         : DEPTH        - DEPTH
DPHI.V/V      00 890 00 00         : PHID         - DENSITY POROSITY (LIMESTONE)
NPHI.V/V      00 330 00 00         : PHIN         - NEUTRON POROSITY (LIMESTONE)
GR  .API      00 310 00 00         : GR           - GAMMA RAY
ILD .OHMM     00 120 00 00         : RESD         - DEEP RESISTIVITY (DIL)
RHOB.KG/M3    00 350 00 00         : DENS         - BULK DENSITY
~PARAMETER INFORMATION
#MNEM.UNIT           DATA             DESCRIPTION OF MNEMONIC
#---------         -----------     ------------------------------
GL  .M        633.71               : gl           - GROUND LEVEL ELEVATION
EREF.M        637.08               : kb           - ELEVATION OF DEPTH REFERENCE
DATM.M        637.08               : datum        - DATUM ELEVATION
TDD .M        454                  : tdd          - TOTAL DEPTH DRILLER
RUN .         ONE                  : Run          - RUN NUMBER
ENG .         BILL                 : Engineer     - RECORDING ENGINEER
WIT .         JIM                  : Witness      - WITNESSED BY
MUD .         GEL                  : Mud_type     - MUD TYPE
MATR.         LIMESTONE            : Logunit      - NEUTRON MATRIX
TMAX.C        20                   : BHT          - MAXIMUM RECORDED TEMPERATURE
BHTD.M        454                  : BHTDEP       - MAXIMUM RECORDED TEMPERATURE
MATR.         1                    : LOGUNIT      - NEUTRON MATRIX
RMT .C        25                   : MDTP         - TEMPERATURE OF MUD
NEUT.         1                    : NEUTRON      - NEUTRON TYPE
RESI.         0                    : RESIST       - RESISTIVITY TYPE
RMC .OHMM     0.25                 : RMC          - RESISTIVITY OF MUD CAKE
RMF .OHMM     0.25                 : RMF          - RESISTIVITY OF MUD FILTRATE
SUFT.C        15                   : SUFT         - SURFACE TEMPERATURE
~A  DEPTH     PHID     PHIN       GR     RESD     DENS
# ...
  298.000    0.325    0.435   40.456   13.739    0.000
  298.250    0.333    0.423   44.204   13.746    0.000
  298.500    0.351    0.421   50.448   13.750    0.000
  298.750    0.348    0.416   51.703   14.016    0.000
  299.000    0.353    0.430   53.586   14.289    0.000
  299.250    0.343    0.431   46.753   14.294    0.000
  299.500    0.325    0.422   51.747   14.300    0.000
  299.750    0.312    0.413   52.387   14.580    0.000
  300.000    0.323    0.428   50.532   14.585    0.000
  300.250    0.331    0.442   52.420   14.588    0.000
  300.500    0.327    0.423   54.922   14.597    0.000
  300.750    0.335    0.416   56.803   14.601    0.000
  301.000    0.326    0.431   64.286   14.064    0.000
  301.250    0.302    0.447   66.168   13.548    0.000
  301.500    0.312    0.429   61.825   13.052    0.000
  301.750    0.309    0.414   58.108   13.057    0.000
  302.000    0.317    0.400   59.365   13.061    0.000
  302.250    0.296    0.404   58.138   13.831    0.000
  302.500    0.280    0.402   60.017   14.366    0.000
  302.750    0.275    0.388   62.522   15.212    0.000
  303.000    0.298    0.377   55.068   16.100    0.000
  303.250    0.303    0.369   53.843   16.106    0.000
  303.500    0.307    0.357   51.364   15.810    0.000
  303.750    0.315    0.351   57.603   15.230    0.000
  304.000    0.307    0.350   55.751   15.526    0.000
  304.250    0.282    0.347   52.032   16.437    0.000
  304.500    0.188    0.297   51.423   18.073    0.000
  304.750    0.147    0.273   53.306   19.130    0.000
  305.000    0.166    0.379   57.677   20.254    0.000
  305.250    0.270    0.391   62.671   20.261    0.000
  305.500    0.290    0.374   65.176   19.154    0.000
  305.750    0.277    0.371   68.303   17.768    0.000
  306.000    0.278    0.374   67.697   17.115    0.000
  306.250    0.285    0.357   62.732   15.877    0.000
  306.500    0.290    0.329   65.858   15.295    0.000
  306.750    0.283    0.310   62.138   15.299    0.000
  307.000    0.261    0.289   55.311   15.894    0.000
  307.250    0.229    0.251   50.346   18.845    0.000
  307.500    0.036    0.216   42.889   20.716    0.000
  307.750    0.027    0.207   34.192   23.652    0.000
  308.000    0.041    0.240   33.584   26.000    0.000
  308.250    0.104    0.280   48.537   26.506    0.000
  308.500    0.230    0.333   56.019   21.959    0.000
  308.750    0.273    0.396   59.770   19.247    0.000
  309.000    0.288    0.404   61.651   16.557    0.000
  309.250    0.281    0.395   56.688   15.070    0.000
  309.500    0.294    0.396   57.945   14.247    0.000
  309.750    0.310    0.389   62.941   13.725    0.000
  310.000    0.305    0.397   66.067   13.728    0.000
  310.250    0.292    0.412   61.102   13.996    0.000
  310.500    0.289    0.443   71.079   14.002    0.000
  310.750    0.287    0.442   75.449   14.275    0.000
  311.000    0.273    0.436   72.353   14.278    0.000
  311.250    0.269    0.418   76.100   14.285    0.000
  311.500    0.276    0.407   73.007   14.288    0.000
  311.750    0.279    0.406   69.285   14.294    0.000
  312.000    0.276    0.401   64.320   13.770    0.000
  312.250    0.272    0.424   73.049   13.517    0.000
  312.500    0.258    0.422   78.042   13.022    0.000
  312.750    0.245    0.422   75.569   12.547    0.000
  313.000    0.257    0.436   73.094   12.315    0.000
  313.250    0.275    0.428   73.731   12.088    0.000
  313.500    0.281    0.434   72.499   11.429    0.000
  313.750    0.283    0.440   78.741   11.432    0.000
  314.000    0.268    0.417   81.866   10.808    0.000
  314.250    0.262    0.405   83.125   10.608    0.000
  314.500    0.273    0.419   84.387   10.029    0.000
  314.750    0.284    0.435   82.532    9.481    0.000
  315.000    0.288    0.437   83.791    8.794    0.000
  315.250    0.288    0.452   79.449    8.157    0.000
  315.500    0.293    0.446   71.373    7.567    0.000
  315.750    0.313    0.434   49.605    7.290    0.000
  316.000    0.319    0.426   39.663    7.156    0.000
  316.250    0.300    0.427   49.014    7.720    0.000
  316.500    0.294    0.426   52.141    9.505    0.000
  316.750    0.303    0.425   52.160   11.703    0.000
  317.000    0.308    0.424   49.680   13.616    0.000
  317.250    0.313    0.413   45.962   14.690    0.000
  317.500    0.322    0.406   44.108   14.973    0.000
  317.750    0.312    0.404   42.878   14.699    0.000
  318.000    0.310    0.408   52.234   14.159    0.000
  318.250    0.321    0.411   52.245   13.901    0.000
  318.500    0.325    0.420   53.506   13.905    0.000
  318.750    0.306    0.427   56.630   13.912    0.000
  319.000    0.304    0.422   52.912   13.916    0.000
  319.250    0.311    0.423   56.666   14.188    0.000
  319.500    0.305    0.427   57.922   14.193    0.000
  319.750    0.302    0.438   48.599   14.200    0.000
  320.000    0.301    0.426   47.370   14.204    0.000
  320.250    0.305    0.415   51.745   13.944    0.000
  320.500    0.302    0.408   52.382   13.181    0.000
  320.750    0.300    0.413   51.150   12.699    0.000
  321.000    0.297    0.417   55.520   12.702    0.000
  321.250    0.292    0.405   52.423   12.705    0.000
  321.500    0.296    0.398   54.306   13.451    0.000
  321.750    0.293    0.393   54.944   14.789    0.000
  322.000    0.295    0.390   58.070   15.362    0.000
  322.250    0.288    0.402   52.486   15.369    0.000
  322.500    0.282    0.402   56.857   14.256    0.000
  322.750    0.274    0.418   63.093   12.734    0.000
  323.000    0.256    0.435   73.070   10.749    0.000
  323.250    0.238    0.427   78.059    9.423    0.000
  323.500    0.213    0.427   82.435    8.577    0.000
  323.750    0.209    0.444   86.182    7.956    0.000
  324.000    0.251    0.459   89.312    6.844    0.000
  324.250    0.276    0.471   88.702    6.000    0.000
  324.500    0.255    0.446   80.628    5.259    0.000
  324.750    0.252    0.430   86.866    4.787    0.000
  325.000    0.281    0.429   82.524    4.196    0.000
  325.250    0.333    0.461   87.517    3.610    0.000
  325.500    0.337    0.498   94.379    3.286    0.000
  325.750    0.337    0.470   93.151    3.048    0.000
  326.000    0.321    0.455   88.804    2.936    0.000
  326.250    0.295    0.444   97.533    2.937    0.000
  326.500    0.262    0.432  104.395    3.417    0.000
  326.750    0.247    0.442   99.431    4.986    0.000
  327.000    0.232    0.429   95.089    5.911    0.000
  327.250    0.219    0.434   87.637    7.008    0.000
  327.500    0.199    0.441   92.014    8.154    0.000
  327.750    0.201    0.424   92.643    8.797    0.000
  328.000    0.208    0.410   92.037    8.968    0.000
  328.250    0.222    0.393   90.811    8.477    0.000
  328.500    0.225    0.404   88.334    7.864    0.000
  328.750    0.232    0.435   88.350    7.296    0.000
  329.000    0.219    0.447   93.341    7.027    0.000
  329.250    0.201    0.453   97.089    6.644    0.000
  329.500    0.189    0.433   82.792    6.646    0.000
  329.750    0.206    0.451   90.274    6.523    0.000
  330.000    0.248    0.470   92.779    6.167    0.000
  330.250    0.294    0.486   90.307    6.055    0.000
  330.500    0.280    0.460   87.829    5.943    0.000
  330.750    0.264    0.446   97.802    5.945    0.000
  331.000    0.265    0.434   89.727    6.295    0.000
  331.250    0.254    0.413   82.272    6.539    0.000
  331.500    0.248    0.422   81.045    6.793    0.000
  331.750    0.247    0.429   82.925    7.056    0.000
  332.000    0.249    0.439   69.870    7.331    0.000
  332.250    0.244    0.444   64.906    7.474    0.000
  332.500    0.249    0.455   71.144    7.618    0.000
  332.750    0.254    0.446   72.404    8.699    0.000
  333.000    0.251    0.438   75.533    9.209    0.000
  333.250    0.255    0.427   77.413    9.566    0.000
  333.500    0.240    0.420   69.960    9.752    0.000
  333.750    0.232    0.412   73.710    9.394    0.000
  334.000    0.230    0.414   81.193    8.715    0.000
  334.250    0.275    0.418   81.207    8.238    0.000
