~Version Information Block
VERS .                 2.00:  CWLS LOG ASCII STANDARD - VERSION 2.00
WRAP .                   NO:  One line per depth step
~Well Information Block
#MNEM.UNIT        Data Type   Information
#---------- ----------------  -----------
STRT .M               15.24:  START DEPTH
STOP .M              118.44:  STOP DEPTH
STEP .M                 0.3:  STEP
NULL .              -999.25:  NULL VALUE
COMP . HUSKY OIL OPERATIONS:  COMPANY
WELL . HUSKY FT MCMURRAY   :  WELL
FLD  .                     :  FIELD
LOC  . 07-28-090-09W4      :  LOCATION
PROV . ALBERTA             :  PROVINCE
SRVC . SCHLUMBERGER        :  SERVICE COMPANY
DATE . 23 MAR 73           :  LOG DATE
UWI  . AA/07-28-090-09W400 :  UNIQUE WELL ID
~Curve Information Block
#MNEM.UNIT         API CODE   Curve Description
#---------- ----------------  -----------------
DEPTH.M                    :  Transferred from LOGMATE/ESP.
DENS .KG/M3                 :  Loaded from 920630.111720
GR   .API                  :  Loaded from 920630.111720
PHIN .FRAC                 :  Loaded from 920630.111720
RESD .OHMM                 :  Loaded from 920630.111720
~Parameter Information Block
#MNEM.UNIT            Value   Description
#---------- ----------------  -----------
PROJECT.             MOS_90_9:
SET  .             RAW_ORIG:
~A        DEPTH           DENS             GR           PHIN           R
        15.2400      2140.8000        59.2100         0.1735        48.2
        15.5400      2282.7000        61.8400         0.1884       118.6
        15.8400      2578.6001        62.7700         0.3184       279.2
        16.1400      2840.6001        62.9200         0.4057        41.3
        16.4400      2366.3000        63.8600         0.4070        27.5
        16.7400      2141.2000        67.5100         0.3864        31.3
        17.0400      2129.3000        68.9600         0.3950        29.1
        17.3400      2137.3000        66.3900         0.4051        24.5
        17.6400      2144.6001        69.0600         0.3543        19.4
        17.9400      2165.6001        74.5500         0.3849        12.4
        18.2400      2198.8000        68.4200         0.4047        10.9
        18.5400      2193.8000        71.2400         0.3761        14.9
        18.8400      2171.8000        74.9600         0.4042        12.4
        19.1400      2158.7000        72.3600         0.4193        10.2
        19.4400      2194.1001        70.7900         0.3971        12.9
        19.7400      2186.3999        67.9500         0.4084        11.0
        20.0400      2166.7000        65.4300         0.3708         9.4
        20.3400      2159.0000        63.2600         0.3547         9.4
        20.6400      2159.5000        61.2500         0.3680        10.8
        20.9400      2258.8000        59.3500         0.3745        13.0
        21.2400      2995.7000        60.5300         0.3920        13.7
        21.5400      3007.8000        69.6000         0.4204        13.8
        21.8400      2467.1001        64.3200         0.4327        12.9
        22.1400      2399.0000        59.8000         0.4345        12.2
        22.4400      2460.3000        57.9400         0.3908        16.0
        22.7400      2448.1001        62.4200         0.3819        16.0
        23.0400      2187.8999        80.0100         0.3779        11.3
        23.3400      2155.0000        85.0700         0.3122         9.4
        23.6400      2136.5000        84.4800         0.3247        23.2
        23.9400      2121.5000        81.6400         0.4138        17.1
        24.2400      2105.0000        75.6200         0.4151         7.8
        24.5400      2127.7000        73.8800         0.4142         6.2
        24.8400      2151.3000        78.5600         0.3777         5.3
        25.1400      2151.2000        81.0200         0.3598         4.8
        25.4400      2156.8999        79.6000         0.3476         4.4
        25.7400      2181.3000        76.5700         0.3684         4.2
        26.0400      2200.7000        73.1800         0.3778         3.9
        26.3400      2210.3000        71.8000         0.3582         3.9
        26.6400      2203.6001        75.4900         0.3557         4.0
        26.9400      2217.5000        77.6800         0.3438         4.7
        27.2400      2225.7000        75.4000         0.3646         6.3
        27.5400      2198.1001        72.9100         0.3655         6.4
        27.8400      2192.0000        79.0700         0.3804         6.2
        28.1400      2264.3000        85.3900         0.3847         6.1
        28.4400      2280.6001        86.3700         0.3432         6.6
        28.7400      2266.0000        84.3200         0.3678         8.1
        29.0400      2296.6001        80.0300         0.3749         7.1
        29.3400      2287.2000        77.6700         0.3532         6.6
        29.6400      2252.8999        72.8200         0.3506         6.2
        29.9400      2253.7000        66.9200         0.3260         6.4
        30.2400      2487.2000        60.0400         0.3344         7.5
        30.5400      2486.2000        54.9700         0.3377         7.2
        30.8400      2219.3000        74.5200         0.3284         7.8
        31.1400      2189.0000        77.1100         0.3318        10.7
        31.4400      2183.6001        74.1600         0.2422         8.7
        31.7400      2196.3999        71.8300         0.2290         7.0
        32.0400      2227.0000        71.6300         0.2578        19.3
        32.3400      2245.6001        73.3900         0.3345        11.4
        32.6400      2235.0000        75.9000         0.3376         6.6
        32.9400      2224.5000        77.5400         0.3220         6.2
        33.2400      2246.7000        72.4300         0.3231         6.6
        33.5400      2231.8999        75.6400         0.3444         7.0
        33.8400      2264.1001        79.5200         0.3569         6.9
        34.1400      2275.1001        78.3000         0.3501         6.5
        34.4400      2269.2000        76.6400         0.3622         5.9
        34.7400      2250.7000        81.0300         0.3700         5.5
        35.0400      2253.8000        79.6100         0.3539         5.2
        35.3400      2270.6001        79.4500         0.3581         5.1
        35.6400      2249.3999        80.5000         0.3691         5.0
        35.9400      2240.8999        78.1800         0.3570         5.4
        36.2400      2269.5000        75.0300         0.3563         7.7
        36.5400      2273.8000        73.5700         0.3799         7.3
        36.8400      2260.6001        79.9600         0.3543         6.2
        37.1400      2251.5000        80.7000         0.3646         5.4
        37.4400      2241.0000        88.0000         0.3655         5.3
        37.7400      2248.5000        85.9900         0.3481         5.8
        38.0400      2262.8000        80.9600         0.3549         6.1
        38.3400      2243.7000        71.9500         0.3767         5.7
        38.6400      2219.1001        70.3700         0.3551         5.3
        38.9400      2209.6001        78.7700         0.3776         5.5
        39.2400      2176.3000        77.5900         0.3898         5.8
        39.5400      2175.3000        75.3000         0.3703         5.3
        39.8400      2260.6001        79.6600         0.3783         5.9
        40.1400      2268.0000        83.8900         0.4070         5.4
        40.4400      2289.8000        78.5000         0.4251         3.7
        40.7400      2303.7000        75.3900         0.4394         2.8
        41.0400      2326.1001        78.8800         0.3862         2.8
        41.3400      2314.7000        75.3000         0.3337         3.3
        41.6400      2392.5000        71.5600         0.3260         4.7
        41.9400      2356.7000        73.0100         0.3094         5.8
        42.2400      2323.2000        77.8300         0.2963         5.8
        42.5400      2270.1001        76.5700         0.3045         5.3
        42.8400      2284.0000        71.7300         0.2804         9.3
        43.1400      2380.3000        64.9200         0.2786         9.2
        43.4400      2383.8000        61.1500         0.3099         7.8
        43.7400      2346.6001        60.6700         0.3340         5.5
        44.0400      2181.0000        64.6300         0.3200         5.4
        44.3400      2133.0000        62.8900         0.3161         5.3
        44.6400      2147.3000        59.7800         0.3088        11.9
        44.9400      2169.1001        58.7900         0.3771         8.3
        45.2400      2183.6001        67.2300         0.4766         3.2
        45.5400      2198.5000        68.8800         0.4569         1.9
        45.8400      2202.8000        67.6500         0.4448         2.2
        46.1400      2198.2000        66.4300         0.4287         3.2
        46.4400      2187.3999        63.4700         0.3901         3.1
        46.7400      2181.2000        62.6000         0.3777         4.2
        47.0400      2169.6001        65.1100         0.3752         5.1
        47.3400      2264.7000        64.5500         0.3894         4.7
        47.6400      2276.5000        63.2500         0.3771         4.1
        47.9400      2286.7000        64.2600         0.3469         4.5
