~VERSION INFORMATION
 VERS.                 2.0:   CWLS LOG ASCII STANDARD -VERSION 2.0
 WRAP.                  NO:   ONE LINE PER DEPTH STEP
~WELL INFORMATION BLOCK
#MNEM.UNIT           DATA                    DESCRIPTION OF MNEMONIC
#---------    -------------------            -------------------------------
# Generated from Intellog Unique Number	CC_88_90/WELL/3018
WELL.         IMPERIAL OIL                   : Well_name    - WELL
LOC .         AA/02-21-090-13W4/0            : Location     - LOCATION
UWI .         AA/02-21-090-13W400            : Uwi          - UNIQUE WELL ID
ENTR.         JOETTE                         : Entered      - ENTERED BY
SRVC.         SCHLUMBERGER                   : Scn          - SERVICE COMPANY
DATE.         03/11/92                       : Date         - LOG DATE
STRT.M        45.72                          : top_depth    - START DEPTH
STOP.M        146.72                         : bot_depth    - STOP DEPTH
STEP.M        0.25                           : increment    - STEP LENGTH
 NULL. -999.2500:NULL Value
~CURVE INFORMATION BLOCK
#MNEM UNIT       ERCB CURVE CODE    CURVE DESCRIPTION
#-----------   ------------------   ----------------------------------
DEPT.M        00 001 00 00         : DEPTH        - DEPTH
GR  .API      00 310 00 00         : GR           - GAMMA RAY
NPHI.V/V      00 330 00 00         : PHIN         - NEUTRON POROSITY (SANDSTONE)
ILD .OHMM     00 120 00 00         : RESD         - DEEP RESISTIVITY (DIL)
~PARAMETER INFORMATION
#MNEM.UNIT           DATA             DESCRIPTION OF MNEMONIC
#---------         -----------     ------------------------------
GL  .M        502.92               : gl           - GROUND LEVEL ELEVATION
EREF.M        503.53               : kb           - ELEVATION OF DEPTH REFERENCE
DATM.M        503.53               : datum        - DATUM ELEVATION
TDD .M        213.97               : tdd          - TOTAL DEPTH DRILLER
RUN .         ONE                  : Run          - RUN NUMBER
ENG .         JO                   : Engineer     - RECORDING ENGINEER
WIT .         TIM                  : Witness      - WITNESSED BY
MUD .         GEL                  : Mud_type     - MUD TYPE
MATR.         SANDSTONE            : Logunit      - NEUTRON MATRIX
TMAX.C        18.3333              : BHT          - MAXIMUM RECORDED TEMPERATURE
BHTD.M        213.97               : BHTDEP       - MAXIMUM RECORDED TEMPERATURE
RMT .C        18                   : MDTP         - TEMPERATURE OF MUD
MUDD.KG/M     541.666              : MWT          - MUD DENSITY
NEUT.         1                    : NEUTRON      - NEUTRON TYPE
RESI.         0                    : RESIST       - RESISTIVITY TYPE
RM  .OHMM     6.4                  : RM           - RESISTIVITY OF MUD
RMC .OHMM     6.4                  : RMC          - RESISTIVITY OF MUD CAKE
RMF .OHMM     6.4                  : RMF          - RESISTIVITY OF MUD FILTRATE
SUFT.C        4                    : SUFT         - SURFACE TEMPERATURE
~A  DEPTH       GR     PHIN     RESD
   45.720   85.425    0.458   32.140
   45.970   84.199    0.436   29.896
   46.220   87.275    0.435   27.362
   46.470   96.496    0.426   21.779
   46.720  112.478    0.412   25.339
   46.970  106.336    0.422   25.053
   47.220  105.725    0.399   24.187
   47.470  119.863    0.401   25.208
   47.720  127.241    0.438   24.342
   47.970  113.723    0.438   26.087
   48.220  111.268    0.433   28.124
   48.470  124.792    0.441   32.046
   48.720  121.108    0.449   31.833
   48.970  110.048    0.441   30.387
   49.220  109.437    0.425   32.277
   49.470  105.138    0.429   34.313
   49.720  102.683    0.436   35.769
   49.970  103.916    0.412   35.338
   50.220  112.523    0.404   33.602
   50.470  105.765    0.414   32.083
   50.720   93.477    0.419   33.610
   50.970  100.855    0.421   31.584
   51.220   95.942    0.423   30.428
   51.470  108.237    0.431   29.852
   51.720  115.614    0.434   32.105
   51.970  119.920    0.437   32.763
   52.220  127.297    0.421   31.535
   52.470  112.551    0.410   32.482
   52.720  104.565    0.417   33.357
   52.970  107.641    0.422   31.621
   53.220  118.706    0.417   27.562
   53.470  121.168    0.416   24.448
   53.720  121.171    0.429   26.846
   53.970  109.497    0.441   22.280
   54.220   90.449    0.454   20.616
   54.470   89.838    0.461   22.579
   54.720   93.528    0.449   24.035
   54.970   94.760    0.439   22.951
   55.220  108.899    0.448   22.303
   55.470  120.578    0.448   19.261
   55.720  126.727    0.436   14.549
   55.970  125.501    0.443   13.538
   56.220  106.453    0.456   14.341
   56.470   84.331    0.469   14.853
   56.720   97.856    0.462   15.076
   56.970   89.255    0.453   13.991
   57.220   91.102    0.449   12.328
   57.470   99.094    0.475    9.576
   57.720   99.712    0.477    9.508
   57.970  102.173    0.473    9.222
   58.220   96.030    0.464    8.646
   58.470  102.794    0.461    7.490
   58.720  124.307    0.475   11.920
   58.970  135.987    0.483   20.631
   59.220  129.230    0.482   13.235
   59.470  116.941    0.475   10.918
   59.720  102.195    0.472   11.938
   59.970  112.646    0.478   12.669
   60.220  114.493    0.469    9.263
   60.470  118.183    0.467    9.559
   60.720  121.874    0.481    9.054
   60.970  118.189    0.496    8.698
   61.220  115.734    0.506    8.340
   61.470  118.196    0.497    7.981
   61.720  120.043    0.514    7.624
   61.970  108.984    0.520    9.224
   62.220  100.998    0.499    9.953
   62.470  102.229    0.490    9.304
   62.720  113.295    0.484    8.366
   62.970  102.850    0.494    8.225
   63.220  101.625    0.515    8.232
   63.470  104.701    0.495    7.872
   63.720  110.849    0.486    7.442
   63.970  112.082    0.480    7.664
   64.220  105.325    0.483    8.321
   64.470  109.630    0.489    8.833
   64.720  109.633    0.503    9.854
   64.970  107.792    0.499   10.947
   65.220  108.410    0.481   16.610
   65.470   99.809    0.458   11.537
   65.720   99.812    0.451   10.089
   65.970   97.972    0.468    9.369
   66.220   83.225    0.476    8.938
   66.470   88.145    0.466   10.322
   66.720   94.909    0.467    9.601
   66.970   89.380    0.470    8.735
   67.220   91.842    0.480    9.319
   67.470  101.678    0.476   13.387
   67.720  102.296    0.465   10.561
   67.970   93.081    0.465    8.390
   68.220  105.375    0.473    7.451
   68.470  120.742    0.484    7.093
   68.720  120.131    0.505    7.388
   68.970  117.061    0.480   11.383
   69.220  120.137    0.464   13.709
   69.470  109.079    0.480   12.118
   69.720   99.249    0.490    9.510
   69.970   94.949    0.468    7.991
   70.220   98.640    0.466    7.270
   70.470   99.258    0.475    8.727
   70.720  100.490    0.470    8.371
   70.970   98.650    0.469    8.447
   71.220   91.892    0.490    8.233
   71.470   96.197    0.496    8.165
   71.720  108.492    0.481    8.098
   71.970   94.975    0.471    8.029
   72.220   95.593    0.479    8.323
   72.470  102.356    0.470   10.360
   72.720   92.526    0.461    9.638
   72.970  101.747    0.474    8.700
   73.220  100.522    0.486    8.054
   73.470   89.463    0.486    7.838
   73.720   88.852    0.475    7.554
   73.970   94.386    0.484    7.195
   74.220   98.691    0.507    6.837
   74.470   95.621    0.513    6.842
   74.720   88.864    0.489    9.022
   74.970   91.325    0.476   25.277
   75.220  118.369    0.440   32.175
   75.470  104.852    0.433   34.211
   75.720   93.178    0.433   35.739
   75.970   90.723    0.426   35.888
   76.220   89.498    0.417   31.322
   76.470  112.239    0.402   27.845
   76.720  123.919    0.403   25.746
   76.970  113.475    0.434   29.159
   77.220  114.708    0.436   24.812
   77.470  114.710    0.413   32.506
   77.720  104.266    0.418   28.231
   77.970   98.738    0.428   26.421
   78.220   97.512    0.430   25.192
   78.470  109.806    0.436   24.181
   78.720  120.258    0.418   23.315
   78.970  110.427    0.425   23.538
   79.220  107.357    0.400   22.020
   79.470  109.819    0.406   21.588
   79.720  108.593    0.416   21.157
   79.970  108.597    0.423   22.104
   80.220  116.589    0.407   22.763
   80.470  112.290    0.381   21.897
   80.720   93.241    0.385   22.119
   80.970   87.099    0.395   24.737
   81.220   82.800    0.414   24.814
   81.470   80.960    0.420   24.382
   81.720   72.974    0.378   24.169
   81.970   64.987    0.348   25.551
   82.220   74.823    0.332   27.153
   82.470   83.430    0.329   34.993
   82.720   88.350    0.360   31.877
   82.970   96.957    0.379   18.677
   83.220  116.012    0.390   16.288
   83.470  106.797    0.402   16.800
   83.720  117.862    0.386   17.385
   83.970  127.084    0.379   19.276
   84.220  120.327    0.392   23.634
   84.470  116.642    0.410   20.810
   84.720  120.948    0.412   25.095
   84.970  124.024    0.379   24.881
   85.220  128.329    0.371   30.980
   85.470  116.655    0.394   27.140
   85.720  110.512    0.404   25.838
   85.970   95.766    0.403   27.512
   86.220   90.239    0.335   30.709
   86.470   97.002    0.198   42.321
   86.720  102.536    0.126   44.212
   86.970  110.528    0.080   42.331
   87.220  106.844    0.044   41.899
   87.470  111.764    0.019   41.178
   87.720  106.850    0.017   40.602
   87.970  108.697    0.045   39.736
   88.220  105.627    0.060   38.798
   88.470   93.954    0.082   40.471
   88.720   93.957    0.110   40.839
   88.970  104.408    0.143   39.175
   89.220  102.567    0.173   36.059
   89.470  110.560    0.177   30.696
   89.720  116.708    0.196   27.508
   89.970  103.806    0.246   21.854
   90.220   81.685    0.317   21.568
   90.470   82.302    0.390   21.790
   90.720  101.972    0.418   21.069
   90.970  102.590    0.415   20.131
   91.220   88.457    0.408   18.975
   91.470   79.857    0.404   17.673
   91.720   83.548    0.403   16.372
   91.970   81.093    0.410   17.247
   92.220   77.408    0.425   17.252
   92.470   94.619    0.441   16.531
   92.720  107.528    0.429   15.665
   92.970  105.073    0.428   15.669
   93.220   96.472    0.424   17.633
   93.470  105.079    0.431   19.814
   93.720  108.770    0.425   20.689
   93.970   95.867    0.417   19.895
   94.220   91.568    0.426   19.029
   94.470   87.884    0.422   17.800
   94.720   89.116    0.410   18.531
   94.970   77.443    0.399   19.841
   95.220   80.519    0.402   19.483
   95.470  111.865    0.421   19.125
   95.720  114.941    0.433   19.782
   95.970  114.329    0.437   20.295
   96.220  111.260    0.437   20.082
   96.470   84.836    0.431   20.885
   96.720   81.767    0.422   18.495
   96.970   84.843    0.406   18.210
   97.220   89.148    0.396   19.085
   97.470  103.900    0.402   20.467
   97.720  130.330    0.421   21.923
   97.970  124.188    0.432   20.840
   98.220  111.899    0.434   18.377
   98.470  104.529    0.430   19.688
   98.720  105.146    0.430   19.041
   98.970   91.013    0.431   18.393
   99.220   85.486    0.434   17.961
   99.470   83.031    0.433   19.489
   99.720   82.420    0.426   21.670
