~VERSION INFORMATION
 VERS.                 2.0:   CWLS LOG ASCII STANDARD -VERSION 2.0
 WRAP.                  NO:   ONE LINE PER DEPTH STEP
~WELL INFORMATION BLOCK
#MNEM.UNIT           DATA                    DESCRIPTION OF MNEMONIC
#---------    -------------------            -------------------------------
# Generated from Intellog Unique Number	CS_73_76/WELL/1041
WELL.         06-14-076-07W4                 : Well_name    - WELL
LOC .         AA/06-14-076-07W4/0            : Location     - LOCATION
UWI .         AA/06-14-076-07W4/0            : Uwi          - UNIQUE WELL ID
ENTR.         SP                             : Entered      - ENTERED BY
SRVC.         SCHLUMBERGER                   : Scn          - SERVICE COMPANY
STRT.M        175                            : top_depth    - START DEPTH
STOP.M        415                            : bot_depth    - STOP DEPTH
STEP.M        0.25                           : increment    - STEP LENGTH
 NULL. -999.2500:NULL Value
~CURVE INFORMATION BLOCK
#MNEM UNIT       ERCB CURVE CODE    CURVE DESCRIPTION
#-----------   ------------------   ----------------------------------
DEPT.M        00 001 00 00         : DEPTH        - DEPTH
NPHI.V/V      00 330 00 00         : PHIN         - NEUTRON POROSITY (LIMESTONE)
DPHI.V/V      00 890 00 00         : PHID         - DENSITY POROSITY (LIMESTONE)
GR  .API      00 310 00 00         : GR           - GAMMA RAY
ILD .OHMM     00 120 00 00         : RESD         - DEEP RESISTIVITY (DIL)
~PARAMETER INFORMATION
#MNEM.UNIT           DATA             DESCRIPTION OF MNEMONIC
#---------         -----------     ------------------------------
GL  .M        607.14               : gl           - GROUND LEVEL ELEVATION
EREF.M        610.79               : kb           - ELEVATION OF DEPTH REFERENCE
DATM.M        607.14               : datum        - DATUM ELEVATION
TDD .M        414.9                : tdd          - TOTAL DEPTH DRILLER
RUN .         ONE                  : Run          - RUN NUMBER
ENG .         BILL                 : Engineer     - RECORDING ENGINEER
WIT .         JIM                  : Witness      - WITNESSED BY
MUD .         GEL                  : Mud_type     - MUD TYPE
MATR.         LIMESTONE            : Logunit      - NEUTRON MATRIX
TMAX.C        18                   : BHT          - MAXIMUM RECORDED TEMPERATURE
BHTD.M        414.9                : BHTDEP       - MAXIMUM RECORDED TEMPERATURE
MATR.         1                    : LOGUNIT      - NEUTRON MATRIX
RMT .C        25                   : MDTP         - TEMPERATURE OF MUD
NEUT.         1                    : NEUTRON      - NEUTRON TYPE
RESI.         0                    : RESIST       - RESISTIVITY TYPE
RMC .OHMM     0.25                 : RMC          - RESISTIVITY OF MUD CAKE
RMF .OHMM     0.25                 : RMF          - RESISTIVITY OF MUD FILTRATE
SUFT.C        15                   : SUFT         - SURFACE TEMPERATURE
~A  DEPTH     PHIN     PHID       GR     RESD
  175.000    0.189    0.100   44.084   98.064
  175.250    0.203    0.102   39.194   96.305
  175.500    0.208    0.111   37.365   89.381
  175.750    0.208    0.119   35.536   81.400
  176.000    0.213    0.123   35.544   67.455
  176.250    0.219    0.130   37.387   51.835
  176.500    0.216    0.142   39.844   42.149
  176.750    0.210    0.156   44.138   33.009
  177.000    0.208    0.176   43.534   26.840
  177.250    0.214    0.257   41.092   23.989
  177.500    0.345    0.270   38.652   24.007
  177.750    0.337    0.276   37.434   25.912
  178.000    0.327    0.244   40.506   30.735
  178.250    0.282    0.221   42.347   36.452
  178.500    0.279    0.195   44.191   41.629
  178.750    0.275    0.177   46.648   46.660
  179.000    0.261    0.221   49.105   45.826
  179.250    0.224    0.240   46.665   40.948
  179.500    0.205    0.299   42.998   34.588
  179.750    0.229    0.447   36.883   31.503
  180.000    0.323    0.459   33.217   30.927
  180.250    0.293    0.414   35.060   29.810
  180.500    0.256    0.330   39.354   26.637
  180.750    0.228    0.307   44.872   21.662
  181.000    0.216    0.275   53.451   14.586
  181.250    0.220    0.220   71.827    9.281
  181.500    0.390    0.222   79.796    6.869
  181.750    0.479    0.279   85.925    5.910
  182.000    0.524    0.290   85.321    5.282
  182.250    0.587    0.268   85.328    4.902
  182.500    0.608    0.252   82.275    4.999
  182.750    0.524    0.252   85.958    5.098
  183.000    0.501    0.260   87.800    5.103
  183.250    0.534    0.267   90.259    4.918
  183.500    0.560    0.271   90.876    4.829
  183.750    0.516    0.269   84.763    4.834
  184.000    0.482    0.267   85.382    4.747
  184.250    0.436    0.268   86.614    4.841
  184.500    0.446    0.273   86.008    4.846
  184.750    0.479    0.270   87.853    4.943
  185.000    0.546    0.268   86.024    5.137
  185.250    0.538    0.264   82.972    5.337
  185.500    0.572    0.264   84.203    5.654
  185.750    0.503    0.273   80.538    5.765
  186.000    0.472    0.270   78.097    5.879
  186.250    0.453    0.260   81.777    6.112
  186.500    0.429    0.248   84.845    6.116
  186.750    0.418    0.254   87.914    6.006
  187.000    0.429    0.266   91.597    5.789
  187.250    0.446    0.266   95.277    5.579
  187.500    0.601    0.250   98.346    5.480
  187.750    0.569    0.247   98.356    5.484
  188.000    0.571    0.264   97.749    5.594
  188.250    0.580    0.274   96.531    5.704
  188.500    0.572    0.275   97.765    5.817
  188.750    0.555    0.281   96.547    5.933
  189.000    0.492    0.276   94.106    6.051
  189.250    0.487    0.273   91.054    6.170
  189.500    0.583    0.282   87.998    6.659
  189.750    0.575    0.263   77.597    7.323
  190.000    0.496    0.268   66.584    8.365
  190.250    0.422    0.261   56.184    9.553
  190.500    0.390    0.172   48.843   10.910
  190.750    0.365    0.131   46.403   12.461
  191.000    0.292    0.084   52.533   13.969
  191.250    0.445    0.075   58.664   13.978
  191.500    0.435    0.078   62.956   12.258
  191.750    0.410    0.159   68.474   10.352
  192.000    0.415    0.202   73.381    8.580
  192.250    0.405    0.242   75.838    7.524
  192.500    0.614    0.248   79.518    6.723
  192.750    0.619    0.254   85.649    6.239
  193.000    0.510    0.253   84.431    7.126
  193.250    0.471    0.206   77.092   10.208
  193.500    0.359    0.151   73.426   13.056
  193.750    0.329    0.147   77.720   17.018
  194.000    0.471    0.173   80.178   19.437
  194.250    0.476    0.220   81.409   20.978
  194.500    0.452    0.260   82.642   22.221
  194.750    0.433    0.263   84.486   22.659
  195.000    0.419    0.265   85.717   23.108
  195.250    0.402    0.273   88.175   22.695
  195.500    0.410    0.260   90.019   22.287
  195.750    0.436    0.243   92.480   21.077
  196.000    0.467    0.222   93.097   19.938
  196.250    0.500    0.218   93.103   19.578
  196.500    0.538    0.239   90.049   19.595
  196.750    0.534    0.259   88.832   19.612
  197.000    0.523    0.266   82.717   20.002
  197.250    0.537    0.269   68.030   20.786
  197.500    0.558    0.276   53.343   22.861
  197.750    0.549    0.299   44.167   27.627
  198.000    0.502    0.320   38.664   32.156
  198.250    0.451    0.332   35.610   34.058
  198.500    0.415    0.325   39.292   35.398
  198.750    0.374    0.316   53.993   35.426
  199.000    0.366    0.309   75.431   34.789
  199.250    0.523    0.309   81.562   31.093
  199.500    0.543    0.308   82.794   27.786
  199.750    0.516    0.304   81.577   23.910
  200.000    0.448    0.305   82.809   20.191
  200.250    0.426    0.301   80.979   16.733
  200.500    0.417    0.261   90.173   14.132
  200.750    0.461    0.247   96.303   12.627
  201.000    0.483    0.230   98.147   11.074
  201.250    0.515    0.236   95.092   10.086
  201.500    0.518    0.248   93.264    9.719
  201.750    0.508    0.263   90.209   11.749
  202.000    0.467    0.268   80.422   14.746
  202.250    0.471    0.292   73.694   17.823
  202.500    0.518    0.321   65.742   20.353
  202.750    0.492    0.340   59.014   22.816
  203.000    0.481    0.358   57.797   24.622
  203.250    0.473    0.348   60.867   25.589
  203.500    0.494    0.340   60.874   26.100
  203.750    0.522    0.345   53.535   27.127
  204.000    0.469    0.343   48.033   27.150
  204.250    0.419    0.341   44.365   27.693
  204.500    0.410    0.340   44.373   28.235
  204.750    0.471    0.351   46.830   28.267
  205.000    0.479    0.370   53.575   28.283
  205.250    0.477    0.381   59.706   27.773
  205.500    0.473    0.376   63.997   26.266
  205.750    0.480    0.365   71.965   24.374
  206.000    0.481    0.346   78.707   20.585
  206.250    0.438    0.326   84.838   17.057
  206.500    0.389    0.329   92.192   12.862
  206.750    0.368    0.266  100.159   10.461
  207.000    0.376    0.227  102.005    9.349
  207.250    0.408    0.188   97.726    8.675
  207.500    0.469    0.145   95.283    7.901
  207.750    0.506    0.132  102.638    7.196
  208.000    0.513    0.202  113.668    6.804
  208.250    0.485    0.204  114.287    6.316
  208.500    0.464    0.208  110.008    5.972
  208.750    0.447    0.212  104.506    5.542
  209.000    0.433    0.218  101.451    5.242
  209.250    0.490    0.230   97.786    5.051
  209.500    0.522    0.241   94.119    5.250
  209.750    0.547    0.259   83.106    5.997
  210.000    0.494    0.270   76.991    7.248
  210.250    0.442    0.283   73.325    8.278
  210.500    0.421    0.290   77.009    9.105
  210.750    0.392    0.283   80.687    9.643
  211.000    0.396    0.257   88.043    9.652
  211.250    0.434    0.253   95.398    9.300
  211.500    0.476    0.251   98.466    8.157
  211.750    0.511    0.237   95.414    7.569
  212.000    0.494    0.237   91.134    7.294
  212.250    0.446    0.236   86.245    7.164
  212.500    0.402    0.237   85.027    7.171
  212.750    0.426    0.227   85.647    7.311
  213.000    0.462    0.225   88.106    7.319
  213.250    0.509    0.222   87.499    7.605
  213.500    0.522    0.228   81.997    8.524
  213.750    0.516    0.239   78.332    9.552
  214.000    0.520    0.251   74.664   11.331
  214.250    0.467    0.258   71.610   11.999
  214.500    0.432    0.258   67.945   12.476
  214.750    0.427    0.258   68.564   12.719
  215.000    0.480    0.256   74.695   12.492
  215.250    0.499    0.255   78.378   12.044
  215.500    0.465    0.256   78.385   12.051
  215.750    0.441    0.255   82.066   11.834
  216.000    0.424    0.254   86.358   11.842
  216.250    0.401    0.249   92.491   12.077
  216.500    0.460    0.245   94.946   14.059
  216.750    0.492    0.278   99.853   15.460
  217.000    0.471    0.309  107.206   18.336
  217.250    0.433    0.321  114.562   22.160
  217.500    0.425    0.320  113.345   25.795
  217.750    0.416    0.307  105.393   25.819
  218.000    0.409    0.295   97.442   24.879
  218.250    0.399    0.279   96.225   23.529
