~VERSION INFORMATION
 VERS.                 2.0:   CWLS LOG ASCII STANDARD -VERSION 2.0
 WRAP.                  NO:   ONE LINE PER DEPTH STEP
~WELL INFORMATION BLOCK
#MNEM.UNIT           DATA                    DESCRIPTION OF MNEMONIC
#---------    -------------------            -------------------------------
# Generated from Intellog Unique Number	CN_94_101/WELL/2816
WELL.         03-02-096-15W4                 : Well_name    - WELL
LOC .         AA/03-02-096-15W4/0            : Location     - LOCATION
UWI .         AA/03-02-096-15W400            : Uwi          - UNIQUE WELL ID
ENTR.         JOETTE                         : Entered      - ENTERED BY
SRVC.         SCHLUMBERGER                   : Scn          - SERVICE COMPANY
DATE.         07/07/92                       : Date         - LOG DATE
STRT.M        50                             : top_depth    - START DEPTH
STOP.M        330                            : bot_depth    - STOP DEPTH
STEP.M        0.25                           : increment    - STEP LENGTH
 NULL. -999.2500:NULL Value
~CURVE INFORMATION BLOCK
#MNEM UNIT       ERCB CURVE CODE    CURVE DESCRIPTION
#-----------   ------------------   ----------------------------------
DEPT.M        00 001 00 00         : DEPTH        - DEPTH
CALI.MM       00 280 01 00         : CAL          - CALIPER
GR  .API      00 310 00 00         : GR           - GAMMA RAY
NPHI.V/V      00 330 00 00         : PHIN         - NEUTRON POROSITY (SANDSTONE)
DPHI.V/V      00 890 00 00         : PHID         - DENSITY POROSITY (SANDSTONE)
ILD .OHMM     00 120 00 00         : RESD         - DEEP RESISTIVITY (DIL)
~PARAMETER INFORMATION
#MNEM.UNIT           DATA             DESCRIPTION OF MNEMONIC
#---------         -----------     ------------------------------
GL  .M        577.32               : gl           - GROUND LEVEL ELEVATION
EREF.M        580.67               : kb           - ELEVATION OF DEPTH REFERENCE
DATM.M        580.67               : datum        - DATUM ELEVATION
TDD .M        330                  : tdd          - TOTAL DEPTH DRILLER
RUN .         ONE                  : Run          - RUN NUMBER
ENG .         JO                   : Engineer     - RECORDING ENGINEER
WIT .         TIM                  : Witness      - WITNESSED BY
MUD .         GEL                  : Mud_type     - MUD TYPE
MATR.         SANDSTONE            : Logunit      - NEUTRON MATRIX
TMAX.C        19                   : BHT          - MAXIMUM RECORDED TEMPERATURE
BHTD.M        330                  : BHTDEP       - MAXIMUM RECORDED TEMPERATURE
RMT .C        13                   : MDTP         - TEMPERATURE OF MUD
MUDD.KG/M     1000                 : MWT          - MUD DENSITY
NEUT.         1                    : NEUTRON      - NEUTRON TYPE
RESI.         0                    : RESIST       - RESISTIVITY TYPE
RM  .OHMM     2.5                  : RM           - RESISTIVITY OF MUD
RMC .OHMM     2.5                  : RMC          - RESISTIVITY OF MUD CAKE
RMF .OHMM     2.5                  : RMF          - RESISTIVITY OF MUD FILTRATE
SUFT.C        4                    : SUFT         - SURFACE TEMPERATURE
~A  DEPTH      CAL       GR     PHIN     PHID     RESD
# ...
  305.500  196.840   63.661    0.364    0.260   27.078
  305.750  197.005   67.361    0.368    0.242   26.655
  306.000  197.104   69.834    0.380    0.219   25.760
  306.250  197.302   69.310    0.394    0.235   24.868
  306.500  197.368   66.975    0.389    0.258   24.453
  306.750  197.567   66.471    0.383    0.263   24.506
  307.000  197.666   67.154    0.383    0.272   24.123
  307.250  197.798   67.213    0.393    0.272   24.175
  307.500  197.897   67.293    0.403    0.262   24.241
  307.750  199.068   61.337    0.397    0.273   24.293
  308.000  199.200   59.023    0.393    0.272   24.784
  308.250  199.332   60.892    0.386    0.267   25.299
  308.500  199.464   63.386    0.397    0.264   25.825
  308.750  199.597   64.672    0.421    0.254   26.376
  309.000  200.735   62.961    0.430    0.246   26.910
  309.250  200.867   60.023    0.418    0.267   27.965
  309.500  201.032   58.272    0.421    0.285   29.618
  309.750  201.131   60.181    0.417    0.294   31.969
  310.000  201.296   61.468    0.411    0.288   35.801
  310.250  201.362   59.153    0.403    0.280   37.917
  310.500  200.489   57.986    0.402    0.283   40.136
  310.750  200.687   55.068    0.424    0.283   42.531
  311.000  200.852   53.336    0.430    0.282   44.175
  311.250  200.918   53.416    0.431    0.290   47.656
  311.500  201.117   55.949    0.433    0.313   59.606
  311.750  200.177   56.592    0.435    0.318   58.644
  312.000  200.342   57.858    0.444    0.324   53.599
  312.250  200.474   59.144    0.433    0.318   48.987
  312.500  200.607   56.810    0.410    0.291   46.478
  312.750  199.766   53.288    0.401    0.285   46.528
  313.000  199.865   51.557    0.398    0.309   51.127
  313.250  199.964   53.447    0.393    0.316   57.226
  313.500  200.163   55.940    0.390    0.319   60.608
  313.750  200.262   57.830    0.398    0.312   58.541
  314.000  200.394   59.116    0.400    0.302   62.001
  314.250  200.559   57.404    0.406    0.295   66.886
  314.500  200.658   56.277    0.419    0.306   77.716
  314.750  200.790   54.526    0.432    0.305   88.651
  315.000  200.890   52.211    0.429    0.308   93.890
  315.250  201.022   51.648    0.434    0.319  101.288
  315.500  201.154   51.727    0.435    0.325  105.316
  315.750  201.352   49.412    0.432    0.329  107.447
  316.000  201.451   47.681    0.438    0.332  113.797
  316.250  201.583   45.347    0.432    0.328  118.322
  316.500  201.749   44.822    0.428    0.327  125.382
  316.750  201.848   44.882    0.428    0.333  135.262
  317.000  201.947   46.168    0.428    0.346  133.007
  317.250  200.134   46.851    0.423    0.348  121.629
  317.500  200.233   47.553    0.411    0.347  121.890
  317.750  199.326   49.443    0.400    0.344  124.357
  318.000  197.513   51.936    0.394    0.340  131.777
  318.250  197.579   53.826    0.390    0.337  134.444
  318.500  196.706   53.905    0.394    0.328  134.734
  318.750  195.898   51.591    0.397    0.318  137.534
  319.000  195.964   51.670    0.404    0.322  145.662
  319.250  195.124   52.333    0.411    0.338  163.125
  319.500  194.250   53.619    0.426    0.336  169.612
  319.750  193.410   52.491    0.425    0.331  160.837
  320.000  192.470   53.174    0.415    0.326  155.269
  320.250  191.629   58.101    0.420    0.337  144.626
  320.500  190.756   64.215    0.425    0.339  137.071
  320.750  188.876   66.104    0.428    0.336   73.386
  321.000  187.970   60.753    0.429    0.341   56.793
  321.250  186.090   54.778    0.427    0.336   19.530
  321.500  182.233   52.443    0.428    0.333   17.204
  321.750  180.320   54.353    0.427    0.324   15.163
  322.000  176.430   56.865    0.427    0.318   14.116
  322.250  170.527   59.962    0.425    0.311   13.149
  322.500  165.664   61.852    0.426    0.321   12.462
  322.750  162.812   67.342    0.426    0.316   11.824
  323.000  162.878   63.197    0.427    0.322   11.620
  323.250  160.998   58.449    0.435    0.327   11.427
  323.500  159.152   54.304    0.433    0.330   11.248
  323.750  158.246   53.157    0.421    0.324   11.061
  324.000  158.411   52.029    0.397    0.319   10.888
  324.250  158.543   51.525    0.391    0.311   10.917
  324.500  158.675   51.604    0.382    0.297   10.935
  324.750  158.774   51.703    0.378    0.260   10.953
  325.000  158.906   52.386    0.400    0.251   10.976
  325.250  159.039   52.446    0.413    0.246   11.000
  325.500  159.270   53.128    0.432    0.241   11.023
  325.750  159.369   53.227    0.445    0.235   11.252
  326.000  159.468   53.327    0.441    0.224   11.706
  326.250  159.567   53.386    0.438    0.147   12.391
  326.500  159.733   53.465    0.432   -0.026   21.199
  326.750  159.832   53.545    0.369   -0.017   24.169
  327.000  161.003   53.624    0.351   -0.006   26.558
  327.250  161.102   53.703    0.308    0.012   27.644
  327.500  161.267   53.199    0.315    0.021   27.674
  327.750  161.432   52.675    0.328    0.042   27.674
  328.000  161.498   52.111    0.342    0.053   22.304
  328.250  161.630   52.190    0.358    0.068   21.544
  328.500  161.796   51.686    0.385    0.069   21.567
  328.750  161.895   50.559    0.390    0.065   20.078
  329.000  162.093   49.451    0.385    0.089   19.754
  329.250  162.159   49.510    0.383    0.123   19.786
  329.500  162.324   49.590    0.391    0.118   19.828
  329.750  163.528   50.252    0.395    0.112   19.871
  330.000  163.594   51.559    0.402    0.110   19.914
