~VERSION INFORMATION
 VERS.                 2.0:   CWLS LOG ASCII STANDARD -VERSION 2.0
 WRAP.                  NO:   ONE LINE PER DEPTH STEP
~WELL INFORMATION BLOCK
#MNEM.UNIT           DATA                    DESCRIPTION OF MNEMONIC
#---------    -------------------            -------------------------------
# Generated from Intellog Unique Number	CN_91_93/WELL/2928
WELL.         MILL CITY                      : Well_name    - WELL
LOC .         AA/04-05-092-11W4/0            : Location     - LOCATION
UWI .         AA/04-05-092-11W400            : Uwi          - UNIQUE WELL ID
ENTR.         JOETTE                         : Entered      - ENTERED BY
SRVC.         SCHLUMBERGER                   : Scn          - SERVICE COMPANY
DATE.         03\31\92                       : Date         - LOG DATE
STRT.F        30                             : top_depth    - START DEPTH
STOP.F        409.757                        : bot_depth    - STOP DEPTH
STEP.F        0.8202                         : increment    - STEP LENGTH
 NULL. -999.2500:NULL Value
~CURVE INFORMATION BLOCK
#MNEM UNIT       ERCB CURVE CODE    CURVE DESCRIPTION
#-----------   ------------------   ----------------------------------
DEPT.F        00 001 00 00         : DEPTH        - DEPTH
GR  .API      00 310 00 00         : GR           - GAMMA RAY
NPHI.V/V      00 330 00 00         : PHIN         - NEUTRON POROSITY (SANDSTONE)
ILD .OHMM     00 120 00 00         : RESD         - DEEP RESISTIVITY (DIL)
~PARAMETER INFORMATION
#MNEM.UNIT           DATA             DESCRIPTION OF MNEMONIC
#---------         -----------     ------------------------------
GL  .M        393.101              : gl           - GROUND LEVEL ELEVATION
EREF.M        393.101              : kb           - ELEVATION OF DEPTH REFERENCE
DATM.M        393.101              : datum        - DATUM ELEVATION
TDD .M        125.273              : tdd          - TOTAL DEPTH DRILLER
RUN .         ONE                  : Run          - RUN NUMBER
ENG .         JO                   : Engineer     - RECORDING ENGINEER
WIT .         TIM                  : Witness      - WITNESSED BY
MUD .         GEL                  : Mud_type     - MUD TYPE
MATR.         SANDSTONE            : Logunit      - NEUTRON MATRIX
TMAX.C        15                   : BHT          - MAXIMUM RECORDED TEMPERATURE
BHTD.M        125.273              : BHTDEP       - MAXIMUM RECORDED TEMPERATURE
RMT .C        6.66667              : MDTP         - TEMPERATURE OF MUD
MUDD.KG/M     9000                 : MWT          - MUD DENSITY
NEUT.         1                    : NEUTRON      - NEUTRON TYPE
RESI.         0                    : RESIST       - RESISTIVITY TYPE
RM  .OHMM     6.7                  : RM           - RESISTIVITY OF MUD
RMC .OHMM     6.7                  : RMC          - RESISTIVITY OF MUD CAKE
RMF .OHMM     6.7                  : RMF          - RESISTIVITY OF MUD FILTRATE
SUFT.C        4                    : SUFT         - SURFACE TEMPERATURE
~A  DEPTH       GR     PHIN     RESD
   30.000   43.516    0.452   80.040
   30.820   44.930    0.482   79.451
   31.640   43.081    0.476   73.187
   32.461   40.771    0.495   69.467
   33.281   41.947    0.444   71.227
   34.101   53.830    0.413   75.530
   34.921   61.756    0.566   67.700
   35.742   69.451    0.566   57.326
   36.562   71.094    0.563   43.528
   37.382   74.832    0.584   41.177
   38.202   81.596    0.569   41.468
   39.022   79.051    0.571   39.999
   39.843   79.065    0.569   38.334
   40.663   77.683    0.566   40.974
   41.483   73.282    0.568   38.232
   42.303   75.620    0.587   39.307
   43.123   77.729    0.590   38.228
   43.944   78.907    0.553   33.628
   44.764   76.829    0.562   32.647
   45.584   75.449    0.588   31.373
   46.404   73.600    0.591   30.393
   47.224   70.126    0.576   28.923
   48.045   72.933    0.571   28.530
   48.865   74.112    0.598   27.158
   49.685   71.565    0.593   25.591
   50.505   68.322    0.570   23.730
   51.325   62.752    0.528   24.608
   52.146   56.951    0.506   26.466
   52.966   57.666    0.512   32.824
   53.786   59.307    0.526   34.583
   54.606   60.950    0.499   33.701
   55.426   62.128    0.500   30.568
   56.247   63.077    0.508   27.532
   57.067   62.394    0.501   24.106
   57.887   63.337    0.507   22.049
   58.707   62.655    0.521   21.656
   59.528   60.579    0.505   24.100
   60.348   58.730    0.460   23.218
   61.168   57.347    0.526   21.161
   61.988   57.827    0.536   20.083
   62.808   60.170    0.488   26.930
   63.629   60.882    0.524   50.901
   64.449   58.572    0.489   45.126
   65.269   57.886    0.477   17.433
   66.089   57.670    0.476   22.519
   66.909   53.728    0.446   20.952
   67.730   51.416    0.457   20.558
   68.550   55.386    0.505   22.709
   69.370   58.660    0.494   22.022
   70.190   57.744    0.483   21.433
   71.010   56.828    0.477   19.474
   71.831   61.032    0.478   17.516
   72.651   64.304    0.499   15.165
   73.471   65.717    0.479   14.380
   74.291   66.198    0.508   13.205
   75.112   65.515    0.485   13.398
   75.932   65.062    0.497   14.179
   76.752   65.078    0.543   15.841
   77.572   66.956    0.544   15.936
   78.392   66.272    0.515   15.446
   79.213   67.914    0.530   14.465
   80.033   67.697    0.493   14.170
   80.853   64.918    0.516   16.908
   81.673   60.746    0.510   20.135
   82.493   56.574    0.479   20.818
   83.314   54.957    0.455   19.250
   84.134   56.833    0.470   17.487
   84.954   60.109    0.484   18.072
   85.774   61.520    0.480   21.397
   86.594   60.136    0.485   18.460
   87.415   59.685    0.528   15.620
   88.235   63.425    0.558   12.291
   89.055   63.904    0.539   11.800
   89.875   60.894    0.517   13.658
   90.695   60.677    0.490   14.732
   91.516   61.623    0.499   14.632
   92.336   60.474    0.446   14.630
   93.156   51.182    0.393   14.237
   93.976   43.749    0.334   13.550
   94.797   45.160    0.275   20.300
   95.617   52.157    0.481   56.894
   96.437   57.523    0.520   73.135
   97.257   60.331    0.479   11.586
   98.077   55.925    0.480   13.051
   98.898   47.562    0.445   12.756
   99.718   46.648    0.410   15.200
  100.538   53.874    0.440   19.308
  101.358   55.984    0.472   20.383
  102.178   55.766    0.478   26.252
  102.999   58.340    0.514   16.954
  103.819   60.916    0.527   16.169
  104.639   63.490    0.578   14.015
  105.459   65.833    0.570   11.762
  106.280   65.148    0.552    8.727
  107.100   63.535    0.581    8.920
  107.920   63.784    0.537    8.332
  108.740   65.658    0.501    9.406
  109.560   68.934    0.494   14.982
  110.381   70.812    0.523   15.175
  111.201   71.753    0.508   15.174
  112.021   69.208    0.486   15.270
  112.841   65.267    0.472   14.583
  113.661   63.424    0.480   14.189
  114.482   63.436    0.455   18.884
  115.302   63.218    0.448   19.665
  116.122   63.931    0.450   17.021
  116.942   66.043    0.480   16.726
  117.762   65.590    0.491   17.213
  118.583   67.001    0.450   19.169
  119.403   65.619    0.471   15.937
  120.223   62.145    0.458   15.348
  121.043   61.463    0.438   16.129
  121.864   61.247    0.438   15.736
  122.684   60.792    0.450   14.951
  123.504   58.718    0.511   14.460
  124.324   57.100    0.477   14.654
  125.144   54.555    0.450   18.077
  125.965   55.502    0.469   23.065
  126.785   58.076    0.447   23.259
  127.605   59.954    0.451   22.181
  128.425   57.174    0.428   20.907
  129.245   50.208    0.496   18.752
  130.066   48.363    0.494   19.044
  130.886   51.171    0.462   16.302
  131.706   51.416    0.418   20.214
  132.526   48.173    0.424   20.408
  133.346   45.632    0.411   18.743
  134.167   44.479    0.244   18.838
  134.987   44.030    0.155   30.676
  135.807   47.071    0.039   67.662
  136.627   48.482    0.412   49.851
  137.448   47.798    0.442   27.637
  138.268   54.330    0.450   20.199
  139.088   55.973    0.468   20.001
  139.908   58.780    0.462   15.694
  140.728   57.631    0.480   13.246
  141.549   57.645    0.478   14.614
  142.369   52.773    0.429   15.493
  143.189   53.720    0.422   17.937
  144.009   53.504    0.402   19.794
  144.829   53.751    0.447   19.890
  145.650   55.163    0.459   17.442
  146.470   54.711    0.443   17.538
  147.290   50.538    0.443   21.646
  148.110   53.113    0.451   18.317
  148.930   52.427    0.445   19.392
  149.751   54.538    0.443   19.292
  150.571   56.881    0.417   18.018
  151.391   57.126    0.443   18.309
  152.211   51.323    0.439   15.372
  153.031   46.917    0.405   18.697
  153.852   45.302    0.439   21.924
  154.672   46.019    0.420   21.140
  155.492   49.987    0.456   18.006
  156.312   54.891    0.467   18.983
  157.133   57.467    0.486   20.840
  157.953   59.805    0.477   14.478
  158.773   63.312    0.481   14.770
  159.593   64.024    0.460   14.572
  160.413   64.506    0.531   13.102
  161.234   62.659    0.469   12.807
  162.054   64.069    0.478   12.903
  162.874   66.178    0.510   13.390
  163.694   68.054    0.516   14.269
  164.514   68.305    0.516   14.169
  165.335   65.759    0.511   12.993
  166.155   66.472    0.527   12.208
  166.975   62.762    0.483   11.130
  167.795   57.657    0.510   11.716
  168.615   59.302    0.474   12.594
  169.436   61.180    0.444   15.332
  170.256   60.960    0.460   15.232
  171.076   60.974    0.458   15.817
  171.896   62.852    0.470   16.109
  172.717   65.660    0.459   16.596
  173.537   66.840    0.439   16.203
  174.357   65.926    0.476   13.461
  175.177   64.079    0.462   14.731
  175.997   63.391    0.443   15.610
  176.818   64.104    0.471   16.391
  177.638   66.218    0.460   16.291
  178.458   66.930    0.483   15.604
  179.278   66.243    0.462   14.918
  180.098   61.371    0.442   13.937
  180.919   57.895    0.316   13.740
  181.739   60.471    0.301   14.325
  182.559   64.907    0.386   17.943
  183.379   66.783    0.440   28.118
  184.199   68.428    0.489   40.347
  185.020   71.934    0.481   21.656
  185.840   74.276    0.505   15.490
  186.660   71.498    0.505   11.573
  187.480   68.720    0.518   12.159
  188.301   67.108    0.538   12.352
  189.121   66.422    0.527   11.470
  189.941   69.231    0.540   10.392
  190.761   69.480    0.576    9.607
  191.581   70.657    0.536    9.605
  192.402   72.299    0.537    9.799
  193.222   70.688    0.567    9.406
  194.042   69.537    0.520    8.817
  194.862   67.923    0.507    8.325
  195.682   67.241    0.516    8.226
  196.503   67.954    0.497    8.811
  197.323   68.668    0.514   11.059
  198.143   68.683    0.534   12.917
  198.963   67.301    0.498   12.915
  199.783   68.015    0.494   11.348
  200.604   67.332    0.511   10.563
  201.424   66.183    0.512   11.148
  202.244   67.826    0.492   11.928
  203.064   71.098    0.466   12.906
  203.885   69.718    0.530   14.959
  204.705   70.198    0.518   15.250
  205.525   72.307    0.462   13.585
  206.345   72.787    0.448   11.626
  207.165   73.037    0.472   14.070
