~VERSION INFORMATION
 VERS.                 2.0:   CWLS LOG ASCII STANDARD -VERSION 2.0
 WRAP.                  NO:   ONE LINE PER DEPTH STEP
~WELL INFORMATION BLOCK
#MNEM.UNIT           DATA                    DESCRIPTION OF MNEMONIC
#---------    -------------------            -------------------------------
# Generated from Intellog Unique Number	CX_WELLS/WELL/3751
WELL.         AMOCO GREGOIRE                 : Well_name    - WELL
LOC .         AA/01-18-086-08W4/0            : Location     - LOCATION
UWI .         AA/01-18-086-08W400            : Uwi          - UNIQUE WELL ID
ENTR.         T                              : Entered      - ENTERED BY
SRVC.         SCHLUMBERGER                   : Scn          - SERVICE COMPANY
STRT.F        200                            : top_depth    - START DEPTH
STOP.F        861.909                        : bot_depth    - STOP DEPTH
STEP.F        0.82                           : increment    - STEP LENGTH
 NULL. -999.2500:NULL Value
~CURVE INFORMATION BLOCK
#MNEM UNIT       ERCB CURVE CODE    CURVE DESCRIPTION
#-----------   ------------------   ----------------------------------
DEPT.F        00 001 00 00         : DEPTH        - DEPTH
GR  .API      00 310 00 00         : GR           - GAMMA RAY
DPHI.V/V      00 890 00 00         : PHID         - DENSITY POROSITY (SANDSTONE)
ILD .OHMM     00 120 00 00         : RESD         - DEEP RESISTIVITY (DIL)
~PARAMETER INFORMATION
#MNEM.UNIT           DATA             DESCRIPTION OF MNEMONIC
#---------         -----------     ------------------------------
GL  .F        1610                 : gl           - GROUND LEVEL ELEVATION
EREF.F        1615.5               : kb           - ELEVATION OF DEPTH REFERENCE
DATM.F        1615.5               : datum        - DATUM ELEVATION
TDD .F        870                  : tdd          - TOTAL DEPTH DRILLER
RUN .         ONE                  : Run          - RUN NUMBER
ENG .         BILL                 : Engineer     - RECORDING ENGINEER
WIT .         JIM                  : Witness      - WITNESSED BY
MUD .         GEL                  : Mud_type     - MUD TYPE
MATR.         SANDSTONE            : Logunit      - NEUTRON MATRIX
TMAX.F        70                   : BHT          - MAXIMUM RECORDED TEMPERATURE
BHTD.F        870                  : BHTDEP       - MAXIMUM RECORDED TEMPERATURE
MATR.         1                    : LOGUNIT      - NEUTRON MATRIX
RMT .F        68                   : MDTP         - TEMPERATURE OF MUD
NEUT.         1                    : NEUTRON      - NEUTRON TYPE
RESI.         3.5                  : RESIST       - RESISTIVITY TYPE
RMC .OHMM     2.3                  : RMC          - RESISTIVITY OF MUD CAKE
RMF .OHMM     4.5                  : RMF          - RESISTIVITY OF MUD FILTRATE
SUFT.F        39.2                 : SUFT         - SURFACE TEMPERATURE
~A  DEPTH       GR     PHID     RESD
# ...
  377.986   84.093    0.360    6.617
  378.806   79.981    0.361    7.880
  379.626   72.748    0.352    7.079
  380.446   68.116    0.311    5.254
  381.266   64.524    0.286    4.664
  382.087   66.653    0.294    4.475
  382.907   77.623    0.311    4.091
  383.727   96.407    0.327    4.103
  384.547  103.229    0.339    3.919
  385.367  103.810    0.358    3.953
  386.188  103.858    0.370    3.964
  387.008  103.907    0.377    3.992
  387.828  102.903    0.376    3.814
  388.648  100.872    0.375    3.831
  389.469   97.292    0.374    3.848
  390.289   93.688    0.371    3.882
  391.109   89.056    0.369    4.099
  391.929   87.024    0.365    4.132
  392.749   91.233    0.363    4.160
  393.570   96.483    0.363    4.172
  394.390   96.531    0.360    4.406
  395.210   94.500    0.356    4.428
  396.030   92.468    0.354    4.656
  396.850   88.356    0.355    4.679
  397.671   87.897    0.356    4.701
  398.491   86.385    0.358    4.724
  399.311   83.821    0.356    4.746
  400.131   82.310    0.354    4.763
  400.951   87.039    0.356    4.591
  401.772   90.728    0.360    4.602
  402.592   90.777    0.363    4.430
  403.412   91.878    0.365    4.446
  404.232   92.447    0.366    4.274
  405.052   95.628    0.369    4.291
  405.873   97.757    0.370    4.102
  406.693   98.846    0.371    4.124
  407.513   98.374    0.372    4.147
  408.333   98.423    0.374    4.169
  409.154  101.084    0.378    4.192
  409.974  102.705    0.382    4.420
  410.794  101.181    0.384    4.442
  411.614   98.605    0.381    4.682
  412.434   95.533    0.380    4.910
  413.255   90.381    0.375    5.133
  414.075   85.229    0.369    5.578
  414.895   78.516    0.362    5.590
  415.715   71.284    0.356    5.618
  416.535   74.985    0.355    5.434
  417.356   78.662    0.359    5.051
  418.176   85.472    0.362    4.650
  418.996   90.734    0.370    4.055
  419.816   90.782    0.373    3.665
  420.636   90.831    0.369    3.493
  421.457   91.920    0.367    3.298
  422.277   94.049    0.367    2.920
  423.097   96.178    0.370    2.937
  423.917   98.827    0.373    2.748
  424.738   99.395    0.373    2.576
  425.558   99.456    0.377    2.587
  426.378  101.089    0.385    2.415
  427.198  101.114    0.392    2.231
  428.018  100.122    0.398    2.259
  428.839   99.651    0.406    2.271
  429.659   99.204    0.410    2.098
  430.479   99.240    0.410    2.115
  431.299   99.277    0.408    2.138
  432.119   99.325    0.407    2.154
  432.940   98.866    0.405    2.182
  433.760   98.395    0.407    2.199
  434.580   97.403    0.407    2.222
  435.400   95.891    0.404    2.450
  436.220   90.207    0.396    2.478
  437.041   85.587    0.396    2.918
  437.861   85.636    0.396    3.141
  438.681   86.204    0.395    3.592
  439.501   86.773    0.391    3.809
  440.322   87.330    0.389    4.037
  441.142   87.391    0.383    4.260
  441.962   83.291    0.373    4.494
  442.782   81.755    0.366    4.717
  443.602   80.243    0.362    4.745
  444.423   80.836    0.360    4.778
  445.243   81.393    0.359    4.789
  446.063   82.990    0.357    4.612
  446.883   86.183    0.361    4.634
  447.703   87.792    0.366    4.456
  448.524   88.868    0.370    4.473
  449.344   91.010    0.377    4.490
  450.164   91.566    0.386    4.935
  450.984   91.627    0.391    4.947
  451.804   91.156    0.387    5.598
  452.625   90.672    0.384    5.821
  453.445   90.213    0.377    6.878
  454.265   90.249    0.371    9.160
  455.085   89.778    0.366   11.041
  455.906   85.666    0.352   11.275
  456.726   75.313    0.338   10.685
  457.546   69.120    0.338   10.496
  458.366   67.089    0.338   10.936
  459.186   72.858    0.339   11.153
  460.007   76.027    0.341   11.181
  460.827   75.568    0.334   11.198
  461.647   74.576    0.334   11.020
  462.467   72.533    0.337   10.425
  463.287   70.513    0.337   10.236
  464.108   71.602    0.338    9.846
  464.928   74.771    0.350    9.463
  465.748   76.888    0.354    9.079
  466.568   76.961    0.357    8.884
  467.388   75.981    0.357    8.701
  468.209   74.978    0.355    8.523
  469.029   74.494    0.352    8.751
  469.849   73.503    0.342    9.391
  470.669   71.483    0.336   10.649
  471.490   69.959    0.320   11.718
  472.310   67.420    0.309   11.729
  473.130   70.069    0.287   11.746
  473.950   73.238    0.256   11.574
  474.770   74.835    0.272   11.591
  475.591   79.044    0.279   11.607
  476.411   83.265    0.313   11.635
  477.231   79.141    0.331   11.864
  478.051   70.868    0.328   12.509
  478.871   67.797    0.289   13.155
  479.692   63.685    0.260   13.578
  480.512   63.733    0.226   14.424
  481.332   63.782    0.213   15.064
  482.152   62.790    0.216   13.651
  482.972   61.811    0.203   12.026
  483.793   61.860    0.214   10.602
  484.613   64.521    0.255    9.389
  485.433   66.638    0.297    7.976
  486.253   69.807    0.321    7.375
  487.073   70.896    0.334    6.785
  487.894   70.424    0.351    6.196
  488.714   68.913    0.344    6.012
  489.534   68.961    0.338    6.023
  490.354   71.102    0.330    5.840
  491.175   74.259    0.327    5.657
  491.995   77.948    0.333    5.685
  492.815   82.182    0.340    5.501
  493.635   82.763    0.350    5.312
  494.455   82.787    0.356    5.134
  495.276   82.836    0.367    5.157
  496.096   83.925    0.370    4.979
  496.916   85.534    0.370    4.801
  497.736   87.675    0.367    4.818
  498.556   89.296    0.367    4.840
  499.377   89.877    0.372    5.274
  500.197   89.901    0.374    5.703
  501.017   89.454    0.373    6.349
  501.837   89.478    0.371    6.983
  502.657   89.007    0.370    7.417
  503.478   86.987    0.369    7.863
  504.298   83.407    0.366    8.091
  505.118   81.884    0.363    8.314
  505.938   79.840    0.357    8.136
  506.759   76.780    0.348    7.546
  507.579   75.244    0.345    6.946
  508.399   72.692    0.345    6.556
  509.219   74.834    0.344    5.961
  510.039   88.416    0.345    5.566
  510.860   92.094    0.351    4.976
  511.680   96.835    0.356    4.587
  512.500   97.416    0.360    4.398
  513.320   98.493    0.364    4.014
  514.140   99.581    0.367    3.631
  514.961  101.202    0.370    3.441
  515.781  101.251    0.370    3.252
  516.601  101.288    0.370    3.069
  517.421  100.816    0.372    2.885
  518.241  100.345    0.376    2.908
  519.062  100.393    0.379    2.724
  519.882  100.986    0.389    2.758
  520.702  103.115    0.393    2.781
  521.522  104.724    0.396    2.803
  522.343  104.773    0.396    2.825
  523.163  103.781    0.396    3.054
  523.983  102.270    0.393    3.071
  524.803  101.266    0.389    3.299
  525.623   99.234    0.380    3.533
  526.444  101.896    0.370    3.767
  527.264  104.545    0.365    3.984
  528.084  105.633    0.364    4.212
  528.904  104.110    0.364    4.658
  529.724  101.062    0.363    4.680
  530.545   99.526    0.363    5.120
  531.365   97.507    0.363    5.343
  532.185   97.023    0.366    5.565
  533.005   99.152    0.369    6.217
  533.825  101.293    0.372    6.651
  534.646  101.862    0.374    6.874
  535.466  101.390    0.374    7.519
  536.286   99.903    0.371    7.742
  537.106   99.407    0.360    7.982
  537.927   97.896    0.347    7.793
  538.747   98.464    0.330    7.815
  539.567   98.513    0.320    7.626
  540.387   97.014    0.311    7.448
  541.207   97.570    0.299    7.259
  542.028  100.751    0.297    6.463
  542.848  103.388    0.309    6.069
  543.668  103.437    0.318    5.479
  544.488  102.445    0.331    5.301
  545.308  101.974    0.338    5.318
  546.129  102.047    0.346    5.335
  546.949  101.563    0.352    5.357
  547.769  100.076    0.359    6.008
  548.589   99.580    0.357    6.437
  549.409   99.629    0.347    6.877
  550.230   98.650    0.340    7.105
  551.050   95.578    0.333    7.339
  551.870   93.546    0.329    7.350
  552.690   93.595    0.324    7.373
  553.510   94.671    0.329    7.395
  554.331   95.760    0.331    7.012
  555.151   96.329    0.334    6.828
