~VERSION INFORMATION
 VERS.                 2.0:   CWLS LOG ASCII STANDARD -VERSION 2.0
 WRAP.                  NO:   ONE LINE PER DEPTH STEP
~WELL INFORMATION BLOCK
#MNEM.UNIT           DATA                    DESCRIPTION OF MNEMONIC
#---------    -------------------            -------------------------------
# Generated from Intellog Unique Number	CC_88_90/WELL/3020
WELL.         WESTERN HEMISPHERE PETROLEUM C : Well_name    - WELL
LOC .         AA/03-27-088-10W4/0            : Location     - LOCATION
UWI .         AA/03-27-088-10W400            : Uwi          - UNIQUE WELL ID
ENTR.         JOETTE                         : Entered      - ENTERED BY
SRVC.         SCHLUMBERGER                   : Scn          - SERVICE COMPANY
DATE.         03/06/92                       : Date         - LOG DATE
STRT.M        30.48                          : top_depth    - START DEPTH
STOP.M        134.23                         : bot_depth    - STOP DEPTH
STEP.M        0.25                           : increment    - STEP LENGTH
 NULL. -999.2500:NULL Value
~CURVE INFORMATION BLOCK
#MNEM UNIT       ERCB CURVE CODE    CURVE DESCRIPTION
#-----------   ------------------   ----------------------------------
DEPT.M        00 001 00 00         : DEPTH        - DEPTH
GR  .API      00 310 00 00         : GR           - GAMMA RAY
NPHI.V/V      00 330 00 00         : PHIN         - NEUTRON POROSITY (SANDSTONE)
ILD .OHMM     00 120 00 00         : RESD         - DEEP RESISTIVITY (DIL)
~PARAMETER INFORMATION
#MNEM.UNIT           DATA             DESCRIPTION OF MNEMONIC
#---------         -----------     ------------------------------
GL  .M        382.219              : gl           - GROUND LEVEL ELEVATION
EREF.M        382.219              : kb           - ELEVATION OF DEPTH REFERENCE
DATM.M        382.219              : datum        - DATUM ELEVATION
TDD .M        134.112              : tdd          - TOTAL DEPTH DRILLER
RUN .         ONE                  : Run          - RUN NUMBER
ENG .         JO                   : Engineer     - RECORDING ENGINEER
WIT .         TIM                  : Witness      - WITNESSED BY
MUD .         GEL                  : Mud_type     - MUD TYPE
MATR.         SANDSTONE            : Logunit      - NEUTRON MATRIX
TMAX.C        10                   : BHT          - MAXIMUM RECORDED TEMPERATURE
BHTD.M        134.112              : BHTDEP       - MAXIMUM RECORDED TEMPERATURE
RMT .C        10                   : MDTP         - TEMPERATURE OF MUD
MUDD.KG/M     9083.33              : MWT          - MUD DENSITY
NEUT.         1                    : NEUTRON      - NEUTRON TYPE
RESI.         0                    : RESIST       - RESISTIVITY TYPE
RM  .OHMM     8                    : RM           - RESISTIVITY OF MUD
RMC .OHMM     8                    : RMC          - RESISTIVITY OF MUD CAKE
RMF .OHMM     8                    : RMF          - RESISTIVITY OF MUD FILTRATE
SUFT.C        4                    : SUFT         - SURFACE TEMPERATURE
~A  DEPTH       GR     PHIN     RESD
   30.480   81.404    0.494   27.708
   30.730   85.380    0.504   29.774
   30.980   88.052    0.510   35.159
   31.230   86.828    0.511   32.791
   31.480   85.588    0.511   36.700
   31.730   86.971    0.503   33.963
   31.980   85.297    0.475   29.744
   32.230   81.433    0.402   25.893
   32.480   77.585    0.372   22.226
   32.730   73.287    0.340   24.292
   32.980   67.700    0.314   25.988
   33.230   66.476    0.366   24.535
   33.480   71.756    0.453   18.471
   33.730   80.528    0.479   16.840
   33.980   85.373    0.511   15.579
   34.230   91.972    0.529   16.715
   34.480   97.703    0.532   17.858
   34.730   99.505    0.524   18.441
   34.980   97.830    0.512   16.626
   35.230   96.590    0.512   14.627
   35.480   97.089    0.513   13.919
   35.730   97.587    0.508   14.132
   35.980  100.291    0.516   14.169
   36.230   98.616    0.520   14.936
   36.480   99.984    0.515   17.548
   36.730  101.803    0.514   17.577
   36.980  101.866    0.509   15.762
   37.230  101.496    0.499   14.877
   37.480   98.952    0.498   16.559
   37.730   96.827    0.508   17.333
   37.980   94.283    0.514   18.285
   38.230   90.901    0.516   21.826
   38.480   90.933    0.512   17.053
   38.730   92.301    0.507   17.635
   38.980   92.800    0.504   20.070
   39.230   91.576    0.499   17.148
   39.480   89.016    0.491   17.731
   39.730   86.922    0.493   17.576
   39.980   86.986    0.503   18.159
   40.230   90.093    0.514   19.118
   40.480   94.954    0.509   17.480
   40.730   97.191    0.503   16.587
   40.980   97.254    0.505   24.008
   41.230   94.276    0.499   28.287
   41.480   89.559    0.481   29.238
   41.730   83.538    0.472   19.294
   41.980   80.543    0.473   13.599
   42.230   83.231    0.500   14.005
   42.480   92.873    0.509   12.920
   42.730  100.358    0.512   12.027
   42.980  102.144    0.514   11.895
   43.230   99.600    0.518   11.909
   43.480  100.984    0.520   11.570
   43.730  103.671    0.528   10.677
   43.980  104.170    0.541    9.969
   44.230  104.669    0.557   10.005
   44.480  106.890    0.560   10.411
   44.730  111.750    0.551   10.426
   44.980  113.569    0.540   10.455
   45.230  110.140    0.534   11.053
   45.480  106.292    0.538   11.820
   45.730  103.748    0.521   12.587
   45.980  100.769    0.510   12.439
   46.230  101.719    0.504   11.915
   46.480  106.129    0.504   11.768
   46.730  110.104    0.516   11.967
   46.980  109.331    0.523   12.741
   47.230  108.976    0.532   13.508
   47.480  109.008    0.530   14.645
   47.730  107.334    0.520   15.596
   47.980  105.659    0.509   15.264
   48.230  104.419    0.509   14.548
   48.480  105.352    0.509   13.663
   48.730  109.794    0.514   14.437
   48.980  112.015    0.523   15.020
   49.230  110.357    0.514   15.418
   49.480  108.231    0.498   15.448
   49.730  103.965    0.481   15.654
   49.980  100.970    0.460   52.259
   50.230   97.992    0.438   49.153
   50.480   95.883    0.423   16.119
   50.730   99.005    0.457   21.873
   50.980  103.415    0.473   17.845
   51.230  107.841    0.471   15.292
   51.480  104.847    0.467   14.761
   51.730  102.754    0.463   14.245
   51.980  105.007    0.476   13.713
   52.230  107.678    0.502   12.828
   52.480  106.438    0.511   13.595
   52.730  107.790    0.515   16.022
   52.980  112.216    0.516   19.378
   53.230  114.485    0.514   19.224
   53.480  113.648    0.508   18.331
   53.730  109.800    0.499   17.069
   53.980  106.387    0.497   15.623
   54.230  106.901    0.501   14.369
   54.480  110.458    0.510   14.767
   54.730  111.392    0.511   17.379
   54.980  109.266    0.507   19.075
   55.230  100.203    0.492   17.991
   55.480   90.254    0.481   17.651
   55.730   83.799    0.476   21.930
   55.980   84.297    0.480   26.393
   56.230   87.403    0.476   17.747
   56.480   92.715    0.467   15.371
   56.730   96.240    0.467   14.855
   56.980  101.101    0.477   14.530
   57.230  103.788    0.498   14.560
   57.480  104.287    0.501   14.759
   57.730  107.409    0.506   15.341
   57.980  109.630    0.517   16.669
   58.230  111.465    0.521   17.813
   58.480  109.774    0.517   15.990
   58.730  105.926    0.512   13.799
   58.980  102.063    0.502   12.353
   59.230   98.231    0.504   11.276
   59.480  101.337    0.511   10.767
   59.730  104.009    0.527   10.413
   59.980  107.566    0.541   10.265
   60.230  108.933    0.540   10.848
   60.480  108.579    0.537   12.168
   60.730  108.643    0.527   12.567
   60.980  110.445    0.516   12.603
   61.230  110.944    0.506   13.194
   61.480  109.704    0.496   14.138
   61.730  106.290    0.485   15.465
   61.980  102.443    0.481   17.892
   62.230  100.333    0.487   18.114
   62.480   97.805    0.497   17.029
   62.730   97.869    0.501   15.768
   62.980   98.368    0.505   15.428
   63.230   98.850    0.504   15.273
   63.480  100.653    0.492   15.502
   63.730  103.356    0.481   17.368
   63.980  102.551    0.464   27.187
   64.230   99.556    0.442   25.556
   64.480   97.013    0.467   16.534
   64.730   96.223    0.504   11.953
   64.980   98.010    0.536    8.847
   65.230   98.556    0.569    9.799
   65.480   96.850    0.568   10.934
   65.730   93.887    0.553   12.078
   65.980   91.327    0.535   12.845
   66.230   87.898    0.527   13.612
   66.480   89.716    0.533   13.088
   66.730   91.519    0.542   11.827
   66.980   92.017    0.535   10.750
   67.230   92.516    0.519   12.070
   67.480   90.406    0.509   13.767
   67.730   86.993    0.494   15.640
   67.980   81.842    0.478   20.103
   68.230   75.821    0.461   24.566
   68.480   72.407    0.442   13.147
   68.730   75.079    0.444   12.992
   68.980   83.417    0.453   10.439
   69.230   90.451    0.484   10.653
   69.480   91.835    0.519   10.505
   69.730   94.925    0.533   10.527
   69.980  101.525    0.536   10.387
   70.230  108.559    0.541   10.232
   70.480  108.638    0.549   10.261
   70.730  107.382    0.555   10.660
   70.980  104.404    0.549   10.505
   71.230  102.311    0.537   10.165
   71.480  101.521    0.528   10.372
   71.730  101.119    0.524   10.785
   71.980  100.329    0.523   11.190
   72.230  100.844    0.523   11.574
   72.480  100.908    0.526   11.795
   72.730  101.857    0.523   11.079
   72.980  102.774    0.519   11.293
   73.230  105.462    0.519   13.728
   73.480  106.379    0.523   14.126
   73.730  107.747    0.533   10.836
   73.980  106.973    0.545   10.681
   74.230  105.733    0.560   14.959
   74.480  105.362    0.555   19.791
   74.730  104.122    0.536   21.672
   74.980   99.389    0.503   23.177
   75.230   94.656    0.459   20.440
   75.480   81.246    0.415   19.739
   75.730   74.340    0.412   19.584
   75.980   77.881    0.428   18.868
   76.230   83.177    0.428   19.636
   76.480   84.979    0.432   23.361
   76.730   86.814    0.440   19.326
   76.980   87.731    0.448   16.588
   77.230   89.099    0.463   20.129
   77.480   90.482    0.455   26.805
   77.730   88.808    0.439   35.333
   77.980   85.845    0.424   18.934
   78.230   82.851    0.443   19.148
   78.480   84.653    0.463   18.439
   78.730   95.599    0.479   19.207
   78.980  100.009    0.456   25.883
   79.230   88.338    0.385   47.158
   79.480   74.912    0.379   33.333
   79.730   65.398    0.361   23.573
   79.980   69.840    0.368   21.021
   80.230   74.234    0.401   25.676
   80.480   79.111    0.438   26.804
   80.730   78.306    0.420   27.785
   80.980   74.458    0.411   27.800
   81.230   73.218    0.410   27.829
   81.480   73.717    0.425   26.944
   81.730   73.764    0.435   25.299
   81.980   73.828    0.431   23.300
   82.230   77.385    0.448   22.783
   82.480   85.289    0.478   21.691
   82.730   89.264    0.491   20.983
   82.980   92.821    0.478   20.467
   83.230   95.509    0.473   19.758
   83.480   96.861    0.466   19.227
   83.730   99.130    0.465   18.703
   83.980  102.220    0.460   18.939
   84.230  104.054    0.452   18.961
   84.480  102.364    0.457   18.806
