~VERSION INFORMATION
 VERS.                 2.0:   CWLS LOG ASCII STANDARD -VERSION 2.0
 WRAP.                  NO:   ONE LINE PER DEPTH STEP
~WELL INFORMATION BLOCK
#MNEM.UNIT           DATA                    DESCRIPTION OF MNEMONIC
#---------    -------------------            -------------------------------
# Generated from Intellog Unique Number	CN_94_101/WELL/2379
WELL.         02-21-097-11W4                 : Well_name    - WELL
LOC .         AA/02-21-097-11W4/0            : Location     - LOCATION
UWI .         AA/02-21-097-11W400            : Uwi          - UNIQUE WELL ID
ENTR.         JOETTE                         : Entered      - ENTERED BY
SRVC.         SCHLUMBERGER                   : Scn          - SERVICE COMPANY
DATE.         08/13/92                       : Date         - LOG DATE
STRT.M        5                              : top_depth    - START DEPTH
STOP.M        120                            : bot_depth    - STOP DEPTH
STEP.M        0.25                           : increment    - STEP LENGTH
 NULL. -999.2500:NULL Value
~CURVE INFORMATION BLOCK
#MNEM UNIT       ERCB CURVE CODE    CURVE DESCRIPTION
#-----------   ------------------   ----------------------------------
DEPT.M        00 001 00 00         : DEPTH        - DEPTH
DPHI.V/V      00 890 00 00         : PHID         - DENSITY POROSITY (SANDSTONE)
NPHI.V/V      00 330 00 00         : PHIN         - NEUTRON POROSITY (SANDSTONE)
ILD .OHMM     00 120 00 00         : RESD         - DEEP RESISTIVITY (DIL)
GR  .API      00 310 00 00         : GR           - GAMMA RAY
~PARAMETER INFORMATION
#MNEM.UNIT           DATA             DESCRIPTION OF MNEMONIC
#---------         -----------     ------------------------------
GL  .M        336.25               : gl           - GROUND LEVEL ELEVATION
EREF.M        336.25               : kb           - ELEVATION OF DEPTH REFERENCE
DATM.M        336.25               : datum        - DATUM ELEVATION
TDD .M        118.8                : tdd          - TOTAL DEPTH DRILLER
RUN .         ONE                  : Run          - RUN NUMBER
ENG .         JO                   : Engineer     - RECORDING ENGINEER
WIT .         TIM                  : Witness      - WITNESSED BY
MUD .         GEL                  : Mud_type     - MUD TYPE
MATR.         SANDSTONE            : Logunit      - NEUTRON MATRIX
TMAX.C        15                   : BHT          - MAXIMUM RECORDED TEMPERATURE
BHTD.M        118.8                : BHTDEP       - MAXIMUM RECORDED TEMPERATURE
RMT .C        15                   : MDTP         - TEMPERATURE OF MUD
MUDD.KG/M     1000                 : MWT          - MUD DENSITY
NEUT.         1                    : NEUTRON      - NEUTRON TYPE
RESI.         0                    : RESIST       - RESISTIVITY TYPE
RM  .OHMM     13.8                 : RM           - RESISTIVITY OF MUD
RMC .OHMM     13.8                 : RMC          - RESISTIVITY OF MUD CAKE
RMF .OHMM     13.8                 : RMF          - RESISTIVITY OF MUD FILTRATE
SUFT.C        4                    : SUFT         - SURFACE TEMPERATURE
~A  DEPTH     PHID     PHIN     RESD       GR
# ...
   92.000    0.225    0.494   24.800  109.857
   92.250    0.200    0.496   23.788  105.042
   92.500    0.203    0.496   22.500  105.669
   92.750    0.221    0.495   21.279  112.366
   93.000    0.221    0.492   20.701  112.394
   93.250    0.205    0.487   20.142  110.610
   93.500    0.213    0.492   19.866  111.851
   93.750    0.217    0.497   19.605  103.384
   94.000    0.208    0.489   19.340  110.088
   94.250    0.213    0.488   19.082  105.872
   94.500    0.220    0.497   19.922  101.043
   94.750    0.220    0.492   27.202   95.008
   95.000    0.216    0.441   56.755   95.642
   95.250    0.249    0.434  146.364   96.276
   95.500    0.299    0.456  146.467   73.871
   95.750    0.307    0.448  132.769   61.773
   96.000    0.313    0.444  134.752   66.652
   96.250    0.304    0.449  146.800   70.931
   96.500    0.298    0.457  138.832   65.495
   96.750    0.292    0.459  138.905   67.955
   97.000    0.310    0.466  164.680   69.802
   97.250    0.318    0.468  195.239   67.405
   97.500    0.331    0.466  176.980   65.008
   97.750    0.336    0.467  141.275   68.067
   98.000    0.293    0.472   97.934   72.332
   98.250    0.317    0.488   73.882   72.367
   98.500    0.307    0.491   69.859   77.844
   98.750    0.291    0.490   68.928   77.266
   99.000    0.312    0.481   62.471   72.451
   99.250    0.321    0.475   59.080   76.124
   99.500    0.309    0.483   68.103   71.287
   99.750    0.278    0.493   65.323   64.646
  100.000    0.278    0.498   60.057   66.493
  100.250    0.243    0.484   61.821   72.591
  100.500    0.239    0.482   77.553   66.556
  100.750    0.289    0.487  100.077   62.333
  101.000    0.316    0.472  115.342   55.691
  101.250    0.325    0.470  125.633   58.144
  101.500    0.298    0.456  164.484   59.392
  101.750    0.295    0.457  174.198   57.002
  102.000    0.303    0.433  181.803   57.636
  102.250    0.301    0.416  192.506   55.246
  102.500    0.303    0.418  212.664   54.054
  102.750    0.302    0.442  245.103   54.082
  103.000    0.297    0.453  286.559   52.898
  103.250    0.298    0.473  282.687   51.706
  103.500    0.317    0.470  263.686   49.922
  103.750    0.317    0.476  256.430   52.368
  104.000    0.311    0.483  239.151   57.253
  104.250    0.297    0.456  232.611   56.668
  104.500    0.290    0.438  168.201   54.877
  104.750    0.301    0.440  163.629   56.731
  105.000    0.301    0.452  193.993   57.358
  105.250    0.303    0.480  211.337   56.780
  105.500    0.309    0.493  188.853   59.846
  105.750    0.324    0.486  159.517   60.480
  106.000    0.351    0.473  130.984   60.502
  106.250    0.333    0.482  100.220   59.923
  106.500    0.325    0.492   93.451   60.557
  106.750    0.316    0.491   80.072   62.404
  107.000    0.319    0.480   73.616   61.826
  107.250    0.310    0.446   73.642   59.436
  107.500    0.305    0.434   73.706   58.244
  107.750    0.310    0.422   79.156   54.028
  108.000    0.304    0.418   73.809   55.269
  108.250    0.290    0.403   67.870   57.115
  108.500    0.285    0.402   73.912   54.718
  108.750    0.256    0.421   92.722   54.140
  109.000    0.246    0.434  103.888   54.175
  109.250    0.245    0.451   99.682   55.415
  109.500    0.275    0.476   98.353   59.680
  109.750    0.290    0.492  101.206   55.464
  110.000    0.293    0.485  119.986   50.642
  110.250    0.301    0.477   91.806   51.276
  110.500    0.359    0.453   74.327   53.729
  110.750    0.342    0.441   72.307   59.827
  111.000    0.304    0.470  161.905   61.068
  111.250    0.308    0.486  194.679   52.001
  111.500    0.384    0.477  106.106   51.430
  111.750    0.384    0.450   56.230   49.632
  112.000    0.342    0.449   69.549   53.298
  112.250    0.295    0.446  124.226   55.751
  112.500    0.293    0.449  189.918   50.322
  112.750    0.315    0.471  198.279   52.169
  113.000    0.309    0.453  182.356   52.197
  113.250    0.331    0.456  198.556   57.681
  113.500    0.290    0.476  271.118   55.284
  113.750    0.354    0.482  238.917   50.469
  114.000    0.362    0.443  141.760   54.741
  114.250    0.336    0.432  132.185   54.156
  114.500    0.310    0.430  175.463   52.372
  114.750    0.309    0.398  191.151   56.037
  115.000    0.316    0.380  183.315   58.483
  115.250    0.313    0.421  168.536   63.362
  115.500    0.287    0.447   20.838   77.341
  115.750    0.238    0.432   17.851   91.314
  116.000    0.221    0.436   16.885  114.381
  116.250    0.244    0.426   16.663  118.047
  116.500    0.280    0.418   15.535  115.649
  116.750    0.303    0.474   15.113  117.503
  117.000    0.324    0.466   11.726  113.280
  117.250    0.348    0.460   13.514  110.277
  117.500    0.359    0.456   15.357  109.092
  117.750    0.399    0.444   15.368  112.151
  118.000    0.439    0.471   15.379  114.612
  118.250    0.345    0.477   15.833  114.033
  118.500    0.271    0.468   16.298  118.305
  118.750    0.221    0.468   17.258  103.775
  119.000    0.156    0.470   18.794   97.740
  119.250    0.088    0.470   62.512   60.785
  119.500    0.066    0.474   78.420   47.467
  119.750    0.065    0.483   89.114   32.944
  120.000    0.065    0.487   93.053   25.104
