~VERSION INFORMATION
 VERS.                 2.0:   CWLS LOG ASCII STANDARD -VERSION 2.0
 WRAP.                  NO:   ONE LINE PER DEPTH STEP
~WELL INFORMATION BLOCK
#MNEM.UNIT           DATA                    DESCRIPTION OF MNEMONIC
#---------    -------------------            -------------------------------
# Generated from Intellog Unique Number	CX_WELLS/WELL/3149
WELL.         PETRO-CANADA                   : Well_name    - WELL
LOC .         AA/06-08-083-08W4/0            : Location     - LOCATION
UWI .         AA/06-08-083-08W4/0            : Uwi          - UNIQUE WELL ID
ENTR.         TIM                            : Entered      - ENTERED BY
SRVC.         SCHLUMBERGER                   : Scn          - SERVICE COMPANY
STRT.M        275                            : top_depth    - START DEPTH
STOP.M        500                            : bot_depth    - STOP DEPTH
STEP.M        0.25                           : increment    - STEP LENGTH
 NULL. -999.2500:NULL Value
~CURVE INFORMATION BLOCK
#MNEM UNIT       ERCB CURVE CODE    CURVE DESCRIPTION
#-----------   ------------------   ----------------------------------
DEPT.M        00 001 00 00         : DEPTH        - DEPTH
GR  .API      00 310 00 00         : GR           - GAMMA RAY
NPHI.V/V      00 330 00 00         : PHIN         - NEUTRON POROSITY (SANDSTONE)
DPHI.V/V      00 890 00 00         : PHID         - DENSITY POROSITY (SANDSTONE)
ILD .OHMM     00 120 00 00         : RESD         - DEEP RESISTIVITY (OTHER)
~PARAMETER INFORMATION
#MNEM.UNIT           DATA             DESCRIPTION OF MNEMONIC
#---------         -----------     ------------------------------
GL  .M        726                  : gl           - GROUND LEVEL ELEVATION
EREF.M        730.2                : kb           - ELEVATION OF DEPTH REFERENCE
DATM.M        730.2                : datum        - DATUM ELEVATION
TDD .M        505                  : tdd          - TOTAL DEPTH DRILLER
RUN .         ONE                  : Run          - RUN NUMBER
ENG .         BILL                 : Engineer     - RECORDING ENGINEER
WIT .         JIM                  : Witness      - WITNESSED BY
MUD .         GEL                  : Mud_type     - MUD TYPE
MATR.         SANDSTONE            : Logunit      - NEUTRON MATRIX
TMAX.C        29                   : BHT          - MAXIMUM RECORDED TEMPERATURE
BHTD.M        505.834              : BHTDEP       - MAXIMUM RECORDED TEMPERATURE
MATR.         1                    : LOGUNIT      - NEUTRON MATRIX
RMT .C        20                   : MDTP         - TEMPERATURE OF MUD
NEUT.         1                    : NEUTRON      - NEUTRON TYPE
RESI.         4.78                 : RESIST       - RESISTIVITY TYPE
RMC .OHMM     4.8                  : RMC          - RESISTIVITY OF MUD CAKE
RMF .OHMM     4.8                  : RMF          - RESISTIVITY OF MUD FILTRATE
SUFT.C        3                    : SUFT         - SURFACE TEMPERATURE
~A  DEPTH       GR     PHIN     PHID     RESD
# ...
  449.000   91.774    0.327    0.223   12.869
  449.250   95.440    0.334    0.225   12.417
  449.500   96.700    0.340    0.234   12.211
  449.750   99.164    0.346    0.239   12.453
  450.000  102.844    0.346    0.242   12.464
  450.250   99.294    0.344    0.240   12.711
  450.500   95.128    0.342    0.237   12.273
  450.750   96.990    0.339    0.242   11.210
  451.000  101.859    0.334    0.260   10.240
  451.250  108.546    0.333    0.287    9.187
  451.500  109.206    0.345    0.300    8.700
  451.750  110.481    0.373    0.308    7.947
  452.000  113.545    0.421    0.306    6.871
  452.250  117.798    0.419    0.304    6.050
  452.500  113.046    0.410    0.299    5.526
  452.750   99.273    0.373    0.281    5.237
  453.000   87.290    0.362    0.272    5.249
  453.250   83.139    0.353    0.272    5.349
  453.500   77.814    0.345    0.275    5.657
  453.750   74.836    0.336    0.280    6.560
  454.000   71.272    0.335    0.283    7.892
  454.250   67.121    0.333    0.283    9.670
  454.500   65.374    0.332    0.281   12.072
  454.750   66.650    0.331    0.281   14.258
  455.000   64.904    0.331    0.281   17.470
  455.250   61.339    0.331    0.282   23.036
  455.500   58.405    0.331    0.283   29.833
  455.750   59.050    0.331    0.284   30.987
  456.000   60.912    0.331    0.285   29.908
  456.250   64.593    0.329    0.283   27.826
  456.500   63.448    0.329    0.279   25.889
  456.750   58.695    0.329    0.273   24.541
  457.000   59.355    0.328    0.269   24.564
  457.250   62.405    0.327    0.268   24.603
  457.500   70.896    0.329    0.269   24.634
  457.750   74.562    0.332    0.270   22.495
  458.000   74.019    0.334    0.272   20.175
  458.250   72.273    0.334    0.284   18.782
  458.500   69.925    0.334    0.294   18.794
  458.750   66.977    0.336    0.284   18.481
  459.000   64.644    0.336    0.273   18.493
  459.250   64.086    0.337    0.262   18.516
  459.500   69.556    0.339    0.261   20.705
  459.750   80.438    0.340    0.261   21.115
  460.000   93.740    0.341    0.259   19.645
  460.250  101.630    0.342    0.259   18.277
  460.500   94.457    0.347    0.260   17.320
  460.750   83.090    0.348    0.266   17.027
  461.000   78.939    0.349    0.278   17.686
  461.250   78.997    0.345    0.284   18.710
  461.500   77.251    0.340    0.285   20.915
  461.750   73.085    0.330    0.286   22.954
  462.000   67.746    0.329    0.289   25.192
  462.250   66.586    0.335    0.289   27.146
  462.500   63.036    0.338    0.290   29.792
  462.750   62.508    0.338    0.268   29.830
  463.000   66.159    0.338    0.257   26.762
  463.250   72.832    0.343    0.253   24.891
  463.500   76.512    0.349    0.256   23.594
  463.750   74.752    0.351    0.261   23.624
  464.000   72.405    0.350    0.275   24.538
  464.250   68.253    0.340    0.286   26.931
  464.500   59.893    0.330    0.289   29.547
  464.750   56.357    0.324    0.287   34.264
  465.000   55.213    0.324    0.284   41.232
  465.250   57.075    0.325    0.280   44.444
  465.500   58.937    0.328    0.281   47.019
  465.750   58.379    0.331    0.288   49.728
  466.000   58.451    0.332    0.294   55.622
  466.250   59.096    0.333    0.296   57.738
  466.500   59.154    0.333    0.299   62.235
  466.750   58.611    0.333    0.301   63.468
  467.000   58.684    0.331    0.302   62.392
  467.250   56.336    0.330    0.303   52.942
  467.500   54.576    0.330    0.303   45.770
  467.750   53.431    0.331    0.303   38.143
  468.000   55.894    0.334    0.299   33.587
  468.250   60.162    0.335    0.294   26.981
  468.500   68.052    0.335    0.281   25.095
  468.750   65.719    0.335    0.278   24.221
  469.000   64.545    0.329    0.288   23.377
  469.250   63.415    0.325    0.283   22.988
  469.500   61.068    0.331    0.276   22.188
  469.750   61.713    0.340    0.274   21.812
  470.000   65.994    0.341    0.275   21.435
  470.250   68.458    0.338    0.276   21.072
  470.500   69.117    0.336    0.278   23.134
  470.750   69.791    0.337    0.281   26.339
  471.000   68.646    0.339    0.285   26.381
  471.250   63.879    0.346    0.294   26.414
  471.500   58.511    0.349    0.300   27.427
  471.750   53.773    0.352    0.298   30.111
  472.000   54.447    0.352    0.296   29.610
  472.250   55.077    0.347    0.293   29.090
  472.500   56.953    0.343    0.290   29.127
  472.750   58.830    0.342    0.287   29.704
  473.000   60.692    0.343    0.288   30.302
  473.250   60.735    0.346    0.292   31.475
  473.500   59.591    0.346    0.299   32.088
  473.750   57.859    0.345    0.301   35.217
  474.000   56.729    0.344    0.305   41.595
  474.250   56.758    0.342    0.309   52.887
  474.500   55.614    0.343    0.309   61.368
  474.750   53.882    0.345    0.299   63.703
  475.000   53.310    0.346    0.297   79.500
  475.250   52.194    0.348    0.299  104.830
  475.500   50.419    0.350    0.306  160.195
  475.750   45.080    0.355    0.314  166.342
  476.000   42.117    0.355    0.317  149.184
  476.250   41.573    0.354    0.318  111.360
  476.500   45.239    0.347    0.318   96.243
  476.750   52.528    0.342    0.317   77.315
  477.000   56.795    0.342    0.308   53.627
  477.250   59.860    0.340    0.299   36.520
  477.500   62.939    0.340    0.288   30.989
  477.750   64.200    0.354    0.286   25.355
  478.000   63.642    0.348    0.282   21.522
  478.250   63.714    0.334    0.280   18.951
  478.500   63.157    0.328    0.276   17.631
  478.750   63.258    0.323    0.266   17.654
  479.000   63.287    0.324    0.260   19.029
  479.250   63.947    0.330    0.266   20.504
  479.500   74.829    0.332    0.276   22.927
  479.750   73.097    0.338    0.281   24.241
  480.000   68.931    0.346    0.286   28.128
  480.250   64.179    0.353    0.291   30.860
  480.500   60.629    0.354    0.293   33.891
  480.750   57.680    0.349    0.295   30.948
  481.000   57.724    0.341    0.283   27.747
  481.250   59.586    0.336    0.268   24.433
  481.500   67.475    0.333    0.265   22.311
  481.750   71.743    0.333    0.264   20.010
  482.000   77.227    0.335    0.264   17.946
  482.250   79.691    0.340    0.264   18.301
  482.500   77.959    0.349    0.275   19.368
  482.750   75.597    0.353    0.287   20.118
  483.000   72.634    0.351    0.294   20.896
  483.250   67.882    0.351    0.299   21.712
  483.500   61.340    0.350    0.300   22.970
  483.750   64.404    0.350    0.301   25.201
  484.000   67.454    0.350    0.302   30.327
  484.250   76.547    0.350    0.303   31.500
  484.500   72.982    0.349    0.309   30.413
  484.750   67.628    0.351    0.313   29.879
  485.000   61.072    0.350    0.316   30.480
  485.250   55.102    0.349    0.321   32.236
  485.500   46.756    0.349    0.322   38.074
  485.750   45.597    0.346    0.323   60.340
  486.000   45.068    0.344    0.324   72.611
  486.250   45.727    0.341    0.324   71.380
  486.500   46.372    0.336    0.325   65.183
  486.750   47.662    0.337    0.326   58.459
  487.000   48.292    0.339    0.328   48.718
  487.250   49.553    0.340    0.327   41.339
  487.500   56.240    0.340    0.312   32.012
  487.750   61.123    0.336    0.292   23.034
  488.000   58.776    0.336    0.303   18.510
  488.250   57.030    0.336    0.309   17.221
  488.500   53.495    0.334    0.312   16.319
  488.750   49.916    0.333    0.309   15.183
  489.000   37.947    0.334    0.284   14.921
  489.250   52.437    0.336    0.266   14.940
  489.500   65.123    0.340    0.266   15.241
  489.750   72.397    0.341    0.253   16.129
  490.000   76.077    0.292    0.240   16.438
  490.250   79.156    0.294    0.221   17.402
  490.500   78.599    0.292    0.170   17.735
  490.750   78.055    0.289    0.130   18.763
  491.000   78.715    0.285    0.110   26.141
  491.250   79.403    0.282    0.082   28.169
  491.500   79.447    0.280    0.024   25.271
  491.750   80.106    0.279    0.005   22.657
  492.000   80.765    0.278    0.006   19.238
  492.250   82.613    0.258    0.007   17.898
