~VERSION INFORMATION
 VERS.                 2.0:   CWLS LOG ASCII STANDARD -VERSION 2.0
 WRAP.                  NO:   ONE LINE PER DEPTH STEP
~WELL INFORMATION BLOCK
#MNEM.UNIT           DATA                    DESCRIPTION OF MNEMONIC
#---------    -------------------            -------------------------------
# Generated from Intellog Unique Number	CX_WELLS/WELL/3917
LOC .         AA/06-01-097-15W4/0            : Location     - LOCATION
UWI .         AA/06-01-097-15W400            : Uwi          - UNIQUE WELL ID
ENTR.         T                              : Entered      - ENTERED BY
SRVC.         SCHLUMBERGER                   : Scn          - SERVICE COMPANY
STRT.F        600                            : top_depth    - START DEPTH
STOP.F        1320.14                        : bot_depth    - STOP DEPTH
STEP.F        0.82                           : increment    - STEP LENGTH
 NULL. -999.2500:NULL Value
~CURVE INFORMATION BLOCK
#MNEM UNIT       ERCB CURVE CODE    CURVE DESCRIPTION
#-----------   ------------------   ----------------------------------
DEPT.F        00 001 00 00         : DEPTH        - DEPTH
GR  .API      00 310 00 00         : GR           - GAMMA RAY
NPHI.V/V      00 330 00 00         : PHIN         - NEUTRON POROSITY (SANDSTONE)
ILD .OHMM     00 120 00 00         : RESD         - DEEP RESISTIVITY (OTHER)
~PARAMETER INFORMATION
#MNEM.UNIT           DATA             DESCRIPTION OF MNEMONIC
#---------         -----------     ------------------------------
GL  .F        2145                 : gl           - GROUND LEVEL ELEVATION
EREF.F        2151.7               : kb           - ELEVATION OF DEPTH REFERENCE
DATM.F        2151.7               : datum        - DATUM ELEVATION
TDD .F        1321                 : tdd          - TOTAL DEPTH DRILLER
RUN .         ONE                  : Run          - RUN NUMBER
ENG .         BILL                 : Engineer     - RECORDING ENGINEER
WIT .         JIM                  : Witness      - WITNESSED BY
MUD .         GEL                  : Mud_type     - MUD TYPE
MATR.         SANDSTONE            : Logunit      - NEUTRON MATRIX
TMAX.F        68                   : BHT          - MAXIMUM RECORDED TEMPERATURE
BHTD.F        1321                 : BHTDEP       - MAXIMUM RECORDED TEMPERATURE
MATR.         1                    : LOGUNIT      - NEUTRON MATRIX
RMT .F        68                   : MDTP         - TEMPERATURE OF MUD
NEUT.         1                    : NEUTRON      - NEUTRON TYPE
RESI.         5.65                 : RESIST       - RESISTIVITY TYPE
RMC .OHMM     6.4                  : RMC          - RESISTIVITY OF MUD CAKE
RMF .OHMM     5.2                  : RMF          - RESISTIVITY OF MUD FILTRATE
SUFT.F        37.4                 : SUFT         - SURFACE TEMPERATURE
~A  DEPTH       GR     PHIN     RESD
# ...
 1133.960   93.796    0.442   11.596
 1134.780   92.934    0.433   12.308
 1135.600   91.229    0.436   12.305
 1136.420   88.669    0.436   12.304
 1137.240   89.932    0.425   12.302
 1138.060   91.612    0.430   12.299
 1138.880   91.603    0.449   12.298
 1139.700   90.317    0.446   12.296
 1140.520   89.040    0.421   11.581
 1141.340   86.058    0.423   11.580
 1142.160   83.924    0.443   11.578
 1142.980   83.067    0.450   12.289
 1143.800   82.632    0.459   11.573
 1144.620   86.010    0.469   10.859
 1145.440   90.242    0.472   10.145
 1146.260   92.772    0.468    9.431
 1147.080   91.910    0.465    8.717
 1147.900   89.782    0.461    8.001
 1148.720   88.920    0.456    8.000
 1149.540   90.605    0.451    7.997
 1150.360   91.442    0.445    7.996
 1151.180   89.735    0.433    7.995
 1152.000   86.332    0.433    7.993
 1152.820   79.112    0.459    7.990
 1153.640   74.013    0.483    7.989
 1154.460   75.698    0.499    8.699
 1155.280   76.106    0.512    8.697
 1156.100   74.822    0.523    8.696
 1156.920   73.966    0.529    8.694
 1157.740   72.680    0.524    7.267
 1158.560   71.824    0.513    5.839
 1159.380   69.690    0.504    3.700
 1160.200   67.553    0.488    2.986
 1161.020   67.124    0.464    5.122
 1161.840   67.960    0.450    6.545
 1162.660   71.341    0.451    7.968
 1163.480   78.114    0.454    7.966
 1164.300   82.767    0.455    7.964
 1165.120   86.148    0.440    7.962
 1165.940   85.710    0.417   10.098
 1166.770   79.763    0.391   12.946
 1167.590   67.453    0.368   16.507
 1168.410   58.117    0.315   24.344
 1169.230   46.230    0.252   30.043
 1170.050   44.099    0.210   35.741
 1170.870   41.120    0.237   38.590
 1171.690   38.986    0.258   40.726
 1172.510   43.215    0.276   36.449
 1173.330   45.321    0.280   30.033
 1174.150   45.737    0.255   32.169
 1174.970   46.998    0.249   35.017
 1175.790   49.104    0.290   32.165
 1176.610   50.368    0.311   28.600
 1177.430   52.047    0.320   25.036
 1178.250   53.308    0.342   22.896
 1179.070   54.990    0.363   20.756
 1179.890   55.830    0.389   19.329
 1180.710   57.093    0.401   18.615
 1181.530   58.352    0.408   18.613
 1182.350   59.612    0.399   18.611
 1183.170   60.452    0.390   17.184
 1183.990   63.827    0.395   16.469
 1184.810   65.939    0.400   16.468
 1185.630   71.864    0.398   17.179
 1186.450   62.522    0.377   22.165
 1187.270   53.185    0.358   30.713
 1188.090   45.116    0.349   26.436
 1188.910   43.406    0.359   22.159
 1189.730   45.093    0.362   17.882
 1190.550   45.930    0.348   30.706
 1191.370   43.375    0.313   37.830
 1192.190   39.542    0.301   33.552
 1193.010   38.262    0.318   59.916
 1193.830   36.555    0.339   44.950
 1194.650   38.661    0.354   45.661
 1195.470   42.045    0.364   57.060
 1196.290   43.306    0.371   54.208
 1197.110   43.713    0.363   40.667
 1197.930   43.705    0.348   34.251
 1198.750   44.115    0.331   32.825
 1199.570   44.530    0.323   29.972
 1200.390   46.634    0.345   24.270
 1201.210   47.900    0.350   17.855
 1202.030   51.281    0.375   17.852
 1202.850   59.750    0.377   17.851
 1203.670   60.581    0.378   18.561
 1204.490   58.453    0.373   18.560
 1205.310   55.050    0.377   18.558
 1206.140   52.919    0.381   17.131
 1206.960   52.907    0.386   16.417
 1207.780   59.680    0.391   14.989
 1208.600   66.024    0.398   14.275
 1209.420   61.775    0.409   14.274
 1210.240   46.500    0.220   17.835
 1211.060   28.254    0.237   25.671
 1211.880   27.392    0.278   26.381
 1212.700   28.653    0.325   27.805
 1213.520   30.341    0.341   31.366
 1214.340   33.722    0.348   36.352
 1215.160   36.678    0.350   44.901
 1215.980   37.934    0.353   52.737
 1216.800   37.923    0.355   47.035
 1217.620   37.914    0.357   45.608
 1218.440   37.903    0.358   49.881
 1219.260   39.159    0.364   51.305
 1220.080   39.574    0.371   52.015
 1220.900   39.984    0.379   54.864
 1221.720   38.277    0.389  104.029
 1222.540   36.994    0.390  106.165
 1223.360   36.562    0.386   91.912
 1224.180   35.697    0.382   84.784
 1225.000   35.267    0.373   84.782
 1225.820   33.131    0.341   92.619
 1226.640   31.426    0.319   96.179
 1227.460   30.143    0.322   76.226
 1228.280   32.252    0.328   61.260
 1229.100   45.809    0.335   46.294
 1229.920   57.670    0.350   42.729
 1230.740   64.443    0.368   42.015
 1231.560   66.552    0.383   41.300
 1232.380   67.389    0.383   37.735
 1233.200   67.375    0.382   33.458
 1234.020   65.244    0.382   34.882
 1234.840   62.686    0.383   44.856
 1235.660   60.558    0.386   61.243
 1236.480   55.458    0.379   72.642
 1237.300   49.506    0.357   54.113
 1238.120   48.644    0.356   54.824
 1238.940   48.638    0.359   49.834
 1239.760   50.323    0.363   46.270
 1240.580   54.552    0.370  101.136
 1241.400   60.050    0.373  135.337
 1242.220   60.039    0.366  148.874
 1243.040   56.212    0.362  126.070
 1243.860   53.227    0.361   55.523
 1244.690   52.798    0.362   52.671
 1245.510   53.634    0.362   45.544
 1246.330   57.439    0.363   36.278
 1247.150   66.332    0.373   31.287
 1247.970   71.831    0.383   30.573
 1248.790   76.059    0.390   29.147
 1249.610   78.168    0.391   27.008
 1250.430   79.005    0.391   25.581
 1251.250   79.418    0.389   24.865
 1252.070   77.284    0.387   26.289
 1252.890   75.153    0.383   29.850
 1253.710   71.747    0.376   32.699
 1254.530   70.467    0.364   39.822
 1255.350   68.754    0.363   43.383
 1256.170   67.898    0.368   46.944
 1256.990   67.041    0.371   54.781
 1257.810   64.905    0.376   69.743
 1258.630   63.624    0.377   66.178
 1259.450   61.487    0.372   65.463
 1260.270   61.058    0.342   65.461
 1261.090   60.620    0.345   53.345
 1261.910   60.609    0.351   41.230
 1262.730   61.443    0.370   37.666
 1263.550   62.280    0.372   35.526
 1264.370   63.117    0.379   37.662
 1265.190   63.108    0.379   36.948
 1266.010   63.521    0.371   34.808
 1266.830   63.931    0.364   33.381
 1267.650   63.920    0.361   35.517
 1268.470   62.637    0.365   39.790
 1269.290   59.658    0.373   42.638
 1270.110   56.679    0.380   41.212
 1270.930   55.393    0.364   36.221
 1271.750   55.379    0.348   31.231
 1272.570   55.371    0.350   28.379
 1273.390   55.360    0.351   25.527
 1274.210   55.346    0.354   23.387
 1275.030   55.337    0.356   21.248
 1275.850   54.902    0.353   19.108
 1276.670   54.464    0.337   20.532
 1277.490   54.026    0.326   26.943
 1278.310   53.594    0.333   31.929
 1279.130   52.732    0.351   39.053
 1279.950   49.332    0.354   45.465
 1280.770   51.011    0.359   45.462
 1281.590   52.272    0.363   39.760
 1282.410   53.957    0.372   33.344
 1283.230   56.066    0.374   31.204
 1284.060   58.178    0.376   29.778
 1284.880   61.558    0.375   28.351
 1285.700   78.929    0.345   27.637
 1286.520   77.645    0.335   25.497
 1287.340   73.821    0.341   24.070
 1288.160   69.991    0.348   21.930
 1288.980   68.708    0.356   20.503
 1289.800   69.542    0.360   21.214
 1290.620   73.350    0.358   21.925
 1291.440   77.155    0.228   24.773
 1292.260   77.992    0.204   55.412
 1293.080   74.586    0.166   50.422
 1293.900   71.183    0.153   45.432
 1294.720   72.867    0.163   46.143
 1295.540   77.094    0.168   48.279
 1296.360   76.656    0.171   46.852
 1297.180   75.802    0.161   46.850
 1298.000   73.244    0.147   51.123
 1298.820   70.686    0.128   47.559
 1299.640   68.982    0.116   41.143
 1300.460   66.848    0.113   36.153
 1301.280   65.568    0.119   35.439
 1302.100   68.522    0.199   34.012
 1302.920   71.479    0.220   32.585
 1303.740   73.585    0.243   32.584
 1304.560   73.998    0.275   34.007
 1305.380   72.715    0.283   38.280
 1306.200   68.890    0.294   46.116
 1307.020   62.092    0.298   42.551
 1307.840   58.686    0.249   38.987
 1308.660   63.339    0.179   37.560
 1309.480   65.448    0.195   38.270
 1310.300   66.709    0.199   43.969
 1311.120   67.546    0.208   41.117
