~VERSION INFORMATION
 VERS.                 2.0:   CWLS LOG ASCII STANDARD -VERSION 2.0
 WRAP.                  NO:   ONE LINE PER DEPTH STEP
~WELL INFORMATION BLOCK
#MNEM.UNIT           DATA                    DESCRIPTION OF MNEMONIC
#---------    -------------------            -------------------------------
# Generated from Intellog Unique Number	CX_WELLS/WELL/3149
WELL.         PETRO-CANADA                   : Well_name    - WELL
LOC .         AA/06-08-083-08W4/0            : Location     - LOCATION
UWI .         AA/06-08-083-08W4/0            : Uwi          - UNIQUE WELL ID
ENTR.         TIM                            : Entered      - ENTERED BY
SRVC.         SCHLUMBERGER                   : Scn          - SERVICE COMPANY
STRT.M        275                            : top_depth    - START DEPTH
STOP.M        500                            : bot_depth    - STOP DEPTH
STEP.M        0.25                           : increment    - STEP LENGTH
 NULL. -999.2500:NULL Value
~CURVE INFORMATION BLOCK
#MNEM UNIT       ERCB CURVE CODE    CURVE DESCRIPTION
#-----------   ------------------   ----------------------------------
DEPT.M        00 001 00 00         : DEPTH        - DEPTH
GR  .API      00 310 00 00         : GR           - GAMMA RAY
NPHI.V/V      00 330 00 00         : PHIN         - NEUTRON POROSITY (SANDSTONE)
DPHI.V/V      00 890 00 00         : PHID         - DENSITY POROSITY (SANDSTONE)
ILD .OHMM     00 120 00 00         : RESD         - DEEP RESISTIVITY (OTHER)
~PARAMETER INFORMATION
#MNEM.UNIT           DATA             DESCRIPTION OF MNEMONIC
#---------         -----------     ------------------------------
GL  .M        726                  : gl           - GROUND LEVEL ELEVATION
EREF.M        730.2                : kb           - ELEVATION OF DEPTH REFERENCE
DATM.M        730.2                : datum        - DATUM ELEVATION
TDD .M        505                  : tdd          - TOTAL DEPTH DRILLER
RUN .         ONE                  : Run          - RUN NUMBER
ENG .         BILL                 : Engineer     - RECORDING ENGINEER
WIT .         JIM                  : Witness      - WITNESSED BY
MUD .         GEL                  : Mud_type     - MUD TYPE
MATR.         SANDSTONE            : Logunit      - NEUTRON MATRIX
TMAX.C        29                   : BHT          - MAXIMUM RECORDED TEMPERATURE
BHTD.M        505.834              : BHTDEP       - MAXIMUM RECORDED TEMPERATURE
MATR.         1                    : LOGUNIT      - NEUTRON MATRIX
RMT .C        20                   : MDTP         - TEMPERATURE OF MUD
NEUT.         1                    : NEUTRON      - NEUTRON TYPE
RESI.         4.78                 : RESIST       - RESISTIVITY TYPE
RMC .OHMM     4.8                  : RMC          - RESISTIVITY OF MUD CAKE
RMF .OHMM     4.8                  : RMF          - RESISTIVITY OF MUD FILTRATE
SUFT.C        3                    : SUFT         - SURFACE TEMPERATURE
~A  DEPTH       GR     PHIN     PHID     RESD
# ...
  318.500  120.270    0.379    0.247   12.157
  318.750  115.532    0.375    0.257   11.947
  319.000  113.185    0.370    0.273   11.119
  319.250  112.040    0.381    0.285   10.729
  319.500  112.084    0.392    0.292   10.547
  319.750  110.953    0.377    0.286   10.756
  320.000  109.794    0.370    0.279   12.027
  320.250  107.461    0.375    0.277   13.448
  320.500  105.716    0.370    0.276   14.223
  320.750  104.571    0.360    0.273   15.899
  321.000  102.238    0.351    0.272   17.449
  321.250  100.463    0.340    0.274   18.802
  321.500   98.101    0.333    0.279   20.635
  321.750   77.729    0.334    0.292   22.235
  322.000   74.150    0.341    0.302   25.332
  322.250   63.384    0.344    0.310   26.295
  322.500   59.834    0.348    0.314   28.343
  322.750   59.906    0.358    0.316   29.995
  323.000   60.551    0.354    0.316   31.166
  323.250   61.211    0.350    0.316   31.763
  323.500   61.870    0.352    0.315   33.003
  323.750   63.145    0.354    0.313   33.034
  324.000   63.804    0.341    0.313   33.710
  324.250   65.652    0.337    0.313   33.128
  324.500   66.311    0.340    0.314   33.170
  324.750   66.985    0.341    0.318   33.201
  325.000   67.043    0.347    0.319   33.254
  325.250   66.485    0.349    0.316   32.680
  325.500   66.543    0.349    0.312   32.136
  325.750   66.602    0.349    0.309   31.602
  326.000   66.659    0.349    0.307   31.056
  326.250   66.746    0.349    0.306   31.086
  326.500   66.790    0.350    0.306   31.086
  326.750   66.863    0.352    0.306   29.513
  327.000   67.522    0.360    0.307   27.442
  327.250   67.580    0.368    0.308   26.976
  327.500   67.624    0.370    0.309   26.528
  327.750   67.710    0.370    0.311   26.561
  328.000   67.153    0.373    0.313   26.119
  328.250   66.609    0.378    0.315   26.136
  328.500   66.052    0.380    0.317   26.670
  328.750   65.537    0.380    0.318   27.182
  329.000   64.980    0.380    0.319   27.729
  329.250   64.436    0.379    0.322   28.278
  329.500   62.676    0.381    0.322   28.305
  329.750   60.930    0.382    0.323   28.350
  330.000   58.626    0.383    0.324   28.386
  330.250   58.054    0.387    0.324   28.412
  330.500   58.097    0.387    0.323   28.975
  330.750   58.170    0.379    0.323   29.568
  331.000   58.213    0.376    0.323   30.144
  331.250   57.684    0.373    0.324   30.182
  331.500   56.540    0.374    0.324   30.221
  331.750   55.982    0.375    0.325   30.259
  332.000   55.468    0.376    0.325   30.287
  332.250   54.895    0.376    0.326   30.326
  332.500   54.953    0.378    0.326   30.926
  332.750   55.011    0.383    0.327   30.965
  333.000   55.098    0.381    0.327   31.024
  333.250   55.743    0.377    0.328   31.024
  333.500   55.801    0.373    0.328   30.000
  333.750   55.845    0.368    0.328   31.132
  334.000   56.533    0.364    0.327   31.181
  334.250   57.178    0.359    0.327   30.653
  334.500   57.222    0.354    0.325   29.585
  334.750   58.511    0.360    0.323   29.613
  335.000   59.156    0.377    0.322   29.660
  335.250   59.200    0.373    0.322   29.698
  335.500   59.859    0.367    0.322   29.726
  335.750   59.917    0.362    0.322   29.782
  336.000   59.975    0.361    0.322   29.801
  336.250   59.432    0.361    0.322   29.848
  336.500   58.917    0.364    0.322   30.439
  336.750   58.360    0.368    0.322   30.468
  337.000   58.432    0.369    0.322   30.516
  337.250   58.490    0.377    0.321   30.545
  337.500   59.135    0.386    0.319   30.037
  337.750   59.178    0.393    0.309   28.991
  338.000   60.468    0.396    0.306   27.981
  338.250   61.729    0.396    0.304   28.026
  338.500   62.359    0.390    0.301   27.533
  338.750   63.019    0.384    0.300   26.583
  339.000   63.693    0.378    0.296   25.657
  339.250   64.366    0.369    0.295   24.313
  339.500   65.026    0.367    0.291   23.901
  339.750   66.286    0.360    0.296   23.924
  340.000   66.946    0.358    0.301   24.850
  340.250   67.591    0.353    0.308   25.342
  340.500   66.475    0.353    0.314   25.844
  340.750   65.917    0.371    0.316   25.877
  341.000   65.359    0.376    0.313   24.976
  341.250   64.831    0.372    0.312   23.252
  341.500   64.889    0.369    0.311   22.850
  341.750   64.932    0.368    0.312   22.879
  342.000   65.019    0.368    0.313   23.765
  342.250   64.461    0.373    0.313   24.228
  342.500   63.904    0.377    0.312   25.165
  342.750   61.585    0.378    0.309   26.632
  343.000   61.013    0.377    0.306   27.663
  343.250   61.071    0.376    0.306   26.699
  343.500   61.730    0.374    0.304   24.397
  343.750   61.788    0.374    0.301   22.278
  344.000   61.245    0.375    0.297   21.503
  344.250   63.121    0.378    0.296   19.642
  344.500   66.172    0.384    0.292   17.610
  344.750   74.648    0.388    0.291   14.948
  345.000   83.741    0.389    0.290   13.162
  345.250   89.827    0.395    0.290   11.172
  345.500   93.478    0.404    0.288   10.016
  345.750   98.963    0.406    0.287    8.659
  346.000  101.426    0.406    0.285    7.486
  346.250  103.288    0.406    0.284    6.356
  346.500  105.150    0.408    0.283    6.135
  346.750   99.796    0.410    0.283    6.141
  347.000   96.833    0.412    0.285    6.151
  347.250   95.101    0.410    0.290    6.156
  347.500   94.558    0.408    0.294    6.280
  347.750   97.623    0.405    0.297    6.403
  348.000  100.086    0.403    0.298    6.653
  348.250   95.334    0.398    0.299    7.171
  348.500   91.168    0.393    0.300    7.584
  348.750   79.800    0.394    0.305    8.326
  349.000   79.859    0.398    0.313    8.806
  349.250   85.343    0.401    0.322    9.667
  349.500   82.380    0.402    0.318   10.038
  349.750   76.425    0.383    0.309   10.820
  350.000   72.288    0.376    0.298   11.450
  350.250   68.723    0.372    0.292   11.461
  350.500   68.796    0.379    0.291   11.685
  350.750   71.846    0.376    0.289   11.487
  351.000   81.525    0.368    0.287   10.885
  351.250   88.814    0.364    0.284    9.943
  351.500   93.081    0.372    0.283    9.251
  351.750   96.146    0.383    0.280    8.766
  352.000   99.812    0.393    0.276    7.865
  352.250  102.891    0.401    0.274    7.182
  352.500  105.354    0.408    0.270    6.441
  352.750  107.818    0.414    0.268    6.217
  353.000  110.911    0.421    0.265    5.891
  353.250  110.940    0.430    0.262    5.686
  353.500  110.412    0.436    0.267    5.488
  353.750  109.868    0.445    0.272    5.202
  354.000  109.941    0.450    0.285    4.930
  354.250  109.970    0.452    0.299    4.755
  354.500  110.629    0.461    0.298    4.589
  354.750  110.086    0.470    0.299    4.512
  355.000  106.536    0.431    0.304    4.519
  355.250  103.587    0.409    0.293    4.608
  355.500  101.240    0.398    0.285    4.967
  355.750  100.697    0.404    0.294    5.351
  356.000  101.356    0.421    0.310    5.765
  356.250  103.218    0.436    0.313    5.989
  356.500  105.080    0.451    0.302    5.998
  356.750  106.355    0.463    0.291    5.894
  357.000  107.000    0.471    0.297    5.484
  357.250  107.660    0.480    0.304    4.741
  357.500  108.333    0.486    0.312    3.879
  357.750  108.391    0.492    0.319    3.479
  358.000  108.435    0.484    0.328    3.120
  358.250  108.493    0.477    0.323    2.957
  358.500  107.964    0.478    0.298    2.906
  358.750  108.008    0.479    0.288    2.857
  359.000  108.095    0.481    0.283    2.809
  359.250  108.124    0.483    0.286    2.761
  359.500  108.182    0.487    0.309    2.764
  359.750  107.653    0.487    0.313    2.718
  360.000  107.095    0.484    0.336    2.721
  360.250  105.965    0.466    0.339    2.725
  360.500  104.835    0.442    0.350    2.728
  360.750  103.060    0.419    0.360    2.836
  361.000  100.111    0.402    0.371    2.944
  361.250   96.561    0.390    0.367    3.172
  361.500   92.410    0.377    0.360    3.746
  361.750   89.447    0.365    0.333    4.850
