~VERSION INFORMATION
 VERS.                 2.0:   CWLS LOG ASCII STANDARD -VERSION 2.0
 WRAP.                  NO:   ONE LINE PER DEPTH STEP
~WELL INFORMATION BLOCK
#MNEM.UNIT           DATA                    DESCRIPTION OF MNEMONIC
#---------    -------------------            -------------------------------
# Generated from Intellog Unique Number	CN_94_101/WELL/2347
WELL.         01-05-101-13W4                 : Well_name    - WELL
LOC .         AA/01-05-101-13W4/0            : Location     - LOCATION
UWI .         AA/01-05-101-13W400            : Uwi          - UNIQUE WELL ID
ENTR.         TIM                            : Entered      - ENTERED BY
SRVC.         SCHLUMBERGER                   : Scn          - SERVICE COMPANY
DATE.         08/13/92                       : Date         - LOG DATE
STRT.M        350                            : top_depth    - START DEPTH
STOP.M        550                            : bot_depth    - STOP DEPTH
STEP.M        0.25                           : increment    - STEP LENGTH
NULL. -999.2500:NULL Value
~CURVE INFORMATION BLOCK
#MNEM UNIT       ERCB CURVE CODE    CURVE DESCRIPTION
#-----------   ------------------   ----------------------------------
DEPT.M        00 001 00 00         : DEPTH        - DEPTH
DPHI.V/V      00 890 00 00         : PHID         - DENSITY POROSITY (SANDSTONE)
NPHI.V/V      00 330 00 00         : PHIN         - NEUTRON POROSITY (SANDSTONE)
ILD .OHMM     00 120 00 00         : RESD         - DEEP RESISTIVITY (DIL)
GR  .API      00 310 00 00         : GR           - GAMMA RAY
~PARAMETER INFORMATION
#MNEM.UNIT           DATA             DESCRIPTION OF MNEMONIC
#---------         -----------     ------------------------------
GL  .M        775.3                : gl           - GROUND LEVEL ELEVATION
EREF.M        778.7                : kb           - ELEVATION OF DEPTH REFERENCE
DATM.M        778.7                : datum        - DATUM ELEVATION
TDD .M        554                  : tdd          - TOTAL DEPTH DRILLER
RUN .         ONE                  : Run          - RUN NUMBER
ENG .         JO                   : Engineer     - RECORDING ENGINEER
WIT .         TIM                  : Witness      - WITNESSED BY
MUD .         GEL                  : Mud_type     - MUD TYPE
MATR.         SANDSTONE            : Logunit      - NEUTRON MATRIX
TMAX.C        29                   : BHT          - MAXIMUM RECORDED TEMPERATURE
BHTD.M        554                  : BHTDEP       - MAXIMUM RECORDED TEMPERATURE
RMT .C        10                   : MDTP         - TEMPERATURE OF MUD
MUDD.KG/M     1000                 : MWT          - MUD DENSITY
NEUT.         1                    : NEUTRON      - NEUTRON TYPE
RESI.         0                    : RESIST       - RESISTIVITY TYPE
RM  .OHMM     6                    : RM           - RESISTIVITY OF MUD
RMC .OHMM     6                    : RMC          - RESISTIVITY OF MUD CAKE
RMF .OHMM     6                    : RMF          - RESISTIVITY OF MUD FILTRATE
SUFT.C        4                    : SUFT         - SURFACE TEMPERATURE
~A  DEPTH     PHID     PHIN     RESD       GR
# ...
  524.000    0.290    0.450    8.850   72.908
  524.250    0.288    0.446   10.324   71.686
  524.500    0.288    0.443   11.589   70.458
  524.750    0.293    0.439   11.807   69.856
  525.000    0.306    0.429   12.235   70.507
  525.250    0.299    0.418   14.545   71.151
  525.500    0.281    0.408   19.787   71.802
  525.750    0.281    0.398   26.282   70.580
  526.000    0.276    0.393   27.756   69.978
  526.250    0.274    0.388   21.907   69.377
  526.500    0.270    0.373   18.778   70.034
  526.750    0.323    0.378   15.440   70.672
  527.000    0.331    0.384   13.357   72.575
  527.250    0.330    0.392   11.484   77.610
  527.500    0.325    0.403    9.819   83.277
  527.750    0.314    0.415    8.362   85.806
  528.000    0.307    0.421    6.281   87.089
  528.250    0.295    0.430    6.081   86.487
  528.500    0.290    0.441    7.346   83.374
  528.750    0.292    0.436   21.582   76.510
  529.000    0.301    0.424   21.384   72.771
  529.250    0.310    0.415   19.717   72.181
  529.500    0.309    0.407   17.425   73.458
  529.750    0.307    0.424   14.715   75.981
  530.000    0.314    0.435   13.471   80.390
  530.250    0.321    0.445   14.943   80.414
  530.500    0.320    0.441   17.465   79.186
  530.750    0.307    0.435   16.009   79.837
  531.000    0.298    0.429   14.133   84.245
  531.250    0.286    0.419   11.841   91.158
  531.500    0.275    0.404    9.549   96.819
  531.750    0.264    0.389    6.632  103.732
  532.000    0.228    0.372    5.802  107.514
  532.250    0.221    0.356    5.605  108.165
  532.500    0.219    0.347    5.823  106.949
  532.750    0.218    0.341    6.042  105.715
  533.000    0.216    0.337    6.049  103.241
  533.250    0.212    0.337    5.642  102.013
  533.500    0.212    0.339    5.444  101.405
  533.750    0.220    0.346    5.249  100.183
  534.000    0.234    0.351    5.256   98.961
  534.250    0.242    0.357    5.263   98.347
  534.500    0.242    0.358    5.270   99.630
  534.750    0.242    0.358    5.279  102.159
  535.000    0.241    0.355    4.870  105.935
  535.250    0.238    0.353    4.672  110.356
  535.500    0.230    0.349    4.681  111.620
  535.750    0.206    0.348    4.482  114.156
  536.000    0.201    0.350    4.282  117.306
  536.250    0.198    0.353    4.293  121.714
  536.500    0.191    0.356    4.300  121.112
  536.750    0.185    0.356    4.309  118.005
  537.000    0.179    0.355    4.530  116.151
  537.250    0.178    0.354    4.535  117.428
  537.500    0.183    0.354    4.547  119.957
  537.750    0.187    0.355    4.553  121.234
  538.000    0.200    0.356    4.149  120.645
  538.250    0.206    0.358    4.158  120.031
  538.500    0.208    0.362    3.958  119.429
  538.750    0.213    0.367    3.549  118.833
  539.000    0.215    0.368    3.556  118.238
  539.250    0.219    0.370    3.361  117.016
  539.500    0.221    0.370    3.368  115.775
  539.750    0.228    0.368    3.375  110.163
  540.000    0.262    0.367    3.384  102.040
  540.250    0.282    0.365    4.021   57.601
  540.500    0.282    0.373    5.497   52.615
  540.750    0.274    0.377    7.180   57.023
  541.000    0.265    0.385    8.024   72.078
  541.250    0.235    0.390    8.452   78.991
  541.500    0.230    0.388    8.045   85.278
  541.750    0.284    0.390    7.217   87.188
  542.000    0.293    0.393    6.390   84.075
  542.250    0.296    0.391    5.980   80.974
  542.500    0.291    0.383    5.571   90.392
  542.750    0.285    0.376    5.371   92.922
  543.000    0.272    0.370    5.171   91.694
  543.250    0.264    0.368    5.599   88.587
  543.500    0.262    0.368    6.236   84.227
  543.750    0.261    0.367    6.873   80.501
  544.000    0.273    0.363    7.091   80.525
  544.250    0.282    0.362    6.891   81.808
  544.500    0.283    0.363    6.273   82.447
  544.750    0.283    0.370    5.236   84.350
  545.000    0.274    0.374    4.620   85.633
  545.250    0.257    0.374    4.418   87.530
  545.500    0.253    0.374    4.218   91.312
  545.750    0.252    0.373    4.018   89.464
  546.000    0.254    0.373    3.611   85.725
  546.250    0.258    0.372    3.618   78.860
  546.500    0.254    0.371    3.837   71.996
  546.750    0.226    0.369    4.265   66.396
  547.000    0.205    0.360    5.325   67.667
  547.250    0.162    0.344    5.961   68.944
  547.500    0.041    0.329    6.387   70.847
  547.750    0.047    0.308    7.233   72.750
  548.000    0.051    0.248    7.874   75.900
  548.250    0.056    0.255    7.879   79.056
  548.500    0.058    0.258    7.891   82.844
  548.750    0.063    0.261    7.484   85.373
  549.000    0.068    0.256    7.279   86.650
  549.250    0.073    0.224    7.082   86.669
  549.500    0.073    0.212    6.879   87.319
  549.750    0.070    0.207    7.103   87.976
  550.000    0.066    0.204    7.110   88.001
