~VERSION INFORMATION
 VERS.                 2.0:   CWLS LOG ASCII STANDARD -VERSION 2.0
 WRAP.                  NO:   ONE LINE PER DEPTH STEP
~WELL INFORMATION BLOCK
#MNEM.UNIT           DATA                    DESCRIPTION OF MNEMONIC
#---------    -------------------            -------------------------------
# Generated from Intellog Unique Number	CN_94_101/WELL/2660
WELL.         07-10-094-14W4                 : Well_name    - WELL
LOC .         AA/07-10-094-14W4/0            : Location     - LOCATION
UWI .         AA/07-10-094-14W400            : Uwi          - UNIQUE WELL ID
ENTR.         JOETTE                         : Entered      - ENTERED BY
SRVC.         SCHLUMBERGER                   : Scn          - SERVICE COMPANY
DATE.         06\18\92                       : Date         - LOG DATE
STRT.M        50                             : top_depth    - START DEPTH
STOP.M        140                            : bot_depth    - STOP DEPTH
STEP.M        0.25                           : increment    - STEP LENGTH
 NULL. -999.2500:NULL Value
~CURVE INFORMATION BLOCK
#MNEM UNIT       ERCB CURVE CODE    CURVE DESCRIPTION
#-----------   ------------------   ----------------------------------
DEPT.M        00 001 00 00         : DEPTH        - DEPTH
CALI.MM       00 280 01 00         : CAL          - CALIPER
GR  .API      00 310 00 00         : GR           - GAMMA RAY
NPHI.V/V      00 330 00 00         : PHIN         - NEUTRON POROSITY (SANDSTONE)
DPHI.V/V      00 890 00 00         : PHID         - DENSITY POROSITY (SANDSTONE)
ILD .OHMM     00 120 00 00         : RESD         - DEEP RESISTIVITY (DIL)
~PARAMETER INFORMATION
#MNEM.UNIT           DATA             DESCRIPTION OF MNEMONIC
#---------         -----------     ------------------------------
GL  .M        415                  : gl           - GROUND LEVEL ELEVATION
EREF.M        415                  : kb           - ELEVATION OF DEPTH REFERENCE
DATM.M        415                  : datum        - DATUM ELEVATION
TDD .M        152                  : tdd          - TOTAL DEPTH DRILLER
RUN .         ONE                  : Run          - RUN NUMBER
ENG .         JO                   : Engineer     - RECORDING ENGINEER
WIT .         TIM                  : Witness      - WITNESSED BY
MUD .         GEL                  : Mud_type     - MUD TYPE
MATR.         SANDSTONE            : Logunit      - NEUTRON MATRIX
TMAX.C        16                   : BHT          - MAXIMUM RECORDED TEMPERATURE
BHTD.M        152                  : BHTDEP       - MAXIMUM RECORDED TEMPERATURE
RMT .C        15                   : MDTP         - TEMPERATURE OF MUD
MUDD.KG/M     1090                 : MWT          - MUD DENSITY
NEUT.         1                    : NEUTRON      - NEUTRON TYPE
RESI.         0                    : RESIST       - RESISTIVITY TYPE
RM  .OHMM     4.55                 : RM           - RESISTIVITY OF MUD
RMC .OHMM     4.55                 : RMC          - RESISTIVITY OF MUD CAKE
RMF .OHMM     4.55                 : RMF          - RESISTIVITY OF MUD FILTRATE
SUFT.C        4                    : SUFT         - SURFACE TEMPERATURE
~A  DEPTH      CAL       GR     PHIN     PHID     RESD
   50.000  220.140   57.700    0.574    0.283   20.741
   50.250  220.275   57.741    0.574    0.287   18.613
   50.500  221.403   57.266    0.573    0.291   15.819
   50.750  222.498   57.923    0.568    0.292   11.836
   51.000  223.627   58.600    0.568    0.295   12.293
   51.250  224.654   59.217    0.569    0.297   14.787
   51.500  224.789   59.298    0.576    0.297   15.928
   51.750  223.106   59.379    0.587    0.293   16.257
   52.000  221.288   59.460    0.586    0.284   15.983
   52.250  218.511   58.389    0.557    0.260   14.620
   52.500  215.733   55.652    0.544    0.238   12.420
   52.750  210.144   54.541    0.545    0.188   10.556
   53.000  206.407   51.723    0.506    0.138    9.305
   53.250  203.664   48.925    0.475    0.277    8.665
   53.500  199.994   44.996    0.462    0.334    8.217
   53.750  198.210   43.330    0.447    0.310    7.792
   54.000  198.311   43.452    0.435    0.305    7.661
   54.250  198.446   44.664    0.415    0.300    7.402
   54.500  200.501   47.624    0.398    0.301    7.412
   54.750  202.589   50.584    0.395    0.302    7.564
   55.000  205.603   53.544    0.413    0.295    7.577
   55.250  209.577   55.352    0.430    0.276    7.594
   55.500  214.544   56.029    0.430    0.272    7.607
   55.750  218.551   56.707    0.419    0.272    7.347
   56.000  220.572   57.343    0.430    0.279    7.356
   56.250  223.620   58.556    0.441    0.285    7.646
   56.500  225.641   61.556    0.461    0.294    8.087
   56.750  228.621   63.344    0.472    0.303    8.876
   57.000  230.675   67.497    0.463    0.299    9.741
   57.250  233.723   69.285    0.457    0.273    9.238
   57.500  236.737   71.669    0.466    0.289    7.712
   57.750  239.751   74.073    0.466    0.294    7.048
   58.000  241.806   74.710    0.461    0.291    6.566
   58.250  243.860   75.367    0.459    0.288    6.455
   58.500  245.949   75.428    0.474    0.288    6.707
   58.750  247.010   74.398    0.486    0.289    7.100
   59.000  249.098   73.883    0.485    0.289    7.655
   59.250  251.186   72.792    0.480    0.291    7.950
   59.500  251.287   72.297    0.471    0.290    8.107
   59.750  252.416   72.379    0.459    0.265    8.270
   60.000  253.511   72.460    0.451    0.251    8.138
   60.250  254.639   72.581    0.456    0.243    8.005
   60.500  254.741   72.642    0.468    0.265    7.727
   60.750  254.876   72.764    0.478    0.282    7.328
   61.000  254.977   72.804    0.489    0.286    6.703
   61.250  256.106   72.885    0.496    0.282    6.471
   61.500  256.241   74.159    0.500    0.286    6.370
   61.750  257.336   75.351    0.498    0.288    6.493
   62.000  257.437   78.331    0.492    0.276    6.871
   62.250  258.566   78.392    0.484    0.262    7.686
   62.500  259.627   76.190    0.476    0.264    8.129
   62.750  259.796   75.099    0.473    0.266    7.851
   63.000  260.891   74.069    0.469    0.264    6.670
   63.250  261.060   74.110    0.469    0.268    5.776
   63.500  261.195   75.363    0.471    0.292    6.222
   63.750  261.296   77.192    0.478    0.292    7.346
   64.000  261.431   78.384    0.499    0.270    7.358
   64.250  260.641   78.526    0.509    0.270    6.254
   64.500  259.782   78.566    0.549    0.318    4.348
   64.750  258.958   76.940    0.573    0.347    3.975
   65.000  259.127   76.405    0.591    0.320    3.982
   65.250  258.268   75.931    0.592    0.312    4.135
   65.500  258.437   77.163    0.582    0.305    4.796
   65.750  259.566   79.588    0.550    0.299    6.554
   66.000  259.667   80.204    0.504    0.295    6.938
   66.250  260.728   80.285    0.480    0.272    7.338
   66.500  260.728   79.235    0.470    0.265    8.053
   66.750  262.060   78.185    0.470    0.265    8.686
   67.000  263.053   78.226    0.471    0.271    9.025
   67.250  264.216   77.731    0.471    0.277    9.376
   67.500  265.243   77.812    0.465    0.279    9.926
   67.750  266.338   78.489    0.459    0.269   10.308
   68.000  267.466   79.126    0.446    0.238   11.113
   68.250  268.595   79.227    0.435    0.235   11.328
   68.500  270.683   78.733    0.427    0.239   11.357
   68.750  271.744   76.490    0.426    0.247   11.171
   69.000  271.879   73.692    0.434    0.248   10.978
   69.250  272.940   72.622    0.462    0.254   10.415
   69.500  274.069   73.875    0.459    0.262   10.240
   69.750  274.170   75.087    0.453    0.268   10.451
   70.000  274.373   76.936    0.447    0.268   11.258
   70.250  274.440   77.552    0.450    0.265   12.583
   70.500  274.609   77.098    0.450    0.265   14.070
   70.750  274.711   76.563    0.445    0.266   13.839
   71.000  274.846   74.917    0.435    0.277   12.653
   71.250  274.055   73.867    0.422    0.288   11.999
   71.500  274.190   73.352    0.424    0.260   11.797
   71.750  273.332   72.877    0.435    0.255   11.818
   72.000  273.535   72.362    0.456    0.246   12.279
   72.250  273.636   72.443    0.455    0.242   12.763
   72.500  272.812   73.100    0.452    0.243   13.015
   72.750  270.068   74.949    0.446    0.248   13.783
   73.000  268.250   76.182    0.436    0.256   14.055
   73.250  265.574   76.819    0.436    0.261   14.610
   73.500  263.722   78.051    0.445    0.257   14.905
   73.750  260.053   79.304    0.452    0.255   14.666
   74.000  256.349   79.365    0.449    0.262   14.152
   74.250  253.605   78.891    0.452    0.259   12.250
   74.500  252.815   77.265    0.450    0.235   11.195
   74.750  251.923   75.578    0.443    0.234   11.426
   75.000  250.172   74.507    0.433    0.235   13.491
   75.250  248.354   75.164    0.436    0.244   16.527
   75.500  242.766   76.973    0.446    0.249   16.556
   75.750  239.028   79.953    0.461    0.216   15.989
   76.000  233.372   78.862    0.455    0.171   15.436
   76.250  223.911   76.085    0.423    0.164   17.253
   76.500  213.490   75.014    0.416    0.148   20.002
   76.750  203.069   73.944    0.389    0.256   24.050
   77.000  195.527   73.449    0.388    0.278   25.940
   77.250  190.864   72.954    0.442    0.288   23.717
   77.500  188.086   73.591    0.442    0.289   23.758
   77.750  184.417   76.591    0.443    0.284   24.227
   78.000  181.673   77.804    0.445    0.253   25.182
   78.250  180.815   79.612    0.448    0.247   24.759
   78.500  179.990   77.411    0.430    0.241   23.054
   78.750  180.159   74.017    0.431    0.268   21.458
   79.000  180.294   70.643    0.432    0.269   21.910
   79.250  180.396   69.593    0.429    0.217   22.764
   79.500  180.531   70.230    0.415    0.194   23.233
   79.750  181.659   71.442    0.392    0.182   22.842
   80.000  182.754   73.887    0.351    0.203   21.652
   80.250  182.856   75.099    0.396    0.277   19.788
   80.500  183.950   76.888    0.414    0.276   15.921
   80.750  185.045   78.120    0.433    0.247   13.781
   81.000  185.214   77.626    0.441    0.216   12.148
   81.250  184.390   75.403    0.441    0.128   12.174
   81.500  182.639   72.626    0.437    0.092   13.613
   81.750  181.747   70.959    0.290    0.064   13.136
   82.000  183.835   71.061    0.310    0.112   11.370
   82.250  190.688   73.425    0.360    0.160    7.902
   82.500  196.581   77.536    0.441    0.219    7.094
   82.750  202.474   83.971    0.469    0.225    6.371
   83.000  212.239   87.507    0.469    0.238    5.830
   83.250  220.052   88.184    0.450    0.239    5.835
   83.500  227.864   87.094    0.479    0.230    5.740
   83.750  237.663   85.488    0.506    0.216    5.749
   84.000  242.563   84.973    0.517    0.202    5.865
   84.250  249.415   85.034    0.514    0.205    6.094
   84.500  256.336   86.287    0.494    0.229    6.448
   84.750  260.276   86.944    0.490    0.255    6.823
   85.000  264.249   87.004    0.513    0.254    6.958
   85.250  269.250   86.530    0.532    0.240    7.505
   85.500  271.305   84.884    0.507    0.239    7.653
   85.750  272.332   84.369    0.504    0.243    7.955
   86.000  274.420   83.894    0.493    0.246    7.972
   86.250  276.542   85.147    0.483    0.243    7.979
