~Version : LASO    vs 4.00 
VERS.                2.00:   CWLS Log ASCII Standard -VERSION 2.0
WRAP.                  NO:
~Well Information Block
#MNEM.UNIT       Data                        Description of Mnemonic
#----.----      -------------------------- : -----------------------------
STRT.M            15.0000:
STOP.M           207.0000:
STEP.M             0.2000:
NULL.           -999.2500:
COMP.  MOBIL OIL CANADA                   :COMPANY
WELL.  MOBIL CLARKE OV 1-2                :WELL
FLD.                                      :FIELD
LOC.   01-02-090-08W4                     :LOCATION
CTRY.  CANADA                             :COUNTRY
PROV.  ALBERTA                            :PROVINCE
SRVC.  SCHLUMBERGER                       :SERVICE COMPANY
DATE.  05-MAR-81                          :LOG DATE
UWI.   AA/01-02-090-08W400                :UNIQUE WELL ID
~Parameter Information Block
#MNEM.UNIT       Data                        Description of Mnemonic
#----.----      -------------------------- : -----------------------------
RUN .                   1                 : Run Number
GL  .M           444.4000                 : Ground Level Elevation
DREF.                  KB                 : Depth Reference
EREF.M           444.4000                 : Elevation of Depth Reference
TDL .M           207.0000                 : Total Depth Logger
TDD .M           206.0000                 : Total Depth Driller
CSGL.M            27.0000                 : Casing Bottom Logger
CSGD.M            26.4000                 : Casing Bottom Driller
CSGS.MM          219.0000                 : Casing Size
CSGW.KG/M          0.0000                 : Casing Weight
BS  .MM          159.0000                 : Bit Size
DFD .           9999.0000                 : Mud Weight (Density)
~Curve Information Block
#MNEM.UNIT        API CODE    Curve Description
#---------    ------------    -------------------------------------------
DEPT.M                    :   DEPTH
CALI.MM       42 280  1  1:   3 DENSITY CALIPER
DPHI.V/V                  :   DPHI
DT  .US/M     60 520  0  1:   2 SONIC INTERVAL TRANSIT TIME (COMPENSATED)
GR  .GAPI     42 310  1  1:   4 GAMMA RAY
ILD .OHMM      5 120 46  1:   7 DEEP INDUCTION
ILM .OHMM      5 120 44  1:   8 MEDIUM INDUCTION
NPHI.V/V      42 890  3  1:   5 NEUTRON POROSITY (SANDSTONE)
RHOB.K/M3     42 350  1  1:   6 BULK DENSITY
SFLU.OHMM      5 220  1  1:   9 FOCUSSED RESISTIVITY
SP  .MV        5  10  1  1:   10 SPONTANEOUS POTENTIAL
~A  Depth           CALI        DPHI          DT          GR         ILD         ILM        NPHI        RHOB        SFLU          SP
# ...
100.4000        183.5250      0.2502    489.2000     64.8900      5.5492      5.1598      0.4556   2250.8999      4.5272    110.4600
100.6000        183.5250      0.2557    491.0000     65.7900      5.7047      5.3534      0.4872   2240.0000      4.5691    111.3600
100.8000        181.0000      0.2493    493.1600     66.4950      5.8645      5.5543      0.4978   2219.0000      5.1031    117.9600
101.0000        183.5250      0.2476    495.1200     66.9900      5.9735      5.8699      0.5054   2235.0000      6.3655    118.1100
101.2000        182.2500      0.2571    492.3200     68.0850      6.0846      5.9242      0.5014   2231.0000      6.2493    113.7150
101.4000        182.2500      0.2633    489.5600     67.9950      6.0846      5.9242      0.4912   2227.0000      6.1352    111.7650
101.6000        186.0750      0.2633    484.4400     64.7850      6.1977      5.7628      0.4772   2201.0000      5.5441     98.3550
101.8000        186.0750      0.2633    484.2800     62.3850      6.3129      5.7628      0.4762   2203.0000      4.9185    103.3050
102.0000        184.8000      0.2576    485.9200     61.0800      6.3713      5.9790      0.4866   2224.0000      4.8287    101.8050
102.2000        184.8000      0.2490    489.2000     60.0900      6.4898      6.2034      0.4910   2232.0000      5.2946    105.5550
102.4000        183.5250      0.2377    489.2000     57.8850      6.7956      6.7395      0.4914   2250.8999      6.9796    117.5700
102.6000        178.4500      0.2346    483.6400     56.8800      7.0507      6.9220      0.4716   2261.0000      7.7952    115.0650
102.8000        177.1750      0.2377    475.1200     55.1850      7.4513      7.0507      0.4578   2254.0000      8.1626    108.2550
103.0000        178.4500      0.2488    452.4800     50.8800      8.5552      7.5202      0.4556   2244.0000      6.9796    110.5650
103.2000        174.6250      0.2582    449.2000     49.8750      9.3806      8.0210      0.4714   2219.0000      6.3071    110.0100
103.4000        173.3750      0.2457    454.7600     49.2750     10.2856      8.9584      0.4664   2219.0000      6.1920    105.3600
103.6000        173.3750      0.2178    458.4000     52.4850     12.0179     12.5959      0.4454   2296.8999     10.7604    109.5600
103.8000        173.3750      0.1983    415.4000     54.7800     12.8183     14.7309      0.3558   2333.0000     22.6898    110.4150
104.0000        174.6250      0.1773    359.9600     56.9850     13.4224     16.3016      0.3100   2369.0000     39.4303    100.0650
104.2000        173.3750      0.1382    269.2800     57.7800     12.5843     15.8573      0.2938   2558.0000     22.0714     97.5600
104.4000        173.3750      0.0776    251.5600     57.7800     11.2779     13.6845      0.3460   2677.0000     12.8183    105.7050
104.6000        175.9000      0.0322    250.0800     58.1850     10.0979     10.9706      0.3460   2665.0000      8.6264    101.4600
104.8000        183.5250      0.0419    254.8400     60.7800      8.3220      8.3220      0.3914   2562.0000      6.0232    110.0100
105.0000        177.1750      0.0606    263.2000     60.7800      7.7309      7.7309      0.4638   2562.0000      6.1920    114.5700
105.2000        173.3750      0.1023    291.4400     60.7800      7.3153      7.2482      0.4688   2527.0000      6.7894    104.1600
105.4000        175.9000      0.1610    342.2800     60.7800      6.9860      6.9220      0.4568   2438.0000      6.9796     97.4100
105.6000        178.4500      0.2132    453.1200     60.7800      6.6716      6.6165      0.4634   2361.0000      6.9156     98.0550
105.8000        173.3750      0.2343    469.2000     59.5800      6.4898      6.4362      0.4826   2295.0000      6.7271    104.4150
106.0000        173.3750      0.2498    472.6400     57.2850      6.3713      6.2034      0.4654   2250.8999      6.3655    104.1150
106.2000        179.7250      0.2571    484.9600     57.0900      6.1977      5.8699      0.4536   2214.0000      5.6472    104.2050
106.4000        183.5250      0.2428    490.8400     58.3800      6.0846      5.7628      0.4502   2213.0000      5.2460    108.0600
106.6000        191.1500      0.2241    490.3600     59.7900      5.9187      5.7099      0.4646   2221.0000      5.1979     93.0600
106.8000        188.6000      0.2221    495.7600     64.9950      5.7047      5.5543      0.4806   2254.0000      5.4933    101.3100
107.0000        192.4250      0.2167    493.1600     67.0950      5.6524      5.4529      0.4866   2277.0000      5.5441    101.6100
107.2000        197.5000      0.2156    491.8400     68.3850      5.6005      5.4029      0.4808   2285.8999      5.4429     98.4600
107.4000        193.6750      0.2154    486.9200     68.3850      5.5492      5.2557      0.4838   2292.0000      4.9185     98.3550
107.6000        198.7750      0.2153    488.0800     67.4850      5.5492      5.2075      0.4852   2299.0000      4.7406     96.3600
107.8000        194.9500      0.2118    489.3600     66.9900      5.7047      5.2075      0.4778   2307.8999      4.6114     99.3600
108.0000        192.4250      0.2091    488.0800     66.3900      6.1409      5.5543      0.4674   2289.0000      4.4446     98.9100
108.2000        192.4250      0.2062    487.2400     67.2900      6.3129      5.9790      0.4506   2313.0000      4.9185    103.7550
108.4000        188.6000      0.2040    487.5600     67.3950      6.4303      6.3772      0.4422   2318.8999      6.0790    103.1550
108.6000        181.0000      0.2020    486.4400     65.4900      6.6104      6.7395      0.4356   2303.0000      7.9402     94.5600
108.8000        177.1750      0.2091    472.0000     65.5950      6.7333      6.7395      0.4260   2320.0000      9.5462     94.8150
109.0000        178.4500      0.2203    462.3200     65.6850      6.7333      6.4958      0.4286   2321.0000      8.0136     95.2650
109.2000        181.0000      0.2234    454.9200     66.1950      6.6104      6.3187      0.4358   2301.0000      6.3655     97.0650
109.4000        192.4250      0.2219    455.9200     66.4950      6.0846      6.0902      0.4510   2277.0000      4.8734    106.7550
109.6000        192.4250      0.2251    465.1200     67.2900      5.8645      5.8699      0.4814   2276.0000      5.4933     93.7050
109.8000        189.8750      0.2319    472.3200     68.6850      5.6005      5.6057      0.4814   2285.8999      5.8591     96.4650
110.0000        182.2500      0.2319    481.8400     69.6900      5.3485      5.2557      0.4840   2270.0000      4.7844    107.1150
110.2000        186.0750      0.2262    480.5200     69.6900      5.2509      5.0656      0.4768   2270.0000      4.8734    108.5550
110.4000        191.1500      0.2304    480.8400     68.9850      5.2027      4.8824      0.4840   2257.0000      4.9640    102.4050
110.6000        201.3000      0.2258    482.4800     68.8950      5.3485      4.8824      0.4888   2279.0000      3.9795    102.8550
110.8000        196.2250      0.2151    482.6400     69.7950      5.3485      5.0191      0.4848   2257.0000      4.0163    117.3600
111.0000        188.6000      0.2106    481.5200     70.5900      5.3485      5.0191      0.4790   2283.0000      4.0163    117.3600
111.2000        187.3250      0.2180    478.7200     70.5900      5.3485      5.3043      0.4734   2309.0000      5.8591    116.8200
111.4000        189.8750      0.2180    477.4000     70.2900      5.3485      5.3043      0.4664   2281.0000      6.3655    107.1150
111.6000        188.6000      0.2124    474.4400     70.0950      5.4479      5.2557      0.4628   2291.0000      6.0790    100.3050
111.8000        186.0750      0.2129    474.4400     69.5850      5.6005      5.1598      0.4642   2298.0000      5.3436     97.9050
112.0000        187.3250      0.2157    476.6000     69.5850      5.7047      5.3534      0.4724   2301.0000      4.1289    109.9650
112.2000        189.8750      0.2147    480.5200     68.6850      5.5492      5.6057      0.4990   2300.0000      4.3634    114.9150
112.4000        188.6000      0.2193    481.0000     67.1850      5.2027      5.7628      0.4978   2285.8999      5.6472    120.3600
