~VERSION INFORMATION
 VERS.                 2.0:   CWLS LOG ASCII STANDARD -VERSION 2.0
 WRAP.                  NO:   ONE LINE PER DEPTH STEP
~WELL INFORMATION BLOCK
#MNEM.UNIT           DATA                    DESCRIPTION OF MNEMONIC
#---------    -------------------            -------------------------------
# Generated from Intellog Unique Number	CC_80_83/WELL/2324
NULL.         -999.25                        : NULL_VALUE
WELL.         ARCO ACI McMURRAY              : Well_name    - WELL              
LOC .         09-26-083-12W4                 : Location     - LOCATION          
UWI .         AA/09-26-083-12W400            : Uwi          - UNIQUE WELL ID    
ENTR.         DW                             : Entered      - ENTERED BY        
SRVC.         SCHLUMBERGER                   : Scn          - SERVICE COMPANY   
DATE.         06 FEB 74                      : Date         - LOG DATE
STRT.M        137.16                         : top_depth    - START DEPTH       
STOP.M        366.98                         : bot_depth    - STOP DEPTH        
STEP.M        0.305                          : increment    - STEP LENGTH       
~CURVE INFORMATION BLOCK
#MNEM UNIT       ERCB CURVE CODE    CURVE DESCRIPTION
#-----------   ------------------   ----------------------------------
DEPT.M        00 001 00 00         : DEPTH        - DEPTH                       
DPHI.V/V      00 890 00 00         : PHID         - DENSITY POROSITY (LIMESTONE)
GR  .API      00 310 00 00         : GR           - GAMMA RAY                   
NPHI.V/V      00 330 00 00         : PHIN         - NEUTRON POROSITY (LIMESTONE)
ILD .OHMM     00 120 00 00         : RESD         - DEEP RESISTIVITY (DIL)      
~PARAMETER INFORMATION       
#MNEM.UNIT           DATA             DESCRIPTION OF MNEMONIC
#---------         -----------     ------------------------------
GL  .M        609.6                : gl           - GROUND LEVEL ELEVATION      
EREF.M        611.124              : kb           - ELEVATION OF DEPTH REFERENCE
DATM.M        611.124              : datum        - DATUM ELEVATION             
TDD .M        369.113              : tdd          - TOTAL DEPTH DRILLER         
RUN .         ONE                  : Run          - RUN NUMBER                  
ENG .         BILL                 : Engineer     - RECORDING ENGINEER          
WIT .         JIM                  : Witness      - WITNESSED BY                
MUD .         GEL                  : Mud_type     - MUD TYPE                    
MATR.         LIMESTONE            : Logunit      - NEUTRON MATRIX              
TMAX.C        18.3333              : BHT          - MAXIMUM RECORDED TEMPERATURE
BHTD.M        369.113              : BHTDEP       - MAXIMUM RECORDED TEMPERATURE
MATR.         1                    : LOGUNIT      - NEUTRON MATRIX              
RMT .C        25                   : MDTP         - TEMPERATURE OF MUD          
NEUT.         1                    : NEUTRON      - NEUTRON TYPE                
RESI.         0                    : RESIST       - RESISTIVITY TYPE            
RMC .OHMM     0.25                 : RMC          - RESISTIVITY OF MUD CAKE     
RMF .OHMM     0.25                 : RMF          - RESISTIVITY OF MUD FILTRATE 
SUFT.C        4                    : SUFT         - SURFACE TEMPERATURE         
~A  DEPTH     PHID       GR     PHIN     RESD
# ...
  190.194    0.310   93.638    0.398   14.084
  190.499    0.315   86.308    0.406   14.097
  190.804    0.305   78.163    0.393   13.107
  191.109    0.291   78.553    0.395   12.409
  191.413    0.290   68.783    0.384   11.972
  191.718    0.307   65.516    0.387   11.991
  192.023    0.313   61.436    0.424   13.425
  192.328    0.315   58.169    0.411   14.479
  192.633    0.300   69.128    0.397   15.333
  192.937    0.289   71.956    0.390   15.645
  193.242    0.323   71.942    0.385   14.008
  193.547    0.308   70.704    0.421   11.649
  193.852    0.316   66.627    0.433   10.627
  194.157    0.318   68.639    0.425   10.841
  194.461    0.340   67.003    0.418   11.480
  194.766    0.328   64.546    0.446   12.151
  195.071    0.312   63.719    0.447   13.116
  195.376    0.302   68.577    0.456   13.125
  195.681    0.282   71.819    0.439   12.201
  195.985    0.279   79.120    0.435   11.771
  196.290    0.316   79.504    0.453   11.151
  196.595    0.324   78.681    0.438   10.755
  196.900    0.304   87.606    0.433    9.814
  197.204    0.289  101.413    0.459    8.790
  197.509    0.276  108.714    0.475    7.586
  197.814    0.257  114.795    0.468    7.049
  198.119    0.276  119.657    0.479    6.433
  198.424    0.286  118.828    0.467    5.978
  198.728    0.271  115.563    0.467    5.558
  199.033    0.296  108.635    0.481    5.265
  199.338    0.338  102.524    0.486    5.270
  199.643    0.372   96.005    0.520    5.375
  199.948    0.435   92.735    0.508    6.132
  200.252    0.448   84.186    0.409    7.259
  200.557    0.349   83.764    0.400    8.759
  200.862    0.285   85.374    0.420    9.270
  201.167    0.301   91.453    0.430   10.575
  201.472    0.296   86.156    0.465   10.991
  201.776    0.302   84.921    0.470   10.602
  202.081    0.332   93.030    0.501    9.496
  202.386    0.374   94.237    0.453    8.995
  202.691    0.396   95.034    0.418    9.005
  202.996    0.339   96.648    0.445    9.544
  203.300    0.314   94.192    0.466    9.916
  203.605    0.323   96.210    0.445   10.301
  203.910    0.317   98.634    0.422   10.706
  204.215    0.318   88.049    0.413   10.927
  204.520    0.306   85.186    0.411   10.934
  204.824    0.288   78.669    0.402   11.156
  205.129    0.273   71.338    0.405   11.594
  205.434    0.300   67.259    0.426   12.284
  205.739    0.318   67.650    0.426   12.761
  206.044    0.312   61.942    0.400   13.515
  206.348    0.294   57.455    0.366   14.041
  206.653    0.281   53.375    0.371   15.155
  206.958    0.293   52.142    0.410   15.743
  207.263    0.342   67.571    0.428   16.062
  207.567    0.354   80.970    0.433   13.602
  207.872    0.344   80.542    0.433   11.737
  208.177    0.342   76.871    0.407   11.117
  208.482    0.320   79.298    0.407   11.132
  208.787    0.292   83.753    0.428   11.145
  209.091    0.282   89.429    0.434   10.554
  209.396    0.279  101.607    0.427    8.937
  209.701    0.249  105.654    0.428    6.899
  210.006    0.255  109.298    0.444    6.063
  210.311    0.255  112.942    0.448    5.743
  210.615    0.271  106.423    0.470    5.542
  210.920    0.233  104.782    0.491    5.548
  211.225    0.257  103.547    0.468    5.557
  211.530    0.242  101.498    0.462    5.564
  211.835    0.242  108.798    0.481    5.468
  212.139    0.229  108.377    0.516    5.475
  212.444    0.259  103.078    0.544    5.587
  212.749    0.321  102.656    0.560    5.700
  213.054    0.389  101.827    0.572    5.601
  213.359    0.412   90.023    0.578    5.405
  213.663    0.403   90.006    0.570    5.119
  213.968    0.418   85.928    0.574    4.938
  214.273    0.383   80.630    0.570    4.677
  214.578    0.378   71.671    0.512    4.595
  214.883    0.348   60.682    0.421    4.600
  215.187    0.326   53.350    0.419    5.151
  215.492    0.334   59.428    0.428    8.367
  215.797    0.336   63.474    0.425   11.289
  216.102    0.338   63.058    0.443   13.112
  216.407    0.338   55.724    0.460   14.689
  216.711    0.346   52.051    0.455   14.431
  217.016    0.359   52.443    0.444   13.414
  217.321    0.365   47.956    0.455   12.467
  217.626    0.364   44.281    0.436   12.031
  217.930    0.361   44.258    0.427   11.825
  218.235    0.360   44.658    0.433   11.839
  218.540    0.355   49.922    0.431   11.859
  218.845    0.369   52.350    0.444   11.655
  219.150    0.365   53.553    0.450   11.889
  219.454    0.363   50.693    0.429   11.902
  219.759    0.365   53.116    0.422   11.919
  220.064    0.359   57.977    0.440   11.940
  220.369    0.353   55.524    0.434   11.956
  220.674    0.355   53.884    0.465   11.747
  220.978    0.358   52.648    0.463   12.448
  221.283    0.360   51.004    0.445   12.933
  221.588    0.357   50.584    0.416   12.946
  221.893    0.363   52.193    0.441   12.722
  222.198    0.357   56.652    0.459   12.741
  222.502    0.359   53.382    0.450   12.996
  222.807    0.359   52.150    0.441   13.015
  223.112    0.359   52.132    0.437   13.032
  223.417    0.359   51.713    0.447   12.810
  223.722    0.355   56.978    0.455   13.072
  224.026    0.359   58.182    0.422   12.844
  224.331    0.359   56.541    0.446   12.627
  224.636    0.356   52.866    0.460   12.647
  224.941    0.356   54.478    0.471   12.426
  225.246    0.361   57.307    0.466   12.444
  225.550    0.355   58.106    0.459   12.234
  225.855    0.359   62.970    0.453   12.248
  226.160    0.335   60.109    0.439   12.267
  226.465    0.347   52.776    0.436   12.279
  226.770    0.353   56.013    0.444   12.296
  227.074    0.366   64.127    0.455   12.313
  227.379    0.360   63.297    0.447   12.564
  227.684    0.357   64.497    0.459   12.579
  227.989    0.358   63.264    0.447   12.370
  228.294    0.356   60.406    0.455   12.381
  228.598    0.352   63.237    0.443   12.167
  228.903    0.361   65.657    0.427   12.185
  229.208    0.358   63.613    0.436   11.976
  229.513    0.339   59.126    0.429   11.771
  229.817    0.336   53.823    0.426   11.787
  230.122    0.350   55.031    0.444   11.590
  230.427    0.355   61.922    0.451   11.387
  230.732    0.360   63.129    0.462   11.401
  231.037    0.361   61.081    0.444   11.421
  231.341    0.354   60.251    0.454   11.223
  231.646    0.339   64.301    0.470   10.431
  231.951    0.345   69.567    0.485    9.697
  232.256    0.345   65.893    0.466    9.013
  232.561    0.345   65.881    0.461    8.537
  232.865    0.351   63.419    0.445    8.547
  233.170    0.356   63.817    0.464    8.882
  233.475    0.358   70.712    0.495    9.405
  233.780    0.347   72.729    0.501    8.745
  234.085    0.337   75.559    0.452    8.127
  234.389    0.320   87.737    0.441    7.989
  234.694    0.323   83.657    0.430    8.150
  234.999    0.315   69.414    0.426    8.789
  235.304    0.304   65.742    0.442   10.410
  235.609    0.285   71.010    0.458   10.617
  235.913    0.290   74.653    0.458    9.335
  236.218    0.300   71.793    0.437    8.515
  236.523    0.294   65.680    0.435    7.218
  236.828    0.308   62.818    0.418    6.710
  237.133    0.330   64.427    0.435    6.470
  237.437    0.330   69.291    0.418    6.357
  237.742    0.321   70.086    0.421    6.856
  238.047    0.327   76.576    0.433    7.262
  238.352    0.316   76.969    0.419    7.836
  238.657    0.317   72.884    0.433    7.992
  238.961    0.327   72.466    0.471    7.854
  239.266    0.321   76.104    0.545    6.530
  239.571    0.304   79.345    0.570    5.230
  239.876    0.349   89.898    0.568    4.268
  240.180    0.366   92.322    0.567    3.548
  240.485    0.321  100.436    0.568    3.298
  240.790    0.361   95.136    0.569    3.124
  241.095    0.353   88.615    0.569    3.070
  241.400    0.354   90.227    0.569    3.074
  241.704    0.372   93.870    0.568    3.136
  242.009    0.344   88.975    0.560    3.260
  242.314    0.363   85.301    0.570    3.451
  242.619    0.348   87.320    0.531    3.865
  242.924    0.324   86.081    0.549    3.942
