~Version : LASO    vs 4.00
VERS.                2.00:   CWLS Log ASCII Standard -VERSION 2.0
WRAP.                  NO:
~Well Information Block
#MNEM.UNIT       Data                        Description of Mnemonic
#----.----      -------------------------- : -----------------------------
STRT.M            15.0000:
STOP.M           186.3750:
STEP.M             0.1250:
NULL.           -999.2500:
COMP.  MOBIL OIL OF CANADA                :COMPANY
WELL.  MOBIL CLARKE OV 2-19               :WELL
FLD.                                      :FIELD
LOC.   02-19-090-07W4                     :LOCATION
CTRY.  CANADA                             :COUNTRY
PROV.  ALBERTA                            :PROVINCE
SRVC.  DRESSER ATLAS                      :SERVICE COMPANY
DATE.  24-FEB-81                          :LOG DATE
UWI.   AA/02-19-090-07W400                :UNIQUE WELL ID
~Parameter Information Block
#MNEM.UNIT       Data                        Description of Mnemonic
#----.----      -------------------------- : -----------------------------
RUN .                   1                 : Run Number
GL  .M           444.6000                 : Ground Level Elevation
DREF.                  KB                 : Depth Reference
EREF.M           444.6000                 : Elevation of Depth Reference
TDL .M           186.3000                 : Total Depth Logger
TDD .M           185.0000                 : Total Depth Driller
CSGL.M            14.7000                 : Casing Bottom Logger
CSGD.M            14.7000                 : Casing Bottom Driller
CSGS.MM          219.0000                 : Casing Size
CSGW.KG/M          0.0000                 : Casing Weight
BHT .DEGC         20.0000                 : Bottom Hole Temperature
BS  .MM          159.0000                 : Bit Size
DFD .           9999.0000                 : Mud Weight (Density)
DFV .             90.0000                 : Mud Viscosity
RM  .OHMM          2.5000                 : Mud Resistivity
RMT .DEGC         20.0000                 : Mud Resistivity Temperature
~Curve Information Block
#MNEM.UNIT        API CODE    Curve Description
#---------    ------------    -------------------------------------------
DEPT.M                    :   DEPTH
CALI.MM       42 280  1  1:   3 DENSITY CALIPER
DPHI.V/V                  :   DPHI
DT  .US/M     60 520 32  1:   2 SONIC INTERVAL TRANSIT TIME (COMPENSATED)
GR  .GAPI     42 310  1  1:   4 GAMMA RAY
ILD .OHMM      5 120 45  1:   7 DEEP INDUCTION
NPHI.V/V      42 890  3  1:   5 NEUTRON POROSITY (SANDSTONE)
RHOB.K/M3     42 350  1  1:   6 BULK DENSITY
SN  .OHMM      5  40 16  1:   8 SHORT NORMAL
SP  .MV        5  10  1  1:   9 SPONTANEOUS POTENTIAL
~A  Depth           CALI        DPHI          DT          GR         ILD        NPHI        RHOB          SN          SP
15.0000         176.5500   -999.2500    500.2000   -999.2500      1.4250      0.4493   2200.3999      9.9250    -30.9900
15.1250         176.2500   -999.2500    500.2400   -999.2500      3.4550      0.4493   2200.7000     14.9250    -38.4600
15.2500         176.2500   -999.2500    500.2800   -999.2500     19.3950      0.4471   2200.3999     17.3000    -42.3600
15.3750         242.5000   -999.2500    499.8800   -999.2500     32.1300      0.4423   2200.3999     15.0400    -44.7750
15.5000         246.7000   -999.2500    499.6400   -999.2500     32.8400      0.4386   2187.8999     14.7100    -46.0650
15.6250         246.4000   -999.2500    499.7200   -999.2500     31.5050      0.4361   2151.8999     14.8000    -47.1900
15.7500         242.2000   -999.2500    499.7600   -999.2500     31.3550      0.4337   2121.8999     14.9950    -47.8500
15.8750         236.4750   -999.2500    499.8400   -999.2500     31.4050      0.4447   2091.3999     15.2900    -48.7350
16.0000         232.2500      0.2930    500.4800     78.4650     31.5550      0.4714   2166.2000     15.3550    -49.5300
16.1250         229.8500      0.2845    500.0400     79.1700     31.7100      0.5339   2199.3999     14.6600    -49.8300
16.2500         230.4500      0.2774    500.0000     81.9900     33.5700      0.5556   2188.2000     14.6450    -50.4000
16.3750         230.1500      0.2869    500.0400     83.2050     49.8450      0.5629   2132.8999     14.7900    -50.8350
16.5000         230.1500      0.2978    500.0800     82.8450     49.8350      0.5602   2060.5000     14.9850    -50.8650
16.6250         225.9250      0.3282    500.1600     81.9300     50.0300      0.5436   2056.3999     15.2150    -50.9400
16.7500         224.1250      0.3490    500.2000     80.4300     50.0200      0.5258   2045.6000     15.0050    -51.5250
16.8750         222.3250      0.3580    500.2800     80.0700     50.0100      0.5247   2036.7000     14.9950    -52.1700
17.0000         222.3250      0.3635    500.3200     79.7100     50.0000      0.5268   2038.1000     15.5450    -51.7050
17.1250         223.8250      0.3613    500.4000     79.1700     49.9850      0.5290   2046.6000     15.7750    -52.0950
17.2500         225.3250      0.3587    499.6800     78.4050     50.1750      0.5342   2053.7000     17.0850    -51.6600
17.3750         228.3500      0.3569    499.7600     77.4750     47.3600      0.5439   2056.6001     19.0000    -51.2400
17.5000         234.0750      0.3547    499.8000     76.1400     15.5550      0.5467   2061.8999     18.1950    -51.1200
17.6250         235.8750      0.3522    499.8400     74.9250     13.5450      0.5406   2064.3999     17.7350    -51.1500
17.7500         234.3750      0.3520    499.6800     74.8500     13.6150      0.5314   2068.5000     19.2150    -51.1800
17.8750         232.5500      0.3519    499.4400     73.7850     13.9250      0.5095   2061.0000     22.4650    -50.7000
18.0000         229.8500      0.3539    499.4000     72.0600     13.9150      0.5052   2030.5000     23.7050    -50.0400
18.1250         230.4500      0.3607    500.0000     70.2600     14.2550      0.5058   2024.7000     23.2200    -50.0850
18.2500         233.4750      0.3688    500.1200     68.2650     14.5900      0.5044   2029.5000     22.0850    -50.1150
18.3750         236.1750      0.3712    500.0000     68.4600     15.2850      0.5067   2041.6000     21.8750    -50.1450
18.5000         237.9750      0.3647    499.5200     68.8350     15.2750      0.4984   2148.2000     19.0650    -50.7600
18.6250         235.8750      0.3436    499.5200     69.8400     15.2650      0.4759   2211.5000     20.2350    -52.0200
18.7500         234.9750      0.2790    499.6000     68.5050     15.2550      0.4637   2248.3999     21.6400    -52.0500
18.8750         233.7750      0.2528    499.6400     66.8400     15.0450      0.4530   2175.5000     22.0300    -52.2000
19.0000         230.7500      0.2403    499.7200     65.1750     14.8350      0.4434   2162.5000     21.2350    -53.1000
19.1250         232.2500      0.2541    499.7600     64.2000     14.8250      0.4434   2110.3000     18.7050    -53.7600
19.2500         237.3750      0.2907    499.8400     64.0950     14.6150      0.4496   2118.3999     18.2000    -53.9850
19.3750         241.0000      0.2912    499.4000     64.0050     14.2150      0.4509   2164.0000     18.3100    -54.0150
19.5000         242.5000      0.2866    499.1600     65.4600     13.7850      0.4462   2209.6001     18.1800    -54.5250
19.6250         242.5000      0.2788    499.2000     67.0050     13.1850      0.4415   2216.8999     18.4650    -54.6750
19.7500         239.4750      0.2708    499.2800     69.7200     12.7750      0.4445   2209.6001     20.1600    -55.3200
19.8750         235.2750      0.2747    499.3200     72.4650     12.4850      0.4532   2181.0000     21.6950    -55.3500
20.0000         227.1500      0.2848    499.4000     73.9650     12.2600      0.4814   2152.5000     21.0600    -55.3800
20.1250         221.7250      0.2986    499.4400     73.8600     12.1450      0.4972   2140.1001     19.5200    -55.4100
20.2500         219.9250      0.3029    499.4800     72.8550     12.2550      0.5092   2137.8999     16.9250    -55.4400
20.3750         221.4250      0.3043    499.5600     71.7750     12.3250      0.4900   2138.7000     15.6750    -55.4700
20.5000         223.5250      0.3061    498.8400     72.1200     12.4500      0.4768   2152.0000     15.2850    -55.5150
20.6250         225.9250      0.3132    492.0000     73.4400     12.5050      0.4757   2151.3999     15.7150    -56.1450
20.7500         227.1500      0.3198    481.9600     75.6750     12.6450      0.4733   2131.2000     16.4650    -56.1750
20.8750         228.6500      0.3285    460.3200     78.5850     13.0350      0.4673   2122.1001     16.2550    -56.2050
21.0000         228.3500      0.3426    408.9200     76.6350     13.6150      0.4726   2122.1001     17.1150    -56.2350
21.1250         226.5500      0.3510    404.4400     74.4450     14.3950      0.4816   2074.3999     18.2650    -56.2800
21.2500         224.7250      0.3538    410.0800     71.9850     15.2800      0.4958   2059.2000     19.2400    -56.7750
21.3750         224.4250      0.3508    414.5600     69.5400     16.0500      0.5026   2070.2000     20.5700    -56.0700
21.5000         226.5500      0.3481    412.5200     67.8600     17.3850      0.5008   2077.5000     22.9900    -56.3700
21.6250         229.2500      0.3500    355.7600     65.8050     18.7200      0.4846   2070.8000     25.5450    -56.4000
21.7500         228.3500      0.3513    282.2400     63.4950     20.0350      0.4621   2061.6001     27.5850    -56.4300
21.8750         228.3500      0.3481    279.1200     60.8550     21.0700      0.4441   2068.3000     27.3750    -56.8950
22.0000         229.8500      0.3384    277.6000     56.2350     21.7850      0.4062   2087.8999     26.9650    -57.1050
22.1250         231.6500      0.3085    276.0400     56.1150     23.3300      0.3946   2119.0000     27.6150    -57.1350
22.2500         234.3750      0.2829    276.1600     56.6400     23.3900      0.3867   2179.8999     25.9450    -56.9100
22.3750         237.6750      0.2529    286.9600     57.5850     22.8750      0.3784   2250.7000     25.7350    -56.5950
22.5000         239.7750      0.2431    305.0400     58.5300     22.2300      0.3698   2259.2000     27.0250    -56.6250
22.6250         240.7000      0.2395    311.6800     59.4750     21.5200      0.3713   2251.8999     28.9100    -56.6550
22.7500         241.6000      0.2409    319.5200     59.8200     20.8100      0.3811   2250.7000     29.0300    -56.6850
22.8750         243.1000      0.2448    322.8400     59.9100     20.6800      0.3867   2250.1001     27.0350    -56.7300
23.0000         243.4000      0.2491    324.2000     60.0000     20.6150      0.3953   2245.2000     22.0800    -56.7600
23.1250         243.1000      0.2569    329.0400     60.1950     20.6150      0.4021   2231.2000     21.2700    -56.7900
23.2500         237.0750      0.2602    338.1600     61.0350     20.7450      0.4167   2209.8000     21.5450    -56.8200
