~VERSION INFORMATION
 VERS.                 2.0:   CWLS LOG ASCII STANDARD -VERSION 2.0
 WRAP.                  NO:   ONE LINE PER DEPTH STEP
~WELL INFORMATION BLOCK
#MNEM.UNIT           DATA                    DESCRIPTION OF MNEMONIC
#---------    -------------------            -------------------------------
# Generated from Intellog Unique Number	CC_84_87/WELL/1179
NULL.         -999.25                        : NULL_VALUE
WELL.         TEXACO HANGINGSTONE            : Well_name    - WELL
LOC .         09-17-085-11W4                 : Location     - LOCATION          
UWI .         AA/09-17-085-11W400            : Uwi          - UNIQUE WELL ID    
ENTR.         DW                             : Entered      - ENTERED BY        
SRVC.         SCHLUMBERGER                   : Scn          - SERVICE COMPANY   
DATE.         12 FEB 80                      : Date         - LOG DATE
STRT.M        50                             : top_depth    - START DEPTH       
STOP.M        280.101                        : bot_depth    - STOP DEPTH        
STEP.M        0.3                            : increment    - STEP LENGTH       
~CURVE INFORMATION BLOCK
#MNEM UNIT       ERCB CURVE CODE    CURVE DESCRIPTION
#-----------   ------------------   ----------------------------------
DEPT.M        00 001 00 00         : DEPTH        - DEPTH                       
DPHI.V/V      00 890 00 00         : PHID         - DENSITY POROSITY (LIMESTONE)
NPHI.V/V      00 330 00 00         : PHIN         - NEUTRON POROSITY (LIMESTONE)
GR  .API      00 310 00 00         : GR           - GAMMA RAY                   
ILD .OHMM     00 120 00 00         : RESD         - DEEP RESISTIVITY (DIL)      
~PARAMETER INFORMATION       
#MNEM.UNIT           DATA             DESCRIPTION OF MNEMONIC
#---------         -----------     ------------------------------
GL  .M        534                  : gl           - GROUND LEVEL ELEVATION      
EREF.M        535.6                : kb           - ELEVATION OF DEPTH REFERENCE
DATM.M        535.6                : datum        - DATUM ELEVATION             
TDD .M        229                  : tdd          - TOTAL DEPTH DRILLER         
RUN .         ONE                  : Run          - RUN NUMBER                  
ENG .         BILL                 : Engineer     - RECORDING ENGINEER          
WIT .         JIM                  : Witness      - WITNESSED BY                
MUD .         GEL                  : Mud_type     - MUD TYPE                    
MATR.         LIMESTONE            : Logunit      - NEUTRON MATRIX              
TMAX.C        21                   : BHT          - MAXIMUM RECORDED TEMPERATURE
BHTD.M        281                  : BHTDEP       - MAXIMUM RECORDED TEMPERATURE
MATR.         1                    : LOGUNIT      - NEUTRON MATRIX              
RMT .C        25                   : MDTP         - TEMPERATURE OF MUD          
NEUT.         1                    : NEUTRON      - NEUTRON TYPE                
RESI.         0                    : RESIST       - RESISTIVITY TYPE            
RMC .OHMM     0.25                 : RMC          - RESISTIVITY OF MUD CAKE     
RMF .OHMM     0.25                 : RMF          - RESISTIVITY OF MUD FILTRATE 
SUFT.C        15                   : SUFT         - SURFACE TEMPERATURE         
~A  DEPTH     PHID     PHIN       GR     RESD
   50.000    0.314    0.610   65.172    0.000
   50.300    0.314    0.632   63.329    0.000
   50.600    0.314    0.644   61.486    0.000
   50.900    0.312    0.631   62.718    0.000
   51.200    0.302    0.629   60.875    0.000
   51.500    0.287    0.631   57.188    0.000
   51.800    0.293    0.629   54.731    0.000
   52.100    0.273    0.645   54.733    0.000
   52.400    0.303    0.632   56.578    0.000
   52.700    0.317    0.617   59.654    0.000
   53.000    0.314    0.611   57.812    0.000
   53.300    0.313    0.619   53.510    0.000
   53.600    0.314    0.630   54.742    0.000
   53.900    0.306    0.637   56.587    0.000
   54.200    0.302    0.637   55.974    0.000
   54.500    0.303    0.631   55.362    0.000
   54.800    0.293    0.622   53.519    0.000
   55.100    0.287    0.613   45.528    0.000
   55.400    0.292    0.500   36.922    0.000
   55.700    0.302    0.450   27.702    0.000
   56.000    0.323    0.516   32.622    0.000
   56.300    0.313    0.538   36.313    0.000
   56.600    0.304    0.505   31.396    0.000
   56.900    0.293    0.500   30.783    0.000
   57.200    0.301    0.533   35.703    0.000
   57.500    0.287    0.539   35.705    0.000
   57.800    0.246    0.569   42.470    0.000
   58.100    0.278    0.608   45.546    0.000
   58.400    0.282    0.620   41.859    0.000
   58.700    0.253    0.528   32.639    0.000
   59.000    0.283    0.409   26.492    0.000
   59.300    0.303    0.490   25.879    0.000
   59.600    0.321    0.528   28.955    0.000
   59.900    0.334    0.581   49.861    0.000
   60.200    0.337    0.610   57.240    0.000
   60.500    0.344    0.634   57.242    0.000
   60.800    0.332    0.651   51.711    0.000
   61.100    0.333    0.657   56.016    0.000
   61.400    0.331    0.662   55.404    0.000
   61.700    0.314    0.614   52.331    0.000
   62.000    0.316    0.591   52.948    0.000
   62.300    0.316    0.606   55.409    0.000
   62.600    0.288    0.624   54.181    0.000
   62.900    0.287    0.634   55.413    0.000
   63.200    0.271    0.601   54.799    0.000
   63.500    0.220    0.616   49.883    0.000
   63.800    0.205    0.583   50.499    0.000
   64.100    0.262    0.565   58.493    0.000
   64.400    0.276    0.583   63.414    0.000
   64.700    0.272    0.599   64.031    0.000
   65.000    0.265    0.616   58.499    0.000
   65.300    0.267    0.589   51.738    0.000
   65.600    0.233    0.575   48.051    0.000
   65.900    0.262    0.589   55.430    0.000
   66.200    0.258    0.591   52.973    0.000
   66.500    0.268    0.599   51.745    0.000
   66.800    0.275    0.601   56.666    0.000
   67.100    0.266    0.603   57.897    0.000
   67.400    0.267    0.596   54.210    0.000
   67.700    0.262    0.604   55.441    0.000
   68.000    0.258    0.619   57.902    0.000
   68.300    0.263    0.626   58.519    0.000
   68.600    0.268    0.604   51.758    0.000
   68.900    0.268    0.574   52.374    0.000
   69.200    0.263    0.560   54.221    0.000
   69.500    0.250    0.599   51.149    0.000
   69.800    0.169    0.619   48.691    0.000
   70.100    0.131    0.565   42.545    0.000
   70.400    0.175    0.492   36.398    0.000
   70.700    0.260    0.524   35.171    0.000
   71.000    0.283    0.540   35.172    0.000
   71.300    0.257    0.527   43.782    0.000
   71.600    0.263    0.513   45.013    0.000
   71.900    0.252    0.514   44.400    0.000
   72.200    0.251    0.553   43.172    0.000
   72.500    0.232    0.589   44.404    0.000
   72.800    0.233    0.581   45.021    0.000
   73.100    0.275    0.549   45.022    0.000
   73.400    0.266    0.565   41.950    0.000
   73.700    0.266    0.556   40.107    0.000
   74.000    0.268    0.551   42.568    0.000
   74.300    0.272    0.548   44.414    0.000
   74.600    0.273    0.540   43.801    0.000
   74.900    0.272    0.532   41.345    0.000
   75.200    0.277    0.532   39.502    0.000
   75.500    0.287    0.558   37.659    0.000
   75.800    0.293    0.547   37.660    0.000
   76.100    0.282    0.564   39.507    0.000
   76.400    0.286    0.589   40.123    0.000
   76.700    0.288    0.604   39.511    0.000
   77.000    0.276    0.584   39.513    0.000
   77.300    0.266    0.595   45.047    0.000
   77.600    0.267    0.615   49.968    0.000
   77.900    0.282    0.614   45.666    0.000
   78.200    0.286    0.570   46.282    0.000
   78.500    0.287    0.538   46.899    0.000
   78.800    0.282    0.553   44.442    0.000
   79.100    0.282    0.575   43.214    0.000
   79.400    0.282    0.588   43.830    0.000
   79.700    0.280    0.576   45.677    0.000
   80.000    0.258    0.542   46.908    0.000
   80.300    0.231    0.557   45.066    0.000
   80.600    0.202    0.544   40.764    0.000
   80.900    0.209    0.560   39.536    0.000
   81.200    0.260    0.557   41.997    0.000
   81.500    0.265    0.554   45.688    0.000
   81.800    0.257    0.568   46.304    0.000
   82.100    0.252    0.584   46.306    0.000
   82.400    0.256    0.578   45.693    0.000
   82.700    0.258    0.568   47.540    0.000
   83.000    0.258    0.557   47.541    0.000
   83.300    0.272    0.586   44.469    0.000
   83.600    0.261    0.598   44.471    0.000
   83.900    0.276    0.564   45.088    0.000
   84.200    0.272    0.537   43.860    0.000
   84.500    0.260    0.553   43.862    0.000
   84.800    0.267    0.557   40.175    0.000
   85.100    0.257    0.539   37.102    0.000
   85.400    0.258    0.519   38.334    0.000
   85.700    0.255    0.497   38.335    0.000
   86.000    0.246    0.490   36.493    0.000
   86.300    0.243    0.525   35.880    0.000
   86.600    0.240    0.558   35.881    0.000
   86.900    0.231    0.544   34.654    0.000
   87.200    0.196    0.530   32.196    0.000
   87.500    0.197    0.524   34.657    0.000
   87.800    0.217    0.522   39.578    0.000
   88.100    0.252    0.522   43.268    0.000
   88.400    0.266    0.519   43.270    0.000
   88.700    0.277    0.500   42.657    0.000
   89.000    0.251    0.490   45.733    0.000
   89.300    0.268    0.485   45.735    0.000
   89.600    0.285    0.502   45.122    0.000
   89.900    0.292    0.515   45.124    0.000
   90.200    0.282    0.509   45.740    0.000
   90.500    0.283    0.504   45.742    0.000
   90.800    0.303    0.514   48.818    0.000
   91.100    0.320    0.562   50.664    0.000
   91.400    0.307    0.540   49.436    0.000
   91.700    0.297    0.517   45.749    0.000
   92.000    0.293    0.519   43.907    0.000
   92.300    0.288    0.544   45.753    0.000
   92.600    0.273    0.534   46.985    0.000
   92.900    0.271    0.545   45.142    0.000
   93.200    0.305    0.560   41.455    0.000
   93.500    0.296    0.568   40.227    0.000
   93.800    0.263    0.555   43.303    0.000
   94.100    0.257    0.580   47.609    0.000
   94.400    0.287    0.558   49.455    0.000
   94.700    0.298    0.574   48.227    0.000
   95.000    0.282    0.587   46.999    0.000
   95.300    0.276    0.525   50.690    0.000
   95.600    0.278    0.534   52.536    0.000
   95.900    0.271    0.515   54.382    0.000
   96.200    0.262    0.508   54.384    0.000
   96.500    0.261    0.554   48.852    0.000
   96.800    0.276    0.579   46.395    0.000
   97.100    0.298    0.569   46.397    0.000
   97.400    0.301    0.595   47.013    0.000
   97.700    0.296    0.603   53.163    0.000
   98.000    0.292    0.560   61.158    0.000
   98.300    0.270    0.567   61.775    0.000
   98.600    0.267    0.578   56.243    0.000
   98.900    0.287    0.593   58.090    0.000
   99.200    0.293    0.618   59.321    0.000
   99.500    0.267    0.638   56.249    0.000
   99.800    0.264    0.645   59.325    0.000
  100.100    0.281    0.629   62.401    0.000
  100.400    0.290    0.617   62.402    0.000
  100.700    0.305    0.603   59.330    0.000
  101.000    0.244    0.572   56.258    0.000
  101.300    0.278    0.547   50.111    0.000
  101.600    0.295    0.524   48.884    0.000
  101.900    0.288    0.520   54.419    0.000
