~VERSION INFORMATION
 VERS.                 2.0:   CWLS LOG ASCII STANDARD -VERSION 2.0
 WRAP.                  NO:   ONE LINE PER DEPTH STEP
~WELL INFORMATION BLOCK
#MNEM.UNIT           DATA                    DESCRIPTION OF MNEMONIC
#---------    -------------------            -------------------------------
# Generated from Intellog Unique Number	CN_94_101/WELL/2482
WELL.         05-36-094-09W4                 : Well_name    - WELL
LOC .         AA/05-36-094-09W4/0            : Location     - LOCATION
UWI .         AA/05-36-094-09W400            : Uwi          - UNIQUE WELL ID
ENTR.         JOETTE                         : Entered      - ENTERED BY
SRVC.         SCHLUMBERGER                   : Scn          - SERVICE COMPANY
DATE.         05/17/92                       : Date         - LOG DATE
STRT.M        15                             : top_depth    - START DEPTH
STOP.M        140                            : bot_depth    - STOP DEPTH
STEP.M        0.25                           : increment    - STEP LENGTH
 NULL. -999.2500:NULL Value
~CURVE INFORMATION BLOCK
#MNEM UNIT       ERCB CURVE CODE    CURVE DESCRIPTION
#-----------   ------------------   ----------------------------------
DEPT.M        00 001 00 00         : DEPTH        - DEPTH
GR  .API      00 310 00 00         : GR           - GAMMA RAY
CALI.MM       00 280 01 00         : CAL          - CALIPER
NPHI.V/V      00 330 00 00         : PHIN         - NEUTRON POROSITY (SANDSTONE)
DPHI.V/V      00 890 00 00         : PHID         - DENSITY POROSITY (SANDSTONE)
ILD .OHMM     00 120 00 00         : RESD         - DEEP RESISTIVITY (DIL)
~PARAMETER INFORMATION
#MNEM.UNIT           DATA             DESCRIPTION OF MNEMONIC
#---------         -----------     ------------------------------
GL  .M        332.67               : gl           - GROUND LEVEL ELEVATION
EREF.M        332.67               : kb           - ELEVATION OF DEPTH REFERENCE
DATM.M        332.67               : datum        - DATUM ELEVATION
TDD .M        147                  : tdd          - TOTAL DEPTH DRILLER
RUN .         ONE                  : Run          - RUN NUMBER
ENG .         JO                   : Engineer     - RECORDING ENGINEER
WIT .         TIM                  : Witness      - WITNESSED BY
MUD .         GEL                  : Mud_type     - MUD TYPE
MATR.         SANDSTONE            : Logunit      - NEUTRON MATRIX
TMAX.C        18                   : BHT          - MAXIMUM RECORDED TEMPERATURE
BHTD.M        147                  : BHTDEP       - MAXIMUM RECORDED TEMPERATURE
RMT .C        18.6                 : MDTP         - TEMPERATURE OF MUD
MUDD.KG/M     0                    : MWT          - MUD DENSITY
NEUT.         1                    : NEUTRON      - NEUTRON TYPE
RESI.         0                    : RESIST       - RESISTIVITY TYPE
RM  .OHMM     6.04                 : RM           - RESISTIVITY OF MUD
RMC .OHMM     9.17                 : RMC          - RESISTIVITY OF MUD CAKE
RMF .OHMM     6.2                  : RMF          - RESISTIVITY OF MUD FILTRATE
SUFT.C        4                    : SUFT         - SURFACE TEMPERATURE
~A  DEPTH       GR      CAL     PHIN     PHID     RESD
# ...
   88.000   56.426  138.622    0.471    0.237   25.936
   88.250   42.397  139.010    0.455    0.273   32.962
   88.500   54.556  139.404    0.512    0.206   43.470
   88.750   74.024  140.196    0.545    0.202   45.912
   89.000   70.957  140.183    0.559    0.225   49.397
   89.250   52.056  140.169    0.488    0.253   37.392
   89.500   82.486  139.752    0.436    0.269   32.821
   89.750   87.946  141.359    0.431    0.142   34.029
   90.000   69.045  141.747    0.481    0.218   41.666
   90.250   53.188  139.307    0.547    0.269   32.136
   90.500   33.063  138.081    0.493    0.300   23.437
   90.750   28.773  136.450    0.511    0.325   33.290
   91.000   26.925  135.224    0.443    0.292   43.098
   91.250   25.076  137.636    0.450    0.290   46.359
   91.500   23.228  139.240    0.490    0.321   48.974
   91.750   21.988  139.227    0.502    0.315   39.920
   92.000   26.230  139.213    0.432    0.321   46.249
   92.250   23.169  139.604    0.410    0.331   53.583
   92.500   18.275  139.992    0.436    0.327   51.592
   92.750   26.780  140.383    0.394    0.317   50.602
   93.000   24.932  140.370    0.375    0.308   52.465
   93.250   19.429  140.764    0.440    0.302   53.387
   93.500   18.793  140.751    0.481    0.314   53.341
   93.750   27.304  141.546    0.476    0.278   51.359
   94.000   44.944  141.529    0.454    0.251   48.544
   94.250   57.104  141.108    0.415    0.242   51.282
   94.500   63.168  141.098    0.439    0.263   45.013
   94.750   58.279  140.684    0.469    0.275   37.376
   95.000   46.077  140.667    0.488    0.266   25.314
   95.250   24.739  140.653    0.440    0.259   33.391
   95.500   35.072  140.643    0.389    0.267   44.848
   95.750   33.223  140.226    0.457    0.283   53.919
   96.000   25.279  139.400    0.392    0.290   40.823
   96.250   22.212  139.387    0.344    0.285   49.080
   96.500   21.582  139.374    0.343    0.277   56.862
   96.750   22.164  139.764    0.348    0.259   56.813
   97.000   23.975  140.560    0.302    0.237   56.764
   97.250   29.435  141.756    0.205    0.203   58.853
   97.500   34.286  141.749    0.356    0.227   65.708
   97.750   29.392  142.545    0.403    0.241   77.549
   98.000   22.671  144.149    0.449    0.251   68.068
   98.250   18.996  143.731    0.417    0.305   58.651
   98.500   15.924  143.313    0.372    0.293   52.443
   98.750   14.684  144.109    0.392    0.325   50.483
   99.000   14.054  145.709    0.446    0.322   54.326
   99.250   14.027  144.483    0.432    0.321   57.378
   99.500   14.626  144.065    0.448    0.330   55.246
   99.750   17.035  144.048    0.490    0.326   53.181
  100.000   17.008  144.840    0.434    0.298   53.124
  100.250   19.423  144.834    0.437    0.250   52.105
  100.500   22.457  145.224    0.422    0.286   52.061
  100.750   29.745  145.211    0.356    0.242   49.207
  101.000   60.784  146.815    0.327    0.208   43.200
  101.250   74.162  149.228    0.339    0.165   29.811
  101.500   88.148  151.233    0.384    0.139   14.474
  101.750   99.095  152.436    0.358    0.137   23.397
  102.000  102.728  154.444    0.325    0.127   28.654
  102.250  100.270  151.196    0.372    0.134   28.105
  102.500   91.717  146.327    0.407    0.188   27.566
  102.750  111.190  145.104    0.378    0.211   27.542
  103.000  119.086  145.899    0.416    0.238   30.179
  103.250  123.328  144.670    0.569    0.228   28.531
  103.500  136.706  143.847    0.624    0.227   21.597
  103.750  122.677  145.455    0.641    0.212   15.179
  104.000  121.437  148.268    0.577    0.162   16.636
  104.250   97.658  147.851    0.541    0.145   18.577
  104.500   98.854  149.050    0.590    0.133   23.610
  104.750  104.314  150.253    0.588    0.135   29.455
  105.000   93.934  149.428    0.557    0.185   30.532
  105.250  102.444  146.992    0.542    0.206   31.656
  105.500   78.061  147.383    0.562    0.221   27.282
  105.750   43.928  144.943    0.595    0.256   22.239
  106.000   27.457  141.288    0.608    0.302   18.807
  106.250   26.223  140.465    0.559    0.334   23.906
  106.500   22.548  140.048    0.609    0.302   43.182
  106.750   17.045  140.034    0.612    0.320   51.916
  107.000   13.973  140.021    0.464    0.332   56.875
  107.250   10.906  140.412    0.492    0.299   54.785
  107.500   11.494  140.799    0.549    0.290   52.749
  107.750   14.518  141.999    0.493    0.321   51.737
  108.000   15.100  142.798    0.509    0.340   54.644
  108.250   13.866  142.784    0.498    0.313   56.655
  108.500   12.627  141.555    0.399    0.301   58.741
  108.750   11.996  141.538    0.405    0.331   55.521
  109.000   13.791  141.936    0.463    0.306   50.560
  109.250   15.608  142.728    0.397    0.318   47.788
  109.500   19.849  141.905    0.380    0.246   46.872
  109.750   24.701  141.087    0.332    0.223   51.383
  110.000   25.897  141.478    0.408    0.266   55.271
  110.250   19.176  141.464    0.385    0.290   51.283
  110.500   15.495  140.238    0.372    0.297   49.388
  110.750   13.647  140.221    0.337    0.304   46.681
  111.000   18.503  141.421    0.331    0.311   46.641
  111.250   19.085  143.025    0.353    0.298   45.746
  111.500   25.769  145.441    0.369    0.253   44.859
  111.750   26.965  145.427    0.353    0.242   46.510
  112.000   17.199  142.179    0.495    0.274   41.587
  112.250   14.133  138.520    0.467    0.301   31.480
  112.500   19.593  138.911    0.400    0.306   35.803
  112.750   18.957  139.710    0.350    0.259   42.255
  113.000   16.505  140.909    0.348    0.309   44.628
  113.250   13.433  139.683    0.351    0.339   42.970
  113.500   14.635  139.666    0.373    0.334   45.383
  113.750   17.653  140.054    0.418    0.307   47.054
  114.000   18.236  140.451    0.399    0.311   39.071
  114.250   16.398  140.839    0.376    0.307   39.767
  114.500   11.499  140.829    0.392    0.271   42.785
  114.750   17.568  140.816    0.408    0.250   43.547
  115.000   22.424  139.990    0.355    0.233   41.160
  115.250   31.538  139.980    0.273    0.219   41.892
  115.500   40.653  141.180    0.308    0.194   47.645
  115.750   59.511  143.997    0.383    0.149   53.194
  116.000  107.610  146.811    0.464    0.157   50.279
  116.250  118.551  144.374    0.545    0.154   42.528
  116.500  120.966  141.123    0.583    0.160   30.454
  116.750  116.072  141.517    0.624    0.177   26.241
  117.000   95.338  144.735    0.588    0.181   23.028
  117.250   96.535  145.531    0.437    0.177   20.217
  117.500   95.290  146.727    0.471    0.194   26.173
  117.750   97.710  148.338    0.496    0.183   33.263
  118.000   94.034  145.898    0.537    0.221   32.625
  118.250   84.877  143.054    0.566    0.262   27.090
  118.500   60.483  143.850    0.484    0.240   20.889
  118.750   65.345  144.241    0.465    0.218   31.944
  119.000   81.159  144.217    0.578    0.245   31.917
  119.250   69.566  143.806    0.622    0.258   25.071
  119.500   71.371  143.793    0.452    0.215   31.862
  119.750   81.095  143.372    0.483    0.203   30.678
  120.000   93.863  143.355    0.548    0.211   24.543
  120.250   98.105  143.752    0.579    0.149   28.971
  120.500   95.647  144.548    0.546    0.124   31.157
  120.750   87.709  144.534    0.518    0.162   26.858
  121.000   95.605  143.709    0.565    0.196   23.137
  121.250  107.155  143.696    0.575    0.218   31.090
  121.500  121.142  144.895    0.512    0.190   34.075
  121.750  105.894  145.694    0.483    0.171   27.775
  122.000   98.564  146.078    0.542    0.163   22.635
  122.250  103.415  145.667    0.598    0.179   24.803
  122.500  103.998  144.441    0.578    0.255   27.692
  122.750  108.245  144.023    0.580    0.210   28.711
  123.000   99.692  145.627    0.607    0.180   27.137
  123.250   87.489  146.018    0.577    0.184   28.136
  123.500   38.739  142.365    0.514    0.218   26.594
  123.750   27.755  140.327    0.562    0.282   27.073
  124.000   28.952  139.101    0.559    0.302   26.548
  124.250   27.712  138.278    0.433    0.325   26.531
