~VERSION INFORMATION
 VERS.                 2.0:   CWLS LOG ASCII STANDARD -VERSION 2.0
 WRAP.                  NO:   ONE LINE PER DEPTH STEP
~WELL INFORMATION BLOCK
#MNEM.UNIT           DATA                    DESCRIPTION OF MNEMONIC
#---------    -------------------            -------------------------------
# Generated from Intellog Unique Number	CN_94_101/WELL/3188
WELL.         02-29-099-14W4                 : Well_name    - WELL
LOC .         AA/02-29-099-14W4/0            : Location     - LOCATION
UWI .         AA/02-29-099-14W400            : Uwi          - UNIQUE WELL ID
ENTR.         TIM                            : Entered      - ENTERED BY
SRVC.         SCHLUMBERGER                   : Scn          - SERVICE COMPANY
DATE.         08/13/92                       : Date         - LOG DATE
STRT.M        360                            : top_depth    - START DEPTH
STOP.M        562                            : bot_depth    - STOP DEPTH
STEP.M        0.25                           : increment    - STEP LENGTH
 NULL. -999.2500:NULL Value
~CURVE INFORMATION BLOCK
#MNEM UNIT       ERCB CURVE CODE    CURVE DESCRIPTION
#-----------   ------------------   ----------------------------------
DEPT.M        00 001 00 00         : DEPTH        - DEPTH
DPHI.V/V      00 890 00 00         : PHID         - DENSITY POROSITY (SANDSTONE)
NPHI.V/V      00 330 00 00         : PHIN         - NEUTRON POROSITY (SANDSTONE)
ILD .OHMM     00 120 00 00         : RESD         - DEEP RESISTIVITY (DIL)
GR  .API      00 310 00 00         : GR           - GAMMA RAY
~PARAMETER INFORMATION
#MNEM.UNIT           DATA             DESCRIPTION OF MNEMONIC
#---------         -----------     ------------------------------
GL  .M        800.3                : gl           - GROUND LEVEL ELEVATION
EREF.M        803.3                : kb           - ELEVATION OF DEPTH REFERENCE
DATM.M        803.3                : datum        - DATUM ELEVATION
TDD .M        562                  : tdd          - TOTAL DEPTH DRILLER
RUN .         ONE                  : Run          - RUN NUMBER
ENG .         JO                   : Engineer     - RECORDING ENGINEER
WIT .         TIM                  : Witness      - WITNESSED BY
MUD .         GEL                  : Mud_type     - MUD TYPE
MATR.         SANDSTONE            : Logunit      - NEUTRON MATRIX
TMAX.C        25                   : BHT          - MAXIMUM RECORDED TEMPERATURE
BHTD.M        562                  : BHTDEP       - MAXIMUM RECORDED TEMPERATURE
RMT .C        24                   : MDTP         - TEMPERATURE OF MUD
MUDD.KG/M     1000                 : MWT          - MUD DENSITY
NEUT.         1                    : NEUTRON      - NEUTRON TYPE
RESI.         0                    : RESIST       - RESISTIVITY TYPE
RM  .OHMM     4.75                 : RM           - RESISTIVITY OF MUD
RMC .OHMM     6.3                  : RMC          - RESISTIVITY OF MUD CAKE
RMF .OHMM     6.3                  : RMF          - RESISTIVITY OF MUD FILTRATE
SUFT.C        4                    : SUFT         - SURFACE TEMPERATURE
~A  DEPTH     PHID     PHIN     RESD       GR
# ...
  447.000    0.321    0.500    2.392   87.666
  447.250    0.315    0.478    2.537   85.849
  447.500    0.309    0.461    2.639   86.481
  447.750    0.315    0.462    2.745   86.505
  448.000    0.320    0.470    2.800   86.529
  448.250    0.316    0.476    2.802   85.330
  448.500    0.316    0.480    2.750   84.727
  448.750    0.319    0.481    2.598   84.135
  449.000    0.336    0.476    2.501   82.930
  449.250    0.284    0.466    2.454   77.447
  449.500    0.270    0.460    2.456   81.138
  449.750    0.255    0.454    2.458   85.442
  450.000    0.298    0.446    2.508   87.909
  450.250    0.312    0.436    2.558   87.924
  450.500    0.266    0.437    2.610   86.719
  450.750    0.260    0.461    2.662   88.575
  451.000    0.287    0.476    2.824   94.107
  451.250    0.296    0.484    2.881   99.023
  451.500    0.310    0.486    2.938   94.768
  451.750    0.322    0.487    3.177   93.553
  452.000    0.324    0.487    3.305   89.294
  452.250    0.327    0.483    3.371   86.253
  452.500    0.331    0.479    3.440   85.044
  452.750    0.324    0.472    3.508   83.227
  453.000    0.291    0.463    3.511   82.635
  453.250    0.270    0.450    3.514   84.495
  453.500    0.263    0.436    3.449   83.902
  453.750    0.287    0.431    3.320   81.474
  454.000    0.306    0.423    3.135   80.269
  454.250    0.312    0.418    2.962   81.508
  454.500    0.297    0.424    2.908   83.975
  454.750    0.291    0.441    2.966   85.219
  455.000    0.324    0.469    3.025   82.790
  455.250    0.340    0.497    3.147   81.586
  455.500    0.350    0.490    3.272   81.605
  455.750    0.350    0.476    3.470   80.405
  456.000    0.343    0.468    3.680   79.196
  456.250    0.342    0.466    3.827   76.767
  456.500    0.344    0.465    3.905   74.344
  456.750    0.351    0.458    3.907   72.527
  457.000    0.356    0.432    3.763   70.706
  457.250    0.367    0.427    3.553   68.899
  457.500    0.368    0.414    3.421   67.082
  457.750    0.360    0.410    3.109   69.545
  458.000    0.134    0.420    2.993   73.236
  458.250    0.191    0.449    2.937   78.764
  458.500    0.296    0.477    2.829   81.231
  458.750    0.335    0.490    2.776   80.639
  459.000    0.334    0.481    2.778   80.658
  459.250    0.323    0.471    2.780   81.290
  459.500    0.339    0.467    2.782   83.145
  459.750    0.353    0.474    2.784   83.165
  460.000    0.344    0.463    2.785   78.293
  460.250    0.345    0.456    2.842   75.860
  460.500    0.351    0.462    2.899   78.327
  460.750    0.356    0.468    3.015   83.860
  461.000    0.342    0.441    3.076   83.884
  461.250    0.303    0.433    3.079   80.231
  461.500    0.270    0.424    3.081   79.022
  461.750    0.302    0.430    3.025   77.205
  462.000    0.325    0.457    3.026   79.066
  462.250    0.319    0.464    2.970   81.533
  462.500    0.319    0.465    2.805   83.389
  462.750    0.326    0.460    2.701   85.861
  463.000    0.336    0.458    2.600   87.100
  463.250    0.331    0.460    2.503   88.338
  463.500    0.316    0.466    2.411   90.194
  463.750    0.304    0.475    2.367   92.666
  464.000    0.315    0.514    2.323   94.517
  464.250    0.321    0.510    2.324   98.218
  464.500    0.313    0.500    2.372  100.686
  464.750    0.297    0.487    2.373  103.153
  465.000    0.297    0.488    2.374  105.014
  465.250    0.305    0.504    2.422  106.247
  465.500    0.310    0.515    2.472  109.332
  465.750    0.272    0.515    2.473  108.122
  466.000    0.219    0.494    2.523  105.694
  466.250    0.245    0.498    2.675  104.489
  466.500    0.259    0.511    2.782  103.285
  466.750    0.285    0.505    3.066  102.080
  467.000    0.325    0.501    3.380  101.492
  467.250    0.343    0.499    3.653  101.507
  467.500    0.336    0.489    4.027  100.919
  467.750    0.329    0.447    4.354   99.715
  468.000    0.304    0.424    4.616   99.122
  468.250    0.299    0.403    4.800   97.922
  468.500    0.293    0.402    4.897   99.773
  468.750    0.291    0.398    4.997  100.414
  469.000    0.282    0.393    4.811   99.200
  469.250    0.288    0.393    4.632   95.552
  469.500    0.293    0.393    4.459   93.736
  469.750    0.276    0.389    4.378   93.750
  470.000    0.251    0.389    4.379   94.994
  470.250    0.256    0.395    4.299   91.341
  470.500    0.270    0.399    4.302   84.633
  470.750    0.279    0.408    4.305   81.593
  471.000    0.289    0.416    4.308   85.279
  471.250    0.296    0.412    4.396   87.747
  471.500    0.295    0.400    4.483   88.990
  471.750    0.289    0.392    4.575   88.403
  472.000    0.279    0.385    4.667   88.422
  472.250    0.274    0.388    4.669   87.825
  472.500    0.277    0.393    4.764   86.620
  472.750    0.281    0.390    5.150   81.748
  473.000    0.286    0.393    5.464   79.315
  473.250    0.291    0.390    5.466   77.498
  473.500    0.155    0.384    5.575   78.139
  473.750    0.139    0.369    5.473   78.154
  474.000    0.136    0.365    5.271   78.174
  474.250    0.214    0.391    5.074   78.805
  474.500    0.257    0.392    4.885   79.436
  474.750    0.280    0.393    4.614   80.068
  475.000    0.265    0.395    4.528   80.704
  475.250    0.269    0.393    4.360   80.719
  475.500    0.275    0.390    4.279   82.574
  475.750    0.275    0.391    4.200   85.654
  476.000    0.269    0.393    4.203   89.957
  476.250    0.271    0.407    4.288   92.425
  476.500    0.279    0.422    4.375   91.837
  476.750    0.290    0.422    4.463   91.250
  477.000    0.285    0.417    4.466   90.045
  477.250    0.274    0.406    4.058   88.228
  477.500    0.262    0.394    3.760   85.800
  477.750    0.269    0.390    3.620   85.212
  478.000    0.276    0.389    3.622   85.222
  478.250    0.280    0.399    3.696   87.078
  478.500    0.286    0.412    3.843   89.545
  478.750    0.297    0.424    3.920   93.849
  479.000    0.311    0.437    4.001   93.868
  479.250    0.313    0.443    4.081   92.663
  479.500    0.300    0.404    4.084   90.235
  479.750    0.287    0.393    3.932   87.806
  480.000    0.282    0.385    3.713   84.770
  480.250    0.274    0.385    3.375   83.571
  480.500    0.227    0.388    3.126   83.581
  480.750    0.248    0.395    2.895   84.212
  481.000    0.274    0.405    2.682   85.460
  481.250    0.269    0.414    2.391   86.699
  481.500    0.271    0.425    2.301   87.952
  481.750    0.283    0.440    2.216   89.196
  482.000    0.300    0.478    2.175   90.444
  482.250    0.318    0.474    2.135   90.454
  482.500    0.335    0.468    2.056   86.806
  482.750    0.327    0.469    2.018   84.373
  483.000    0.317    0.474    1.943   88.676
  483.250    0.315    0.480    1.870   93.597
  483.500    0.325    0.487    1.836   95.447
  483.750    0.323    0.501    1.873   95.476
  484.000    0.322    0.507    1.986   95.491
  484.250    0.326    0.503    2.189   96.127
  484.500    0.334    0.497    2.459   96.137
  484.750    0.338    0.487    2.763   94.320
  485.000    0.346    0.471    3.227   91.897
  485.250    0.348    0.440    3.625   90.080
  485.500    0.346    0.404    4.074   91.941
  485.750    0.207    0.409    4.319   94.408
  486.000    0.251    0.419    4.406   96.269
  486.250    0.267    0.408    4.584   97.502
  486.500    0.274    0.396    4.677   99.363
  486.750    0.263    0.389    4.679   98.770
  487.000    0.254    0.405    4.682   96.341
  487.250    0.246    0.412    4.776   95.744
  487.500    0.252    0.408    4.873   96.987
  487.750    0.269    0.398    5.068   97.624
  488.000    0.280    0.396    5.376   98.255
  488.250    0.281    0.397    5.699   98.275
  488.500    0.275    0.392    6.162   98.289
  488.750    0.269    0.362    6.532   96.478
  489.000    0.263    0.359    7.063   95.268
  489.250    0.262    0.348    6.932   92.228
  489.500    0.283    0.331    6.299   81.231
  489.750    0.187    0.349    5.948   71.458
  490.000    0.154    0.370    5.406   69.641
  490.250    0.198    0.388    5.204   77.617
