~Version : LASO    vs 4.00 
VERS.                2.00:   CWLS Log ASCII Standard -VERSION 2.0
WRAP.                  NO:
~Well Information Block
#MNEM.UNIT       Data                        Description of Mnemonic
#----.----      -------------------------- : -----------------------------
STRT.M            15.0000:
STOP.M           207.0000:
STEP.M             0.2000:
NULL.           -999.2500:
COMP.  MOBIL OIL CANADA                   :COMPANY
WELL.  MOBIL CLARKE OV 1-2                :WELL
FLD.                                      :FIELD
LOC.   01-02-090-08W4                     :LOCATION
CTRY.  CANADA                             :COUNTRY
PROV.  ALBERTA                            :PROVINCE
SRVC.  SCHLUMBERGER                       :SERVICE COMPANY
DATE.  05-MAR-81                          :LOG DATE
UWI.   AA/01-02-090-08W400                :UNIQUE WELL ID
~Parameter Information Block
#MNEM.UNIT       Data                        Description of Mnemonic
#----.----      -------------------------- : -----------------------------
RUN .                   1                 : Run Number
GL  .M           444.4000                 : Ground Level Elevation
DREF.                  KB                 : Depth Reference
EREF.M           444.4000                 : Elevation of Depth Reference
TDL .M           207.0000                 : Total Depth Logger
TDD .M           206.0000                 : Total Depth Driller
CSGL.M            27.0000                 : Casing Bottom Logger
CSGD.M            26.4000                 : Casing Bottom Driller
CSGS.MM          219.0000                 : Casing Size
CSGW.KG/M          0.0000                 : Casing Weight
BS  .MM          159.0000                 : Bit Size
DFD .           9999.0000                 : Mud Weight (Density)
~Curve Information Block
#MNEM.UNIT        API CODE    Curve Description
#---------    ------------    -------------------------------------------
DEPT.M                    :   DEPTH
CALI.MM       42 280  1  1:   3 DENSITY CALIPER
DPHI.V/V                  :   DPHI
DT  .US/M     60 520  0  1:   2 SONIC INTERVAL TRANSIT TIME (COMPENSATED)
GR  .GAPI     42 310  1  1:   4 GAMMA RAY
ILD .OHMM      5 120 46  1:   7 DEEP INDUCTION
ILM .OHMM      5 120 44  1:   8 MEDIUM INDUCTION
NPHI.V/V      42 890  3  1:   5 NEUTRON POROSITY (SANDSTONE)
RHOB.K/M3     42 350  1  1:   6 BULK DENSITY
SFLU.OHMM      5 220  1  1:   9 FOCUSSED RESISTIVITY
SP  .MV        5  10  1  1:   10 SPONTANEOUS POTENTIAL
~A  Depth           CALI        DPHI          DT          GR         ILD         ILM        NPHI        RHOB        SFLU          SP
# ...
137.0000        159.4000      0.2374    440.3600     33.8700     34.6601     30.2155      0.3516   2280.0000     22.4817    101.1600
137.2000        155.5750      0.2501    438.2000     29.4750     38.0041     36.3270      0.3770   2272.0000     33.4064     98.5050
137.4000        154.3250      0.2664    430.0000     24.2700     42.8381     44.4457      0.3768   2267.0000     54.4289     91.7100
137.6000        154.3250      0.2834    447.8800     20.6700     66.6546     71.7513      0.3610   2263.0000    141.8502     89.8050
137.8000        155.5750      0.2933    458.8800     20.7750     85.4732     99.9608      0.3546   2222.0000    212.7306     90.9150
138.0000        159.4000      0.2851    469.3600     20.5650    104.6719    137.9844      0.3600   2180.0000    290.9577     89.8500
138.2000        161.9250      0.2802    452.3200     19.8750    113.7182    201.2936      0.3714   2162.0000    607.8969     94.6050
138.4000        161.9250      0.2841    418.8400     20.0700    113.7182    201.2936      0.3738   2179.0000    607.8969     94.6050
138.6000        161.9250      0.2868    397.0400     21.5700    117.9859    170.5414      0.3684   2192.0000    469.7101     88.4100
138.8000        161.9250      0.2840    387.2000     26.7750     87.8678    164.3728      0.3686   2170.0000    165.8937     98.2050
139.0000        160.6750      0.2825    380.3200     29.5800     63.6546    134.2239      0.3940   2173.0000    162.8658    107.3550
139.2000        161.9250      0.2832    381.8000     33.3750     44.0382     84.6896      0.4064   2170.0000    154.1097    110.0550
139.4000        161.9250      0.2825    391.4800     45.7800     26.5357     29.1226      0.4040   2187.8999     66.0435    115.1100
139.6000        161.9250      0.2699    393.1200     53.2800     22.2756     21.2927      0.3918   2183.0000     28.3028    113.9100
139.8000        163.2000      0.2489    390.6400     58.9800     19.0471     17.8743      0.3974   2185.0000     14.8535    112.7100
140.0000        160.6750      0.2316    397.6800     59.5800     16.2866     16.0041      0.4110   2244.0000     11.9078    115.4700
140.2000        160.6750      0.2095    437.0800     59.8800     13.2993     12.9488      0.4230   2281.0000     12.2414    112.4100
140.4000        160.6750      0.2056    464.7600     61.6800     12.5843     12.0290      0.4150   2321.0000     12.0179    115.5600
140.6000        159.4000      0.2028    484.9600     62.9850     12.3546     11.8095      0.4196   2314.0000     11.2676    116.3100
140.8000        160.6750      0.2067    485.7600     62.7900     12.2414     11.3823      0.4204   2320.0000     12.9369    100.9050
141.0000        160.6750      0.2176    469.5200     61.7850     12.4690     11.3823      0.4144   2320.0000     12.8183    105.2550
141.2000        160.6750      0.2120    454.4400     61.7850     12.7008     11.7012      0.4140   2285.8999     11.9078    115.6650
141.4000        159.4000      0.2016    434.4400     61.4850     12.9369     12.9488      0.4060   2309.0000     11.2676    117.1200
141.6000        158.1250      0.1961    431.1600     60.4800     12.9369     13.3116      0.3842   2333.0000     15.4110    115.2150
141.8000        158.1250      0.1979    429.2000     60.4800     12.9369     12.8301      0.3762   2318.0000     19.7620    108.7050
142.0000        159.4000      0.2090    433.1200     61.8900     13.4224     12.2526      0.3716   2327.0000     11.7986    101.2650
142.2000        160.6750      0.2290    432.8000     61.1850     13.5466     12.4804      0.3954   2282.0000     10.1819    107.4150
142.4000        159.4000      0.2135    435.2400     59.6850     13.4224     12.8301      0.4046   2267.0000     10.8600    112.1550
142.6000        158.1250      0.1984    438.7200     57.3900     13.6719     13.1895      0.4126   2335.0000     14.4487    113.6550
142.8000        158.1250      0.1821    442.4800     56.0850     14.1850     13.3116      0.3954   2353.0000     16.1373    110.5050
143.0000        158.1250      0.2084    443.4400     54.4800     14.9910     13.5591      0.3812   2336.0000     15.5536    109.7550
143.2000        155.5750      0.2251    440.8400     52.0800     15.8427     14.0679      0.3732   2279.0000     14.4487    105.7050
143.4000        155.5750      0.2216    434.1200     50.7900     17.0541     16.6047      0.3742   2267.0000     15.6975     99.5550
143.6000        156.8500      0.2235    433.8000     50.1750     17.6942     17.7105      0.3852   2289.0000     21.8691     98.3550
143.8000        155.5750      0.2349    438.2000     50.3850     18.5281     18.0397      0.3828   2285.8999     25.5758    103.8150
144.0000        155.5750      0.2446    452.1600     50.3850     19.4013     20.1479      0.3824   2255.0000     21.2731    106.1100
144.2000        155.5750      0.2392    449.5200     50.6850     18.6995     20.7124      0.3750   2244.0000     26.5357    103.9650
144.4000        156.8500      0.2330    449.2000     51.7800     17.3712     19.0647      0.3646   2244.0000     34.9808    103.0650
144.6000        156.8500      0.2277    450.5200     53.7900     14.9910     14.7309      0.3612   2283.0000     19.4013    107.5650
144.8000        158.1250      0.2340    453.6400     55.7850     14.1850     13.3116      0.3830   2269.0000     13.4224    111.6150
145.0000        159.4000      0.2248    456.4000     57.7800     13.6719     12.4804      0.3950   2259.0000     12.0179    111.8100
145.2000        159.4000      0.2135    445.0800     59.3850     13.9261     12.1403      0.4068   2318.0000     10.3712     95.9550
145.4000        159.4000      0.1993    441.6400     58.0800     14.3163     13.3116      0.4176   2346.0000      8.6264     99.3150
145.6000        155.5750      0.1882    438.7200     55.3800     14.3163     15.1436      0.4112   2357.0000     10.7604    105.5550
145.8000        155.5750      0.1988    444.2800     52.4850     14.4487     16.0041      0.3938   2346.0000     48.7338    105.3150
146.0000        155.5750      0.2171    459.0400     55.1850     14.8535     14.7309      0.3456   2322.0000     40.5350    104.2650
146.2000        158.1250      0.2333    473.3200     59.1900     15.2697     13.8112      0.3386   2284.0000     16.1373    108.8550
146.4000        158.1250      0.2303    479.0400     63.3900     15.2697     13.5591      0.3524   2261.8999     10.3712    114.9600
146.6000        158.1250      0.2143    454.9200     62.4900     14.5824     13.5591      0.3598   2252.0000     10.3712    113.8650
146.8000        156.8500      0.2028    441.6400     61.1850     14.4487     14.0679      0.3716   2285.8999     11.7986    107.9550
147.0000        155.5750      0.1923    438.8800     59.9850     14.5824     14.7309      0.3718   2323.0000     15.8427    103.1550
147.2000        156.8500      0.1851    438.5200     56.9850     15.6975     15.5679      0.3610   2350.0000     22.6898     98.3550
147.4000        156.8500      0.1900    432.6400     56.0850     16.5894     15.8573      0.3556   2349.0000     20.1294    103.1550
147.6000        156.8500      0.1951    427.2400     56.4900     16.8978     16.3016      0.3598   2340.0000     17.0541    104.8050
147.8000        156.8500      0.1944    429.6800     59.2800     16.5894     16.1521      0.3644   2323.0000     16.8978    102.3600
148.0000        156.8500      0.1968    434.2800     60.7800     16.2866     15.8573      0.3618   2328.0000     16.5894    101.4600
148.2000        156.8500      0.2026    434.7600     61.1850     15.8427     15.7119      0.3604   2317.0000     16.1373    100.4550
148.4000        156.8500      0.2068    428.3600     59.3850     14.9910     15.0048      0.3590   2305.0000     18.0231     93.8550
148.6000        156.8500      0.2023    423.6000     58.8900     14.7174     14.3295      0.3570   2311.0000     16.8978     92.7600
148.8000        159.4000      0.1951    420.8400     59.2800     14.4487     13.8112      0.3604   2335.0000     15.4110     94.6050
149.0000        158.1250      0.1964    416.7200     60.2850     14.1850     13.1895      0.3662   2336.0000     12.1291    103.2150
