~VERSION INFORMATION
 VERS.                 2.0:   CWLS LOG ASCII STANDARD -VERSION 2.0
 WRAP.                  NO:   ONE LINE PER DEPTH STEP
~WELL INFORMATION BLOCK
#MNEM.UNIT           DATA                    DESCRIPTION OF MNEMONIC
#---------    -------------------            -------------------------------
# Generated from Intellog Unique Number	CN_94_101/WELL/2660
WELL.         07-10-094-14W4                 : Well_name    - WELL
LOC .         AA/07-10-094-14W4/0            : Location     - LOCATION
UWI .         AA/07-10-094-14W400            : Uwi          - UNIQUE WELL ID
ENTR.         JOETTE                         : Entered      - ENTERED BY
SRVC.         SCHLUMBERGER                   : Scn          - SERVICE COMPANY
DATE.         06\18\92                       : Date         - LOG DATE
STRT.M        50                             : top_depth    - START DEPTH
STOP.M        140                            : bot_depth    - STOP DEPTH
STEP.M        0.25                           : increment    - STEP LENGTH
 NULL. -999.2500:NULL Value
~CURVE INFORMATION BLOCK
#MNEM UNIT       ERCB CURVE CODE    CURVE DESCRIPTION
#-----------   ------------------   ----------------------------------
DEPT.M        00 001 00 00         : DEPTH        - DEPTH
CALI.MM       00 280 01 00         : CAL          - CALIPER
GR  .API      00 310 00 00         : GR           - GAMMA RAY
NPHI.V/V      00 330 00 00         : PHIN         - NEUTRON POROSITY (SANDSTONE)
DPHI.V/V      00 890 00 00         : PHID         - DENSITY POROSITY (SANDSTONE)
ILD .OHMM     00 120 00 00         : RESD         - DEEP RESISTIVITY (DIL)
~PARAMETER INFORMATION
#MNEM.UNIT           DATA             DESCRIPTION OF MNEMONIC
#---------         -----------     ------------------------------
GL  .M        415                  : gl           - GROUND LEVEL ELEVATION
EREF.M        415                  : kb           - ELEVATION OF DEPTH REFERENCE
DATM.M        415                  : datum        - DATUM ELEVATION
TDD .M        152                  : tdd          - TOTAL DEPTH DRILLER
RUN .         ONE                  : Run          - RUN NUMBER
ENG .         JO                   : Engineer     - RECORDING ENGINEER
WIT .         TIM                  : Witness      - WITNESSED BY
MUD .         GEL                  : Mud_type     - MUD TYPE
MATR.         SANDSTONE            : Logunit      - NEUTRON MATRIX
TMAX.C        16                   : BHT          - MAXIMUM RECORDED TEMPERATURE
BHTD.M        152                  : BHTDEP       - MAXIMUM RECORDED TEMPERATURE
RMT .C        15                   : MDTP         - TEMPERATURE OF MUD
MUDD.KG/M     1090                 : MWT          - MUD DENSITY
NEUT.         1                    : NEUTRON      - NEUTRON TYPE
RESI.         0                    : RESIST       - RESISTIVITY TYPE
RM  .OHMM     4.55                 : RM           - RESISTIVITY OF MUD
RMC .OHMM     4.55                 : RMC          - RESISTIVITY OF MUD CAKE
RMF .OHMM     4.55                 : RMF          - RESISTIVITY OF MUD FILTRATE
SUFT.C        4                    : SUFT         - SURFACE TEMPERATURE
~A  DEPTH      CAL       GR     PHIN     PHID     RESD
# ...
   86.500  276.610   86.360    0.478    0.234    7.712
   86.750  277.705   87.612    0.477    0.223    7.583
   87.000  278.833   87.673    0.476    0.214    7.596
   87.250  278.968   86.623    0.474    0.214    7.746
   87.500  279.103   85.512    0.471    0.215    8.347
   87.750  278.279   84.462    0.466    0.217    8.361
   88.000  277.454   83.947    0.467    0.223    7.786
   88.250  276.596   85.816    0.469    0.236    7.253
   88.500  275.772   87.049    0.490    0.246    7.131
   88.750  273.988   87.686    0.478    0.239    6.646
   89.000  273.163   87.746    0.480    0.245    6.531
   89.250  271.379   87.827    0.525    0.263    5.974
   89.500  270.555   86.797    0.527    0.269    5.560
   89.750  269.764   86.858    0.517    0.259    3.866
   90.000  269.933   86.343    0.507    0.255    3.733
   90.250  269.041   85.869    0.505    0.248    5.906
   90.500  269.176   84.819    0.503    0.253    6.250
   90.750  267.392   84.880    0.497    0.264    6.144
   91.000  266.567   84.940    0.490    0.267    5.721
   91.250  265.743   85.597    0.481    0.257    5.630
   91.500  263.959   86.850    0.474    0.248    5.847
   91.750  260.323   88.659    0.480    0.248    6.417
   92.000  258.505   89.891    0.503    0.248    7.308
   92.250  255.727   89.376    0.500    0.244    7.455
   92.500  253.017   88.882    0.490    0.242    7.465
   92.750  251.233   89.003    0.484    0.238    7.478
   93.000  249.449   89.084    0.474    0.237    7.225
   93.250  248.591   90.893    0.470    0.234    6.975
   93.500  246.874   93.257    0.471    0.231    7.122
   93.750  245.056   95.065    0.474    0.232    7.671
   94.000  241.353   95.167    0.474    0.234    8.263
   94.250  237.616   94.076    0.467    0.230    9.069
   94.500  230.040   91.894    0.459    0.217    9.423
   94.750  221.539   90.783    0.443    0.190    9.443
   95.000  214.956   88.006    0.431    0.147    8.477
   95.250  214.166   88.067    0.414    0.145    8.188
   95.500  220.984   93.330    0.432    0.154    8.660
   95.750  228.797   96.866    0.434    0.193    9.167
   96.000  236.643   96.947    0.431    0.229    9.028
   96.250  243.529   94.169    0.440    0.234    8.712
   96.500  247.503   93.078    0.453    0.235    8.109
   96.750  251.477   92.604    0.458    0.234    7.411
   97.000  252.571   93.241    0.453    0.234    7.160
   97.250  255.619   93.918    0.444    0.234    8.000
   97.500  255.619   91.675    0.445    0.234    7.730
   97.750  262.675   88.898    0.453    0.234    7.200
   98.000  260.789   87.827    0.459    0.234    7.346
   98.250  259.039   87.888    0.451    0.234    8.059
   98.500  258.214   87.990    0.443    0.229    9.007
   98.750  257.390   88.050    0.440    0.222    9.885
   99.000  255.606   88.172    0.435    0.212    9.547
   99.250  253.822   88.213    0.450    0.183    8.416
   99.500  251.044   88.314    0.458    0.150    5.849
   99.750  246.449   87.880    0.462    0.165    5.156
  100.000  245.590   87.345    0.466    0.286    4.148
  100.250  245.759   87.406    0.477    0.285    3.657
  100.500  246.820   89.790    0.499    0.281    3.598
  100.750  247.881   93.346    0.516    0.277    3.879
  101.000  248.976   92.851    0.536    0.276    4.029
  101.250  250.071   91.761    0.542    0.266    4.034
  101.500  250.240   90.690    0.527    0.221    4.347
  101.750  250.409   93.650    0.495    0.216    6.161
  102.000  249.551   89.701    0.466    0.211    6.764
  102.250  248.692   82.297    0.448    0.219    6.904
  102.500  245.982   74.892    0.433    0.244    5.971
  102.750  245.158   70.347    0.447    0.274    3.930
  103.000  248.206   65.822    0.475    0.301    3.162
  103.250  250.193   61.852    0.501    0.320    4.911
  103.500  252.247   58.499    0.515    0.327    5.691
  103.750  248.544   58.580    0.491    0.314    8.681
  104.000  243.881   56.913    0.483    0.307   10.630
  104.250  239.218   51.812    0.460    0.307   13.757
  104.500  234.555   46.136    0.453    0.308   16.242
  104.750  230.885   43.954    0.445    0.308   18.505
  105.000  230.060   44.591    0.424    0.308   19.218
  105.250  228.276   45.248    0.420    0.302   19.967
  105.500  228.445   46.480    0.427    0.297   20.746
  105.750  227.553   47.117    0.438    0.285   21.155
  106.000  227.722   48.946    0.442    0.275   19.716
  106.250  226.898   49.582    0.445    0.272   19.376
  106.500  226.039   50.280    0.441    0.270   17.715
  106.750  224.255   50.916    0.436    0.263   18.745
  107.000  222.539   51.553    0.425    0.236   20.590
  107.250  221.647   52.250    0.424    0.230   20.617
  107.500  220.822   52.887    0.427    0.258   19.912
  107.750  221.025   53.564    0.442    0.285   17.876
  108.000  222.086   54.241    0.468    0.284   16.041
  108.250  222.221   55.434    0.461    0.264   14.141
  108.500  223.316   57.818    0.456    0.264    9.303
  108.750  223.417   61.929    0.468    0.271    3.807
  109.000  224.546   67.788    0.469    0.285    3.237
  109.250  225.641   74.203    0.458    0.291    2.853
  109.500  225.742   81.790    0.489    0.295    2.657
  109.750  226.837   87.629    0.529    0.298    2.612
  110.000  227.932   88.882    0.529    0.301    2.868
  110.250  228.101   88.942    0.528    0.294    3.206
  110.500  228.303   88.448    0.533    0.283    4.301
  110.750  228.405   87.377    0.543    0.272    4.471
  111.000  229.499   86.307    0.527    0.265    4.647
  111.250  229.601   85.812    0.519    0.255    4.826
  111.500  234.602   84.782    0.508    0.247    5.012
  111.750  238.542   84.823    0.476    0.229    5.406
  112.000  243.475   84.944    0.462    0.218    5.611
  112.250  247.449   84.985    0.452    0.225    6.164
  112.500  241.860   85.662    0.451    0.231    6.519
  112.750  238.089   86.874    0.477    0.217    6.895
  113.000  232.534   88.703    0.465    0.190    7.431
  113.250  228.797   85.905    0.435    0.182    7.309
  113.500  226.087   81.936    0.429    0.172    6.806
  113.750  226.154   79.714    0.437    0.210    6.573
  114.000  225.330   79.795    0.448    0.239    7.083
  114.250  223.579   81.028    0.448    0.221    8.070
  114.500  222.755   78.805    0.444    0.226    8.693
  114.750  222.856   74.856    0.449    0.239    9.540
  115.000  220.180   69.755    0.440    0.247   10.470
  115.250  219.288   66.382    0.427    0.255   11.079
  115.500  216.578   69.938    0.426    0.266   10.134
  115.750  214.828   71.766    0.442    0.275    9.606
  116.000  214.895   72.403    0.434    0.285    8.952
  116.250  215.064   73.636    0.428    0.277    8.960
  116.500  216.125   74.272    0.437    0.257    8.654
  116.750  217.254   76.101    0.446    0.259    8.672
  117.000  218.383   79.061    0.445    0.261    8.684
  117.250  219.444   82.617    0.435    0.265    8.702
  117.500  220.505   83.274    0.432    0.261    8.717
  117.750  221.633   82.183    0.433    0.231    8.728
  118.000  221.802   78.830    0.436    0.212    8.743
  118.250  221.937   77.759    0.429    0.206    8.444
  118.500  222.072   78.396    0.423    0.215    8.156
  118.750  222.241   81.952    0.431    0.265    7.734
  119.000  222.309   83.740    0.443    0.273    7.208
  119.250  222.478   84.397    0.451    0.271    6.958
  119.500  224.532   83.347    0.446    0.267    6.720
  119.750  225.593   83.428    0.440    0.258    6.493
  120.000  226.722   84.085    0.448    0.257    6.381
  120.250  228.776   85.338    0.447    0.252    6.279
  120.500  229.871   86.550    0.448    0.256    6.174
  120.750  231.892   87.207    0.452    0.267    5.965
  121.000  232.987   86.733    0.444    0.266    5.761
  121.250  236.102   86.814    0.473    0.249    6.096
  121.500  236.203   83.996    0.503    0.254    7.194
  121.750  236.339   76.571    0.510    0.271   12.939
  122.000  237.433   62.813    0.496    0.277   20.460
  122.250  239.488   47.924    0.464    0.277   30.076
  122.500  242.468   39.924    0.408    0.282   38.200
  122.750  248.395   33.671    0.381    0.289   50.346
