~Version : LASO    vs 4.00
VERS.                2.00:   CWLS Log ASCII Standard -VERSION 2.0
WRAP.                  NO:
~Well Information Block
#MNEM.UNIT       Data                        Description of Mnemonic
#----.----      -------------------------- : -----------------------------
STRT.M            30.0000:
STOP.M           204.0000:
STEP.M             0.2000:
NULL.           -999.2500:
COMP.  MOBIL OIL OF CANADA                    :COMPANY
WELL.  MOBIL CLARKE OV PROGRAM 2-81 4-3       :WELL
FLD.                                          :FIELD
LOC.   04-03-090-07W4                         :LOCATION
CTRY.  CANADA                                 :COUNTRY
PROV.  ALBERTA                                :PROVINCE
SRVC.  SCHLUMBERGER                           :SERVICE COMPANY
DATE.  26-JAN-81                              :LOG DATE
UWI.   AA/04-03-090-07W400                    :UNIQUE WELL ID
~Parameter Information Block
#MNEM.UNIT       Data                        Description of Mnemonic
#----.----      -------------------------- : -----------------------------
RUN .                   1                 : Run Number
GL  .M           466.8000                 : Ground Level Elevation
DREF.                  GD                 : Depth Reference
EREF.M           466.8000                 : Elevation of Depth Reference
TDL .M           205.0000                 : Total Depth Logger
TDD .M           205.0000                 : Total Depth Driller
BHT .DEGC         19.0000                 : Bottom Hole Temperature
BS  .MM          159.0000                 : Bit Size
DFD .            980.0000                 : Mud Weight (Density)
DFV .             38.0000                 : Mud Viscosity
DFPH.             10.0000                 : Mud pH
~Curve Information Block
#MNEM.UNIT        API CODE    Curve Description
#---------    ------------    -------------------------------------------
DEPT.M                    :   DEPTH
CALI.MM       42 280  1  1:   3 DENSITY CALIPER
DPHI.V/V                  :   DPHI
DT  .US/M     60 520  0  1:   2 SONIC INTERVAL TRANSIT TIME (COMPENSATED)
GR  .GAPI     42 310  1  1:   4 GAMMA RAY
ILD .OHMM      5 120 46  1:   7 DEEP INDUCTION
ILM .OHMM      5 120 44  1:   8 MEDIUM INDUCTION
NPHI.V/V      42 890  3  1:   5 NEUTRON POROSITY (SANDSTONE)
RHOB.K/M3     42 350  1  1:   6 BULK DENSITY
SFLU.OHMM      5 220  1  1:   9 FOCUSSED RESISTIVITY
SP  .MV        5  10  1  1:   10 SPONTANEOUS POTENTIAL
~A  Depth           CALI        DPHI          DT          GR         ILD         ILM        NPHI        RHOB        SFLU          SP
# ...
103.2000        179.8750      0.3402    505.3200     81.8850      9.9961      9.3720      0.4580   2090.0000      9.7237    -47.6250
103.4000        177.3250      0.3428    518.6801     79.6800     10.4672      9.8136      0.4792   2073.8999     11.1643    -48.3900
103.6000        178.6000      0.3466    524.8400     80.5800     11.4770     10.7604      0.4866   2069.8999     11.1643    -49.6650
103.8000        178.6000      0.3480    526.2800     80.7750     11.9078     10.9605      0.4860   2068.8999     12.2414    -50.1750
104.0000        178.6000      0.3546    526.9200     80.8800     12.2414     11.0619      0.4640   2060.8999     14.0550    -50.9400
104.2000        178.6000      0.3505    530.4000     80.0850     12.2414     11.2676      0.4484   2071.8999     13.5466    -50.6850
104.4000        178.6000      0.3307    525.6801     78.8850     12.0179     11.4770      0.4276   2108.0000     13.9261    -50.4300
104.6000        179.8750      0.3138    545.0000     76.2750     11.4770     11.2676      0.4588   2149.0000     16.7429    -50.1750
104.8000        178.6000      0.3002    563.2800     75.4800     10.3712     10.0886      0.4544   2240.2000     14.4487    -48.9000
105.0000        177.3250      0.2720    544.5600     78.2850      9.7237      9.5462      0.4518   2272.2000     10.3712    -48.3900
105.2000        177.3250      0.2807    530.6000     81.1800      9.0330      8.9501      0.4240   2205.1001      9.2009    -48.3900
105.4000        177.3250      0.3138    512.9200     83.4750      8.3144      8.3144      0.4202   2120.0000      8.9501    -47.8800
105.6000        179.8750      0.3226    480.8800     87.6750      6.9796      7.0442      0.4296   2108.0000      7.4444    -45.8400
105.8000        179.8750      0.3176    465.8800     89.8800      6.4838      6.6043      0.4472   2123.0000      6.4244    -44.8200
106.0000        184.9500      0.3103    481.0800     91.8750      6.0232      6.1920      0.4750   2132.0000      6.1352    -44.3100
106.2000        190.0250      0.3099    518.2800     92.9850      5.5441      5.4933      0.4812   2157.1001      5.5954    -44.3100
106.4000        186.2250      0.3185    523.8400     92.6850      5.4429      5.3436      0.4848   2130.0000      4.8287    -43.8000
106.6000        184.9500      0.3265    517.8800     90.4800      5.3930      5.2946      0.4988   2117.0000      4.5272    -44.0550
106.8000        187.5000      0.3396    515.8000     89.9850      5.5954      5.5441      0.4968   2079.8999      5.0563    -44.3100
107.0000        191.3000      0.3449    519.9200     90.8850      5.8054      5.8591      0.5036   2075.8999      5.1979    -44.8200
107.2000        188.7500      0.3433    521.5600     91.0800      5.9680      6.1920      0.5224   2077.8999      5.8054    -45.5850
107.4000        181.1250      0.3423    524.8400     90.8850      6.1920      6.4838      0.5152   2096.0000      9.2860    -47.6250
107.6000        177.3250      0.3407    531.0000     91.1850      6.1920      6.3071      0.5208   2094.0000      9.9044    -47.3700
107.8000        178.6000      0.3310    535.9600     92.9850      6.0232      6.0790      0.5000   2098.0000      8.1626    -46.8600
108.0000        186.2250      0.3234    537.6000     98.0850      5.2946      5.2946      0.4748   2132.0000      5.6994    -44.5650
108.2000        191.3000      0.3140    537.2000     99.6750      4.8734      4.9185      0.4714   2133.0000      5.1031    -44.0550
108.4000        182.4000      0.3166    531.8400     98.9850      4.4857      4.5272      0.4642   2140.0000      4.3234    -43.8000
108.6000        182.4000      0.3284    540.8800     98.2800      4.1671      4.2445      0.4490   2125.0000      3.8004    -43.8000
108.8000        186.2250      0.3358    518.2800     98.2800      3.6968      3.8004      0.4382   2104.0000      3.4981    -43.5450
109.0000        183.6750      0.3358    528.9600     97.7850      3.4660      3.6294      0.4996   2085.0000      3.4342    -44.0550
109.2000        184.9500      0.3380    533.0800     96.8850      3.3100      3.4981      0.5168   2096.0000      3.2797    -44.8200
109.4000        187.5000      0.3370    534.3200     97.1850      3.0467      3.2198      0.5212   2092.0000      3.0188    -45.3300
109.6000        187.5000      0.3394    534.3200     99.6750      2.9365      3.1033      0.5348   2086.0000      3.0467    -45.5850
109.8000        187.5000      0.3413    540.8800     99.3750      2.8565      3.0188      0.5468   2088.0000      3.0188    -45.5850
110.0000        187.5000      0.3447    546.2400     99.4800      2.7029      2.8829      0.5460   2067.8999      2.5812    -44.5650
110.2000        187.5000      0.3516    550.3200    101.1750      2.6781      2.8565      0.5504   2051.8999      2.5812    -44.5650
110.4000        186.2250      0.3560    551.7600    101.1750      2.7029      2.8303      0.5404   2051.8999      2.6781    -44.5650
110.6000        186.2250      0.3501    554.8400    100.5750      2.8829      2.9637      0.5418   2075.8999      2.4879    -44.5650
110.8000        187.5000      0.3428    557.7200    100.4850      3.0188      3.1321      0.5456   2082.0000      2.4201    -44.5650
111.0000        187.5000      0.3397    559.8000    100.4850      3.2496      3.3716      0.5576   2083.0000      2.6292    -44.8200
111.2000        188.7500      0.3359    561.2400     97.6800      3.8004      4.0163      0.5612   2106.0000      3.8711    -45.0750
111.4000        188.7500      0.3298    562.6800     95.0850      4.1671      4.3634      0.5452   2102.0000      4.4038    -45.0750
111.6000        188.7500      0.3235    561.6400     93.4800      4.5691      4.8287      0.5378   2113.0000      5.0099    -45.3300
111.8000        186.2250      0.3234    555.6800     92.3850      4.9640      5.1503      0.5476   2132.0000      6.1352    -45.5850
112.0000        184.9500      0.3313    549.5200     93.0750      5.6472      5.6472      0.5320   2102.0000      7.0442    -46.0950
112.2000        190.0250      0.3329    542.1200     93.4800      6.0232      5.9133      0.4988   2118.0000      6.0790    -45.8400
112.4000        193.8250      0.3417    540.4800     94.3800      6.3071      6.3071      0.4936   2082.0000      5.6472    -46.6050
112.6000        179.8750      0.3485    535.1200     93.1800      6.7271      6.9156      0.4936   2055.8999      7.3085    -48.1350
112.8000        173.5250      0.3609    533.4800     91.8750      6.8522      7.1094      0.4986   2037.9000      8.3144    -48.6450
113.0000        173.5250      0.3556    535.5200     90.5850      7.0442      7.3085      0.4738   2068.8999      8.5473    -48.6450
113.2000        179.8750      0.3481    537.2000     94.1850      7.1094      7.3762      0.4504   2061.8999      8.4690    -48.6450
113.4000        182.4000      0.3480    535.5200     97.1850      7.1094      7.1751      0.4984   2063.8999      8.6264    -48.6450
113.6000        183.6750      0.3403    531.0000    100.3800      7.3085      7.0442      0.4970   2077.8999      7.8674    -48.6450
113.8000        190.0250      0.3251    531.6400    101.4750      7.4444      7.3085      0.4846   2131.0000      6.1352    -47.3700
114.0000        192.5750      0.3074    530.4000     99.1800      7.6530      7.5828      0.4786   2162.1001      6.4838    -47.1150
114.2000        193.8250      0.2966    532.6400     97.6800      7.8674      7.9402      0.4696   2180.1001      7.7238    -47.3700
114.4000        192.5750      0.2855    533.8800     97.0800      8.2382      8.3913      0.4684   2166.1001      9.3720    -47.8800
114.6000        186.2250      0.2675    528.5600     95.0850      9.8136      9.6345      0.4676   2200.1001     11.0619    -47.1150
114.8000        181.1250      0.2434    520.7600     93.1800     10.7604     10.6618      0.4640   2228.2000     11.3718    -47.3700
115.0000        176.0500      0.1605    504.0800     88.9800     11.4770     11.7986      0.4664   2262.2000     12.4690    -48.6450
115.2000        173.5250      0.1090    494.4400     78.1800     12.1291     12.7008      0.4606   2396.3999     21.6686    -47.1150
