~VERSION INFORMATION
 VERS.                 2.0:   CWLS LOG ASCII STANDARD -VERSION 2.0
 WRAP.                  NO:   ONE LINE PER DEPTH STEP
~WELL INFORMATION BLOCK
#MNEM.UNIT           DATA                    DESCRIPTION OF MNEMONIC
#---------    -------------------            -------------------------------
# Generated from Intellog Unique Number	CN_94_101/WELL/2856
WELL.         06-25-095-16W4                 : Well_name    - WELL
LOC .         AA/06-25-095-16W4/0            : Location     - LOCATION
UWI .         AA/06-25-095-16W400            : Uwi          - UNIQUE WELL ID
ENTR.         JOETTE                         : Entered      - ENTERED BY
SRVC.         SCHLUMBERGER                   : Scn          - SERVICE COMPANY
DATE.         07/27/92                       : Date         - LOG DATE
STRT.F        400                            : top_depth    - START DEPTH
STOP.F        1079.95                        : bot_depth    - STOP DEPTH
STEP.F        0.82                           : increment    - STEP LENGTH
 NULL. -999.2500:NULL Value
~CURVE INFORMATION BLOCK
#MNEM UNIT       ERCB CURVE CODE    CURVE DESCRIPTION
#-----------   ------------------   ----------------------------------
DEPT.F        00 001 00 00         : DEPTH        - DEPTH
GR  .API      00 310 00 00         : GR           - GAMMA RAY
ILD .OHMM     00 120 00 00         : RESD         - DEEP RESISTIVITY (DIL)
DPHI.V/V      00 890 00 00         : PHID         - DENSITY POROSITY (SANDSTONE)
NPHI.V/V      00 330 00 00         : PHIN         - NEUTRON POROSITY (SANDSTONE)
~PARAMETER INFORMATION
#MNEM.UNIT           DATA             DESCRIPTION OF MNEMONIC
#---------         -----------     ------------------------------
GL  .F        1876.64              : gl           - GROUND LEVEL ELEVATION
EREF.F        1887.47              : kb           - ELEVATION OF DEPTH REFERENCE
DATM.F        1887.47              : datum        - DATUM ELEVATION
TDD .F        1100                 : tdd          - TOTAL DEPTH DRILLER
RUN .         ONE                  : Run          - RUN NUMBER
ENG .         JO                   : Engineer     - RECORDING ENGINEER
WIT .         TIM                  : Witness      - WITNESSED BY
MUD .         GEL                  : Mud_type     - MUD TYPE
MATR.         SANDSTONE            : Logunit      - NEUTRON MATRIX
TMAX.F        62.6                 : BHT          - MAXIMUM RECORDED TEMPERATURE
BHTD.F        1100                 : BHTDEP       - MAXIMUM RECORDED TEMPERATURE
RMT .F        44.6                 : MDTP         - TEMPERATURE OF MUD
MUDD.LB/G     1.073                : MWT          - MUD DENSITY
NEUT.         1                    : NEUTRON      - NEUTRON TYPE
RESI.         0                    : RESIST       - RESISTIVITY TYPE
RM  .OHMM     0.35                 : RM           - RESISTIVITY OF MUD
RMC .OHMM     0.35                 : RMC          - RESISTIVITY OF MUD CAKE
RMF .OHMM     0.35                 : RMF          - RESISTIVITY OF MUD FILTRATE
SUFT.F        39.2                 : SUFT         - SURFACE TEMPERATURE
~A  DEPTH       GR     RESD     PHID     PHIN
# ...
  970.866   49.067   39.633    0.295    0.376
  971.686   49.047   36.788    0.294    0.372
  972.507   47.837   32.305    0.294    0.372
  973.327   47.824   29.439    0.293    0.373
  974.147   46.036   25.386    0.294    0.379
  974.967   45.432   21.886    0.297    0.379
  975.787   43.645   19.944    0.297    0.374
  976.608   43.040   19.563    0.297    0.372
  977.428   43.013   19.546    0.297    0.370
  978.248   43.563   19.528    0.297    0.369
  979.068   44.127   19.506    0.296    0.371
  979.888   45.839   19.138    0.295    0.375
  980.709   47.558   18.093    0.292    0.375
  981.529   48.122   16.791    0.286    0.375
  982.349   48.087   15.301    0.281    0.379
  983.169   48.074   14.735    0.272    0.385
  983.990   48.631   14.190    0.265    0.395
  984.810   49.188   13.415    0.257    0.404
  985.630   50.316    9.985    0.249    0.417
  986.450   50.886    6.069    0.239    0.430
  987.270   52.612    4.861    0.238    0.425
  988.091   55.500    5.039    0.239    0.423
  988.911   56.641    4.943    0.239    0.433
  989.731   56.029    4.108    0.239    0.442
  990.551   55.425    4.030    0.240    0.449
  991.371   54.813    5.405    0.241    0.451
  992.192   54.202    8.875    0.252    0.447
  993.012   54.167   14.845    0.257    0.432
  993.832   54.724   29.853    0.261    0.415
  994.652   58.210   47.251    0.263    0.415
  995.472   63.441   55.713    0.265    0.408
  996.293   66.920   55.663    0.265    0.393
  997.113   68.639   50.724    0.273    0.378
  997.933   60.425   47.072    0.280    0.374
  998.753   56.898   50.634    0.276    0.382
  999.573   53.365   56.494    0.266    0.390
 1000.390   52.169   47.818    0.268    0.392
 1001.210   49.798   42.000    0.278    0.394
 1002.030   49.193   43.536    0.284    0.394
 1002.850   48.581   56.280    0.288    0.394
 1003.670   48.554   70.125    0.287    0.394
 1004.490   49.104   78.224    0.283    0.395
 1005.310   49.070   88.919    0.282    0.397
 1006.140   49.043   90.469    0.287    0.401
 1006.960   49.600   92.088    0.291    0.403
 1007.780   50.748  102.747    0.285    0.406
 1008.600   51.883   95.348    0.282    0.406
 1009.420   53.024   86.888    0.279    0.406
 1010.240   52.997   85.247    0.278    0.407
 1011.060   51.801   74.859    0.279    0.407
 1011.880   51.189   69.484    0.284    0.409
 1012.700   50.571   65.693    0.286    0.414
 1013.520   50.557   77.458    0.283    0.420
 1014.340   51.101   84.847    0.277    0.413
 1015.160   51.671   73.166    0.268    0.408
 1015.980   52.228   63.093    0.270    0.414
 1016.800   52.779   65.400    0.276    0.412
 1017.620   52.745   86.114    0.281    0.407
 1018.440   52.731  103.421    0.290    0.401
 1019.260   53.274  117.535    0.297    0.397
 1020.080   53.838   94.161    0.309    0.397
 1020.900   54.395   71.367    0.320    0.398
 1021.720   54.952   73.977    0.318    0.399
 1022.540   54.911  101.059    0.311    0.397
 1023.360   54.898  143.265    0.304    0.396
 1024.180   54.857  181.825    0.299    0.397
 1025.000   54.837  100.788    0.292    0.398
 1025.820   54.225   98.840    0.288    0.399
 1026.640   54.204  102.454    0.285    0.403
 1027.460   54.755   79.130    0.282    0.408
 1028.280   54.734   53.705    0.275    0.410
 1029.100   55.278   50.764    0.267    0.418
 1029.920   55.848   44.598    0.263    0.422
 1030.740   55.821   36.384    0.270    0.421
 1031.560   55.203   39.855    0.294    0.417
 1032.380   53.993   45.304    0.307    0.413
 1033.200   53.395   54.410    0.301    0.407
 1034.020   53.945   94.419    0.297    0.404
 1034.840   55.080  228.246    0.293    0.405
 1035.660   55.651  311.806    0.295    0.410
 1036.480   56.792  502.575    0.298    0.415
 1037.300   59.102  433.481    0.290    0.415
 1038.120   60.243   68.730    0.281    0.406
 1038.940   57.879   68.669    0.281    0.395
 1039.760   56.676   82.469    0.286    0.396
 1040.580   56.065   93.724    0.280    0.399
 1041.400   53.700   73.699    0.274    0.400
 1042.220   51.920   68.408    0.278    0.400
 1043.040   53.054   65.877    0.281    0.400
 1043.860   54.203   60.045    0.281    0.398
 1044.690   56.506   44.680    0.281    0.393
 1045.510   57.070   51.721    0.283    0.386
 1046.330   57.029   62.115    0.277    0.385
 1047.150   56.417   46.231    0.268    0.385
 1047.970   55.812   38.426    0.290    0.386
 1048.790   55.194   51.536    0.291    0.389
 1049.610   55.167   57.501    0.284    0.394
 1050.430   55.153   42.016    0.277    0.397
 1051.250   55.710   38.999    0.271    0.398
 1052.070   56.845   30.108    0.272    0.398
 1052.890   58.563   32.379    0.281    0.393
 1053.710   59.134   38.886    0.295    0.393
 1054.530   59.107   46.701    0.310    0.404
 1055.350   57.327   63.784    0.305    0.412
 1056.170   56.715   61.424    0.307    0.421
 1056.990   57.265   64.853    0.313    0.411
 1057.810   60.146   75.089    0.322    0.404
 1058.630   61.301   72.311    0.309    0.392
 1059.450   63.027   60.102    0.290    0.381
 1060.270   64.168   47.272    0.279    0.370
 1061.090   62.388   34.534    0.268    0.366
 1061.910   58.855   28.180    0.260    0.365
 1062.730   57.075   22.164    0.261    0.365
 1063.550   56.463   18.764    0.268    0.369
 1064.370   56.436   15.029    0.271    0.371
 1065.190   56.986   12.724    0.273    0.372
 1066.010   58.127   10.575    0.273    0.373
 1066.830   60.437    9.461    0.270    0.373
 1067.650   62.163    8.622    0.265    0.372
 1068.470   64.473    7.710    0.260    0.370
 1069.290   66.199    7.563    0.256    0.368
 1070.110   67.347    7.418    0.254    0.366
 1070.930   68.481    7.014    0.256    0.365
 1071.750   68.461    6.631    0.261    0.363
 1072.570   66.667    6.269    0.264    0.362
 1073.390   64.309    5.713    0.266    0.358
 1074.210   62.516    5.303    0.252    0.355
 1075.030   62.502    5.015    0.233    0.338
 1075.850   63.643    4.916    0.152    0.325
 1076.670   65.369    5.487    0.029    0.309
 1077.490   63.582    7.778    0.025    0.258
 1078.310   62.386   49.868    0.024    0.202
 1079.130   61.197   44.615    0.024    0.136
 1079.950   59.417   40.647    0.024    0.126
