~VERSION INFORMATION
 VERS.                 2.0:   CWLS LOG ASCII STANDARD -VERSION 2.0
 WRAP.                  NO:   ONE LINE PER DEPTH STEP
~WELL INFORMATION BLOCK
#MNEM.UNIT           DATA                    DESCRIPTION OF MNEMONIC
#---------    -------------------            -------------------------------
# Generated from Intellog Unique Number	CN_91_93/WELL/2857
WELL.         03-32-092-09W4                 : Well_name    - WELL
LOC .         AA/03-32-092-09W4/0            : Location     - LOCATION
UWI .         AA/03-32-092-09W400            : Uwi          - UNIQUE WELL ID
ENTR.         JOETTE                         : Entered      - ENTERED BY
SRVC.         SCHLUMBERGER                   : Scn          - SERVICE COMPANY
DATE.         03/31/92                       : Date         - LOG DATE
STRT.F        30                             : top_depth    - START DEPTH
STOP.F        309.692                        : bot_depth    - STOP DEPTH
STEP.F        0.8202                         : increment    - STEP LENGTH
 NULL. -999.2500:NULL Value
~CURVE INFORMATION BLOCK
#MNEM UNIT       ERCB CURVE CODE    CURVE DESCRIPTION
#-----------   ------------------   ----------------------------------
DEPT.F        00 001 00 00         : DEPTH        - DEPTH
CALI.IN       00 280 01 00         : CAL          - CALIPER
GR  .API      00 310 00 00         : GR           - GAMMA RAY
NPHI.V/V      00 330 00 00         : PHIN         - NEUTRON POROSITY (SANDSTONE)
DPHI.V/V      00 890 00 00         : PHID         - DENSITY POROSITY (SANDSTONE)
ILD .OHMM     00 120 00 00         : RESD         - DEEP RESISTIVITY (DIL)
~PARAMETER INFORMATION
#MNEM.UNIT           DATA             DESCRIPTION OF MNEMONIC
#---------         -----------     ------------------------------
GL  .M        332.262              : gl           - GROUND LEVEL ELEVATION
EREF.M        332.262              : kb           - ELEVATION OF DEPTH REFERENCE
DATM.M        332.262              : datum        - DATUM ELEVATION
TDD .M        98.1456              : tdd          - TOTAL DEPTH DRILLER
RUN .         ONE                  : Run          - RUN NUMBER
ENG .         JO                   : Engineer     - RECORDING ENGINEER
WIT .         TIM                  : Witness      - WITNESSED BY
MUD .         GEL                  : Mud_type     - MUD TYPE
MATR.         SANDSTONE            : Logunit      - NEUTRON MATRIX
TMAX.F        59                   : BHT          - MAXIMUM RECORDED TEMPERATURE
BHTD.F        322                  : BHTDEP       - MAXIMUM RECORDED TEMPERATURE
RMT .F        62                   : MDTP         - TEMPERATURE OF MUD
MUDD.LB/G     8.7                  : MWT          - MUD DENSITY
NEUT.         1                    : NEUTRON      - NEUTRON TYPE
RESI.         0                    : RESIST       - RESISTIVITY TYPE
RM  .OHMM     7                    : RM           - RESISTIVITY OF MUD
RMC .OHMM     7                    : RMC          - RESISTIVITY OF MUD CAKE
RMF .OHMM     7                    : RMF          - RESISTIVITY OF MUD FILTRATE
SUFT.F        39.2                 : SUFT         - SURFACE TEMPERATURE
~A  DEPTH      CAL       GR     PHIN     PHID     RESD
# ...
  149.751    6.553   58.825    0.431    0.304   55.733
  150.571    6.519   55.919    0.378    0.289   50.451
  151.391    6.507   57.390    0.409    0.298   45.259
  152.211    6.496   57.984    0.441    0.308   62.095
  153.031    6.543   58.287    0.410    0.312   45.247
  153.852    6.520   47.797    0.372    0.294   32.088
  154.672    6.393   55.101    0.413    0.301   53.711
  155.492    6.405   66.197    0.377    0.288   56.187
  156.312    6.335   90.714    0.371    0.264   43.616
  157.133    6.394   50.467    0.375    0.262   44.006
  157.953    6.499   44.643    0.398    0.296   79.185
  158.773    6.465   39.404    0.387    0.317  130.171
  159.593    6.465   38.248    0.404    0.303  173.815
  160.413    6.501   40.884    0.369    0.308  200.837
  161.234    6.513   37.395    0.361    0.314  495.884
  162.054    6.478   30.988    0.399    0.303  452.962
  162.874    6.444   37.127    0.429    0.322  381.431
  163.694    6.467   31.012    0.409    0.335  290.788
  164.514    6.480   33.065    0.405    0.339  240.476
  165.335    6.515   38.035    0.415    0.306  208.064
  166.155    6.469   36.588    0.408    0.301  233.975
  166.975    6.423   33.974    0.416    0.279  432.601
  167.795    6.400   31.943    0.389    0.289  482.096
  168.615    6.459   36.621    0.386    0.317  357.698
  169.436    6.447   33.715    0.378    0.323  326.736
  170.256    6.494   27.893    0.362    0.309  452.351
  171.076    6.518   31.987    0.364    0.331  598.581
  171.896    6.460   40.460    0.360    0.341  631.849
  172.717    6.484   48.347    0.371    0.318  303.777
  173.537    6.450   61.194    0.369    0.311  105.474
  174.357    6.485   51.580    0.394    0.314  195.009
  175.177    6.439   46.630    0.369    0.325  420.444
  175.997    6.404   41.682    0.364    0.306  576.827
  176.818    6.393   48.695    0.373    0.310  526.916
  177.638    6.417   43.163    0.371    0.323  526.845
  178.458    6.464   36.466    0.361    0.325  546.170
  179.278    6.511   39.395    0.352    0.322  498.895
  180.098    6.546   46.990    0.365    0.306  227.189
  180.919    6.594   43.501    0.378    0.308  341.193
  181.739    6.617   38.844    0.371    0.297  360.155
  182.559    6.595   37.980    0.367    0.310  334.983
  183.379    6.560   36.533    0.360    0.314  408.636
  184.199    6.561   38.003    0.384    0.318  408.574
  185.020    6.444   41.223    0.378    0.334  415.972
  185.840    6.445   35.693    0.397    0.332  443.093
  186.660    6.492   33.370    0.375    0.339  471.974
  187.480    6.492   34.255    0.355    0.330  489.279
  188.301    6.504   38.935    0.369    0.323  498.147
  189.121    6.458   34.279    0.384    0.325  530.608
  189.941    6.435   31.666    0.382    0.328  586.014
  190.761    6.412   30.218    0.380    0.343  379.652
  191.581    6.354   26.727    0.416    0.336  319.699
  192.402    6.227   29.656    0.419    0.345  305.529
  193.222    6.414   35.209    0.425    0.322  372.706
  194.042    6.391   39.596    0.392    0.325  372.649
  194.862    6.380   34.648    0.382    0.340  515.923
  195.682    6.450   32.617    0.414    0.343  580.182
  196.503    6.567   32.045    0.386    0.350  701.378
  197.323    6.673   35.558    0.390    0.346  271.433
  198.143    6.603   48.989    0.406    0.353  104.097
  198.963    6.487   60.960    0.416    0.318   42.148
  199.783    6.394   64.472    0.415    0.284   37.810
  200.604    6.418   51.939    0.406    0.300  101.271
  201.424    6.407   51.367    0.364    0.329  182.229
  202.244    6.349   41.168    0.435    0.318   88.405
  203.064    6.349   36.803    0.383    0.320  100.319
  203.885    6.385   40.023    0.409    0.341   66.780
  204.705    6.408   26.907    0.399    0.353  170.960
  205.525    6.456   27.210    0.347    0.346  533.973
  206.345    6.561   27.804    0.377    0.356  687.685
  207.165    6.561   35.402    0.359    0.376  687.580
  207.986    6.422   58.459    0.363    0.353  628.065
  208.806    6.469   81.225    0.372    0.337  124.506
  209.626    6.516   80.945    0.393    0.315   47.750
  210.446    6.528   44.198    0.416    0.302   38.780
  211.266    6.529   41.000    0.335    0.297  121.126
  212.087    6.552   39.261    0.324    0.294  200.925
  212.907    6.506   69.904    0.340    0.253  129.001
  213.727    6.308   78.959    0.359    0.255   40.919
  214.547    6.367   84.804    0.394    0.264   24.661
  215.367    6.321   85.690    0.397    0.263   20.955
  216.188    6.286   89.787    0.387    0.284   21.724
  217.008    6.333   90.090    0.377    0.270   19.664
  217.828    6.416   92.435    0.402    0.258   20.571
  218.648    6.439   92.446    0.432    0.254   21.326
  219.469    6.451   85.164    0.453    0.245   21.131
  220.289    6.569   90.719    0.446    0.234   19.654
  221.109    6.581   95.105    0.397    0.237   17.631
  221.929    6.511   87.531    0.382    0.237   17.788
  222.749    6.372   89.584    0.375    0.261   17.310
  223.570    6.395   99.515    0.413    0.262   16.543
  224.390    6.314  102.736    0.410    0.284   18.436
  225.210    6.303   87.577    0.406    0.283   19.816
  226.030    6.327   95.465    0.419    0.270   18.265
  226.850    6.386  100.727    0.434    0.251   17.455
  227.671    6.258  101.321    0.419    0.240   18.095
  228.491    6.270   94.040    0.398    0.232   18.591
  229.311    6.352  101.635    0.396    0.237   18.927
  230.131    6.376  104.272    0.400    0.222   18.754
  230.951    6.434  100.784    0.414    0.206   18.086
  231.772    6.540   97.878    0.367    0.220   17.129
  232.592    6.459  103.141    0.363    0.235   17.282
  233.412    6.459   96.442    0.391    0.235   17.755
  234.232    6.378   89.451    0.391    0.251   17.122
  235.052    6.588   90.338    0.436    0.241   17.590
  235.873    6.554   99.684    0.427    0.235   16.659
  236.693    6.566   90.068    0.430    0.236   16.808
  237.513    6.555  109.625    0.434    0.215   18.066
  238.333    6.567  100.301    0.401    0.202   19.071
  239.154    6.661   85.726    0.399    0.212   17.263
  239.974    6.591   83.987    0.414    0.205   16.647
  240.794    6.545  102.961    0.387    0.198   16.796
  241.614    6.592   93.929    0.371    0.218   17.412
  242.434    6.709  102.983    0.381    0.202   16.944
  243.255    6.686  106.788    0.415    0.245   18.049
  244.075    6.523  100.380    0.407    0.246   17.094
  244.895    6.466   85.805    0.424    0.225   17.091
  245.715    6.489   72.106    0.420    0.228   17.244
  246.535    6.443   75.910    0.382    0.244   28.605
  247.356    6.409   77.379    0.377    0.246   26.606
  248.176    6.432   89.642    0.409    0.259   17.237
  248.996    6.386   82.944    0.425    0.259   17.234
  249.816    6.468   69.828    0.411    0.277   19.207
  250.636    6.597   64.004    0.413    0.297   21.795
  251.457    6.656   79.771    0.415    0.257   27.817
  252.277    6.691   89.408    0.431    0.227   32.728
  253.097    6.668   97.004    0.413    0.199   24.503
  253.917    6.494   98.473    0.429    0.228   18.346
  254.738    6.319   78.064    0.423    0.246   18.847
  255.558    6.448   71.365    0.444    0.242   19.015
  256.378    6.425   75.754    0.413    0.228   18.672
  257.198    6.356   90.641    0.365    0.244   20.252
  258.018    6.414   74.025    0.380    0.275   18.168
  258.839    6.415   49.823    0.354    0.291   19.005
  259.659    6.357   32.039    0.346    0.300   30.683
  260.479    6.416   34.384    0.354    0.272   46.080
  261.299    6.428   36.729    0.331    0.251   79.971
  262.119    6.405   30.322    0.361    0.225   56.714
  262.940    6.382   32.377    0.318    0.218   40.585
  263.760    6.348   35.012    0.294    0.244   40.215
  264.580    6.360   28.897    0.288    0.248   43.224
  265.400    6.383   30.368    0.314    0.261   45.216
  266.220    6.302   39.714    0.337    0.248   42.056
  267.041    6.198   59.562    0.406    0.236   33.243
  267.861    6.186   47.321    0.422    0.284   20.585
  268.681    6.152   28.371    0.385    0.320   23.149
