~VERSION INFORMATION
 VERS.                 2.0:   CWLS LOG ASCII STANDARD -VERSION 2.0
 WRAP.                  NO:   ONE LINE PER DEPTH STEP
~WELL INFORMATION BLOCK
#MNEM.UNIT           DATA                    DESCRIPTION OF MNEMONIC
#---------    -------------------            -------------------------------
# Generated from Intellog Unique Number	CW_76_78/WELL/2567
WELL.         06-06-078-25W4                 : Well_name    - WELL
LOC .         AA/06-06-078-25W4/0            : Location     - LOCATION
UWI .         AA/06-06-078-25W4/0            : Uwi          - UNIQUE WELL ID
ENTR.         MAX                            : Entered      - ENTERED BY
SRVC.         SCHLUMBERGER                   : Scn          - SERVICE COMPANY
STRT.M        350                            : top_depth    - START DEPTH
STOP.M        590                            : bot_depth    - STOP DEPTH
STEP.M        0.25                           : increment    - STEP LENGTH
 NULL. -999.2500:NULL Value
~CURVE INFORMATION BLOCK
#MNEM UNIT       ERCB CURVE CODE    CURVE DESCRIPTION
#-----------   ------------------   ----------------------------------
DEPT.M        00 001 00 00         : DEPTH        - DEPTH
ILD .OHMM     00 120 00 00         : RESD         - DEEP RESISTIVITY (DIL)
NPHI.V/V      00 330 00 00         : PHIN         - NEUTRON POROSITY (SANDSTONE)
DPHI.V/V      00 890 00 00         : PHID         - DENSITY POROSITY (SANDSTONE)
CALI.MM       00 280 01 00         : CAL          - CALIPER
GR  .API      00 310 00 00         : GR           - GAMMA RAY
~PARAMETER INFORMATION
#MNEM.UNIT           DATA             DESCRIPTION OF MNEMONIC
#---------         -----------     ------------------------------
GL  .M        645.28               : gl           - GROUND LEVEL ELEVATION
EREF.M        650.03               : kb           - ELEVATION OF DEPTH REFERENCE
DATM.M        645.28               : datum        - DATUM ELEVATION
TDD .M        594                  : tdd          - TOTAL DEPTH DRILLER
RUN .         ONE                  : Run          - RUN NUMBER
ENG .         BILL                 : Engineer     - RECORDING ENGINEER
WIT .         JIM                  : Witness      - WITNESSED BY
MUD .         GEL                  : Mud_type     - MUD TYPE
MATR.         SANDSTONE            : Logunit      - NEUTRON MATRIX
TMAX.C        34.4                 : BHT          - MAXIMUM RECORDED TEMPERATURE
BHTD.M        594                  : BHTDEP       - MAXIMUM RECORDED TEMPERATURE
RMT .C        18                   : MDTP         - TEMPERATURE OF MUD
MUDD.KG/M     8.5                  : MWT          - MUD DENSITY
NEUT.         1                    : NEUTRON      - NEUTRON TYPE
RESI.         0                    : RESIST       - RESISTIVITY TYPE
RM  .OHMM     6.56                 : RM           - RESISTIVITY OF MUD
RMC .OHMM     0.25                 : RMC          - RESISTIVITY OF MUD CAKE
RMF .OHMM     5.94                 : RMF          - RESISTIVITY OF MUD FILTRATE
SUFT.C        -20                  : SUFT         - SURFACE TEMPERATURE
~A  DEPTH     RESD     PHIN     PHID      CAL       GR
# ...
  423.000   21.198    0.350    0.222  207.550   35.601
  423.250   20.833    0.353    0.236  207.616   37.117
  423.500   20.665    0.353    0.243  207.689   38.046
  423.750   20.883    0.350    0.241  207.755   37.799
  424.000   21.100    0.361    0.226  207.828   36.647
  424.250   21.323    0.371    0.222  207.885   36.385
  424.500   21.352    0.381    0.217  207.950   37.313
  424.750   21.581    0.394    0.216  207.530   37.946
  425.000   21.600    0.398    0.225  207.587   37.693
  425.250   21.626    0.387    0.235  207.652   37.732
  425.500   21.253    0.367    0.249  207.734   37.480
  425.750   20.127    0.354    0.245  208.277   37.227
  426.000   19.054    0.366    0.227  208.350   37.257
  426.250   17.547    0.384    0.219  208.424   38.487
  426.500   16.615    0.399    0.238  208.481   40.004
  426.750   15.876    0.418    0.268  208.068   42.414
  427.000   15.458    0.416    0.286  208.117   42.454
  427.250   15.203    0.433    0.291  208.677   41.317
  427.500   14.931    0.437    0.275  208.742   41.346
  427.750   14.931    0.420    0.260  208.816   41.988
  428.000   14.831    0.407    0.261  208.379   41.731
  428.250   14.711    0.409    0.249  208.452   41.765
  428.500   14.864    0.405    0.257  208.509   42.101
  428.750   15.164    0.406    0.264  208.574   43.336
  429.000   15.467    0.410    0.264  208.648   44.847
  429.250   15.924    0.410    0.249  208.762   46.967
  429.500   16.395    0.398    0.233  208.787   49.679
  429.750   16.414    0.383    0.220  208.852   52.974
  430.000   16.282    0.389    0.208  209.411   58.652
  430.250   15.706    0.415    0.207  209.963   62.846
  430.500   14.871    0.421    0.195  210.028   66.735
  430.750   14.756    0.410    0.191  210.101   73.889
  431.000   14.771    0.395    0.220  210.661   73.637
  431.250   15.493    0.390    0.174  211.706   69.224
  431.500   16.248    0.358    0.147  213.764   58.887
  431.750   17.044    0.332    0.083  216.292   56.559
  432.000   17.386    0.314    0.042  220.310   58.970
  432.250   17.086    0.339    0.086  224.823   62.265
  432.500   15.155    0.337    0.108  219.461   66.460
  432.750   13.700    0.370    0.120  215.581   70.946
  433.000   13.215    0.402    0.157  214.650   72.473
  433.250   13.231    0.409    0.179  214.230   71.025
  433.500   13.373    0.418    0.203  214.287   70.174
  433.750   13.512    0.426    0.213  214.344   70.510
  434.000   13.532    0.408    0.199  214.417   70.258
  434.250   13.546    0.408    0.184  213.997   69.996
  434.500   13.561    0.403    0.175  214.078   70.351
  434.750   13.329    0.399    0.178  214.135   70.973
  435.000   12.976    0.401    0.173  214.201   72.198
  435.250   12.518    0.403    0.196  214.266   73.127
  435.500   12.416    0.401    0.202  213.821   73.754
  435.750   12.431    0.394    0.204  213.886   73.803
  436.000   13.040    0.389    0.187  213.951   72.058
  436.250   13.805    0.388    0.184  214.033   69.726
  436.500   14.350    0.388    0.183  214.082   67.986
  436.750   14.497    0.386    0.178  214.641   66.543
  437.000   14.380    0.360    0.159  215.225   68.657
  437.250   14.001    0.364    0.157  215.776   71.666
  437.500   13.138    0.393    0.165  216.336   73.781
  437.750   12.553    0.393    0.172  216.401   75.604
  438.000   11.560    0.404    0.183  215.964   75.638
  438.250   10.946    0.419    0.203  216.030   75.376
  438.500   10.755    0.426    0.206  216.589   74.827
  438.750   10.869    0.424    0.203  217.651   74.861
  439.000   11.088    0.426    0.195  217.222   74.604
  439.250   11.101    0.433    0.203  217.279   73.758
  439.500   11.114    0.442    0.209  217.361   73.210
  439.750   10.822    0.429    0.198  217.418   73.847
  440.000   10.635    0.416    0.190  217.483   75.067
  440.250   10.453    0.419    0.174  218.545   75.996
  440.500   10.366    0.430    0.172  219.590   76.929
  440.750   10.380    0.425    0.177  219.178   77.561
  441.000   10.394    0.413    0.207  219.227   78.480
  441.250   10.405    0.414    0.208  219.794   80.011
  441.500   10.322    0.422    0.202  221.342   80.050
  441.750    9.956    0.431    0.207  221.909   79.788
  442.000    9.605    0.413    0.196  221.472   79.234
  442.250    9.616    0.421    0.211  222.032   76.605
  442.500   10.089    0.454    0.226  223.093   73.976
  442.750   10.578    0.461    0.247  224.139   71.347
  443.000   11.097    0.471    0.242  224.212   69.311
  443.250   11.215    0.430    0.227  217.352   70.240
  443.500   11.123    0.396    0.195  215.935   72.058
  443.750   10.931    0.413    0.219  218.479   72.991
  444.000   10.545    0.421    0.218  222.497   73.025
  444.250   10.267    0.432    0.217  223.542   72.477
  444.500    9.998    0.440    0.224  223.616   71.621
  444.750   10.293    0.464    0.222  225.172   69.887
  445.000   11.205    0.461    0.241  223.746   67.549
  445.250   12.426    0.435    0.222  215.922   64.035
  445.500   13.912    0.424    0.166  216.465   57.844
  445.750   15.148    0.399    0.155  216.044   57.883
  446.000   15.598    0.347    0.119  216.102   65.630
  446.250   15.467    0.326    0.133  217.649   69.232
  446.500   14.647    0.376    0.179  217.731   68.086
  446.750   13.485    0.412    0.188  216.298   69.019
  447.000   10.600    0.402    0.177  216.865   71.134
  447.250    9.406    0.389    0.173  220.389   73.836
  447.500    8.906    0.395    0.154  226.384   77.739
  447.750    8.752    0.421    0.182  226.943   79.256
  448.000    8.683    0.438    0.217  227.511   78.999
  448.250    8.937    0.444    0.212  233.992   77.264
  448.500    9.640    0.445    0.232  234.065   75.228
  448.750   10.493    0.457    0.247  239.072   72.603
  449.000   11.425    0.481    0.298  227.270   71.150
  449.250   12.208    0.471    0.273  214.982   69.411
  449.500   12.807    0.462    0.240  211.094   65.897
  449.750   13.308    0.445    0.216  210.180   63.273
  450.000   13.575    0.437    0.210  210.294   63.011
  450.250   13.591    0.417    0.214  210.318   64.532
  450.500   13.607    0.406    0.226  210.367   62.793
  450.750   14.410    0.408    0.216  210.482   60.169
  451.000   15.398    0.395    0.189  210.498   58.419
  451.250   16.146    0.366    0.162  210.085   57.282
  451.500   16.625    0.352    0.159  209.648   57.608
  451.750   16.489    0.391    0.196  209.236   60.617
  452.000   16.057    0.416    0.218  209.293   60.355
  452.250   15.065    0.397    0.232  209.350   58.027
  452.500   14.130    0.390    0.221  209.416   60.443
  452.750   13.257    0.400    0.247  210.477   67.597
  453.000   12.668    0.420    0.235  212.511   70.300
  453.250   12.218    0.438    0.230  218.020   75.088
  453.500   11.789    0.434    0.239  221.552   76.910
  453.750   11.586    0.420    0.232  220.621   77.538
  454.000   11.383    0.401    0.245  218.726   80.250
  454.250   10.983    0.397    0.223  219.763   82.953
  454.500   10.691    0.405    0.190  220.817   87.152
  454.750   10.409    0.410    0.213  221.384   85.408
  455.000   10.520    0.409    0.202  219.975   80.402
  455.250   11.038    0.409    0.170  217.570   75.104
  455.500   11.795    0.412    0.195  216.631   71.294
  455.750   12.485    0.412    0.201  216.704   68.957
  456.000   13.592    0.388    0.171  216.267   63.066
  456.250   15.215    0.341    0.111  215.344   57.779
  456.500   17.846    0.241    0.077  215.418   58.994
  456.750   19.248    0.230    0.063  215.977   62.591
  457.000   18.225    0.245    0.075  216.059   70.047
  457.250   14.730    0.277    0.092  216.610   77.498
  457.500   12.708    0.403    0.128  217.655   79.613
  457.750   11.921    0.403    0.161  218.709   79.652
  458.000   11.716    0.401    0.175  218.782   79.997
  458.250   11.624    0.403    0.176  219.342   81.227
  458.500   11.744    0.399    0.173  219.407   81.257
  458.750   11.744    0.391    0.164  219.967   80.708
  459.000   11.882    0.397    0.173  222.017   81.345
  459.250   12.233    0.410    0.167  222.568   80.786
