~VERSION INFORMATION
 VERS.                 2.0:   CWLS LOG ASCII STANDARD -VERSION 2.0
 WRAP.                  NO:   ONE LINE PER DEPTH STEP
~WELL INFORMATION BLOCK
#MNEM.UNIT           DATA                    DESCRIPTION OF MNEMONIC
#---------    -------------------            -------------------------------
# Generated from Intellog Unique Number	CN_94_101/WELL/3661
WELL.         08-18-096-16W4                 : Well_name    - WELL
LOC .         AA/08-18-096-16W4/0            : Location     - LOCATION
UWI .         AA/08-18-096-16W400            : Uwi          - UNIQUE WELL ID
ENTR.         J                              : Entered      - ENTERED BY
SRVC.         SCHLUMBERGER                   : Scn          - SERVICE COMPANY
DATE.         08/05/92                       : Date         - LOG DATE
STRT.M        200                            : top_depth    - START DEPTH
STOP.M        395                            : bot_depth    - STOP DEPTH
STEP.M        0.25                           : increment    - STEP LENGTH
 NULL. -999.2500:NULL Value
~CURVE INFORMATION BLOCK
#MNEM UNIT       ERCB CURVE CODE    CURVE DESCRIPTION
#-----------   ------------------   ----------------------------------
DEPT.M        00 001 00 00         : DEPTH        - DEPTH
GR  .API      00 310 00 00         : GR           - GAMMA RAY
NPHI.V/V      00 330 00 00         : PHIN         - NEUTRON POROSITY (SANDSTONE)
DPHI.V/V      00 890 00 00         : PHID         - DENSITY POROSITY (SANDSTONE)
ILD .OHMM     00 120 00 00         : RESD         - DEEP RESISTIVITY (DIL)
~PARAMETER INFORMATION
#MNEM.UNIT           DATA             DESCRIPTION OF MNEMONIC
#---------         -----------     ------------------------------
GL  .M        647.9                : gl           - GROUND LEVEL ELEVATION
EREF.M        651.5                : kb           - ELEVATION OF DEPTH REFERENCE
DATM.M        651.5                : datum        - DATUM ELEVATION
TDD .M        397                  : tdd          - TOTAL DEPTH DRILLER
RUN .         ONE                  : Run          - RUN NUMBER
ENG .         JO                   : Engineer     - RECORDING ENGINEER
WIT .         TIM                  : Witness      - WITNESSED BY
MUD .         GEL                  : Mud_type     - MUD TYPE
MATR.         SANDSTONE            : Logunit      - NEUTRON MATRIX
TMAX.C        27.8                 : BHT          - MAXIMUM RECORDED TEMPERATURE
BHTD.M        397                  : BHTDEP       - MAXIMUM RECORDED TEMPERATURE
RMT .C        10                   : MDTP         - TEMPERATURE OF MUD
MUDD.KG/M     1160                 : MWT          - MUD DENSITY
NEUT.         1                    : NEUTRON      - NEUTRON TYPE
RESI.         0                    : RESIST       - RESISTIVITY TYPE
RM  .OHMM     0.77                 : RM           - RESISTIVITY OF MUD
RMC .OHMM     0.77                 : RMC          - RESISTIVITY OF MUD CAKE
RMF .OHMM     0.78                 : RMF          - RESISTIVITY OF MUD FILTRATE
SUFT.C        4                    : SUFT         - SURFACE TEMPERATURE
~A  DEPTH       GR     PHIN     PHID     RESD
# ...
  243.500  110.781    0.545    0.259    5.194
  243.750  108.310    0.553    0.259    5.190
  244.000  107.689    0.560    0.260    5.183
  244.250  107.053    0.560    0.264    5.178
  244.500  107.631    0.549    0.265    5.174
  244.750  108.201    0.545    0.269    5.073
  245.000  108.172    0.539    0.272    4.276
  245.250  109.963    0.538    0.274    3.960
  245.500  111.761    0.537    0.278    4.107
  245.750  114.159    0.538    0.274    4.344
  246.000  113.523    0.551    0.269    4.681
  246.250  112.273    0.572    0.264    5.237
  246.500  111.024    0.584    0.263    5.750
  246.750  111.009    0.582    0.264    5.966
  247.000  109.766    0.545    0.262    5.740
  247.250  107.296    0.543    0.251    5.024
  247.500  105.461    0.543    0.227    4.568
  247.750  103.604    0.541    0.188    3.997
  248.000  105.388    0.545    0.161    3.918
  248.250  109.613    0.557    0.190    3.914
  248.500  118.086    0.562    0.224    3.912
  248.750  125.330    0.535    0.241    3.983
  249.000  127.736    0.540    0.243    3.979
  249.250  128.306    0.579    0.243    3.976
  249.500  127.670    0.599    0.244    3.971
  249.750  127.648    0.606    0.246    3.967
  250.000  128.226    0.617    0.249    3.963
  250.250  128.803    0.617    0.253    3.959
  250.500  128.774    0.610    0.255    3.957
  250.750  126.918    0.590    0.257    3.953
  251.000  124.461    0.596    0.257    3.875
  251.250  121.399    0.609    0.257    3.727
  251.500  117.729    0.615    0.256    3.586
  251.750  114.659    0.614    0.254    3.384
  252.000  117.064    0.614    0.257    3.319
  252.250  120.675    0.615    0.262    3.315
  252.500  122.466    0.618    0.262    3.440
  252.750  120.010    0.623    0.261    3.922
  253.000  116.933    0.624    0.263    4.733
  253.250  115.705    0.626    0.271    5.500
  253.500  112.642    0.622    0.277    6.156
  253.750  107.759    0.608    0.277    7.154
  254.000   99.228    0.587    0.277    7.855
  254.250   90.704    0.574    0.277    8.625
  254.500   79.754    0.579    0.277    8.781
  254.750   75.470    0.581    0.277    8.285
  255.000   74.841    0.566    0.284    7.823
  255.250   69.951    0.534    0.291    7.108
  255.500   70.536    0.498    0.300    6.841
  255.750   85.069    0.482    0.304    6.219
  256.000   96.567    0.476    0.304    5.342
  256.250  107.460    0.459    0.298    4.762
  256.500  112.285    0.451    0.282    4.759
  256.750  117.716    0.447    0.193    4.846
  257.000  121.927    0.440    0.175    5.219
  257.250  119.464    0.468    0.200    5.418
  257.500  118.228    0.497    0.223    5.837
  257.750  115.158    0.525    0.230    6.172
  258.000  114.537    0.576    0.240    6.166
  258.250  112.687    0.557    0.248    5.821
  258.500  110.831    0.541    0.261    5.000
  258.750  108.367    0.525    0.267    4.376
  259.000  107.139    0.519    0.273    3.830
  259.250  118.032    0.510    0.275    3.481
  259.500  127.710    0.498    0.272    3.223
  259.750  133.749    0.524    0.267    3.222
  260.000  133.113    0.581    0.257    3.217
  260.250  131.863    0.598    0.250    3.277
  260.500  130.620    0.609    0.246    3.335
  260.750  129.370    0.601    0.246    3.396
  261.000  128.749    0.587    0.249    3.394
  261.250  128.713    0.597    0.254    3.390
  261.500  129.297    0.590    0.255    3.386
  261.750  129.268    0.585    0.252    3.384
  262.000  127.412    0.600    0.247    3.379
  262.250  126.169    0.611    0.242    3.378
  262.500  126.133    0.610    0.232    3.438
  262.750  126.111    0.598    0.227    3.435
  263.000  126.089    0.597    0.252    3.497
  263.250  124.839    0.589    0.257    3.560
  263.500  124.203    0.579    0.262    3.557
  263.750  124.773    0.571    0.269    3.622
  264.000  126.564    0.566    0.277    3.757
  264.250  128.356    0.566    0.276    3.897
  264.500  127.106    0.572    0.262    3.970
  264.750  124.657    0.576    0.247    4.357
  265.000  123.414    0.577    0.237    4.522
  265.250  120.958    0.575    0.203    5.254
  265.500  117.288    0.566    0.205    5.555
  265.750  113.619    0.547    0.231    5.549
  266.000  110.563    0.536    0.256    5.442
  266.250  109.927    0.536    0.268    5.235
  266.500  116.572    0.536    0.266    4.848
  266.750  123.217    0.531    0.270    4.406
  267.000  128.042    0.522    0.276    4.322
  267.250  132.860    0.510    0.243    4.003
  267.500  136.471    0.507    0.199    3.777
  267.750  139.468    0.533    0.151    3.704
  268.000  140.061    0.583    0.155    3.497
  268.250  140.638    0.606    0.168    3.363
  268.500  139.995    0.620    0.175    3.298
  268.750  138.146    0.656    0.197    3.173
  269.000  136.910    0.661    0.228    2.994
  269.250  134.447    0.642    0.247    2.880
  269.500  133.818    0.598    0.260    2.878
  269.750  133.175    0.583    0.270    2.768
  270.000  133.146    0.578    0.273    2.663
  270.250  131.903    0.583    0.278    2.610
  270.500  130.661    0.592    0.287    2.560
  270.750  130.032    0.597    0.302    2.509
  271.000  126.348    0.606    0.297    2.460
  271.250  125.112    0.611    0.292    2.458
  271.500  123.263    0.603    0.291    2.455
  271.750  122.020    0.599    0.297    2.453
  272.000  121.377    0.601    0.302    2.451
  272.250  121.955    0.596    0.309    2.542
  272.500  123.139    0.606    0.315    2.638
  272.750  119.477    0.615    0.303    2.898
  273.000  110.953    0.624    0.284    3.367
  273.250  103.643    0.626    0.288    5.193
  273.500   96.932    0.620    0.289    5.811
  273.750   92.042    0.611    0.289    6.627
  274.000   88.979    0.604    0.288    7.414
  274.250   87.737    0.559    0.283    7.548
  274.500   88.321    0.525    0.281    7.541
  274.750   89.506    0.532    0.276    7.536
  275.000   91.896    0.500    0.268    7.384
  275.250   93.695    0.484    0.257    7.241
  275.500   96.085    0.467    0.248    6.834
  275.750   98.483    0.465    0.244    6.577
  276.000  100.881    0.464    0.237    6.208
  276.250  104.492    0.464    0.240    5.860
  276.500  106.883    0.466    0.245    5.636
  276.750  106.262    0.474    0.254    5.633
  277.000  105.004    0.506    0.269    5.523
  277.250  104.990    0.510    0.264    5.518
  277.500  106.781    0.502    0.263    5.618
  277.750  113.426    0.484    0.259    5.611
  278.000  121.891    0.471    0.251    5.712
  278.250  120.649    0.472    0.244    5.708
  278.500  109.691    0.477    0.244    5.920
  278.750   99.354    0.484    0.253    5.916
  279.000   96.291    0.504    0.264    6.139
  279.250   84.719    0.518    0.275    6.491
  279.500   83.484    0.514    0.284    6.861
  279.750   81.020    0.505    0.283    7.254
  280.000   84.625    0.495    0.276    7.386
  280.250   85.217    0.487    0.277    7.241
  280.500   88.828    0.479    0.287    6.964
  280.750   93.039    0.472    0.293    6.451
  281.000   97.264    0.479    0.296    6.090
  281.250  105.737    0.482    0.282    5.430
  281.500  112.989    0.479    0.265    5.226
  281.750  119.634    0.484    0.270    4.842
  282.000  123.245    0.514    0.275    4.237
  282.250  123.823    0.524    0.279    3.926
  282.500  122.566    0.547    0.276    3.636
  282.750  121.937    0.562    0.272    3.564
  283.000  121.915    0.569    0.269    3.629
  283.250  120.672    0.558    0.266    3.766
  283.500  120.022    0.538    0.265    4.212
  283.750  118.772    0.544    0.263    4.372
  284.000  118.151    0.578    0.259    4.711
  284.250  116.901    0.570    0.257    4.888
  284.500  115.051    0.559    0.255    4.976
  284.750  111.389    0.543    0.252    4.971
  285.000  103.472    0.539    0.246    5.061
  285.250   92.522    0.563    0.234    5.056
  285.500   85.204    0.587    0.211    5.051
  285.750   97.317    0.589    0.100    5.142
  286.000  105.783    0.512    0.069    5.235
  286.250  111.821    0.363    0.063    5.433
  286.500  111.185    0.470    0.121    5.637
  286.750  109.336    0.581    0.170    5.960
