~VERSION INFORMATION
 VERS.                 2.0:   CWLS LOG ASCII STANDARD -VERSION 2.0
 WRAP.                  NO:   ONE LINE PER DEPTH STEP
~WELL INFORMATION BLOCK
#MNEM.UNIT           DATA                    DESCRIPTION OF MNEMONIC
#---------    -------------------            -------------------------------
# Generated from Intellog Unique Number	CW_82_90/WELL/3419
WELL.         UNION MINK OV                  : Well_name    - WELL
LOC .         AA/06-11-089-20W4/0            : Location     - LOCATION
UWI .         AA/06-11-089-20W4/0            : Uwi          - UNIQUE WELL ID
ENTR.         MAX                            : Entered      - ENTERED BY
SRVC.         SCHLUMBERGER                   : Scn          - SERVICE COMPANY
STRT.M        120                            : top_depth    - START DEPTH
STOP.M        245                            : bot_depth    - STOP DEPTH
STEP.M        0.25                           : increment    - STEP LENGTH
 NULL. -999.2500:NULL Value
~CURVE INFORMATION BLOCK
#MNEM UNIT       ERCB CURVE CODE    CURVE DESCRIPTION
#-----------   ------------------   ----------------------------------
DEPT.M        00 001 00 00         : DEPTH        - DEPTH
GR  .API      00 310 00 00         : GR           - GAMMA RAY
CALI.MM       00 280 01 00         : CAL          - CALIPER
DPHI.V/V      00 890 00 00         : PHID         - DENSITY POROSITY (SANDSTONE)
NPHI.V/V      00 330 00 00         : PHIN         - NEUTRON POROSITY (SANDSTONE)
ILD .OHMM     00 120 00 00         : RESD         - DEEP RESISTIVITY (DIL)
~PARAMETER INFORMATION
#MNEM.UNIT           DATA             DESCRIPTION OF MNEMONIC
#---------         -----------     ------------------------------
GL  .M        512.6                : gl           - GROUND LEVEL ELEVATION
EREF.M        516.91               : kb           - ELEVATION OF DEPTH REFERENCE
DATM.M        512.6                : datum        - DATUM ELEVATION
TDD .M        275                  : tdd          - TOTAL DEPTH DRILLER
RUN .         ONE                  : Run          - RUN NUMBER
ENG .         BILL                 : Engineer     - RECORDING ENGINEER
WIT .         JIM                  : Witness      - WITNESSED BY
MUD .         GEL                  : Mud_type     - MUD TYPE
MATR.         SANDSTONE            : Logunit      - NEUTRON MATRIX
TMAX.C        18                   : BHT          - MAXIMUM RECORDED TEMPERATURE
BHTD.M        275                  : BHTDEP       - MAXIMUM RECORDED TEMPERATURE
MATR.         1                    : LOGUNIT      - NEUTRON MATRIX
RMT .C        17                   : MDTP         - TEMPERATURE OF MUD
NEUT.         1                    : NEUTRON      - NEUTRON TYPE
RESI.         0                    : RESIST       - RESISTIVITY TYPE
RMC .OHMM     3.8                  : RMC          - RESISTIVITY OF MUD CAKE
RMF .OHMM     3.8                  : RMF          - RESISTIVITY OF MUD FILTRATE
SUFT.C        -15                  : SUFT         - SURFACE TEMPERATURE
~A  DEPTH       GR      CAL     PHID     PHIN     RESD
# ...
  156.500   59.217  326.346    0.431    0.500    5.996
  156.750   54.987  326.811    0.501    0.526    6.047
  157.000   49.555  327.772    0.523    0.556    6.153
  157.250   51.633  330.225    0.541    0.567    6.376
  157.500   52.808  330.190    0.548    0.560    6.853
  157.750   54.289  326.644    0.426    0.556    8.918
  158.000   59.071  320.095    0.369    0.510   11.089
  158.250   67.159  313.049    0.321    0.445   13.174
  158.500   72.539  304.492    0.238    0.410   15.793
  158.750   71.013  300.941    0.293    0.386   17.286
  159.000   67.687  298.898    0.262    0.362   18.578
  159.250   64.054  295.858    0.234    0.352   19.427
  159.500   61.329  295.808    0.210    0.336   20.881
  159.750   59.199  296.278    0.206    0.333   22.238
  160.000   60.076  295.231    0.226    0.332   22.626
  160.250   60.052  293.683    0.218    0.327   22.605
  160.500   58.225  294.644    0.192    0.316   22.589
  160.750   54.595  296.116    0.164    0.303   22.572
  161.000   54.568  296.566    0.172    0.264   22.146
  161.250   57.852  297.032    0.198    0.296   21.728
  161.500   59.329  297.492    0.220    0.322   20.931
  161.750   59.302  297.452    0.231    0.359   19.801
  162.000   61.684  296.900    0.206    0.331   16.945
  162.250   61.357  296.369    0.198    0.331   13.480
  162.500   61.032  296.319    0.226    0.338   10.532
  162.750   62.212  296.283    0.262    0.350    9.261
  163.000   64.291  295.747    0.288    0.359    8.372
  163.250   64.567  296.208    0.324    0.372    7.498
  163.500   64.240  311.189    0.364    0.436    6.902
  163.750   64.513  338.186    0.427    0.512    6.649
  164.000   65.987  354.174    0.481    0.544    6.524
  164.250   67.468  360.643    0.514    0.540    6.760
  164.500   70.148  367.612    0.469    0.525    7.332
  164.750   70.725  340.528    0.400    0.512    8.952
  165.000   66.798  325.967    0.357    0.496    9.799
  165.250   60.164  321.415    0.371    0.477   11.535
  165.500   58.037  323.873    0.394    0.454   13.829
  165.750   58.313  323.838    0.340    0.433   15.557
  166.000   61.590  321.795    0.339    0.417   17.659
  166.250   59.764  314.244    0.324    0.395   18.634
  166.500   54.326  308.195    0.268    0.371   18.282
  166.750   52.505  311.654    0.206    0.323   17.776
  167.000   51.877  316.621    0.241    0.322   16.971
  167.250   51.855  319.590    0.295    0.377   16.650
  167.500   50.029  322.053    0.338    0.399   16.789
  167.750   48.502  323.009    0.342    0.388   17.238
  168.000   48.172  320.966    0.346    0.383   17.861
  168.250   48.451  311.917    0.329    0.361   18.176
  168.500   48.126  300.355    0.297    0.334   18.161
  168.750   49.604  298.808    0.258    0.317   17.818
  169.000   51.082  300.770    0.253    0.325   17.320
  169.250   51.655  305.737    0.291    0.351   16.839
  169.500   52.836  308.701    0.334    0.377   16.676
  169.750   53.409  310.162    0.342    0.396   16.359
  170.000   53.388  308.625    0.345    0.391   16.199
  170.250   54.866  306.071    0.338    0.383   16.332
  170.500   54.541  305.029    0.322    0.351   17.081
  170.750   53.012  304.989    0.310    0.356   18.026
  171.000   52.690  305.459    0.311    0.363   19.550
  171.250   55.069  305.919    0.244    0.332   20.259
  171.500   59.251  306.870    0.177    0.314   20.057
  171.750   62.832  307.831    0.207    0.321   18.460
  172.000   64.310  308.797    0.241    0.357   16.838
  172.250   64.886  309.257    0.260    0.394   15.501
  172.500   65.160  311.220    0.245    0.429   14.139
  172.750   67.542  313.177    0.273    0.455   13.498
  173.000   71.120  318.650    0.329    0.456   13.000
  173.250   74.701  347.656    0.350    0.413   12.758
  173.500   77.984  328.583    0.323    0.387   12.517
  173.750   78.257  321.528    0.301    0.395   12.169
  174.000   75.532  324.496    0.300    0.386   11.831
  174.250   73.402  331.967    0.331    0.416   11.608
  174.500   72.176  354.463    0.404    0.444   11.704
  174.750   71.851  335.386    0.439    0.462   11.800
  175.000   72.124  330.844    0.421    0.478   12.006
  175.250   71.199  335.310    0.402    0.487   11.886
  175.500   69.075  346.786    0.472    0.498   11.664
  175.750   68.449  359.759    0.555    0.525   11.444
  176.000   67.524  346.204    0.529    0.571   11.538
  176.250   67.800  336.650    0.494    0.575   12.063
  176.500   67.475  326.591    0.456    0.547   12.968
  176.750   68.653  327.547    0.416    0.494   13.810
  177.000   71.332  332.018    0.370    0.444   14.708
  177.250   72.209  334.981    0.313    0.407   15.382
  177.500   73.684  330.429    0.283    0.397   16.681
  177.750   72.155  328.882    0.249    0.370   17.288
  178.000   70.031  328.846    0.159    0.342   17.112
  178.250   68.805  330.308    0.194    0.341   16.642
  178.500   69.081  331.770    0.245    0.365   15.887
  178.750   69.056  334.233    0.302    0.391   14.893
  179.000   68.732  340.201    0.351    0.424   14.087
  179.250   69.002  353.685    0.392    0.448   13.572
  179.500   69.284  368.165    0.430    0.488   13.314
  179.750   71.964  359.613    0.482    0.481   13.305
  180.000   74.944  339.043    0.441    0.448   13.661
  180.250   76.118  346.013    0.412    0.411   13.900
  180.500   76.698  347.474    0.398    0.429   14.144
  180.750   74.868  336.914    0.411    0.427   14.394
  181.000   72.440  332.863    0.371    0.381   14.382
  181.250   73.014  326.814    0.338    0.396   14.239
  181.500   71.791  326.272    0.314    0.394   13.844
  181.750   69.664  326.232    0.218    0.393   13.097
  182.000   68.134  326.697    0.235    0.399   12.502
  182.250   67.809  331.163    0.274    0.430   12.154
  182.500   71.691  342.639    0.295    0.449   11.922
  182.750   73.469  338.087    0.296    0.464   11.594
  183.000   74.349  328.033    0.329    0.449   11.374
  183.250   73.421  326.490    0.345    0.424   11.469
  183.500   70.996  335.462    0.319    0.417   11.354
  183.750   67.961  344.941    0.356    0.454   11.040
  184.000   68.240  359.421    0.440    0.479   10.069
  184.250   70.019  357.878    0.392    0.499    8.385
  184.500   69.989  345.816    0.401    0.543    5.872
  184.750   69.369  338.265    0.401    0.558    5.355
  185.000   69.342  329.206    0.456    0.563    5.499
  185.250   71.124  326.162    0.496    0.538    5.965
  185.500   74.103  323.613    0.497    0.533    7.763
  185.750   70.171  321.069    0.461    0.560    8.892
  186.000   67.743  319.531    0.421    0.562   10.187
  186.250   66.220  315.981    0.384    0.530   11.881
  186.500   68.899  312.936    0.298    0.466   12.426
  186.750   77.885  311.894    0.263    0.414   12.415
  187.000   77.260  310.852    0.200    0.387   12.067
  187.250   70.623  309.815    0.149    0.371   11.628
  187.500   72.104  309.269    0.194    0.363   11.204
  187.750   76.886  309.234    0.249    0.379   10.992
  188.000   81.071  311.186    0.273    0.386   11.082
  188.250   80.740  315.652    0.301    0.402   11.380
  188.500   78.916  319.127    0.327    0.435   11.686
  188.750   75.287  324.584    0.373    0.471   12.332
  189.000   69.248  328.059    0.410    0.475   13.134
  189.250   68.025  317.498    0.450    0.447   13.987
  189.500   67.403  305.941    0.374    0.430   14.898
  189.750   66.775  302.897    0.283    0.404   16.156
  190.000   66.447  302.851    0.306    0.395   17.524
  190.250   66.724  299.806    0.320    0.388   19.178
  190.500   66.102  296.261    0.295    0.382   20.990
  190.750   64.873  292.711    0.266    0.368   22.558
  191.000   63.647  289.160    0.240    0.350   24.244
  191.250   62.123  288.629    0.220    0.343   25.354
  191.500   59.696  296.600    0.214    0.351   26.513
  191.750   59.671  304.566    0.263    0.360   27.478
  192.000   59.944  303.519    0.283    0.337   29.260
  192.250   58.117  298.482    0.225    0.319   31.731
  192.500   54.488  293.925    0.179    0.301   34.418
  192.750   52.060  293.394    0.148    0.244   35.666
