~VERSION INFORMATION
 VERS.                 2.0:   CWLS LOG ASCII STANDARD -VERSION 2.0
 WRAP.                  NO:   ONE LINE PER DEPTH STEP
~WELL INFORMATION BLOCK
#MNEM.UNIT           DATA                    DESCRIPTION OF MNEMONIC
#---------    -------------------            -------------------------------
# Generated from Intellog Unique Number	CN_94_101/WELL/3629
WELL.         03-28-096-15W4                 : Well_name    - WELL
LOC .         AA/03-28-096-15W4/0            : Location     - LOCATION
UWI .         AA/03-28-096-15W400            : Uwi          - UNIQUE WELL ID
ENTR.         J                              : Entered      - ENTERED BY
SRVC.         SCHLUMBERGER                   : Scn          - SERVICE COMPANY
DATE.         08/05/92                       : Date         - LOG DATE
STRT.M        175                            : top_depth    - START DEPTH
STOP.M        370                            : bot_depth    - STOP DEPTH
STEP.M        0.25                           : increment    - STEP LENGTH
 NULL. -999.2500:NULL Value
~CURVE INFORMATION BLOCK
#MNEM UNIT       ERCB CURVE CODE    CURVE DESCRIPTION
#-----------   ------------------   ----------------------------------
DEPT.M        00 001 00 00         : DEPTH        - DEPTH
ILD .OHMM     00 120 00 00         : RESD         - DEEP RESISTIVITY (DIL)
GR  .API      00 310 00 00         : GR           - GAMMA RAY
NPHI.V/V      00 330 00 00         : PHIN         - NEUTRON POROSITY (SANDSTONE)
DPHI.V/V      00 890 00 00         : PHID         - DENSITY POROSITY (SANDSTONE)
~PARAMETER INFORMATION
#MNEM.UNIT           DATA             DESCRIPTION OF MNEMONIC
#---------         -----------     ------------------------------
GL  .M        625.64               : gl           - GROUND LEVEL ELEVATION
EREF.M        628.99               : kb           - ELEVATION OF DEPTH REFERENCE
DATM.M        628.99               : datum        - DATUM ELEVATION
TDD .M        381                  : tdd          - TOTAL DEPTH DRILLER
RUN .         ONE                  : Run          - RUN NUMBER
ENG .         JO                   : Engineer     - RECORDING ENGINEER
WIT .         TIM                  : Witness      - WITNESSED BY
MUD .         GEL                  : Mud_type     - MUD TYPE
MATR.         SANDSTONE            : Logunit      - NEUTRON MATRIX
TMAX.C        19                   : BHT          - MAXIMUM RECORDED TEMPERATURE
BHTD.M        381                  : BHTDEP       - MAXIMUM RECORDED TEMPERATURE
RMT .C        15                   : MDTP         - TEMPERATURE OF MUD
MUDD.KG/M     1090                 : MWT          - MUD DENSITY
NEUT.         1                    : NEUTRON      - NEUTRON TYPE
RESI.         0                    : RESIST       - RESISTIVITY TYPE
RM  .OHMM     0.366                : RM           - RESISTIVITY OF MUD
RMC .OHMM     0.366                : RMC          - RESISTIVITY OF MUD CAKE
RMF .OHMM     0.488                : RMF          - RESISTIVITY OF MUD FILTRATE
SUFT.C        4                    : SUFT         - SURFACE TEMPERATURE
~A  DEPTH     RESD       GR     PHIN     PHID
# ...
  262.000    6.054   74.713    0.423    0.276
  262.250    6.180   73.115    0.420    0.267
  262.500    6.429   71.917    0.411    0.273
  262.750    6.691   72.368    0.423    0.278
  263.000    6.964   72.419    0.440    0.282
  263.250    6.974   70.811    0.455    0.289
  263.500    6.982   67.984    0.445    0.290
  263.750    6.731   69.254    0.430    0.268
  264.000    5.900   72.174    0.437    0.283
  264.250    5.373   71.406    0.453    0.294
  264.500    5.484   67.749    0.472    0.303
  264.750    6.280   65.321    0.476    0.303
  265.000    6.654   63.324    0.476    0.295
  265.250    7.194   62.136    0.469    0.287
  265.500    7.628   61.357    0.449    0.297
  265.750    8.085   61.398    0.429    0.309
  266.000    8.744   62.248    0.413    0.310
  266.250    8.754   63.939    0.405    0.309
  266.500    8.605   66.438    0.403    0.311
  266.750    8.290   68.528    0.396    0.318
  267.000    7.406   70.618    0.401    0.323
  267.250    6.876   72.708    0.416    0.314
  267.500    6.502   73.169    0.447    0.301
  267.750    6.150   73.210    0.461    0.296
  268.000    5.817   72.442    0.465    0.292
  268.250    5.609   71.643    0.473    0.287
  268.500    5.727   70.465    0.488    0.282
  268.750    5.848   72.145    0.457    0.288
  269.000    5.965   72.995    0.467    0.302
  269.250    6.210   73.036    0.477    0.295
  269.500    6.217   71.029    0.468    0.279
  269.750    6.346   69.841    0.453    0.260
  270.000    6.480   72.350    0.452    0.240
  270.250    6.615   72.392    0.456    0.266
  270.500    6.881   71.203    0.460    0.283
  270.750    7.297   70.425    0.461    0.282
  271.000    7.308   70.056    0.453    0.283
  271.250    6.915   70.097    0.446    0.280
  271.500    6.790   72.607    0.442    0.280
  271.750    6.306   75.107    0.451    0.275
  272.000    6.075   76.777    0.462    0.275
  272.250    5.749   79.696    0.457    0.274
  272.500    5.542   80.956    0.451    0.270
  272.750    5.343   81.417    0.453    0.267
  273.000    5.252   81.448    0.460    0.266
  273.250    5.159   85.187    0.463    0.248
  273.500    5.165   84.409    0.458    0.252
  273.750    5.176   83.221    0.457    0.249
  274.000    5.180   81.623    0.469    0.238
  274.250    5.190   78.806    0.481    0.195
  274.500    5.296   80.476    0.453    0.151
  274.750    5.408   82.985    0.455    0.128
  275.000    5.520   85.075    0.470    0.182
  275.250    5.323   85.936    0.501    0.216
  275.500    5.128   85.157    0.523    0.231
  275.750    4.944   85.608    0.520    0.199
  276.000    4.858   86.879    0.524    0.191
  276.250    4.867   87.329    0.529    0.224
  276.500    4.968   86.961    0.506    0.201
  276.750    5.369   85.762    0.485    0.203
  277.000    6.146   84.574    0.458    0.227
  277.250    6.770   82.167    0.443    0.240
  277.500    7.457   79.750    0.425    0.239
  277.750    7.904   78.971    0.420    0.248
  278.000    9.047   77.793    0.425    0.247
  278.250    9.781   77.404    0.413    0.251
  278.500   10.172   75.817    0.396    0.264
  278.750   10.387   75.438    0.398    0.257
  279.000   10.399   77.118    0.405    0.243
  279.250   10.222   77.169    0.400    0.251
  279.500   10.040   77.620    0.402    0.248
  279.750    9.862   77.661    0.413    0.244
  280.000    9.335   77.702    0.415    0.258
  280.250    9.170   77.743    0.419    0.282
  280.500    9.007   77.774    0.423    0.274
  280.750    8.687   78.225    0.419    0.277
  281.000    8.700   78.266    0.414    0.283
  281.250    8.545   76.678    0.409    0.296
  281.500    8.561   75.080    0.404    0.287
  281.750    8.571   73.482    0.401    0.285
  282.000    8.920   71.464    0.400    0.297
  282.250    9.112   69.867    0.395    0.297
  282.500    9.119   72.387    0.383    0.278
  282.750    8.795   72.817    0.377    0.272
  283.000    8.804   72.868    0.383    0.271
  283.250    8.651   71.680    0.380    0.263
  283.500    8.664   70.082    0.372    0.246
  283.750    9.014   69.314    0.378    0.212
  284.000    9.378   69.335    0.383    0.227
  284.250    9.760   70.195    0.381    0.241
  284.500    9.774   72.295    0.374    0.262
  284.750    9.608   72.347    0.376    0.265
  285.000    9.256   71.978    0.381    0.265
  285.250    8.759   71.609    0.382    0.267
  285.500    8.603   71.241    0.378    0.269
  285.750    8.454   71.282    0.377    0.272
  286.000    8.153   72.562    0.374    0.263
  286.250    8.162   72.993    0.385    0.254
  286.500    8.175   73.874    0.392    0.260
  286.750    8.193   73.495    0.402    0.262
  287.000    8.360   72.706    0.409    0.259
  287.250    8.530   71.129    0.409    0.256
  287.500    8.717   71.989    0.399    0.262
  287.750    8.891   73.659    0.392    0.269
  288.000    8.736   76.148    0.384    0.268
  288.250    8.108   76.599    0.392    0.260
  288.500    7.814   75.821    0.401    0.260
  288.750    7.394   73.414    0.415    0.274
  289.000    7.265   72.225    0.422    0.281
  289.250    7.559   70.638    0.436    0.287
  289.500    7.864   69.839    0.427    0.275
  289.750    8.181   68.661    0.409    0.257
  290.000    8.042   69.102    0.388    0.210
  290.250    7.463   72.011    0.358    0.158
  290.500    6.791   74.941    0.394    0.191
  290.750    6.184   74.162    0.431    0.241
  291.000    5.220   73.384    0.457    0.291
  291.250    4.936   72.595    0.485    0.285
  291.500    4.762   71.827    0.458    0.282
  291.750    4.766   73.097    0.434    0.278
  292.000    4.685   73.948    0.425    0.281
  292.250    4.431   75.218    0.440    0.289
  292.500    4.111   76.488    0.501    0.297
  292.750    3.536   77.349    0.512    0.304
  293.000    3.041   75.772    0.533    0.291
  293.250    2.932   74.973    0.520    0.283
  293.500    3.168   73.795    0.495    0.281
  293.750    3.557   73.436    0.486    0.275
  294.000    4.392   73.457    0.467    0.266
  294.250    5.531   73.508    0.423    0.255
  294.500    6.207   73.539    0.404    0.246
  294.750    7.239   74.000    0.401    0.236
  295.000    7.823   76.899    0.395    0.237
  295.250    8.298   79.409    0.388    0.228
  295.500    8.154   77.391    0.392    0.195
  295.750    8.012   75.394    0.389    0.166
  296.000    8.024   78.303    0.337    0.143
  296.250    8.351   81.212    0.358    0.192
  296.500    8.682   83.302    0.393    0.224
  296.750    9.570   84.572    0.388    0.236
  297.000    9.581   85.023    0.381    0.242
  297.250    9.595   85.075    0.383    0.232
  297.500    9.432   84.286    0.391    0.226
  297.750    9.264   83.518    0.399    0.222
  298.000    9.107   82.729    0.401    0.228
  298.250    9.117   81.152    0.394    0.233
  298.500    9.130   80.363    0.384    0.239
  298.750    9.151   79.175    0.385    0.238
  299.000    9.161   78.407    0.390    0.233
  299.250    9.355   77.608    0.393    0.230
  299.500    9.365   78.069    0.388    0.230
  299.750    9.563   78.509    0.383    0.216
  300.000    9.570   79.391    0.382    0.227
  300.250    9.588   79.001    0.379    0.212
  300.500    9.606   77.813    0.378    0.221
  300.750    9.613   77.455    0.378    0.224
  301.000    9.631   78.315    0.383    0.219
  301.250    9.831   78.766    0.378    0.215
  301.500    9.842   78.397    0.375    0.214
  301.750    9.860   77.609    0.385    0.213
  302.000   10.065   77.650    0.385    0.210
  302.250   10.076   78.101    0.377    0.213
  302.500   10.091   78.152    0.378    0.212
  302.750   10.502   79.023    0.385    0.204
  303.000   11.140   79.883    0.387    0.197
  303.250   11.594   79.105    0.381    0.190
  303.500   11.826   77.917    0.342    0.178
  303.750   11.852   72.621    0.322    0.156
  304.000   11.637   71.433    0.330    0.123
  304.250   11.008   72.713    0.354    0.143
  304.500   10.220   73.984    0.363    0.184
  304.750    9.853   74.834    0.365    0.221
  305.000    9.682   75.695    0.358    0.242
  305.250    9.693   76.965    0.362    0.253
