~VERSION INFORMATION
 VERS.                 2.0:   CWLS LOG ASCII STANDARD -VERSION 2.0
 WRAP.                  NO:   ONE LINE PER DEPTH STEP
~WELL INFORMATION BLOCK
#MNEM.UNIT           DATA                    DESCRIPTION OF MNEMONIC
#---------    -------------------            -------------------------------
# Generated from Intellog Unique Number	CN_94_101/WELL/4991
WELL.         08-15-099-12W4                 : Well_name    - WELL
LOC .         AA/08-15-099-12W4/0            : Location     - LOCATION
UWI .         AA/08-15-099-12W400            : Uwi          - UNIQUE WELL ID
ENTR.         TOP                            : Entered      - ENTERED BY
SRVC.         SCHLUMBERGER                   : Scn          - SERVICE COMPANY
DATE.         08/11/92                       : Date         - LOG DATE
STRT.M        121.92                         : top_depth    - START DEPTH
STOP.M        338.42                         : bot_depth    - STOP DEPTH
STEP.M        0.25                           : increment    - STEP LENGTH
 NULL. -999.2500:NULL Value
~CURVE INFORMATION BLOCK
#MNEM UNIT       ERCB CURVE CODE    CURVE DESCRIPTION
#-----------   ------------------   ----------------------------------
DEPT.M        00 001 00 00         : DEPTH        - DEPTH
GR  .API      00 310 00 00         : GR           - GAMMA RAY
ILD .OHMM     00 120 00 00         : RESD         - DEEP RESISTIVITY (DIL)
NPHI.V/V      00 330 00 00         : PHIN         - NEUTRON POROSITY (SANDSTONE)
~PARAMETER INFORMATION
#MNEM.UNIT           DATA             DESCRIPTION OF MNEMONIC
#---------         -----------     ------------------------------
GL  .M        566.014              : gl           - GROUND LEVEL ELEVATION
EREF.M        569.062              : kb           - ELEVATION OF DEPTH REFERENCE
DATM.M        569.062              : datum        - DATUM ELEVATION
TDD .M        342.595              : tdd          - TOTAL DEPTH DRILLER
RUN .         ONE                  : Run          - RUN NUMBER
ENG .         JO                   : Engineer     - RECORDING ENGINEER
WIT .         TIM                  : Witness      - WITNESSED BY
MUD .         GEL                  : Mud_type     - MUD TYPE
MATR.         SANDSTONE            : Logunit      - NEUTRON MATRIX
TMAX.C        23.8889              : BHT          - MAXIMUM RECORDED TEMPERATURE
BHTD.M        342.595              : BHTDEP       - MAXIMUM RECORDED TEMPERATURE
RMT .C        10                   : MDTP         - TEMPERATURE OF MUD
MUDD.KG/M     9200                 : MWT          - MUD DENSITY
NEUT.         1                    : NEUTRON      - NEUTRON TYPE
RESI.         0                    : RESIST       - RESISTIVITY TYPE
RM  .OHMM     6.8                  : RM           - RESISTIVITY OF MUD
RMC .OHMM     6.8                  : RMC          - RESISTIVITY OF MUD CAKE
RMF .OHMM     6.8                  : RMF          - RESISTIVITY OF MUD FILTRATE
SUFT.C        4                    : SUFT         - SURFACE TEMPERATURE
~A  DEPTH       GR     RESD     PHIN
# ...
  176.170   74.421    4.199    0.463
  176.420   78.211    3.991    0.427
  176.670   86.206    3.729    0.415
  176.920   84.968    4.000    0.424
  177.170   81.213    4.215    0.454
  177.420   83.751    4.367    0.466
  177.670   93.419    4.370    0.483
  177.920   99.736    4.015    0.502
  178.170  104.376    3.626    0.514
  178.420  107.327    3.218    0.528
  178.670  109.445    2.906    0.534
  178.920  110.729    2.669    0.537
  179.170  111.593    2.410    0.540
  179.420  112.038    2.214    0.531
  179.670  112.048    1.965    0.523
  179.920  112.068    1.837    0.518
  180.170  112.089    1.746    0.515
  180.420  112.114    1.689    0.515
  180.670  112.149    1.663    0.518
  180.920  112.165    1.635    0.519
  181.170  112.180    1.637    0.521
  181.420  112.200    1.639    0.526
  181.670  111.801    1.640    0.528
  181.920  111.821    1.642    0.534
  182.170  111.842    1.643    0.536
  182.420  111.023    1.645    0.536
  182.670  108.532    1.647    0.537
  182.920  107.289    1.648    0.537
  183.170  106.894    1.650    0.534
  183.420  106.915    1.651    0.537
  183.670  106.096    1.653    0.544
  183.920  105.697    1.655    0.550
  184.170  105.712    1.656    0.557
  184.420  107.426    1.658    0.562
  184.670  108.275    1.631    0.564
  184.920  109.564    1.633    0.566
  185.170  109.993    1.634    0.563
  185.420  110.853    1.608    0.558
  185.670  112.141    1.610    0.549
  185.920  112.152    1.612    0.540
  186.170  113.021    1.585    0.539
  186.420  114.300    1.587    0.540
  186.670  115.159    1.589    0.541
  186.920  115.179    1.563    0.543
  187.170  114.780    1.538    0.546
  187.420  113.962    1.514    0.553
  187.670  112.304    1.464    0.566
  187.920  110.646    1.368    0.577
  188.170  109.413    1.323    0.585
  188.420  108.175    1.258    0.592
  188.670  106.518    1.237    0.596
  188.920  104.860    1.177    0.599
  189.170  104.042    1.178    0.600
  189.420  103.642    1.159    0.600
  189.670  104.077    1.160    0.600
  189.920  104.522    1.141    0.600
  190.170  105.801    1.142    0.597
  190.420  106.665    1.143    0.595
  190.670  107.524    1.145    0.594
  190.920  109.228    1.146    0.592
  191.170  110.077    1.147    0.590
  191.420  110.516    1.148    0.589
  191.670  110.127    1.149    0.585
  191.920  109.728    1.170    0.581
  192.170  109.334    1.192    0.579
  192.420  109.349    1.214    0.578
  192.670  109.365    1.214    0.579
  192.920  108.551    1.237    0.579
  193.170  108.152    1.238    0.579
  193.420  107.753    1.261    0.580
  193.670  105.251    1.262    0.581
  193.920  101.921    1.263    0.578
  194.170  100.688    1.265    0.574
  194.420  102.386    1.266    0.577
  194.670  103.245    1.289    0.581
  194.920  102.846    1.313    0.584
  195.170  101.189    1.314    0.586
  195.420   99.945    1.338    0.586
  195.670   98.288    1.385    0.581
  195.920   95.377    1.460    0.575
  196.170   92.456    1.539    0.568
  196.420   89.970    1.650    0.564
  196.670   89.146    1.739    0.560
  196.920   90.010    1.897    0.557
  197.170   90.870    1.964    0.548
  197.420   92.148    2.071    0.537
  197.670   93.432    2.109    0.523
  197.920   93.862    2.110    0.523
  198.170   91.375    2.113    0.526
  198.420   89.293    2.115    0.532
  198.670   86.802    2.118    0.531
  198.920   84.725    2.119    0.525
  199.170   83.062    2.157    0.512
  199.420   83.927    2.235    0.495
  199.670   82.689    2.356    0.483
  199.920   80.192    2.482    0.483
  200.170   78.115    2.709    0.482
  200.420   77.291    2.854    0.477
  200.670   76.478    2.956    0.465
  200.920   75.674    3.115    0.447
  201.170   75.680    3.457    0.427
  201.420   74.866    3.836    0.417
  201.670   76.984    4.113    0.410
  201.920   79.935    4.260    0.414
  202.170   84.150    4.414    0.424
  202.420   87.531    4.493    0.447
  202.670   91.327    4.346    0.461
  202.920   93.030    3.727    0.497
  203.170   93.470    3.197    0.523
  203.420   93.490    2.837    0.549
  203.670   94.354    2.562    0.573
  203.920   94.789    2.354    0.586
  204.170   95.653    2.163    0.591
  204.420   95.249    2.056    0.558
  204.670   93.592    1.954    0.552
  204.920   90.676    1.827    0.544
  205.170   87.340    1.829    0.527
  205.420   86.941    1.895    0.496
  205.670   95.356    1.963    0.462
  205.920  102.507    1.998    0.435
  206.170  109.664    2.071    0.461
  206.420  108.845    2.037    0.486
  206.670  108.026    1.903    0.533
  206.920  108.466    1.633    0.571
  207.170  109.330    1.500    0.570
  207.420  111.029    1.402    0.562
  207.670  111.468    1.356    0.550
  207.920  109.806    1.357    0.539
  208.170  106.051    1.358    0.535
  208.420  103.554    1.383    0.533
  208.670  102.321    1.408    0.534
  208.920  101.093    1.459    0.536
  209.170   99.850    1.512    0.538
  209.420   98.612    1.593    0.540
  209.670   97.374    1.650    0.540
  209.920   96.141    1.739    0.540
  210.170   95.317    1.802    0.536
  210.420   94.084    1.834    0.527
  210.670   93.256    1.901    0.512
  210.920   90.764    1.935    0.499
  211.170   88.268    1.971    0.481
  211.420   84.508    2.077    0.464
  211.670   79.914    2.152    0.408
  211.920   85.392    2.268    0.431
  212.170   89.607    2.309    0.440
  212.420   89.633    2.392    0.462
  212.670   88.814    2.314    0.482
  212.920   89.673    2.199    0.509
  213.170   90.533    2.056    0.544
  213.420   92.231    1.954    0.545
  213.670   92.676    1.827    0.546
  213.920   91.438    1.797    0.546
  214.170   91.043    1.800    0.546
  214.420   91.059    1.801    0.545
  214.670   91.084    1.866    0.543
  214.920   90.685    1.900    0.541
  215.170   90.286    1.935    0.537
  215.420   90.311    1.936    0.531
  215.670   90.741    1.972    0.534
  215.920   92.439    1.973    0.543
  216.170   93.303    1.942    0.551
  216.420   94.168    1.944    0.557
  216.670   93.774    1.912    0.566
  216.920   93.364    1.882    0.570
  217.170   92.551    1.883    0.573
  217.420   92.152    1.853    0.577
  217.670   91.752    1.855    0.583
  217.920   90.519    1.857    0.587
  218.170   89.691    1.858    0.592
  218.420   87.614    1.830    0.593
  218.670   85.956    1.831    0.563
  218.920   88.918    1.802    0.509
  219.170   93.552    1.772    0.487
  219.420  107.415    1.744    0.485
  219.670  114.152    1.659    0.492
  219.920  115.011    1.604    0.516
  220.170  112.939    1.551    0.543
  220.420  110.438    1.449    0.549
  220.670  109.205    1.402    0.531
  220.920  112.995    1.380    0.514
  221.170  115.118    1.357    0.520
  221.420  114.724    1.382    0.533
  221.670  113.066    1.384    0.549
  221.920  111.823    1.385    0.551
  222.170  108.493    1.386    0.544
  222.420  105.577    1.412    0.533
  222.670  103.080    1.413    0.526
  222.920  101.418    1.439    0.512
  223.170  103.955    1.440    0.503
  223.420  107.755    1.466    0.495
  223.670  107.361    1.519    0.504
  223.920  104.860    1.574    0.530
  224.170  101.524    1.630    0.531
  224.420   97.350    1.689    0.505
  224.670   95.692    1.811    0.483
  224.920   95.293    2.010    0.463
  225.170   94.480    2.192    0.468
  225.420   93.247    2.432    0.473
  225.670   92.837    2.698    0.472
  225.920   92.024    2.943    0.468
  226.170   92.049    3.100    0.466
  226.420   91.645    3.383    0.468
  226.670   90.407    3.329    0.475
  226.920   89.588    3.276    0.487
  227.170   90.867    3.278    0.506
  227.420   92.985    3.225    0.516
  227.670   95.107    3.229    0.525
  227.920   94.289    3.231    0.532
  228.170   93.061    3.235    0.545
  228.420   91.813    3.183    0.557
  228.670   89.736    3.132    0.555
  228.920   88.078    3.082    0.506
  229.170   86.421    3.032    0.476
  229.420   86.860    2.983    0.474
  229.670   89.397    2.935    0.477
  229.920   94.037    2.887    0.478
  230.170   93.638    2.795    0.479
