~VERSION INFORMATION
 VERS.                 2.0:   CWLS LOG ASCII STANDARD -VERSION 2.0
 WRAP.                  NO:   ONE LINE PER DEPTH STEP
~WELL INFORMATION BLOCK
#MNEM.UNIT           DATA                    DESCRIPTION OF MNEMONIC
#---------    -------------------            -------------------------------
# Generated from Intellog Unique Number	CW_82_90/WELL/3056
WELL.         06-34-085-19W4                 : Well_name    - WELL
LOC .         AA/06-34-085-19W4/0            : Location     - LOCATION
UWI .         AA/06-34-085-19W4/0            : Uwi          - UNIQUE WELL ID
ENTR.         JJ                             : Entered      - ENTERED BY
SRVC.         SCHLUMBERGER                   : Scn          - SERVICE COMPANY
DATE.         22 JAN 81                      : Date         - LOG DATE
STRT.M        200                            : top_depth    - START DEPTH
STOP.M        322                            : bot_depth    - STOP DEPTH
STEP.M        0.25                           : increment    - STEP LENGTH
 NULL. -999.2500:NULL Value
~CURVE INFORMATION BLOCK
#MNEM UNIT       ERCB CURVE CODE    CURVE DESCRIPTION
#-----------   ------------------   ----------------------------------
DEPT.M        00 001 00 00         : DEPTH        - DEPTH
ILD .OHMM     00 120 00 00         : RESD         - DEEP RESISTIVITY (DIL)
CALI.MM       00 280 01 00         : CAL          - CALIPER
GR  .API      00 310 00 00         : GR           - GAMMA RAY
NPHI.V/V      00 330 00 00         : PHIN         - NEUTRON POROSITY (SANDSTONE)
DPHI.V/V      00 890 00 00         : PHID         - DENSITY POROSITY (SANDSTONE)
~PARAMETER INFORMATION
#MNEM.UNIT           DATA             DESCRIPTION OF MNEMONIC
#---------         -----------     ------------------------------
GL  .M        588.9                : gl           - GROUND LEVEL ELEVATION
EREF.M        592                  : kb           - ELEVATION OF DEPTH REFERENCE
DATM.M        592                  : datum        - DATUM ELEVATION
TDD .M        322                  : tdd          - TOTAL DEPTH DRILLER
RUN .         ONE                  : Run          - RUN NUMBER
ENG .         BRANDSTROM           : Engineer     - RECORDING ENGINEER
WIT .         SHALLLCROSS          : Witness      - WITNESSED BY
BASE.         EDM                  : Branch       - HOME BASE OF LOGGING UNIT
MUD .         GEL CHEM             : Mud_type     - MUD TYPE
MATR.         SANDSTONE            : Logunit      - NEUTRON MATRIX
TMAX.C        26                   : BHT          - MAXIMUM RECORDED TEMPERATURE
BHTD.M        323                  : BHTDEP       - MAXIMUM RECORDED TEMPERATURE
RMT .C        13                   : MDTP         - TEMPERATURE OF MUD
MUDD.KG/M     1100                 : MWT          - MUD DENSITY
NEUT.         1                    : NEUTRON      - NEUTRON TYPE
RESI.         0                    : RESIST       - RESISTIVITY TYPE
RM  .OHMM     2.45                 : RM           - RESISTIVITY OF MUD
RMC .OHMM     0                    : RMC          - RESISTIVITY OF MUD CAKE
RMF .OHMM     2.03                 : RMF          - RESISTIVITY OF MUD FILTRATE
SUFT.C        5                    : SUFT         - SURFACE TEMPERATURE
~A  DEPTH     RESD      CAL       GR     PHIN     PHID
# ...
  236.500   20.560  226.669   67.636    0.452    0.264
  236.750   18.436  227.455   67.552    0.459    0.253
  237.000   17.164  227.923   68.571    0.477    0.240
  237.250   16.162  228.073   73.374    0.465    0.261
  237.500   15.047  228.116   73.776    0.446    0.278
  237.750   14.628  228.174   72.443    0.440    0.269
  238.000   14.274  228.840   76.133    0.436    0.255
  238.250   14.220  231.479   80.937    0.430    0.232
  238.500   14.220  233.902   82.277    0.434    0.199
  238.750   14.353  236.030   82.551    0.432    0.182
  239.000   14.353  237.208   82.704    0.424    0.184
  239.250   13.796  238.712   83.298    0.443    0.226
  239.500   12.991  239.385   84.876    0.454    0.218
  239.750   11.914  239.330   88.318    0.458    0.217
  240.000   10.683  238.241   86.615    0.455    0.226
  240.250    9.853  238.512   86.213    0.446    0.230
  240.500    9.191  238.769   86.430    0.436    0.227
  240.750    8.952  238.915   86.521    0.436    0.212
  241.000    8.918  238.249   86.178    0.453    0.188
  241.250    8.985  237.360   85.407    0.448    0.195
  241.500    9.103  235.763   84.695    0.444    0.213
  241.750    9.120  234.362   85.030    0.441    0.213
  242.000    9.206  232.252   84.815    0.438    0.207
  242.250    9.257  229.613   81.434    0.429    0.201
  242.500    9.274  226.770   74.336    0.411    0.217
  242.750    9.326  224.648   66.857    0.414    0.247
  243.000    9.485  223.353   61.493    0.426    0.241
  243.250    9.719  222.890   59.601    0.436    0.233
  243.500   10.110  224.289   61.864    0.437    0.261
  243.750   10.537  225.162   67.230    0.430    0.262
  244.000   11.127  225.832   66.580    0.413    0.257
  244.250   11.617  225.987   62.640    0.408    0.237
  244.500   11.882  224.592   61.433    0.392    0.186
  244.750   11.837  222.480   64.499    0.368    0.198
  245.000   11.836  221.389   68.503    0.399    0.244
  245.250   11.970  221.653   70.208    0.428    0.262
  245.500   12.977  221.912   70.484    0.440    0.263
  245.750   14.472  221.652   71.139    0.439    0.250
  246.000   15.630  221.815   73.029    0.438    0.222
  246.250   15.025  221.867   74.548    0.448    0.218
  246.500   13.447  222.136   75.269    0.440    0.193
  246.750   12.103  222.264   75.606    0.452    0.189
  247.000   11.656  222.530   75.822    0.463    0.253
  247.250   11.120  222.272   75.972    0.455    0.252
  247.500   10.471  222.325   75.568    0.448    0.263
  247.750    9.785  222.167   75.474    0.434    0.256
  248.000    9.459  222.738   77.180    0.424    0.232
  248.250    9.877  223.399   77.711    0.439    0.220
  248.500   10.430  223.971   77.556    0.461    0.237
  248.750   10.728  224.126   81.428    0.462    0.223
  249.000   10.951  223.767   81.401    0.471    0.227
  249.250   10.807  222.264   79.197    0.494    0.205
  249.500   10.467  222.011   76.311    0.495    0.231
  249.750    9.745  223.405   77.334    0.483    0.203
  250.000    8.479  225.424   74.826    0.465    0.187
  250.250    8.151  225.776   72.435    0.443    0.158
  250.500    7.835  225.006   73.272    0.383    0.102
  250.750    7.631  224.230   77.209    0.355    0.206
  251.000    7.834  223.345   81.398    0.421    0.225
  251.250    8.835  222.275   79.441    0.460    0.254
  251.500    9.597  221.385   75.257    0.476    0.260
  251.750   11.217  221.027   78.452    0.464    0.266
  252.000   11.668  220.979   81.890    0.450    0.268
  252.250   10.641  221.122   86.458    0.442    0.274
  252.500    9.434  221.905   89.960    0.449    0.274
  252.750    8.950  223.189   92.776    0.471    0.263
  253.000    8.950  226.450   93.674    0.499    0.242
  253.250    9.327  229.808   89.922    0.473    0.218
  253.500    9.504  232.441   86.978    0.460    0.220
  253.750    8.899  233.216   86.638    0.454    0.211
  254.000    7.904  230.791   86.670    0.448    0.215
  254.250    7.061  230.532   85.765    0.437    0.225
  254.500    6.852  231.410   86.046    0.425    0.226
  254.750    7.060  232.805   86.697    0.451    0.220
  255.000    7.442  233.275   85.177    0.497    0.227
  255.250    7.947  233.630   83.534    0.494    0.220
  255.500    8.472  233.675   83.501    0.481    0.206
  255.750    8.746  233.006   85.889    0.485    0.220
  256.000    8.812  233.986   89.273    0.479    0.209
  256.250    8.439  233.313   90.849    0.460    0.199
  256.500    7.468  230.471   84.992    0.467    0.179
  256.750    7.233  227.734   86.201    0.468    0.211
  257.000    7.342  225.923   91.319    0.470    0.229
  257.250    7.439  224.644   97.484    0.457    0.218
  257.500    7.439  224.380   94.418    0.442    0.202
  257.750    7.914  224.013   89.800    0.419    0.227
  258.000    7.989  223.960   86.601    0.403    0.215
  258.250    8.140  224.009   85.146    0.400    0.221
  258.500    8.467  224.169   89.824    0.410    0.214
  258.750    8.775  224.220   91.839    0.411    0.207
  259.000    9.093  223.551   86.537    0.403    0.218
  259.250    9.371  223.399   79.498    0.389    0.244
  259.500    9.840  223.440   76.684    0.380    0.259
  259.750   10.140  223.391   76.959    0.390    0.268
  260.000   10.449  223.755   77.986    0.398    0.276
  260.250   10.787  223.809   79.444    0.408    0.281
  260.500   11.242  224.172   80.647    0.418    0.277
  260.750   12.006  224.425   82.170    0.427    0.236
  261.000   12.895  225.196   83.689    0.433    0.198
  261.250   14.111  226.079   85.265    0.440    0.181
  261.500   14.298  225.814   89.269    0.447    0.223
  261.750   14.651  224.843   95.006    0.454    0.243
  262.000   13.640  224.170   96.955    0.445    0.249
  262.250   12.965  223.914   82.600    0.430    0.244
  262.500   12.185  224.681   74.755    0.387    0.235
  262.750   11.625  226.385   64.053    0.287    0.151
  263.000   11.280  228.818   50.566    0.269    0.033
  263.250   11.090  229.910   59.155    0.243    0.026
  263.500   11.364  230.670   67.003    0.252    0.031
  263.750   11.755  231.135   67.838    0.245    0.035
  264.000   13.282  230.161   65.263    0.263    0.045
  264.250   16.149  230.206   73.731    0.326    0.066
  264.500   20.540  231.499   79.463    0.386    0.112
  264.750   28.379  230.003   85.201    0.441    0.207
  265.000   39.803  229.228   80.029    0.426    0.191
  265.250   46.086  228.869   76.775    0.407    0.172
  265.500   38.912  228.707   74.751    0.382    0.147
  265.750   31.881  228.859   79.928    0.357    0.107
  266.000   25.490  228.809   81.509    0.379    0.123
  266.250   20.039  228.455   81.295    0.394    0.136
  266.500   16.480  228.305   83.683    0.390    0.136
  266.750   17.699  228.347   84.893    0.390    0.141
  267.000   18.973  228.303   83.931    0.396    0.197
  267.250   20.224  228.237   82.040    0.404    0.207
  267.500   20.841  227.994   80.829    0.418    0.184
  267.750   20.840  227.830   83.030    0.432    0.175
  268.000   20.033  227.573   84.614    0.443    0.190
  268.250   18.581  227.313   85.011    0.430    0.193
  268.500   17.430  227.159   84.423    0.416    0.184
  268.750   16.227  227.314   86.626    0.399    0.166
  269.000   15.628  227.368   90.127    0.403    0.174
  269.250   15.193  227.928   94.193    0.432    0.187
  269.500   14.882  228.294   96.020    0.449    0.198
  269.750   14.965  228.865   90.343    0.442    0.190
  270.000   15.364  229.015   88.206    0.430    0.162
  270.250   16.407  228.862   87.556    0.430    0.145
  270.500   16.908  228.498   88.948    0.447    0.187
  270.750   16.561  228.551   87.871    0.455    0.220
  271.000   16.040  229.836   86.655    0.436    0.191
  271.250   15.360  230.823   87.433    0.416    0.209
  271.500   14.877  230.882   89.075    0.410    0.208
  271.750   14.626  231.445   87.924    0.417    0.223
  272.000   14.516  232.418   89.322    0.450    0.219
  272.250   14.570  234.545   89.974    0.479    0.206
  272.500   14.597  234.384   89.818    0.455    0.197
  272.750   14.058  233.196   88.048    0.425    0.189
