~VERSION INFORMATION
 VERS.                 2.0:   CWLS LOG ASCII STANDARD -VERSION 2.0
 WRAP.                  NO:   ONE LINE PER DEPTH STEP
~WELL INFORMATION BLOCK
#MNEM.UNIT           DATA                    DESCRIPTION OF MNEMONIC
#---------    -------------------            -------------------------------
# Generated from Intellog Unique Number	CC_88_90/WELL/1076
WELL.         09-08-090-15W4                 : Well_name    - WELL
LOC .         AA/09-08-090-15W4/0            : Location     - LOCATION
UWI .         AA/09-08-090-15W400            : Uwi          - UNIQUE WELL ID
ENTR.         DW                             : Entered      - ENTERED BY
SRVC.         SCHLUMBERGER                   : Scn          - SERVICE COMPANY
STRT.M        75                             : top_depth    - START DEPTH
STOP.M        194.75                         : bot_depth    - STOP DEPTH
STEP.M        0.25                           : increment    - STEP LENGTH
 NULL. -999.2500:NULL Value
~CURVE INFORMATION BLOCK
#MNEM UNIT       ERCB CURVE CODE    CURVE DESCRIPTION
#-----------   ------------------   ----------------------------------
DEPT.M        00 001 00 00         : DEPTH        - DEPTH
GR  .API      00 310 00 00         : GR           - GAMMA RAY
DPHI.V/V      00 890 00 00         : PHID         - DENSITY POROSITY (SANDSTONE)
NPHI.V/V      00 330 00 00         : PHIN         - NEUTRON POROSITY (SANDSTONE)
ILD .OHMM     00 120 00 00         : RESD         - DEEP RESISTIVITY (DIL)
~PARAMETER INFORMATION
#MNEM.UNIT           DATA             DESCRIPTION OF MNEMONIC
#---------         -----------     ------------------------------
GL  .M        467.77               : gl           - GROUND LEVEL ELEVATION
EREF.M        470.97               : kb           - ELEVATION OF DEPTH REFERENCE
DATM.M        470.97               : datum        - DATUM ELEVATION
TDD .M        205                  : tdd          - TOTAL DEPTH DRILLER
RUN .         ONE                  : Run          - RUN NUMBER
ENG .         BILL                 : Engineer     - RECORDING ENGINEER
WIT .         JIM                  : Witness      - WITNESSED BY
MUD .         GEL                  : Mud_type     - MUD TYPE
MATR.         SANDSTONE            : Logunit      - NEUTRON MATRIX
TMAX.C        25                   : BHT          - MAXIMUM RECORDED TEMPERATURE
BHTD.M        205                  : BHTDEP       - MAXIMUM RECORDED TEMPERATURE
MATR.         1                    : LOGUNIT      - NEUTRON MATRIX
RMT .C        25                   : MDTP         - TEMPERATURE OF MUD
NEUT.         1                    : NEUTRON      - NEUTRON TYPE
RESI.         0                    : RESIST       - RESISTIVITY TYPE
RMC .OHMM     0.25                 : RMC          - RESISTIVITY OF MUD CAKE
RMF .OHMM     0.25                 : RMF          - RESISTIVITY OF MUD FILTRATE
SUFT.C        15                   : SUFT         - SURFACE TEMPERATURE
~A  DEPTH       GR     PHID     PHIN     RESD
# ...
  118.500   92.325    0.210    0.505   11.431
  118.750   91.632    0.222    0.475   12.866
  119.000   98.020    0.236    0.460   13.254
  119.250  103.165    0.244    0.467   12.476
  119.500  102.875    0.240    0.492   12.228
  119.750  102.266    0.217    0.507   13.283
  120.000  100.280    0.202    0.488   14.899
  120.250   88.008    0.200    0.454   17.838
  120.500   85.447    0.205    0.412   19.492
  120.750   93.097    0.215    0.407   20.130
  121.000   98.100    0.236    0.421   19.874
  121.250   96.832    0.260    0.422   18.324
  121.500   94.708    0.270    0.423   16.698
  121.750   90.562    0.271    0.427   16.380
  122.000   87.579    0.296    0.432   16.552
  122.250   85.174    0.326    0.456   18.617
  122.500   81.080    0.369    0.484   23.735
  122.750   75.894    0.332    0.458   29.167
  123.000   72.540    0.171    0.386   31.152
  123.250   72.220    0.208    0.384   31.229
  123.500   74.243    0.262    0.417   30.644
  123.750   72.739    0.287    0.454   28.413
  124.000   70.120    0.308    0.476   26.098
  124.250   71.958    0.303    0.482   24.389
  124.500   76.786    0.281    0.482   21.383
  124.750   81.998    0.275    0.460   19.071
  125.000   86.390    0.243    0.445   17.913
  125.250   92.010    0.213    0.457   19.101
  125.500   91.675    0.221    0.466   22.505
  125.750   83.126    0.258    0.456   28.222
  126.000   77.396    0.246    0.419   34.920
  126.250   76.066    0.121    0.309   35.852
  126.500   77.634    0.108    0.272   34.455
  126.750   85.173    0.162    0.322   32.063
  127.000   91.861    0.197    0.388   28.599
  127.250   90.997    0.228    0.437   25.306
  127.500   88.415    0.255    0.460   23.966
  127.750   88.612    0.243    0.439   25.058
  128.000   90.807    0.210    0.399   26.347
  128.250   88.985    0.193    0.375   27.589
  128.500   85.695    0.187    0.372   26.241
  128.750   86.262    0.202    0.383   23.211
  129.000   89.582    0.253    0.404   21.837
  129.250   94.831    0.245    0.420   16.494
  129.500   97.835    0.234    0.430   13.970
  129.750   98.058    0.227    0.438   13.763
  130.000   95.597    0.214    0.455   13.557
  130.250   90.157    0.202    0.461   14.113
  130.500   85.874    0.182    0.427   15.543
  130.750   90.178    0.150    0.413   15.847
  131.000   95.140    0.171    0.407   15.905
  131.250   99.924    0.176    0.411   15.508
  131.500  103.204    0.175    0.431   14.607
  131.750   99.852    0.209    0.442   13.728
  132.000   92.611    0.218    0.421   13.129
  132.250   94.567    0.197    0.407   13.228
  132.500   99.342    0.220    0.402   14.290
  132.750   98.705    0.229    0.419   14.978
  133.000   96.535    0.201    0.428   14.946
  133.250   97.820    0.189    0.411   14.601
  133.500   99.317    0.207    0.409   13.903
  133.750   99.267    0.208    0.431   13.291
  134.000   94.624    0.197    0.448   12.432
  134.250   90.870    0.183    0.446   12.154
  134.500   91.275    0.158    0.432   12.646
  134.750   97.572    0.160    0.428   12.467
  135.000  107.866    0.220    0.448   10.889
  135.250  108.303    0.243    0.473    9.985
  135.500  106.751    0.244    0.474    9.814
  135.750  101.587    0.244    0.498   10.210
  136.000   97.287    0.240    0.523   11.073
  136.250   98.169    0.227    0.494   12.564
  136.500   97.410    0.206    0.440   14.450
  136.750   95.553    0.181    0.419   15.056
  137.000   97.573    0.165    0.410   14.517
  137.250  101.511    0.183    0.416   13.770
  137.500  103.032    0.215    0.436   13.205
  137.750  101.130    0.222    0.463   13.282
  138.000   99.206    0.197    0.474   14.193
  138.250  101.570    0.171    0.415   14.594
  138.500  104.361    0.220    0.392   15.673
  138.750  104.163    0.246    0.409   15.482
  139.000  101.961    0.239    0.424   14.462
  139.250   99.134    0.237    0.429   14.132
  139.500   97.320    0.217    0.434   13.681
  139.750  101.364    0.223    0.446   13.736
  140.000  103.334    0.200    0.468   15.412
  140.250   98.754    0.175    0.445   17.040
  140.500   94.741    0.153    0.397   17.626
  140.750   97.648    0.145    0.379   16.835
  141.000  102.803    0.186    0.403   14.495
  141.250  104.149    0.220    0.459   12.885
  141.500  103.752    0.239    0.454   12.227
  141.750  108.040    0.228    0.452   11.545
  142.000  113.615    0.205    0.469   11.538
  142.250  108.356    0.194    0.469   12.329
  142.500   96.032    0.179    0.464   12.463
  142.750  102.798    0.162    0.446   12.546
  143.000  106.698    0.210    0.435   11.600
  143.250  104.214    0.243    0.453    9.806
  143.500  105.261    0.243    0.492    8.103
  143.750  105.438    0.247    0.522    7.070
  144.000   97.230    0.221    0.553    6.945
  144.250   98.421    0.160    0.607    7.867
  144.500  105.194    0.180    0.486    8.699
  144.750  109.904    0.236    0.437    8.991
  145.000  110.564    0.255    0.493    8.690
  145.250  107.193    0.235    0.503    8.162
  145.500  102.100    0.184    0.503    7.935
  145.750  103.994    0.106    0.477    7.681
  146.000  110.455    0.146    0.433    7.598
  146.250  113.622    0.206    0.444    7.773
  146.500  112.506    0.225    0.483    8.030
  146.750  112.079    0.231    0.495    8.064
  147.000  114.945    0.217    0.497    7.792
  147.250  118.758    0.221    0.487    7.639
  147.500  119.651    0.218    0.477    7.810
  147.750  118.245    0.208    0.491    8.153
  148.000  114.003    0.199    0.514    8.601
  148.250  109.599    0.191    0.509    9.190
  148.500  108.786    0.168    0.475    9.961
  148.750  104.239    0.108    0.426   11.099
  149.000  101.410    0.049    0.372   12.486
  149.250  107.366    0.130    0.357   13.503
  149.500  114.043    0.217    0.401   13.736
  149.750  112.174    0.191    0.452   13.406
  150.000  106.910    0.178    0.448   12.749
  150.250  105.705    0.149    0.407   11.560
  150.500  110.435    0.187    0.407   11.094
  150.750  113.702    0.224    0.432   10.543
  151.000  114.794    0.236    0.437   10.127
  151.250  111.290    0.245    0.413   10.422
  151.500  101.341    0.230    0.387   10.759
  151.750  104.300    0.211    0.381   11.315
  152.000  109.111    0.208    0.387   11.431
  152.250  109.931    0.195    0.410   11.349
  152.500  105.684    0.186    0.425   10.924
  152.750  100.947    0.189    0.421   10.294
  153.000  103.111    0.172    0.432   10.176
  153.250  104.949    0.150    0.453    9.986
  153.500   98.407    0.109    0.483   10.277
  153.750   92.622    0.043    0.456   11.104
  154.000   96.918    0.087    0.396   11.820
  154.250  105.546    0.220    0.398   10.363
  154.500  102.529    0.237    0.465    6.606
  154.750   83.324    0.256    0.501    5.948
  155.000   71.706    0.274    0.491    6.025
  155.250   65.055    0.280    0.455    6.556
  155.500   58.270    0.285    0.427    7.116
  155.750   55.710    0.290    0.408   10.056
  156.000   58.773    0.284    0.377   17.590
  156.250   64.090    0.270    0.366   21.822
  156.500   66.034    0.258    0.369   25.704
  156.750   60.861    0.276    0.386   29.068
  157.000   47.993    0.312    0.406   35.829
  157.250   37.658    0.329    0.409   44.938
  157.500   40.295    0.320    0.398   53.628
  157.750   43.157    0.303    0.397   76.500
  158.000   43.261    0.313    0.405   96.096
  158.250   41.762    0.328    0.413  110.118
  158.500   40.629    0.328    0.414  119.135
  158.750   40.123    0.327    0.416  124.591
  159.000   39.050    0.336    0.423  137.993
  159.250   38.509    0.327    0.434  162.878
  159.500   38.189    0.330    0.440  173.078
  159.750   39.451    0.330    0.440  173.183
  160.000   41.717    0.331    0.440  173.275
  160.250   43.730    0.339    0.436  167.974
  160.500   45.155    0.337    0.431  143.652
  160.750   44.188    0.330    0.455   96.660
  161.000   43.513    0.315    0.467   64.969
  161.250   45.320    0.330    0.443   54.857
  161.500   47.742    0.338    0.440   48.536
  161.750   48.081    0.311    0.471   40.115
