~VERSION INFORMATION
 VERS.                 2.0:   CWLS LOG ASCII STANDARD -VERSION 2.0
 WRAP.                  NO:   ONE LINE PER DEPTH STEP
~WELL INFORMATION BLOCK
#MNEM.UNIT           DATA                    DESCRIPTION OF MNEMONIC
#---------    -------------------            -------------------------------
# Generated from Intellog Unique Number	CN_94_101/WELL/3250
WELL.         06-31-096-10W4                 : Well_name    - WELL
LOC .         AA/06-31-096-10W4/0            : Location     - LOCATION
UWI .         AA/06-31-096-10W400            : Uwi          - UNIQUE WELL ID
ENTR.         JOETTE                         : Entered      - ENTERED BY
SRVC.         SCHLUMBERGER                   : Scn          - SERVICE COMPANY
DATE.         07/20/92                       : Date         - LOG DATE
STRT.M        10                             : top_depth    - START DEPTH
STOP.M        130                            : bot_depth    - STOP DEPTH
STEP.M        0.25                           : increment    - STEP LENGTH
 NULL. -999.2500:NULL Value
~CURVE INFORMATION BLOCK
#MNEM UNIT       ERCB CURVE CODE    CURVE DESCRIPTION
#-----------   ------------------   ----------------------------------
DEPT.M        00 001 00 00         : DEPTH        - DEPTH
GR  .API      00 310 00 00         : GR           - GAMMA RAY
ILD .OHMM     00 120 00 00         : RESD         - DEEP RESISTIVITY (DIL)
NPHI.V/V      00 330 00 00         : PHIN         - NEUTRON POROSITY (SANDSTONE)
DPHI.V/V      00 890 00 00         : PHID         - DENSITY POROSITY (SANDSTONE)
~PARAMETER INFORMATION
#MNEM.UNIT           DATA             DESCRIPTION OF MNEMONIC
#---------         -----------     ------------------------------
GL  .M        0                    : gl           - GROUND LEVEL ELEVATION
EREF.M        0                    : kb           - ELEVATION OF DEPTH REFERENCE
DATM.M        0                    : datum        - DATUM ELEVATION
TDD .M        134                  : tdd          - TOTAL DEPTH DRILLER
RUN .         ONE                  : Run          - RUN NUMBER
ENG .         JO                   : Engineer     - RECORDING ENGINEER
WIT .         TIM                  : Witness      - WITNESSED BY
MUD .         GEL                  : Mud_type     - MUD TYPE
MATR.         SANDSTONE            : Logunit      - NEUTRON MATRIX
TMAX.C        0                    : BHT          - MAXIMUM RECORDED TEMPERATURE
BHTD.M        134                  : BHTDEP       - MAXIMUM RECORDED TEMPERATURE
RMT .C        0                    : MDTP         - TEMPERATURE OF MUD
MUDD.KG/M     1000                 : MWT          - MUD DENSITY
NEUT.         1                    : NEUTRON      - NEUTRON TYPE
RESI.         0                    : RESIST       - RESISTIVITY TYPE
RM  .OHMM     5.2                  : RM           - RESISTIVITY OF MUD
RMC .OHMM     5.2                  : RMC          - RESISTIVITY OF MUD CAKE
RMF .OHMM     5.2                  : RMF          - RESISTIVITY OF MUD FILTRATE
SUFT.C        4                    : SUFT         - SURFACE TEMPERATURE
~A  DEPTH       GR     RESD     PHIN     PHID
   10.000   22.399  305.312    0.491    0.503
   10.250   24.881  294.375    0.497    0.518
   10.500   24.946  432.490    0.504    0.551
   10.750   22.593  248.707    0.554    0.534
   11.000   24.471  258.862    0.554    0.505
   11.250   29.372  426.557    0.459    0.453
   11.500   31.855  615.089    0.449    0.379
   11.750   32.524  498.839    0.467    0.392
   12.000   45.904  286.988    0.460    0.406
   12.250   36.280  335.026    0.416    0.396
   12.500   28.503  316.906    0.398    0.368
   12.750   38.860  317.468    0.425    0.341
   13.000   32.847  248.024    0.481    0.356
   13.250   32.308  209.176    0.508    0.396
   13.500   29.954  166.503    0.487    0.421
   13.750   29.415  163.638    0.459    0.347
   14.000   37.354  206.307    0.420    0.319
   14.250   31.979  231.801    0.452    0.289
   14.500   35.082  223.498    0.478    0.357
   14.750   30.311  158.757    0.481    0.359
   15.000   37.009  178.297    0.495    0.361
   15.250   38.299  189.244    0.488    0.518
   15.500   35.325  186.070    0.485    0.579
   15.750   28.136  179.246    0.515    0.624
   16.000   22.760  169.552    0.564    0.588
   16.250   23.445  135.021    0.603    0.534
   16.500   25.928  132.698    0.551    0.495
   16.750   28.411  125.521    0.532    0.481
   17.000   24.832   96.165    0.561    0.530
   17.250   26.727  106.048    0.532    0.489
   17.500   19.521  114.682    0.527    0.477
   17.750   28.654  106.425    0.531    0.493
   18.000   48.078  102.612    0.405    0.226
   18.250   63.892  102.840    0.385    0.183
   18.500   56.671  105.011    0.333    0.168
   18.750   54.922   99.332    0.318    0.166
   19.000   54.987   87.039    0.356    0.179
   19.250   53.843   82.295    0.369    0.225
   19.500   44.235   82.478    0.411    0.328
   19.750   41.278   78.017    0.459    0.385
   20.000   34.693   78.155    0.412    0.284
   20.250   41.407   84.481    0.356    0.246
   20.500   49.935   91.399    0.317    0.212
   20.750   51.225   84.818    0.359    0.191
   21.000   48.267   78.711    0.360    0.172
   21.250   55.602   73.043    0.366    0.153
   21.500   52.644   69.062    0.378    0.140
   21.750   51.484   62.903    0.360    0.131
   22.000   59.407   60.623    0.349    0.167
   22.250   57.054   56.258    0.360    0.165
   22.500   66.202   51.241    0.391    0.140
   22.750   49.946   51.332    0.378    0.134
   23.000   47.576   51.422    0.363    0.182
   23.250   42.805   45.039    0.387    0.266
   23.500   60.400   32.596    0.514    0.270
   23.750   56.233   24.972    0.488    0.251
   24.000   58.716   25.992    0.454    0.257
   24.250   88.449   25.061    0.543    0.296
   24.500   99.395   14.145    0.639    0.345
   24.750  100.064    7.829    0.597    0.347
   25.000   89.232    6.355    0.585    0.289
   25.250   78.432   15.647    0.409    0.263
   25.500   75.442   28.371    0.398    0.252
   25.750   63.417   32.506    0.400    0.229
   26.000   50.771   30.735    0.404    0.242
   26.250   56.292   28.522    0.380    0.238
   26.500   56.373   30.273    0.378    0.229
   26.750   54.608   28.093    0.366    0.218
   27.000   57.091   28.143    0.359    0.234
   27.250   53.529   29.292    0.361    0.271
   27.500   56.616   32.274    0.360    0.306
   27.750   43.987   35.575    0.353    0.298
   28.000   50.096   29.435    0.343    0.276
   28.250   56.206   27.843    0.330    0.257
   28.500   59.293   24.869    0.336    0.237
   28.750   55.731   24.924    0.349    0.236
   29.000   54.587   26.430    0.387    0.212
   29.250   57.674   21.454    0.380    0.226
   29.500   55.958   16.132    0.395    0.255
   29.750   57.199   17.446    0.443    0.292
   30.000   60.303   17.822    0.460    0.248
   30.250   66.412   14.739    0.448    0.238
   30.500   75.544   10.465    0.502    0.249
   30.750   59.288    9.523    0.371    0.216
   31.000   53.896   18.287    0.394    0.164
   31.250   50.938   23.965    0.406    0.151
   31.500   67.340   23.096    0.410    0.166
   31.750   64.987   18.044    0.448    0.177
   32.000   72.306   12.563    0.462    0.204
   32.250   91.126    1.893    0.557    0.248
   32.500   83.937    0.971    0.636    0.267
   32.750   80.375    6.589    0.536    0.216
   33.000   91.320    5.557    0.519    0.177
   33.250   84.736    1.835    0.486    0.219
   33.500   86.009    0.706    0.487    0.243
   33.750   96.367    0.023    0.602    0.265
   34.000   95.222    0.025    0.530    0.292
   34.250   93.474    0.028    0.534    0.288
   34.500   97.786    0.318    0.527    0.281
   34.750   95.433    0.319    0.536    0.293
   35.000   96.086    0.101    0.565    0.316
   35.250   90.106    0.100    0.620    0.334
   35.500   82.296    0.309    0.583    0.324
   35.750   87.817    1.698    0.633    0.278
   36.000  101.181    0.328    0.636    0.240
   36.250   98.828    0.028    0.628    0.294
   36.500  107.976    0.030    0.613    0.312
   36.750  103.809    0.039    0.609    0.318
   37.000   85.723    0.023    0.529    0.271
   37.250   86.409    1.170    0.486    0.170
   37.500  106.422  325.337    0.561    0.206
   37.750   96.210    0.245    0.511    0.243
   38.000   96.275    0.396    0.497    0.253
   38.250  105.407    0.219    0.514    0.259
   38.500  101.256    0.806    0.575    0.278
   38.750  107.350    0.421    0.540    0.329
   39.000  112.871    0.438    0.538    0.331
   39.250  102.039    0.189    0.613    0.330
   39.500   98.477    0.343    0.682    0.329
   39.750   88.870    0.331    0.639    0.287
   40.000   63.513    3.692    0.632    0.240
   40.250   40.591    9.265    0.580    0.220
   40.500   29.171   26.597    0.402    0.169
   40.750   24.399   57.307    0.423    0.143
   41.000   25.673   92.561    0.385    0.264
   41.250   26.947  327.909    0.380    0.285
   41.500   22.192  481.544    0.411    0.288
   41.750   26.472  595.607    0.406    0.277
   42.000   24.723  391.572    0.400    0.268
   42.250   20.557  294.439    0.362    0.284
   42.500   19.412 1682.540    0.374    0.282
   42.750   24.313  799.489    0.340    0.275
   43.000   18.333 1108.610    0.339    0.260
   43.250   26.256  801.970    0.376    0.255
   43.500   31.189  461.588    0.413    0.280
   43.750   27.595  570.419    0.400    0.287
   44.000   27.055  822.172    0.381    0.282
   44.250   36.808  855.742    0.411    0.280
   44.500   35.059  584.529    0.439    0.287
   44.750   30.892  448.018    0.421    0.292
   45.000   33.979  484.492    0.431    0.283
   45.250   33.440  598.988    0.423    0.276
   45.500   42.572  230.521    0.439    0.267
   45.750   45.071  244.567    0.476    0.257
   46.000   38.470  373.322    0.452    0.270
   46.250   35.528  470.457    0.457    0.275
   46.500   37.995  360.586    0.450    0.264
   46.750   44.741  203.520    0.432    0.260
   47.000   47.812  171.643    0.416    0.282
   47.250   62.401  156.198    0.407    0.281
   47.500   59.427  115.226    0.382    0.277
   47.750   58.283  217.070    0.437    0.284
   48.000   52.303  221.654    0.481    0.285
   48.250   39.069  145.723    0.405    0.270
   48.500   53.037   82.248    0.413    0.260
   48.750   60.372   73.462    0.444    0.266
   49.000   69.520   77.937    0.483    0.275
   49.250   52.643   57.469    0.443    0.271
   49.500   64.193   63.376    0.499    0.240
   49.750   73.946   48.553    0.422    0.230
   50.000   63.718   56.706    0.445    0.245
   50.250   63.783   48.725    0.448    0.246
   50.500   77.767   38.802    0.459    0.258
   50.750   69.353   36.704    0.422    0.255
   51.000   71.868   42.036    0.428    0.237
   51.250   66.460   41.312    0.439    0.228
   51.500   86.489   34.842    0.420    0.227
   51.750   79.904   31.119    0.396    0.220
   52.000   72.715   35.640    0.451    0.211
   52.250   64.921   46.685    0.462    0.213
   52.500   78.285   42.503    0.474    0.229
   52.750   92.874   21.792    0.407    0.246
   53.000   95.961   20.223    0.378    0.243
   53.250   96.026   19.129    0.391    0.216
