~Version : LASO    vs 4.00
VERS.                2.00:   CWLS Log ASCII Standard -VERSION 2.0
WRAP.                  NO:
~Well Information Block
#MNEM.UNIT       Data                        Description of Mnemonic
#----.----      -------------------------- : -----------------------------
STRT.M            30.0000:
STOP.M           204.0000:
STEP.M             0.2000:
NULL.           -999.2500:
COMP.  MOBIL OIL OF CANADA                    :COMPANY
WELL.  MOBIL CLARKE OV PROGRAM 2-81 4-3       :WELL
FLD.                                          :FIELD
LOC.   04-03-090-07W4                         :LOCATION
CTRY.  CANADA                                 :COUNTRY
PROV.  ALBERTA                                :PROVINCE
SRVC.  SCHLUMBERGER                           :SERVICE COMPANY
DATE.  26-JAN-81                              :LOG DATE
UWI.   AA/04-03-090-07W400                    :UNIQUE WELL ID
~Parameter Information Block
#MNEM.UNIT       Data                        Description of Mnemonic
#----.----      -------------------------- : -----------------------------
RUN .                   1                 : Run Number
GL  .M           466.8000                 : Ground Level Elevation
DREF.                  GD                 : Depth Reference
EREF.M           466.8000                 : Elevation of Depth Reference
TDL .M           205.0000                 : Total Depth Logger
TDD .M           205.0000                 : Total Depth Driller
BHT .DEGC         19.0000                 : Bottom Hole Temperature
BS  .MM          159.0000                 : Bit Size
DFD .            980.0000                 : Mud Weight (Density)
DFV .             38.0000                 : Mud Viscosity
DFPH.             10.0000                 : Mud pH
~Curve Information Block
#MNEM.UNIT        API CODE    Curve Description
#---------    ------------    -------------------------------------------
DEPT.M                    :   DEPTH
CALI.MM       42 280  1  1:   3 DENSITY CALIPER
DPHI.V/V                  :   DPHI
DT  .US/M     60 520  0  1:   2 SONIC INTERVAL TRANSIT TIME (COMPENSATED)
GR  .GAPI     42 310  1  1:   4 GAMMA RAY
ILD .OHMM      5 120 46  1:   7 DEEP INDUCTION
ILM .OHMM      5 120 44  1:   8 MEDIUM INDUCTION
NPHI.V/V      42 890  3  1:   5 NEUTRON POROSITY (SANDSTONE)
RHOB.K/M3     42 350  1  1:   6 BULK DENSITY
SFLU.OHMM      5 220  1  1:   9 FOCUSSED RESISTIVITY
SP  .MV        5  10  1  1:   10 SPONTANEOUS POTENTIAL
~A  Depth           CALI        DPHI          DT          GR         ILD         ILM        NPHI        RHOB        SFLU          SP
# ...
127.6000        167.1750      0.3184    515.0000     91.8750      6.3655      6.3655      0.4730   2114.0000      7.1751    -49.1550
127.8000        167.1750      0.3195    502.2000     91.1850      6.3071      6.2493      0.4628   2126.0000      6.8522    -49.4100
128.0000        172.2500      0.3172    495.0400     92.2800      6.0790      6.0232      0.4580   2113.0000      5.7521    -48.3900
128.2000        173.5250      0.3088    490.7200     91.9800      6.0232      6.0232      0.4620   2140.0000      5.5441    -47.8800
128.4000        174.7750      0.3061    493.6000     90.8850      5.9133      5.9680      0.4664   2142.0000      5.9133    -47.3700
128.6000        173.5250      0.3079    502.6000     92.8800      5.8591      5.9133      0.4584   2146.0000      6.3071    -47.6250
128.8000        174.7750      0.3143    508.8400     94.6800      5.9133      5.9133      0.4492   2136.0000      6.0790    -47.3700
129.0000        174.7750      0.3126    525.6801     95.4750      5.9680      5.9133      0.4468   2117.0000      5.9680    -46.8600
129.2000        177.3250      0.3040    524.0400     96.2850      6.0232      5.9680      0.4450   2140.0000      5.6472    -47.6250
129.4000        177.3250      0.2932    520.3200     97.6800      6.0232      6.0232      0.4482   2174.1001      5.6994    -47.8800
129.6000        177.3250      0.2872    513.3600     98.2800      6.0232      6.0790      0.4444   2170.1001      5.9680    -47.8800
129.8000        177.3250      0.2788    515.4000    100.4850      5.9133      6.0790      0.4436   2196.1001      6.6043    -47.6250
130.0000        177.3250      0.2823    520.7600    101.5800      5.6472      6.0232      0.4474   2214.1001      6.5438    -47.6250
130.2000        177.3250      0.2957    500.0000    101.2800      5.1503      5.6994      0.4380   2192.1001      6.4244    -46.8600
130.4000        178.6000      0.3124    493.6000     99.9750      4.5272      5.1031      0.4312   2165.1001      6.4244    -45.3300
130.6000        179.8750      0.3274    490.7200     95.9850      3.4981      3.6629      0.4194   2125.0000      5.1503    -43.5450
130.8000        177.3250      0.3408    492.6000     92.8800      3.1610      3.1903      0.3986   2109.0000      3.2797    -42.2700
131.0000        178.6000      0.3574    494.8400     88.7850      2.8829      2.9096      0.4444   2074.8999      2.1078    -40.9950
131.2000        182.4000      0.3757    496.4800     81.5850      2.4651      2.5812      0.4700   1987.8000      1.6898    -41.5050
131.4000        184.9500      0.3945    502.8400     81.4800      2.3541      2.5341      0.4924   1978.8000      1.8873    -41.5050
131.6000        181.1250      0.3957    530.6000     81.4800      2.3325      2.5109      0.5464   1987.8000      2.2482    -41.7600
131.8000        184.9500      0.3810    545.4000     81.1800      2.4201      2.5812      0.5524   2021.9000      2.4201    -41.5050
132.0000        190.0250      0.3761    561.0000     80.7750      2.5109      2.6536      0.5392   2025.9000      2.3541    -40.9950
132.2000        188.7500      0.3619    569.0400     81.0750      2.6051      2.7786      0.5612   2021.9000      2.5341    -40.7400
132.4000        182.4000      0.3522    569.2400     81.1800      2.7786      2.9365      0.5736   2063.8999      3.2496    -41.5050
132.6000        191.3000      0.3412    564.7200     82.5750      2.8829      3.0188      0.5676   2065.8999      3.2198    -41.5050
132.8000        193.8250      0.3352    544.5600     84.8850      3.0749      3.1610      0.5464   2079.8999      3.0467    -42.0150
133.0000        186.2250      0.3411    535.5200     87.8850      3.4342      3.6294      0.5330   2094.0000      2.8043    -43.2900
133.2000        183.6750      0.3405    532.2400     88.8750      3.5631      3.9069      0.5258   2082.0000      3.1321    -43.0350
133.4000        177.3250      0.3266    532.2400     88.5750      3.6294      4.0535      0.5256   2086.0000      4.2838    -43.5450
133.6000        178.6000      0.3140    535.1200     87.7800      3.6968      4.0910      0.5228   2142.0000      5.6472    -44.3100
133.8000        176.0500      0.3004    537.6000     87.7800      3.9069      3.9069      0.5080   2178.1001      4.4038    -42.0150
134.0000        177.3250      0.2974    524.0400     89.0850      4.0163      3.9069      0.4834   2156.1001      3.2496    -41.2500
134.2000        178.6000      0.3100    502.4000     88.7850      4.0535      4.0535      0.4472   2161.1001      2.8043    -41.5050
134.4000        177.3250      0.3107    493.2000     84.7800      4.0910      4.3634      0.4542   2110.0000      3.7656    -43.8000
134.6000        177.3250      0.3058    490.7200     84.7800      4.2056      4.4857      0.4624   2153.1001      4.7406    -45.0750
134.8000        176.0500      0.2957    504.9200     85.1850      4.4857      4.6971      0.4630   2162.1001      5.2460    -46.0950
135.0000        176.0500      0.2856    510.8800     86.0850      5.0099      5.2460      0.4388   2158.1001      5.0563    -44.5650
135.2000        177.3250      0.2715    513.3600     88.4850      5.0563      5.5441      0.4104   2181.1001      5.4429    -43.2900
135.4000        179.8750      0.2547    501.8000     89.2800      4.8287      5.4933      0.4292   2205.1001      7.0442    -44.0550
135.6000        173.5250      0.2375    496.0800     88.0800      4.1671      4.4446      0.4352   2275.2000      7.6530    -44.5650
135.8000        173.5250      0.2645    493.6000     90.0750      3.9430      3.9430      0.4284   2240.2000      5.1031    -44.0550
136.0000        176.0500      0.2957    471.4400     91.4850      3.7310      3.6968      0.4044   2136.0000      3.1321    -43.5450
136.2000        191.3000      0.3246    449.2400     90.8850      3.3100      3.4027      0.4146   2104.0000      2.3759    -43.8000
136.4000        192.5750      0.3319    446.7600     91.4850      3.1903      3.3406      0.4376   2108.0000      2.5812    -43.5450
136.6000        187.5000      0.3384    488.2800     93.4800      3.1033      3.3406      0.4956   2100.0000      2.7532    -43.0350
136.8000        184.9500      0.3313    523.4000     94.0800      3.0749      3.3406      0.5036   2074.8999      3.1321    -43.2900
137.0000        191.3000      0.3172    550.3200     93.5850      3.1321      3.3406      0.4938   2146.0000      3.4660    -44.5650
137.2000        197.6500      0.3339    549.3200     94.3800      3.1321      3.3406      0.4930   2117.0000      3.3406    -44.3100
137.4000        195.1000      0.3361    540.4800     94.7850      3.1321      3.3100      0.5332   2090.0000      3.4660    -44.0550
137.6000        198.9250      0.3465    534.7200     93.0750      3.1033      3.2198      0.5392   2079.8999      3.0467    -42.7800
137.8000        201.4500      0.3517    524.4400     93.5850      3.0749      3.2496      0.5244   2060.8999      2.7279    -42.5250
138.0000        200.1750      0.3433    520.7600     94.8750      3.0467      3.2496      0.5276   2053.8999      2.8043    -43.0350
138.2000        187.5000      0.3387    520.5200     96.6750      2.9911      3.2198      0.5476   2088.0000      3.4342    -43.5450
138.4000        187.5000      0.3370    525.6801     95.1750      3.0188      3.1903      0.5636   2092.0000      3.2797    -43.5450
138.6000        187.5000      0.3379    529.8000     94.6800      3.0188      3.2198      0.5244   2090.0000      3.0188    -43.8000
138.8000        186.2250      0.3334    526.4800     97.1850      3.0749      3.2496      0.5060   2093.0000      2.9096    -44.0550
139.0000        183.6750      0.3319    521.3600     96.8850      3.1321      3.2797      0.5016   2112.0000      2.9365    -44.3100
139.2000        183.6750      0.3270    520.1200     96.7800      3.2198      3.3716      0.5282   2090.0000      2.8829    -44.0550
139.4000        184.9500      0.3250    526.4800     96.7800      3.4027      3.6294      0.5220   2117.0000      3.2198    -44.0550
139.6000        184.9500      0.3223    529.8000     94.6800      3.4981      3.7656      0.4884   2124.0000      3.5961    -44.3100
