~VERSION INFORMATION
 VERS.                 2.0:   CWLS LOG ASCII STANDARD -VERSION 2.0
 WRAP.                  NO:   ONE LINE PER DEPTH STEP
~WELL INFORMATION BLOCK
#MNEM.UNIT           DATA                    DESCRIPTION OF MNEMONIC
#---------    -------------------            -------------------------------
# Generated from Intellog Unique Number	CN_94_101/WELL/3629
WELL.         03-28-096-15W4                 : Well_name    - WELL
LOC .         AA/03-28-096-15W4/0            : Location     - LOCATION
UWI .         AA/03-28-096-15W400            : Uwi          - UNIQUE WELL ID
ENTR.         J                              : Entered      - ENTERED BY
SRVC.         SCHLUMBERGER                   : Scn          - SERVICE COMPANY
DATE.         08/05/92                       : Date         - LOG DATE
STRT.M        175                            : top_depth    - START DEPTH
STOP.M        370                            : bot_depth    - STOP DEPTH
STEP.M        0.25                           : increment    - STEP LENGTH
 NULL. -999.2500:NULL Value
~CURVE INFORMATION BLOCK
#MNEM UNIT       ERCB CURVE CODE    CURVE DESCRIPTION
#-----------   ------------------   ----------------------------------
DEPT.M        00 001 00 00         : DEPTH        - DEPTH
ILD .OHMM     00 120 00 00         : RESD         - DEEP RESISTIVITY (DIL)
GR  .API      00 310 00 00         : GR           - GAMMA RAY
NPHI.V/V      00 330 00 00         : PHIN         - NEUTRON POROSITY (SANDSTONE)
DPHI.V/V      00 890 00 00         : PHID         - DENSITY POROSITY (SANDSTONE)
~PARAMETER INFORMATION
#MNEM.UNIT           DATA             DESCRIPTION OF MNEMONIC
#---------         -----------     ------------------------------
GL  .M        625.64               : gl           - GROUND LEVEL ELEVATION
EREF.M        628.99               : kb           - ELEVATION OF DEPTH REFERENCE
DATM.M        628.99               : datum        - DATUM ELEVATION
TDD .M        381                  : tdd          - TOTAL DEPTH DRILLER
RUN .         ONE                  : Run          - RUN NUMBER
ENG .         JO                   : Engineer     - RECORDING ENGINEER
WIT .         TIM                  : Witness      - WITNESSED BY
MUD .         GEL                  : Mud_type     - MUD TYPE
MATR.         SANDSTONE            : Logunit      - NEUTRON MATRIX
TMAX.C        19                   : BHT          - MAXIMUM RECORDED TEMPERATURE
BHTD.M        381                  : BHTDEP       - MAXIMUM RECORDED TEMPERATURE
RMT .C        15                   : MDTP         - TEMPERATURE OF MUD
MUDD.KG/M     1090                 : MWT          - MUD DENSITY
NEUT.         1                    : NEUTRON      - NEUTRON TYPE
RESI.         0                    : RESIST       - RESISTIVITY TYPE
RM  .OHMM     0.366                : RM           - RESISTIVITY OF MUD
RMC .OHMM     0.366                : RMC          - RESISTIVITY OF MUD CAKE
RMF .OHMM     0.488                : RMF          - RESISTIVITY OF MUD FILTRATE
SUFT.C        4                    : SUFT         - SURFACE TEMPERATURE
~A  DEPTH     RESD       GR     PHIN     PHID
# ...
  305.500    9.528   77.006    0.358    0.245
  305.750    9.542   76.248    0.358    0.239
  306.000    9.556   75.449    0.365    0.251
  306.250    9.571   74.261    0.381    0.260
  306.500    9.581   72.663    0.393    0.271
  306.750    9.596   71.485    0.398    0.266
  307.000    9.798   70.297    0.393    0.246
  307.250   10.194   69.519    0.387    0.229
  307.500   10.601   67.091    0.379    0.210
  307.750   11.461   64.254    0.367    0.191
  308.000   12.382   59.378    0.339    0.143
  308.250   14.728   55.322    0.206    0.055
  308.500   16.217   56.182    0.180    0.033
  308.750   18.562   60.321    0.203    0.058
  309.000   20.053   64.879    0.238    0.101
  309.250   16.603   70.667    0.291    0.135
  309.500   11.586   72.757    0.333    0.148
  309.750   10.955   74.427    0.350    0.123
  310.000    9.791   76.107    0.353    0.142
  310.250    9.436   78.207    0.374    0.194
  310.500    8.593   80.706    0.388    0.231
  310.750    8.287   83.615    0.400    0.229
  311.000    7.984   84.077    0.413    0.225
  311.250    7.697   83.708    0.416    0.239
  311.500    7.423   83.749    0.419    0.246
  311.750    7.291   85.019    0.424    0.237
  312.000    7.032   85.050    0.414    0.231
  312.250    7.043   83.862    0.400    0.238
  312.500    7.327   82.264    0.396    0.248
  312.750    7.623   78.628    0.400    0.212
  313.000    8.238   75.801    0.395    0.193
  313.250    8.574   77.061    0.390    0.154
  313.500    8.586   79.970    0.384    0.177
  313.750    8.122   83.289    0.407    0.219
  314.000    7.254   84.979    0.430    0.255
  314.250    6.121   86.250    0.454    0.246
  314.500    5.471   87.110    0.465    0.245
  314.750    5.270   88.391    0.475    0.263
  315.000    5.081   88.432    0.484    0.254
  315.250    5.090   86.414    0.500    0.233
  315.500    5.400   84.816    0.484    0.195
  315.750    5.615   84.447    0.455    0.160
  316.000    5.842   84.909    0.450    0.217
  316.250    6.314   85.349    0.448    0.229
  316.500    6.697   84.581    0.444    0.219
  316.750    6.707   84.212    0.438    0.208
  317.000    6.720   84.673    0.426    0.199
  317.250    6.727   85.513    0.413    0.199
  317.500    6.737   87.613    0.410    0.216
  317.750    6.745   89.703    0.416    0.219
  318.000    6.885   90.553    0.416    0.217
  318.250    7.165   93.473    0.405    0.220
  318.500    7.454   91.465    0.397    0.224
  318.750    7.904   86.989    0.393    0.197
  319.000    8.542   82.523    0.387    0.172
  319.250    9.416   81.745    0.375    0.153
  319.500    9.792   85.064    0.367    0.155
  319.750    9.263   87.573    0.379    0.196
  320.000    8.431   87.615    0.380    0.225
  320.250    7.677   87.256    0.386    0.216
  320.500    7.125   86.068    0.383    0.195
  320.750    6.869   84.880    0.382    0.187
  321.000    6.753   86.550    0.382    0.183
  321.250    6.765   87.410    0.382    0.189
  321.500    6.770   87.462    0.382    0.208
  321.750    6.783   87.093    0.386    0.225
  322.000    6.539   85.915    0.390    0.225
  322.250    6.069   85.116    0.400    0.218
  322.500    5.119   82.699    0.410    0.211
  322.750    4.237   81.920    0.416    0.211
  323.000    3.714   81.562    0.421    0.223
  323.250    3.449   81.193    0.424    0.238
  323.500    3.388   80.415    0.432    0.254
  323.750    3.392   78.807    0.437    0.242
  324.000    3.531   78.438    0.443    0.232
  324.250    3.671   78.079    0.455    0.242
  324.500    3.971   76.891    0.466    0.240
  324.750    4.291   75.283    0.452    0.231
  325.000    4.636   73.265    0.435    0.223
  325.250    5.206   66.751    0.427    0.217
  325.500    5.624   63.104    0.418    0.229
  325.750    6.319   63.975    0.408    0.249
  326.000    6.569   64.835    0.406    0.259
  326.250    6.965   60.769    0.443    0.268
  326.500    6.844   54.244    0.459    0.273
  326.750    3.728   48.958    0.492    0.283
  327.000    2.551   44.902    0.481    0.301
  327.250    1.885   41.255    0.431    0.300
  327.500    4.119   41.306    0.385    0.296
  327.750    6.151   42.976    0.376    0.296
  328.000    8.517   45.476    0.380    0.288
  328.250   11.349   49.205    0.387    0.280
  328.500   14.556   51.714    0.395    0.286
  328.750   12.283   55.033    0.387    0.291
  329.000   10.365   58.772    0.389    0.290
  329.250    9.264   56.765    0.388    0.285
  329.500    9.103   55.157    0.382    0.278
  329.750    9.113   53.559    0.383    0.274
  330.000    9.126   53.200    0.394    0.270
  330.250    9.502   56.099    0.386    0.268
  330.500    9.695   58.199    0.389    0.265
  330.750   10.083   59.470    0.408    0.260
  331.000    9.911   61.570    0.408    0.251
  331.250    9.195   63.240    0.375    0.227
  331.500    8.373   63.281    0.360    0.187
  331.750    7.065   59.235    0.405    0.170
  332.000    6.433   57.206    0.409    0.217
  332.250    6.955   56.438    0.393    0.248
  332.500    8.108   57.709    0.383    0.261
  332.750    9.281   58.989    0.384    0.256
  333.000    9.841   59.440    0.393    0.250
  333.250   10.844   59.891    0.406    0.251
  333.500   12.169   59.522    0.399    0.250
  333.750   12.422   58.324    0.389    0.246
  334.000   12.210   53.038    0.383    0.242
  334.250   12.708   48.971    0.379    0.238
  334.500   12.962   42.457    0.375    0.231
  334.750   13.744   37.591    0.364    0.212
  335.000   14.859   36.803    0.362    0.229
  335.250   16.361   37.663    0.365    0.254
  335.500   19.828   35.655    0.367    0.277
  335.750   21.840   34.057    0.367    0.299
  336.000   24.065   32.040    0.349    0.292
  336.250   26.508   29.633    0.304    0.271
  336.500   28.637   27.615    0.262    0.254
  336.750   32.161   26.426    0.275    0.236
  337.000   34.744   25.648    0.290    0.251
  337.250   41.312   26.099    0.304    0.292
  337.500   49.104   25.730    0.332    0.307
  337.750   58.366   23.723    0.344    0.318
  338.000   69.401   23.354    0.346    0.325
  338.250   76.415   23.805    0.341    0.333
  338.500   89.182   23.846    0.340    0.335
  338.750   96.345   24.297    0.347    0.319
  339.000  108.162   24.758    0.348    0.311
  339.250  116.936   25.209    0.337    0.310
  339.500   91.407   26.899    0.312    0.301
  339.750   78.615   28.999    0.307    0.294
  340.000   70.262   29.839    0.298    0.282
  340.250   69.066   27.422    0.301    0.285
  340.500   70.446   25.434    0.317    0.286
  340.750   74.725   25.865    0.327    0.282
  341.000   79.205   27.555    0.323    0.283
  341.250   82.401   28.405    0.305    0.290
  341.500   87.373   30.106    0.316    0.295
  341.750   94.426   30.946    0.328    0.300
  342.000   65.895   31.817    0.343    0.302
  342.250   61.156   32.677    0.350    0.312
  342.500   61.248   32.718    0.355    0.322
  342.750   61.339   32.770    0.359    0.317
  343.000   62.611   32.801    0.358    0.311
  343.250   65.114   33.252    0.354    0.313
  343.500   70.369   33.293    0.362    0.323
  343.750   76.049   33.754    0.378    0.334
  344.000   82.219   33.795    0.392    0.342
  344.250   85.569   33.836    0.396    0.341
  344.500   82.465   34.276    0.383    0.332
  344.750   70.897   34.727    0.374    0.326
  345.000   53.370   35.998    0.368    0.332
  345.250   37.946   36.868    0.377    0.324
  345.500   29.662   37.729    0.382    0.314
  345.750   24.104   38.999    0.378    0.300
  346.000   22.362   39.860    0.373    0.306
  346.250   16.840   41.540    0.374    0.313
  346.500   16.865   42.810    0.379    0.310
  346.750   15.351   44.501    0.388    0.305
  347.000   13.456   46.181    0.393    0.300
  347.250   11.573   48.670    0.389    0.298
  347.500    9.766   53.218    0.381    0.297
  347.750    7.780   63.513    0.374    0.291
  348.000    6.570   66.433    0.364    0.282
  348.250    6.330   70.172    0.368    0.276
  348.500    5.548   71.852    0.367    0.269
  348.750    5.052   70.243    0.364    0.259
