~VERSION INFORMATION
 VERS.                 2.0:   CWLS LOG ASCII STANDARD -VERSION 2.0
 WRAP.                  NO:   ONE LINE PER DEPTH STEP
~WELL INFORMATION BLOCK
#MNEM.UNIT           DATA                    DESCRIPTION OF MNEMONIC
#---------    -------------------            -------------------------------
# Generated from Intellog Unique Number	CN_94_101/WELL/4986
WELL.         06-31-101-12W4                 : Well_name    - WELL
LOC .         AA/06-31-101-12W4/0            : Location     - LOCATION
UWI .         AA/06-31-101-12W400            : Uwi          - UNIQUE WELL ID
ENTR.         TIM                            : Entered      - ENTERED BY
SRVC.         SCHLUMBERGER                   : Scn          - SERVICE COMPANY
DATE.         08/13/92                       : Date         - LOG DATE
STRT.M        350                            : top_depth    - START DEPTH
STOP.M        580                            : bot_depth    - STOP DEPTH
STEP.M        0.25                           : increment    - STEP LENGTH
NULL. -999.2500:NULL Value
~CURVE INFORMATION BLOCK
#MNEM UNIT       ERCB CURVE CODE    CURVE DESCRIPTION
#-----------   ------------------   ----------------------------------
DEPT.M        00 001 00 00         : DEPTH        - DEPTH
GR  .API      00 310 00 00         : GR           - GAMMA RAY
ILD .OHMM     00 120 00 00         : RESD         - DEEP RESISTIVITY (DIL)
NPHI.V/V      00 330 00 00         : PHIN         - NEUTRON POROSITY (SANDSTONE)
DPHI.V/V      00 890 00 00         : PHID         - DENSITY POROSITY (SANDSTONE)
~PARAMETER INFORMATION
#MNEM.UNIT           DATA             DESCRIPTION OF MNEMONIC
#---------         -----------     ------------------------------
GL  .M        788.8                : gl           - GROUND LEVEL ELEVATION
EREF.M        792.2                : kb           - ELEVATION OF DEPTH REFERENCE
DATM.M        792.2                : datum        - DATUM ELEVATION
TDD .M        586                  : tdd          - TOTAL DEPTH DRILLER
RUN .         ONE                  : Run          - RUN NUMBER
ENG .         JO                   : Engineer     - RECORDING ENGINEER
WIT .         TIM                  : Witness      - WITNESSED BY
MUD .         GEL                  : Mud_type     - MUD TYPE
MATR.         SANDSTONE            : Logunit      - NEUTRON MATRIX
TMAX.C        17                   : BHT          - MAXIMUM RECORDED TEMPERATURE
BHTD.M        586                  : BHTDEP       - MAXIMUM RECORDED TEMPERATURE
RMT .C        15                   : MDTP         - TEMPERATURE OF MUD
MUDD.KG/M     1040                 : MWT          - MUD DENSITY
NEUT.         1                    : NEUTRON      - NEUTRON TYPE
RESI.         0                    : RESIST       - RESISTIVITY TYPE
RM  .OHMM     0.75                 : RM           - RESISTIVITY OF MUD
RMC .OHMM     0.75                 : RMC          - RESISTIVITY OF MUD CAKE
RMF .OHMM     0.75                 : RMF          - RESISTIVITY OF MUD FILTRATE
SUFT.C        4                    : SUFT         - SURFACE TEMPERATURE
~A  DEPTH       GR     RESD     PHIN     PHID
  350.000  105.585    4.634    0.515    0.292
  350.250  101.885    4.554    0.522    0.287
  350.500  101.932    4.233    0.529    0.281
  350.750  101.991    4.008    0.533    0.281
  351.000  100.789    3.867    0.535    0.286
  351.250  101.472    3.733    0.540    0.289
  351.500  102.745    3.881    0.542    0.269
  351.750  102.804    4.267    0.535    0.257
  352.000  101.613    4.695    0.526    0.270
  352.250  100.388    5.073    0.513    0.273
  352.500   97.937    5.273    0.511    0.278
  352.750   97.371    5.277    0.511    0.276
  353.000   98.043    5.190    0.512    0.272
  353.250   98.715    5.008    0.509    0.270
  353.500   99.386    4.923    0.507    0.275
  353.750   99.433    4.750    0.498    0.278
  354.000   98.844    4.669    0.501    0.278
  354.250   98.903    4.507    0.513    0.271
  354.500   98.950    4.427    0.521    0.269
  354.750   99.621    4.194    0.529    0.269
  355.000   99.657    3.973    0.530    0.269
  355.250   99.715    3.903    0.528    0.268
  355.500   99.138    3.700    0.528    0.270
  355.750   98.572    3.569    0.529    0.279
  356.000   98.007    3.442    0.527    0.288
  356.250   98.042    3.447    0.525    0.302
  356.500   97.476    3.863    0.530    0.295
  356.750   96.887    4.328    0.526    0.296
  357.000   95.673    5.132    0.510    0.299
  357.250   88.851    5.859    0.482    0.304
  357.500   86.412    5.866    0.455    0.297
  357.750   88.332    5.878    0.456    0.280
  358.000   89.617    5.887    0.486    0.274
  358.250   91.537    5.575    0.496    0.266
  358.500   92.209    5.180    0.496    0.256
  358.750   92.256    4.305    0.486    0.253
  359.000   92.951    3.929    0.491    0.262
  359.250   92.986    3.789    0.499    0.284
  359.500   92.397    3.656    0.529    0.308
  359.750   90.570    3.596    0.565    0.311
  360.000   88.744    3.469    0.564    0.304
  360.250   89.427    3.472    0.560    0.300
  360.500   90.087    3.610    0.554    0.302
  360.750   90.759    3.826    0.545    0.309
  361.000   92.055    3.978    0.537    0.316
  361.250   90.228    4.136    0.532    0.310
  361.500   93.410    4.221    0.542    0.290
  361.750   97.204    4.476    0.537    0.287
  362.000   99.749    4.566    0.531    0.297
  362.250   99.796    4.573    0.524    0.317
  362.500   97.981    4.330    0.511    0.329
  362.750   97.392    4.099    0.520    0.323
  363.000  101.186    3.670    0.531    0.311
  363.250  103.742    3.286    0.536    0.305
  363.500  103.789    2.943    0.529    0.290
  363.750   99.453    2.893    0.527    0.251
  364.000   93.256    2.953    0.534    0.212
  364.250   91.441    3.013    0.537    0.197
  364.500   94.622    3.132    0.530    0.218
  364.750   95.906    3.447    0.521    0.245
  365.000   95.942    3.581    0.515    0.268
  365.250   93.503    3.866    0.504    0.286
  365.500   89.791    4.019    0.501    0.288
  365.750   88.601    4.181    0.501    0.287
  366.000   89.284    4.189    0.503    0.285
  366.250   90.557    4.196    0.513    0.283
  366.500   92.501    4.052    0.546    0.281
  366.750   93.773    3.978    0.556    0.283
  367.000   96.978    3.839    0.563    0.289
  367.250   98.250    3.636    0.570    0.294
  367.500  100.183    3.575    0.576    0.301
  367.750   97.732    3.719    0.574    0.301
  368.000   94.645    3.863    0.562    0.302
  368.250   87.822    4.094    0.547    0.316
  368.500   84.134    4.099    0.532    0.310
  368.750   84.193    4.108    0.524    0.299
  369.000   84.216    4.040    0.535    0.295
  369.250   85.513    3.970    0.540    0.294
  369.500   86.184    3.690    0.546    0.298
  369.750   86.231    3.765    0.540    0.281
  370.000   86.903    3.841    0.532    0.234
  370.250   88.835    3.847    0.520    0.183
  370.500   92.004    3.712    0.511    0.168
  370.750   96.423    3.517    0.537    0.144
  371.000   99.581    3.392    0.556    0.218
  371.250  104.011    3.272    0.556    0.240
  371.500  105.931    3.157    0.549    0.267
  371.750  105.354    3.104    0.543    0.288
  372.000  104.164    3.231    0.550    0.287
  372.250  104.211    3.295    0.559    0.285
  372.500  105.519    3.491    0.566    0.285
  372.750  106.178    3.698    0.570    0.285
  373.000  107.486    3.919    0.571    0.291
  373.250  108.134    4.152    0.567    0.300
  373.500  106.932    4.398    0.557    0.304
  373.750  103.232    4.748    0.548    0.298
  374.000  102.667    5.225    0.543    0.293
  374.250  102.089    5.431    0.541    0.287
  374.500  100.251    5.652    0.537    0.288
  374.750   95.302    5.654    0.531    0.296
  375.000   95.349    5.770    0.522    0.294
  375.250   96.645    5.888    0.517    0.289
  375.500   96.704    5.900    0.512    0.284
  375.750   96.739    5.910    0.509    0.279
  376.000   97.411    5.810    0.508    0.279
  376.250   94.960    5.605    0.505    0.286
  376.500   93.134    5.406    0.505    0.299
  376.750   93.181    5.025    0.506    0.299
  377.000   95.101    4.255    0.509    0.298
  377.250   97.022    3.880    0.517    0.298
  377.500   97.705    3.606    0.526    0.298
  377.750   99.001    3.291    0.528    0.299
  378.000  100.320    3.234    0.532    0.299
  378.250  101.605    3.179    0.533    0.297
  378.500  102.265    3.125    0.535    0.285
  378.750  102.948    3.132    0.536    0.282
  379.000  102.995    3.137    0.526    0.283
  379.250  103.030    3.200    0.521    0.285
  379.500  100.591    3.327    0.529    0.292
  379.750   99.377    3.395    0.541    0.305
  380.000  101.922    3.530    0.546    0.302
  380.250  103.218    3.743    0.538    0.298
  380.500  100.767    3.892    0.525    0.297
  380.750   97.692    4.047    0.517    0.293
  381.000   95.241    4.208    0.521    0.293
  381.250   94.051    4.375    0.542    0.291
  381.500   92.225    4.549    0.550    0.284
  381.750   91.647    4.730    0.528    0.269
  382.000   90.445    4.918    0.518    0.245
  382.250   89.232    5.017    0.529    0.253
  382.500   87.405    5.221    0.545    0.259
  382.750   88.088    5.328    0.549    0.268
  383.000   89.373    5.334    0.531    0.297
  383.250   90.680    5.347    0.506    0.292
  383.500   91.352    5.356    0.495    0.287
  383.750   92.660    5.263    0.487    0.285
  384.000   92.695    5.172    0.488    0.285
  384.250   92.742    4.809    0.492    0.284
  384.500   92.801    4.385    0.497    0.283
  384.750   92.836    3.853    0.503    0.284
  385.000   94.132    3.450    0.507    0.290
  385.250   95.440    3.590    0.515    0.295
  385.500   96.100    3.662    0.516    0.283
  385.750   95.522    3.954    0.509    0.281
  386.000   93.708    4.186    0.503    0.286
  386.250   92.506    4.522    0.497    0.287
  386.500   91.316    4.700    0.495    0.291
  386.750   90.727    4.794    0.486    0.300
  387.000   90.773    4.715    0.487    0.306
  387.250   92.694    4.299    0.492    0.301
  387.500   97.725    3.708    0.501    0.301
  387.750  102.155    3.320    0.509    0.304
  388.000  104.700    3.144    0.537    0.313
  388.250  106.633    3.033    0.554    0.314
  388.500  107.292    3.097    0.546    0.318
  388.750  107.351    3.219    0.551    0.321
  389.000  107.387    3.411    0.564    0.305
  389.250  108.070    3.547    0.568    0.289
  389.500  108.741    3.688    0.565    0.291
  389.750  108.152    3.835    0.551    0.290
  390.000  104.464    3.987    0.537    0.286
  390.250  102.013    4.149    0.544    0.281
  390.500   99.562    4.152    0.554    0.278
  390.750   97.736    4.159    0.550    0.286
  391.000   96.522    4.410    0.543    0.290
  391.250   94.707    4.583    0.527    0.299
  391.500   93.494    5.138    0.518    0.304
  391.750   91.067    5.650    0.530    0.314
  392.000   89.841    6.211    0.542    0.330
  392.250   87.402    7.091    0.552    0.342
  392.500   84.939    7.946    0.522    0.336
  392.750   80.615    8.742    0.492    0.328
  393.000   73.168    9.093    0.467    0.322
  393.250   67.595    8.939    0.454    0.312
