~VERSION INFORMATION
 VERS.                 2.0:   CWLS LOG ASCII STANDARD -VERSION 2.0
 WRAP.                  NO:   ONE LINE PER DEPTH STEP
~WELL INFORMATION BLOCK
#MNEM.UNIT           DATA                    DESCRIPTION OF MNEMONIC
#---------    -------------------            -------------------------------
# Generated from Intellog Unique Number	CN_91_93/WELL/3090
WELL.         01-05-092-12W4                 : Well_name    - WELL
LOC .         AA/01-05-092-12W4/0            : Location     - LOCATION
UWI .         AA/01-05-092-12W400            : Uwi          - UNIQUE WELL ID
ENTR.         JOETTE                         : Entered      - ENTERED BY
SRVC.         WESTERN ATLAS                  : Scn          - SERVICE COMPANY
DATE.         04/10/92                       : Date         - LOG DATE
STRT.M        45                             : top_depth    - START DEPTH
STOP.M        200                            : bot_depth    - STOP DEPTH
STEP.M        0.25                           : increment    - STEP LENGTH
 NULL. -999.2500:NULL Value
~CURVE INFORMATION BLOCK
#MNEM UNIT       ERCB CURVE CODE    CURVE DESCRIPTION
#-----------   ------------------   ----------------------------------
DEPT.M        00 001 00 00         : DEPTH        - DEPTH
CALI.MM       00 280 01 00         : CAL          - CALIPER
GR  .API      00 310 00 00         : GR           - GAMMA RAY
NPHI.V/V      00 330 00 00         : PHIN         - NEUTRON POROSITY (SANDSTONE)
DPHI.V/V      00 890 00 00         : PHID         - DENSITY POROSITY (SANDSTONE)
ILD .OHMM     00 120 00 00         : RESD         - DEEP RESISTIVITY (DIL)
~PARAMETER INFORMATION
#MNEM.UNIT           DATA             DESCRIPTION OF MNEMONIC
#---------         -----------     ------------------------------
GL  .M        390.2                : gl           - GROUND LEVEL ELEVATION
EREF.M        395.3                : kb           - ELEVATION OF DEPTH REFERENCE
DATM.M        395.3                : datum        - DATUM ELEVATION
TDD .M        203.3                : tdd          - TOTAL DEPTH DRILLER
RUN .         ONE                  : Run          - RUN NUMBER
ENG .         BILL                 : Engineer     - RECORDING ENGINEER
WIT .         JIM                  : Witness      - WITNESSED BY
MUD .         GEL                  : Mud_type     - MUD TYPE
MATR.         SANDSTONE            : Logunit      - NEUTRON MATRIX
TMAX.C        19                   : BHT          - MAXIMUM RECORDED TEMPERATURE
BHTD.M        203.3                : BHTDEP       - MAXIMUM RECORDED TEMPERATURE
RMT .C        20                   : MDTP         - TEMPERATURE OF MUD
MUDD.KG/M     1100                 : MWT          - MUD DENSITY
NEUT.         1                    : NEUTRON      - NEUTRON TYPE
RESI.         0                    : RESIST       - RESISTIVITY TYPE
RM  .OHMM     2.5                  : RM           - RESISTIVITY OF MUD
RMC .OHMM     2.5                  : RMC          - RESISTIVITY OF MUD CAKE
RMF .OHMM     2.5                  : RMF          - RESISTIVITY OF MUD FILTRATE
SUFT.C        4                    : SUFT         - SURFACE TEMPERATURE
~A  DEPTH      CAL       GR     PHIN     PHID     RESD
# ...
  154.500  158.155   17.446    0.126    0.023   53.072
  154.750  158.128   23.243    0.159    0.030   37.905
  155.000  158.615   37.908    0.194    0.038   29.176
  155.250  158.582   54.407    0.239    0.048   23.534
  155.500  159.062   55.309    0.247    0.031   21.637
  155.750  159.551   54.068    0.241    0.004   19.895
  156.000  159.508   56.501    0.233    0.011   20.659
  156.250  160.008   52.509    0.224    0.018   21.857
  156.500  160.008   44.539    0.208    0.025   22.696
  156.750  160.461   38.406    0.203    0.028   22.701
  157.000  160.461   40.531    0.224    0.038   21.669
  157.250  160.395   46.632    0.239    0.050   20.301
  157.500  159.865   54.262    0.239    0.059   20.496
  157.750  159.845   57.611    0.225    0.048   21.086
  158.000  159.306   53.311    0.216    0.028   21.091
  158.250  158.770   49.321    0.209    0.033   21.096
  158.500  158.237   47.160    0.216    0.038   22.954
  158.750  158.210   45.921    0.210    0.029   24.745
  159.000  158.177   43.154    0.217    0.028   24.067
  159.250  158.154   41.303    0.209    0.035   24.073
  159.500  158.634   46.487    0.210    0.050   25.468
  159.750  158.634   44.024    0.211    0.046   27.713
  160.000  158.574   47.062    0.196    0.038   29.874
  160.250  159.060   45.215    0.189    0.023   32.205
  160.500  159.034   36.328    0.175    0.007   30.739
  160.750  159.524   36.312    0.195    0.004   26.972
  161.000  160.003   38.743    0.218    0.028   24.569
  161.250  159.980   44.844    0.230    0.045   22.172
  161.500  159.980   46.357    0.229    0.025   19.822
  161.750  159.914   50.009    0.234    0.023   18.396
  162.000  159.894   54.583    0.239    0.026   18.229
  162.250  159.864   52.426    0.240    0.039   18.236
  162.500  159.844   46.901    0.236    0.040   18.239
  162.750  159.801   51.475    0.239    0.047   18.415
  163.000  159.281   55.433    0.236    0.039   18.421
  163.250  159.281   52.361    0.235    0.036   18.598
  163.500  159.215   54.789    0.228    0.035   19.132
  163.750  158.689   54.772    0.221    0.038   20.432
  164.000  158.689   54.454    0.211    0.049   24.875
  164.250  158.626   51.991    0.191    0.042   28.361
  164.500  158.609   37.599    0.175    0.031   34.529
  164.750  159.086   35.748    0.170    0.009   39.371
  165.000  159.086   37.259    0.180    0.012   43.244
  165.250  159.029   40.609    0.186    0.025   41.664
  165.500  159.009   39.368    0.187    0.022   38.309
  165.750  159.009   42.718    0.198    0.027   34.571
  166.000  158.949   53.713    0.218    0.026   31.198
  166.250  158.949   55.838    0.225    0.028   29.227
  166.500  158.893   52.457    0.227    0.023   27.639
  166.750  158.873   51.826    0.231    0.023   26.630
  167.000  158.873   49.363    0.225    0.025   26.387
  167.250  158.294   44.148    0.222    0.025   27.147
  167.500  158.284   47.498    0.226    0.034   27.926
  167.750  158.284   51.458    0.228    0.037   28.196
  168.000  158.214   52.969    0.229    0.019   28.202
  168.250  158.204   51.732    0.227    0.020   27.686
  168.500  158.204   52.020    0.225    0.012   26.926
  168.750  158.148   51.395    0.228    0.022   25.943
  169.000  158.628   57.188    0.222    0.031   25.233
  169.250  158.628   54.111    0.218    0.038   24.770
  169.500  158.574   54.403    0.219    0.038   24.546
  169.750  159.564   53.773    0.227    0.047   24.552
  170.000  159.564   53.148    0.224    0.044   25.022
  170.250  160.017   50.379    0.221    0.031   25.500
  170.500  160.001   50.364    0.228    0.038   25.989
  170.750  159.971   54.016    0.233    0.033   26.239
  171.000  159.924   53.082    0.232    0.035   25.759
  171.250  159.918   53.678    0.243    0.027   25.288
  171.500  159.895   55.803    0.238    0.041   24.825
  171.750  159.895   52.729    0.244    0.064   24.371
  172.000  159.828   52.407    0.250    0.063   24.150
  172.250  159.812   56.367    0.248    0.054   24.150
  172.500  159.812   53.902    0.241    0.053   24.162
  172.750  159.752   54.194    0.236    0.045   23.942
  173.000  159.725   54.178    0.236    0.040   24.173
  173.250  159.725   52.017    0.249    0.042   24.179
  173.500  159.666   55.979    0.256    0.038   24.185
  173.750  159.642   53.822    0.252    0.042   23.743
  174.000  159.622   52.889    0.256    0.056   23.309
  174.250  159.576   55.928    0.256    0.036   22.883
  174.500  159.566   61.115    0.255    0.025   22.464
  174.750  159.566   60.181    0.252    0.022   22.470
  175.000  159.503   61.083    0.244    0.037   22.474
  175.250  159.483   61.371    0.242    0.042   22.481
  175.500  159.437   61.657    0.250    0.041   22.481
  175.750  159.427   60.116    0.245    0.027   22.283
  176.000  159.407   57.959    0.241    0.009   22.079
  176.250  159.407   58.861    0.249    0.003   21.879
  176.500  158.841   59.762    0.256    0.016   21.681
  176.750  158.817   57.297    0.253    0.039   21.686
  177.000  158.787   60.648    0.244    0.041   21.693
  177.250  158.787   65.220    0.249    0.047   21.698
  177.500  159.241   60.308    0.241    0.041   21.500
  177.750  159.221   57.232    0.246    0.044   21.108
  178.000  159.191   57.524    0.259    0.061   20.528
  178.250  159.191   59.341    0.248    0.055   20.153
  178.500  159.135   62.691    0.246    0.054   19.783
  178.750  158.602   56.862    0.243    0.047   19.062
  179.000  158.602   57.154    0.234    0.044   18.538
  179.250  158.545   57.444    0.223    0.048   18.199
  179.500  159.032   58.344    0.209    0.048   19.255
  179.750  159.002   57.104    0.187    0.049   21.148
  180.000  159.002   53.418    0.171    0.025   24.115
  180.250  158.936   26.792    0.121    0.003   33.781
  180.500  158.409   16.072    0.116    0.016   47.767
  180.750  158.409   21.561    0.134    0.008   64.456
  181.000  157.836   22.766    0.151    0.003   74.186
  181.250  157.313   25.503    0.151    0.006   60.967
  181.500  157.313   26.101    0.145    0.009   57.655
  181.750  156.751   25.777    0.146    0.005   61.574
  182.000  156.751   29.433    0.150    0.012   62.166
  182.250  156.171   28.803    0.156    0.012   52.054
  182.500  156.155   29.093    0.180    0.015   42.779
  182.750  156.638   38.253    0.211    0.020   32.623
  183.000  157.118   47.414    0.230    0.017   26.558
  183.250  157.094   46.782    0.215    0.024   24.194
  183.500  157.558   44.628    0.206    0.039   23.528
  183.750  157.551   50.117    0.203    0.032   24.204
  184.000  157.518   53.465    0.196    0.024   25.609
  184.250  157.475   52.226    0.181    0.012   28.392
  184.500  157.465   49.458    0.156    0.006   36.222
  184.750  157.465   41.184    0.131    0.017   39.781
  185.000  157.402   27.403    0.109    0.017   46.217
  185.250  157.392   21.882    0.131    0.010   56.797
  185.500  157.362   15.137    0.141    0.006   57.882
  185.750  157.332   20.015    0.148    0.007   53.723
  186.000  157.305   27.645    0.144    0.019   50.802
  186.250  157.276   30.993    0.137    0.014   50.815
  186.500  157.276   25.776    0.128    0.022   53.761
  186.750  157.722   21.172    0.124    0.016   60.165
  187.000  157.712   19.933    0.126    0.020   64.251
  187.250  157.679   22.668    0.122    0.011   64.873
  187.500  157.679   19.596    0.122   -0.001   61.346
  187.750  157.626   16.521    0.130    0.009   58.555
  188.000  157.606   16.503    0.133    0.010   56.421
  188.250  157.606   20.767    0.135    0.009   55.389
  188.500  157.550   24.116    0.131    0.002   55.402
  188.750  157.523   22.876    0.124    0.007   60.283
  189.000  158.003   20.413    0.117    0.004   73.391
  189.250  158.486   20.399    0.111    0.010   79.115
  189.500  158.460   16.102    0.112    0.004   82.150
  189.750  158.433   13.639    0.117    0.004   83.722
  190.000  158.403   16.985    0.126    0.024   80.666
  190.250  158.403   16.358    0.135    0.036   73.481
  190.500  158.347   19.095    0.133    0.027   66.932
  190.750  158.327   25.195    0.135    0.037   62.120
