~VERSION INFORMATION
 VERS.                 2.0:   CWLS LOG ASCII STANDARD -VERSION 2.0
 WRAP.                  NO:   ONE LINE PER DEPTH STEP
~WELL INFORMATION BLOCK
#MNEM.UNIT           DATA                    DESCRIPTION OF MNEMONIC
#---------    -------------------            -------------------------------
# Generated from Intellog Unique Number	CN_94_101/WELL/3616
WELL.         07-24-096-13W4                 : Well_name    - WELL
LOC .         AA/07-24-096-13W4/0            : Location     - LOCATION
UWI .         AA/07-24-096-13W400            : Uwi          - UNIQUE WELL ID
ENTR.         JOETTE                         : Entered      - ENTERED BY
SRVC.         SCHLUMBERGER                   : Scn          - SERVICE COMPANY
DATE.         08\04\92                       : Date         - LOG DATE
STRT.F        50                             : top_depth    - START DEPTH
STOP.F        674.18                         : bot_depth    - STOP DEPTH
STEP.F        0.8202                         : increment    - STEP LENGTH
 NULL. -999.2500:NULL Value
~CURVE INFORMATION BLOCK
#MNEM UNIT       ERCB CURVE CODE    CURVE DESCRIPTION
#-----------   ------------------   ----------------------------------
DEPT.F        00 001 00 00         : DEPTH        - DEPTH
ILD .OHMM     00 120 00 00         : RESD         - DEEP RESISTIVITY (DIL)
GR  .API      00 310 00 00         : GR           - GAMMA RAY
DPHI.V/V      00 890 00 00         : PHID         - DENSITY POROSITY (SANDSTONE)
~PARAMETER INFORMATION
#MNEM.UNIT           DATA             DESCRIPTION OF MNEMONIC
#---------         -----------     ------------------------------
GL  .M        413.309              : gl           - GROUND LEVEL ELEVATION
EREF.M        414.528              : kb           - ELEVATION OF DEPTH REFERENCE
DATM.M        414.528              : datum        - DATUM ELEVATION
TDD .M        209.55               : tdd          - TOTAL DEPTH DRILLER
RUN .         ONE                  : Run          - RUN NUMBER
ENG .         JO                   : Engineer     - RECORDING ENGINEER
WIT .         TIM                  : Witness      - WITNESSED BY
MUD .         GEL                  : Mud_type     - MUD TYPE
MATR.         SANDSTONE            : Logunit      - NEUTRON MATRIX
TMAX.F        89.6                 : BHT          - MAXIMUM RECORDED TEMPERATURE
BHTD.F        687.5                : BHTDEP       - MAXIMUM RECORDED TEMPERATURE
RMT .F        66.2                 : MDTP         - TEMPERATURE OF MUD
MUDD.LB/G     9                    : MWT          - MUD DENSITY
NEUT.         1                    : NEUTRON      - NEUTRON TYPE
RESI.         0                    : RESIST       - RESISTIVITY TYPE
RM  .OHMM     5.3                  : RM           - RESISTIVITY OF MUD
RMC .OHMM     5.3                  : RMC          - RESISTIVITY OF MUD CAKE
RMF .OHMM     5.3                  : RMF          - RESISTIVITY OF MUD FILTRATE
SUFT.F        39.2                 : SUFT         - SURFACE TEMPERATURE
~A  DEPTH     RESD       GR     PHID
   50.000    9.543   92.867    0.269
   50.820    9.553   96.506    0.256
   51.640    8.890   92.556    0.250
   52.461    8.426   87.025    0.240
   53.281    7.702   84.293    0.240
   54.101    7.433   85.918    0.241
   54.921    8.784   84.381    0.272
   55.742    9.122   83.230    0.288
   56.562    9.135   84.878    0.284
   57.382    8.347   84.126    0.282
   58.202    7.914   84.568    0.290
   59.022    7.499   90.187    0.291
   59.843    6.607   93.815    0.281
   60.663    6.739   89.877    0.232
   61.483    7.262   87.930    0.241
   62.303    6.761   90.363    0.266
   63.123    6.175   91.624    0.259
   63.944    5.644   90.463    0.257
   64.764    6.307   87.321    0.263
   65.584    7.316   85.385    0.249
   66.404    7.063   85.418    0.251
   67.224    5.886   88.648    0.234
   68.045    6.347   83.913    0.251
   68.865    6.713   88.747    0.245
   69.685    6.247   87.209    0.246
   70.505    6.492   86.855    0.253
   71.326    6.744   87.308    0.258
   72.146    6.511   85.737    0.252
   72.966    7.018   81.799    0.239
   73.786    7.158   82.639    0.243
   74.606    6.659   83.900    0.253
   75.427    5.974   82.340    0.244
   76.247    5.874   81.588    0.251
   77.067    5.884   82.826    0.285
   77.887    5.893   82.472    0.294
   78.707    5.794   81.731    0.283
   79.528    6.018   80.580    0.274
   80.348    6.979   82.626    0.269
   81.168    7.801   79.474    0.267
   81.988    8.104   80.314    0.262
   82.808    6.633   83.942    0.266
   83.629    5.430   84.805    0.228
   84.449    4.446   83.654    0.217
   85.269    4.214   88.864    0.269
   86.089    4.070   87.725    0.268
   86.909    3.929   86.563    0.284
   87.730    3.655   85.025    0.314
   88.550    3.464   85.069    0.304
   89.370    3.469   88.299    0.287
   90.190    3.671   90.334    0.275
   91.010    3.609   86.396    0.295
   91.831    3.122   84.062    0.305
   92.651    3.489   84.902    0.278
   93.471    3.761   84.548    0.243
   94.291    3.631   83.796    0.232
   95.112    3.441   81.848    0.235
   95.932    3.446   86.273    0.229
   96.752    3.452   85.941    0.239
   97.572    3.458   86.383    0.273
   98.392    3.462   88.407    0.265
   99.213    3.471   91.250    0.271
  100.033    3.474   91.294    0.262
  100.853    3.478   89.745    0.254
  101.673    3.482   88.595    0.267
  102.493    3.489   89.833    0.269
  103.314    3.491   91.083    0.254
  104.134    3.496   89.933    0.250
  104.954    3.503   85.187    0.246
  105.774    3.706   82.443    0.251
  106.594    3.921   84.888    0.246
  107.415    4.150   82.144    0.262
  108.235    4.079   82.984    0.266
  109.055    4.010   85.429    0.254
  109.875    4.244   82.276    0.253
  110.696    4.745   80.329    0.248
  111.516    4.665   78.382    0.234
  112.336    4.673   70.063    0.249
  113.156    4.943   74.488    0.216
  113.976    5.527   80.129    0.228
  114.797    4.361   82.153    0.242
  115.617    3.440   79.432    0.273
  116.437    3.143   79.454    0.269
  117.257    3.327   84.310    0.254
  118.077    3.858   84.730    0.242
  118.898    4.556   83.977    0.245
  119.718    5.095   81.632    0.254
  120.538    5.011   82.085    0.253
  121.358    4.750   79.353    0.249
  122.178    4.584   78.589    0.231
  122.999    4.507   81.830    0.247
  123.819    5.131   82.262    0.268
  124.639    6.404   80.314    0.274
  125.459    7.846   80.757    0.221
  126.280    7.574   79.219    0.173
  127.100    6.200   74.075    0.148
  127.920    5.171   62.570    0.140
  128.740    6.218   55.435    0.184
  129.560    8.823   53.886    0.203
  130.381   10.809   59.118    0.188
  131.201   13.747   62.348    0.261
  132.021   11.457   66.795    0.252
  132.841    8.715   69.615    0.249
  133.661    8.727   70.478    0.269
  134.482    9.234   68.531    0.275
  135.302   10.322   65.776    0.281
  136.122   11.973   62.225    0.276
  136.942   12.667   62.280    0.265
  137.762   12.455   62.335    0.271
  138.583   11.591   65.952    0.263
  139.403   10.787   67.999    0.251
  140.223    9.856   69.237    0.252
  141.043    8.369   71.682    0.247
  141.864    6.604   74.115    0.248
  142.684    5.310   77.743    0.233
  143.504    5.720   73.816    0.238
  144.324    6.634   75.044    0.258
  145.144    6.767   79.103    0.246
  145.965    6.414   77.532    0.235
  146.785    6.306   74.789    0.257
  147.605    6.551   74.036    0.252
  148.425    7.059   72.487    0.201
  149.245    7.333   72.532    0.211
  150.066    7.343   70.197    0.232
  150.886    7.356   69.832    0.251
  151.706    7.367   75.064    0.238
  152.526    5.400   79.489    0.231
  153.346    3.748   84.721    0.207
  154.167    3.489   86.358    0.212
  154.987    3.973   83.614    0.176
  155.807    4.608   80.484    0.149
  156.627    4.615   78.127    0.119
  157.448    4.293   81.755    0.063
  158.268    3.923   84.996    0.037
  159.088    3.718   85.837    0.039
  159.908    4.081   85.483    0.244
  160.728    4.823   86.323    0.220
  161.549    5.293   87.584    0.213
  162.369    5.600   82.042    0.230
  163.189    5.610   84.088    0.244
  164.009    5.416   81.333    0.232
  164.829    5.425   80.183    0.238
  165.650    5.738   80.227    0.246
  166.470    6.069   77.881    0.228
  167.290    6.784   75.547    0.244
  168.110    7.872   75.204    0.245
  168.930    7.323   76.443    0.224
  169.751    5.886   76.487    0.216
  170.571    4.646   73.334    0.208
  171.391    5.191   67.393    0.190
  172.211    7.364   60.667    0.104
  173.031   15.357   49.561    0.028
  173.852   23.024   59.561   -0.005
  174.672   39.232   66.386   -0.020
  175.492   40.769   72.016    0.022
  176.312   28.810   73.653    0.087
  177.133   13.608   70.522    0.140
  177.953    8.615   68.962    0.181
  178.773    6.798   70.201    0.236
  179.593    6.212   73.840    0.237
  180.413    5.999   75.090    0.240
  181.234    6.958   76.727    0.246
  182.054    7.922   77.557    0.262
  182.874    7.786   75.621    0.265
  183.694    5.816   73.695    0.235
  184.514    5.824   74.514    0.243
  185.335    6.633   74.967    0.248
  186.155    6.767   71.814    0.238
  186.975    6.414   68.672    0.236
  187.795    6.080   69.911    0.232
  188.615    6.919   72.356    0.239
  189.436    6.803   75.188    0.251
  190.256    6.331   73.240    0.243
  191.076    5.577   74.081    0.220
  191.896    5.797   78.516    0.234
  192.717    5.393   75.375    0.254
  193.537    5.206   74.235    0.249
  194.357    6.037   76.259    0.243
  195.177    6.631   81.491    0.242
  195.997    6.635   82.354    0.246
  196.818    6.063   81.978    0.252
  197.638    6.186   81.236    0.244
  198.458    7.173   84.455    0.226
  199.278    6.203   90.097    0.167
  200.098    4.719   86.944    0.143
  200.919    4.904   83.016    0.119
  201.739    5.188   82.662    0.108
  202.559    4.741   88.691    0.134
  203.379    4.098   89.520    0.215
  204.199    3.355   93.945    0.232
  205.020    3.122   96.390    0.213
  205.840    3.427   96.035    0.219
  206.660    4.050   96.091    0.251
  207.480    3.769   92.539    0.221
  208.301    3.774   85.017    0.215
  209.121    4.065   90.238    0.221
  209.941    4.148   94.287    0.216
  210.761    4.004   94.331    0.169
  211.581    4.396   95.569    0.130
  212.402    4.825   92.815    0.175
  213.222    4.744   89.673    0.202
  214.042    4.580   86.929    0.207
  214.862    4.935   90.558    0.225
  215.682    5.519   88.621    0.221
  216.503    4.949   85.469    0.227
  217.323    5.048   81.530    0.233
  218.143    5.642   78.388    0.227
  218.963    6.915   75.246    0.224
  219.783    7.873   75.290    0.228
  220.604    8.963   78.543    0.217
  221.424   10.208   77.381    0.218
  222.244   10.033   79.029    0.212
  223.064   10.055   80.677    0.226
  223.885   10.634   79.913    0.219
  224.705   11.671   76.373    0.204
  225.525   11.692   79.603    0.217
  226.345   11.708   80.864    0.217
  227.165   12.617   78.906    0.205
