~VERSION INFORMATION
 VERS.                 2.0:   CWLS LOG ASCII STANDARD -VERSION 2.0
 WRAP.                  NO:   ONE LINE PER DEPTH STEP
~WELL INFORMATION BLOCK
#MNEM.UNIT           DATA                    DESCRIPTION OF MNEMONIC
#---------    -------------------            -------------------------------
# Generated from Intellog Unique Number	CN_94_101/WELL/2349
WELL.         01-18-097-10W4                 : Well_name    - WELL
LOC .         AA/01-18-097-10W4/0            : Location     - LOCATION
UWI .         AA/01-18-097-10W400            : Uwi          - UNIQUE WELL ID
ENTR.         JOETTE                         : Entered      - ENTERED BY
SRVC.         SCHLUMBERGER                   : Scn          - SERVICE COMPANY
DATE.         08/13/92                       : Date         - LOG DATE
STRT.M        0                              : top_depth    - START DEPTH
STOP.M        75                             : bot_depth    - STOP DEPTH
STEP.M        0.25                           : increment    - STEP LENGTH
 NULL. -999.2500:NULL Value
~CURVE INFORMATION BLOCK
#MNEM UNIT       ERCB CURVE CODE    CURVE DESCRIPTION
#-----------   ------------------   ----------------------------------
DEPT.M        00 001 00 00         : DEPTH        - DEPTH
DPHI.V/V      00 890 00 00         : PHID         - DENSITY POROSITY (SANDSTONE)
NPHI.V/V      00 330 00 00         : PHIN         - NEUTRON POROSITY (SANDSTONE)
ILD .OHMM     00 120 00 00         : RESD         - DEEP RESISTIVITY (DIL)
GR  .API      00 310 00 00         : GR           - GAMMA RAY
~PARAMETER INFORMATION
#MNEM.UNIT           DATA             DESCRIPTION OF MNEMONIC
#---------         -----------     ------------------------------
GL  .M        277.5                : gl           - GROUND LEVEL ELEVATION
EREF.M        277.5                : kb           - ELEVATION OF DEPTH REFERENCE
DATM.M        277.5                : datum        - DATUM ELEVATION
TDD .M        81                   : tdd          - TOTAL DEPTH DRILLER
RUN .         ONE                  : Run          - RUN NUMBER
ENG .         JO                   : Engineer     - RECORDING ENGINEER
WIT .         TIM                  : Witness      - WITNESSED BY
MUD .         GEL                  : Mud_type     - MUD TYPE
MATR.         SANDSTONE            : Logunit      - NEUTRON MATRIX
TMAX.C        4                    : BHT          - MAXIMUM RECORDED TEMPERATURE
BHTD.M        81                   : BHTDEP       - MAXIMUM RECORDED TEMPERATURE
RMT .C        4                    : MDTP         - TEMPERATURE OF MUD
MUDD.KG/M     1300                 : MWT          - MUD DENSITY
NEUT.         1                    : NEUTRON      - NEUTRON TYPE
RESI.         0                    : RESIST       - RESISTIVITY TYPE
RM  .OHMM     15                   : RM           - RESISTIVITY OF MUD
RMC .OHMM     15                   : RMC          - RESISTIVITY OF MUD CAKE
RMF .OHMM     15                   : RMF          - RESISTIVITY OF MUD FILTRATE
SUFT.C        4                    : SUFT         - SURFACE TEMPERATURE
~A  DEPTH     PHID     PHIN     RESD       GR
    0.000    0.425    0.765    1.270  157.230
    0.250    0.426    0.773    1.201  144.802
    0.500    0.425    0.778    1.073  147.343
    0.750    0.425    0.780    0.940  160.487
    1.000    0.424    0.780    0.824  176.138
    1.250    0.422    0.779    0.925  157.461
    1.500    0.421    0.776    1.078  176.854
    1.750    0.417    0.768    1.282  180.018
    2.000    0.413    0.767    1.412  145.750
    2.250    0.416    0.770    1.441  130.827
    2.500    0.414    0.771    1.442  144.595
    2.750    0.414    0.767    1.365  158.997
    3.000    0.417    0.761    1.315  177.755
    3.250    0.423    0.755    1.267  162.208
    3.500    0.425    0.749    1.198  157.277
    3.750    0.425    0.753    1.156  161.689
    4.000    0.421    0.762    1.093  152.368
    4.250    0.416    0.757    1.053  148.036
    4.500    0.416    0.744    0.904  142.469
    4.750    0.417    0.739    0.904  140.644
    5.000    0.422    0.740    0.861  141.314
    5.250    0.424    0.743    0.861  154.470
    5.500    0.426    0.751    0.819  150.785
    5.750    0.425    0.751    0.819  168.284
    6.000    0.424    0.745    0.819  192.666
    6.250    0.425    0.747    0.861  169.000
    6.500    0.425    0.746    0.904  130.365
    6.750    0.427    0.756    1.158   86.741
    7.000    0.424    0.744    1.994   33.749
    7.250    0.406    0.712    2.313   45.657
    7.500    0.369    0.674   38.729   35.100
    7.750    0.316    0.441   99.081   40.760
    8.000    0.274    0.409  104.103   32.698
    8.250    0.252    0.432  147.149   34.003
    8.500    0.249    0.493  154.607   31.555
    8.750    0.248    0.487  154.607   37.826
    9.000    0.257    0.438  154.607   39.744
    9.250    0.256    0.452  147.149   39.790
    9.500    0.242    0.477  133.296   42.331
    9.750    0.231    0.499  126.866   36.140
   10.000    0.215    0.520  126.866   35.562
   10.250    0.216    0.542  147.149   37.480
   10.500    0.212    0.487  147.149   27.547
   10.750    0.207    0.504  140.051   30.712
   11.000    0.196    0.453  140.051   36.995
   11.250    0.184    0.481  140.051   42.031
   11.500    0.158    0.466  147.149   36.463
   11.750    0.209    0.455  170.676   29.037
   12.000    0.260    0.411  169.335   34.685
   12.250    0.204    0.375  252.848   45.969
   12.500    0.172    0.432  225.801   39.143
   12.750    0.166    0.476  197.975   32.340
   13.000    0.163    0.487  187.177   44.883
   13.250    0.158    0.468  164.058   46.154
   13.500    0.158    0.490  141.087   47.459
   13.750    0.162    0.501  170.853   48.741
   14.000    0.160    0.430  219.044   56.895
   14.250    0.163    0.469  161.791   58.189
   14.500    0.164    0.464  131.422   70.097
   14.750    0.162    0.440  153.259   55.163
   15.000    0.160    0.445  159.352   57.080
   15.250    0.160    0.438  139.671   69.612
   15.500    0.160    0.425  145.270   58.420
   15.750    0.159    0.447  120.267   64.715
   16.000    0.159    0.447  111.601   62.890
   16.250    0.160    0.452  132.601   64.807
   16.500    0.164    0.459  170.003   64.853
   16.750    0.165    0.449  135.491   59.286
   17.000    0.166    0.419   91.000   67.441
   17.250    0.166    0.430  104.089   59.379
   17.500    0.165    0.439  119.060   50.693
   17.750    0.162    0.425  112.602   46.362
   18.000    0.162    0.430   86.394   60.765
   18.250    0.162    0.443  100.717   65.177
   18.500    0.163    0.483  185.318   70.213
   18.750    0.163    0.499  189.117   65.893
   19.000    0.164    0.439  131.983   54.089
   19.250    0.161    0.423  142.549   54.135
   19.500    0.158    0.459  118.015   57.923
   19.750    0.153    0.480   94.057   66.078
   20.000    0.152    0.466   45.709   96.073
   20.250    0.156    0.470   43.229  115.465
   20.500    0.162    0.509   68.360  107.404
   20.750    0.166    0.479   72.466   94.341
   21.000    0.164    0.464   84.453   84.407
   21.250    0.162    0.427  123.689   95.057
   21.500    0.162    0.460   70.007   88.254
   21.750    0.161    0.476   54.761   88.912
   22.000    0.161    0.471   86.514  113.294
   22.250    0.161    0.455  108.827   80.896
   22.500    0.160    0.449  147.761   67.221
   22.750    0.160    0.440  172.258   60.407
   23.000    0.161    0.426  216.687   51.709
   23.250    0.162    0.418  176.013   48.013
   23.500    0.163    0.418  118.216   50.554
   23.750    0.163    0.452   66.888   76.184
   24.000    0.163    0.449   90.789   65.627
   24.250    0.163    0.431   94.428   66.297
   24.500    0.161    0.415   56.583   83.183
   24.750    0.159    0.459   50.547   76.992
   25.000    0.159    0.462   56.746   77.662
   25.250    0.161    0.473   49.721   82.097
   25.500    0.162    0.469   55.801   88.993
   25.750    0.156    0.439   47.988   84.673
   26.000    0.153    0.445   86.634   84.719
   26.250    0.157    0.432   49.975   72.904
   26.500    0.159    0.441   36.218   92.296
   26.750    0.152    0.448   28.865   91.719
   27.000    0.149    0.485   24.348  118.596
   27.250    0.156    0.496   30.638  106.791
   27.500    0.159    0.489   44.872   95.599
   27.750    0.158    0.479   66.981   76.311
   28.000    0.160    0.458  167.122   73.862
   28.250    0.159    0.468  259.218   63.918
   28.500    0.159    0.473  222.851   60.846
   28.750    0.160    0.484  167.763   70.882
   29.000    0.161    0.489  141.555   72.800
   29.250    0.163    0.475  211.368   57.242
   29.500    0.165    0.463  224.062   66.031
   29.750    0.166    0.459  156.271   76.057
   30.000    0.167    0.502   85.147   84.211
   30.250    0.166    0.494   67.862   81.763
   30.500    0.160    0.468   73.318   80.561
   30.750    0.157    0.495   66.754   78.736
   31.000    0.158    0.509   54.206   71.922
   31.250    0.159    0.510   90.722   71.968
   31.500    0.160    0.471  123.140   64.530
   31.750    0.159    0.454   57.627   75.803
   32.000    0.159    0.458  152.176   70.859
   32.250    0.160    0.458   98.392   58.443
   32.500    0.165    0.452   78.443   65.962
   32.750    0.168    0.483   84.724   67.891
   33.000    0.169    0.448  114.998   76.034
   33.250    0.169    0.507  121.904   75.456
   33.500    0.164    0.522   61.557   86.117
   33.750    0.167    0.526  316.353   88.034
   34.000    0.166    0.524  229.264   75.606
   34.250    0.164    0.448  197.163   80.019
   34.500    0.158    0.410  137.554   83.183
   34.750    0.155    0.440   59.639   79.487
   35.000    0.155    0.430   51.288   76.415
   35.250    0.155    0.452   50.386   83.322
   35.500    0.156    0.463   40.158   80.873
   35.750    0.158    0.435   76.754   81.543
   36.000    0.159    0.468   74.008   68.492
   36.250    0.163    0.441   69.971   67.302
   36.500    0.162    0.433   70.060   71.079
   36.750    0.158    0.428   62.586   74.867
   37.000    0.155    0.443   45.357   75.537
   37.250    0.156    0.427   36.843   69.981
   37.500    0.159    0.445   34.844   72.511
   37.750    0.162    0.474   83.669   73.181
   38.000    0.163    0.434  113.602   54.505
   38.250    0.163    0.457  151.291   53.303
   38.500    0.162    0.446  111.747   57.727
   38.750    0.162    0.454   84.124   64.010
   39.000    0.160    0.473   53.350   71.541
   39.250    0.160    0.487   49.506   79.071
   39.500    0.159    0.502   51.490   79.753
   39.750    0.156    0.491   56.699   80.411
   40.000    0.152    0.461   62.453   64.876
   40.250    0.152    0.424   54.722   67.406
   40.500    0.153    0.397   58.008   61.839
   40.750    0.155    0.483   62.673   58.767
   41.000    0.156    0.413   90.090   66.921
   41.250    0.155    0.393   67.820   57.611
   41.500    0.155    0.447   51.039   53.916
   41.750    0.154    0.444   54.104   61.446
   42.000    0.153    0.451   52.168   76.473
   42.250    0.151    0.469   43.175   77.142
   42.500    0.150    0.439   33.127   74.070
   42.750    0.150    0.412   26.402   71.622
   43.000    0.151    0.403   22.277   68.561
   43.250    0.151    0.412   17.755   71.714
