~VERSION INFORMATION
 VERS.                 2.0:   CWLS LOG ASCII STANDARD -VERSION 2.0
 WRAP.                  NO:   ONE LINE PER DEPTH STEP
~WELL INFORMATION BLOCK
#MNEM.UNIT           DATA                    DESCRIPTION OF MNEMONIC
#---------    -------------------            -------------------------------
# Generated from Intellog Unique Number	CN_94_101/WELL/4986
WELL.         06-31-101-12W4                 : Well_name    - WELL
LOC .         AA/06-31-101-12W4/0            : Location     - LOCATION
UWI .         AA/06-31-101-12W400            : Uwi          - UNIQUE WELL ID
ENTR.         TIM                            : Entered      - ENTERED BY
SRVC.         SCHLUMBERGER                   : Scn          - SERVICE COMPANY
DATE.         08/13/92                       : Date         - LOG DATE
STRT.M        350                            : top_depth    - START DEPTH
STOP.M        580                            : bot_depth    - STOP DEPTH
STEP.M        0.25                           : increment    - STEP LENGTH
NULL. -999.2500:NULL Value
~CURVE INFORMATION BLOCK
#MNEM UNIT       ERCB CURVE CODE    CURVE DESCRIPTION
#-----------   ------------------   ----------------------------------
DEPT.M        00 001 00 00         : DEPTH        - DEPTH
GR  .API      00 310 00 00         : GR           - GAMMA RAY
ILD .OHMM     00 120 00 00         : RESD         - DEEP RESISTIVITY (DIL)
NPHI.V/V      00 330 00 00         : PHIN         - NEUTRON POROSITY (SANDSTONE)
DPHI.V/V      00 890 00 00         : PHID         - DENSITY POROSITY (SANDSTONE)
~PARAMETER INFORMATION
#MNEM.UNIT           DATA             DESCRIPTION OF MNEMONIC
#---------         -----------     ------------------------------
GL  .M        788.8                : gl           - GROUND LEVEL ELEVATION
EREF.M        792.2                : kb           - ELEVATION OF DEPTH REFERENCE
DATM.M        792.2                : datum        - DATUM ELEVATION
TDD .M        586                  : tdd          - TOTAL DEPTH DRILLER
RUN .         ONE                  : Run          - RUN NUMBER
ENG .         JO                   : Engineer     - RECORDING ENGINEER
WIT .         TIM                  : Witness      - WITNESSED BY
MUD .         GEL                  : Mud_type     - MUD TYPE
MATR.         SANDSTONE            : Logunit      - NEUTRON MATRIX
TMAX.C        17                   : BHT          - MAXIMUM RECORDED TEMPERATURE
BHTD.M        586                  : BHTDEP       - MAXIMUM RECORDED TEMPERATURE
RMT .C        15                   : MDTP         - TEMPERATURE OF MUD
MUDD.KG/M     1040                 : MWT          - MUD DENSITY
NEUT.         1                    : NEUTRON      - NEUTRON TYPE
RESI.         0                    : RESIST       - RESISTIVITY TYPE
RM  .OHMM     0.75                 : RM           - RESISTIVITY OF MUD
RMC .OHMM     0.75                 : RMC          - RESISTIVITY OF MUD CAKE
RMF .OHMM     0.75                 : RMF          - RESISTIVITY OF MUD FILTRATE
SUFT.C        4                    : SUFT         - SURFACE TEMPERATURE
~A  DEPTH       GR     RESD     PHIN     PHID
# ...
  437.000   83.428    4.019    0.514    0.328
  437.250   82.226    3.953    0.497    0.354
  437.500   81.036    3.958    0.487    0.347
  437.750   80.435    4.039    0.486    0.318
  438.000   79.858    4.122    0.492    0.316
  438.250   80.529    4.130    0.521    0.314
  438.500   84.335    3.985    0.532    0.314
  438.750   86.255    3.916    0.545    0.318
  439.000   85.065    3.849    0.559    0.333
  439.250   84.476    3.932    0.557    0.347
  439.500   83.898    4.009    0.559    0.352
  439.750   83.946    4.016    0.564    0.348
  440.000   85.242    4.024    0.558    0.351
  440.250   85.913    4.030    0.550    0.352
  440.500   85.972    4.037    0.543    0.356
  440.750   86.007    4.041    0.543    0.355
  441.000   86.691    4.050    0.542    0.355
  441.250   87.362    3.981    0.538    0.357
  441.500   87.397    3.915    0.534    0.360
  441.750   87.468    3.918    0.534    0.361
  442.000   87.491    3.852    0.561    0.362
  442.250   86.301    3.858    0.586    0.357
  442.500   83.862    4.168    0.586    0.350
  442.750   82.637    4.499    0.537    0.342
  443.000   80.822    4.947    0.513    0.335
  443.250   80.233    5.047    0.486    0.328
  443.500   80.916    4.870    0.468    0.315
  443.750   81.576    4.363    0.474    0.308
  444.000   82.872    4.207    0.498    0.307
  444.250   86.678    3.701    0.524    0.308
  444.500   89.847    3.569    0.579    0.320
  444.750   94.277    3.441    0.594    0.337
  445.000   97.459    3.386    0.571    0.345
  445.250   98.731    3.388    0.556    0.326
  445.500  101.300    3.461    0.558    0.315
  445.750  101.959    3.465    0.562    0.310
  446.000  103.244    3.537    0.550    0.299
  446.250  104.540    3.542    0.530    0.311
  446.500  105.223    3.613    0.527    0.317
  446.750  104.021    3.900    0.551    0.325
  447.000  100.934    4.290    0.553    0.295
  447.250   95.985    4.297    0.520    0.285
  447.500   87.289    4.148    0.508    0.272
  447.750   82.965    4.076    0.478    0.250
  448.000   80.526    4.009    0.437    0.240
  448.250   80.573    4.013    0.496    0.252
  448.500   83.106    4.097    0.539    0.311
  448.750   91.272    4.424    0.541    0.330
  449.000  101.334    4.772    0.542    0.321
  449.250  100.768    5.762    0.510    0.301
  449.500  100.167    7.226    0.474    0.286
  449.750   97.728    7.800    0.439    0.280
  450.000   98.400    8.113    0.426    0.281
  450.250   99.059    8.126    0.425    0.280
  450.500   99.130    7.985    0.424    0.275
  450.750   98.552    7.711    0.420    0.270
  451.000   96.738    7.434    0.443    0.261
  451.250   94.900    7.040    0.458    0.253
  451.500   93.686    6.546    0.468    0.259
  451.750   92.472    6.198    0.471    0.265
  452.000   91.270    5.981    0.474    0.270
  452.250   90.693    5.879    0.478    0.274
  452.500   90.763    5.889    0.474    0.279
  452.750   90.799    6.010    0.429    0.281
  453.000   90.221    6.367    0.422    0.275
  453.250   90.280    6.747    0.418    0.267
  453.500   90.304    6.886    0.423    0.263
  453.750   89.750    6.769    0.431    0.265
  454.000   89.161    6.531    0.442    0.267
  454.250   89.196    6.421    0.471    0.268
  454.500   88.618    6.312    0.478    0.266
  454.750   87.428    6.563    0.482    0.256
  455.000   86.226    6.955    0.403    0.222
  455.250   85.013    7.366    0.392    0.160
  455.500   81.325    7.947    0.365    0.099
  455.750   77.625    8.740    0.352    0.121
  456.000   76.423    8.592    0.398    0.246
  456.250   81.466    7.556    0.419    0.269
  456.500   87.133    7.285    0.436    0.288
  456.750   90.939    6.522    0.447    0.290
  457.000   90.974    6.295    0.473    0.302
  457.250   91.021    6.546    0.477    0.312
  457.500   90.444    6.677    0.451    0.297
  457.750   91.127    7.083    0.438    0.288
  458.000   93.672    7.088    0.441    0.288
  458.250   94.332    6.346    0.451    0.291
  458.500   92.517    5.474    0.465    0.319
  458.750   91.303    5.085    0.474    0.312
  459.000   91.350    4.728    0.481    0.315
  459.250   93.283    4.736    0.506    0.323
  459.500   93.954    4.835    0.525    0.329
  459.750   94.626    4.932    0.541    0.337
  460.000   95.309    5.227    0.513    0.334
  460.250   95.981    5.433    0.487    0.311
  460.500   96.640    5.649    0.463    0.305
  460.750   96.699    5.661    0.458    0.294
  461.000   96.746    5.462    0.450    0.294
  461.250   94.295    5.270    0.447    0.296
  461.500   93.082    5.180    0.449    0.298
  461.750   91.267    4.998    0.449    0.293
  462.000   90.690    4.912    0.459    0.290
  462.250   88.239    4.569    0.483    0.287
  462.500   87.049    4.405    0.476    0.315
  462.750   87.072    3.800    0.469    0.325
  463.000   89.004    3.216    0.500    0.333
  463.250   89.664    2.826    0.527    0.345
  463.500   89.099    2.726    0.562    0.357
  463.750   87.897    2.732    0.591    0.356
  464.000   87.319    2.736    0.550    0.349
  464.250   87.991    2.691    0.534    0.340
  464.500   89.275    2.546    0.535    0.336
  464.750   91.820    2.457    0.564    0.340
  465.000   95.025    2.371    0.587    0.345
  465.250   96.297    2.420    0.582    0.353
  465.500   97.593    2.613    0.588    0.359
  465.750   98.276    2.766    0.596    0.363
  466.000   97.699    3.405    0.605    0.358
  466.250   97.122    4.113    0.600    0.355
  466.500   97.169    4.438    0.558    0.347
  466.750   99.714    4.882    0.547    0.334
  467.000  102.259    5.270    0.522    0.322
  467.250  103.555    5.583    0.510    0.310
  467.500  104.214    6.026    0.494    0.297
  467.750  104.285    6.384    0.479    0.290
  468.000  104.309    6.894    0.478    0.285
  468.250  104.356    7.300    0.472    0.278
  468.500  104.414    7.597    0.463    0.275
  468.750  104.461    7.749    0.464    0.266
  469.000  103.260    7.765    0.499    0.260
  469.250  102.081    7.630    0.501    0.255
  469.500  100.867    7.229    0.500    0.247
  469.750  100.278    6.969    0.488    0.262
  470.000   99.088    7.249    0.462    0.256
  470.250   97.886    7.537    0.416    0.233
  470.500   95.424    7.985    0.361    0.201
  470.750   86.716    8.463    0.344    0.139
  471.000   74.273    8.636    0.284    0.070
  471.250   73.696    8.490    0.331    0.137
  471.500   80.612    8.040    0.393    0.217
  471.750   90.038    7.757    0.459    0.240
  472.000   95.706    7.623    0.463    0.257
  472.250   99.500    7.500    0.462    0.272
  472.500   98.310    7.506    0.464    0.282
  472.750   97.108    7.521    0.470    0.298
  473.000   96.542    7.533    0.477    0.315
  473.250   96.577    7.542    0.486    0.339
  473.500   95.387    7.700    0.497    0.335
  473.750   95.411    7.861    0.509    0.329
  474.000   94.845    8.016    0.531    0.323
  474.250   94.880    8.663    0.525    0.316
  474.500   94.303    8.833    0.493    0.306
  474.750   93.113    9.358    0.455    0.287
  475.000   90.662    9.730    0.444    0.274
  475.250   86.974    9.930    0.436    0.260
  475.500   86.373   10.137    0.423    0.244
  475.750   84.558   10.150    0.411    0.229
  476.000   83.344    9.612    0.393    0.197
  476.250   80.269    8.768    0.299    0.119
  476.500   77.217    7.708    0.288    0.121
  476.750   80.375    6.898    0.340    0.202
  477.000   84.793    5.734    0.426    0.263
  477.250   89.212    4.675    0.479    0.308
  477.500   94.879    4.509    0.498    0.317
  477.750   98.049    4.351    0.515    0.326
  478.000   99.969    4.198    0.524    0.328
  478.250   98.779    3.977    0.524    0.331
  478.500   97.601    3.835    0.522    0.331
  478.750   97.624    3.435    0.506    0.322
  479.000   97.035    3.312    0.513    0.316
  479.250   97.082    3.022    0.537    0.318
  479.500   97.754    2.861    0.560    0.342
  479.750   97.812    2.611    0.563    0.350
  480.000   97.848    2.383    0.569    0.362
  480.250   97.918    2.297    0.574    0.370
