~VERSION INFORMATION
 VERS.                 2.0:   CWLS LOG ASCII STANDARD -VERSION 2.0
 WRAP.                  NO:   ONE LINE PER DEPTH STEP
~WELL INFORMATION BLOCK
#MNEM.UNIT           DATA                    DESCRIPTION OF MNEMONIC
#---------    -------------------            -------------------------------
# Generated from Intellog Unique Number	CC_84_87/WELL/1173
NULL.         -999.25                        : NULL_VALUE
LOC .         08-26-085-09W4                 : Location     - LOCATION          
UWI .         AA/08-26-085-09W400            : Uwi          - UNIQUE WELL ID    
ENTR.         DW                             : Entered      - ENTERED BY        
SRVC.         SCHLUMBERGER                   : Scn          - SERVICE COMPANY   
STRT.M        240                            : top_depth    - START DEPTH       
STOP.M        459.892                        : bot_depth    - STOP DEPTH        
STEP.M        0.3                            : increment    - STEP LENGTH       
~CURVE INFORMATION BLOCK
#MNEM UNIT       ERCB CURVE CODE    CURVE DESCRIPTION
#-----------   ------------------   ----------------------------------
DEPT.M        00 001 00 00         : DEPTH        - DEPTH                       
DPHI.V/V      00 890 00 00         : PHID         - DENSITY POROSITY (LIMESTONE)
NPHI.V/V      00 330 00 00         : PHIN         - NEUTRON POROSITY (LIMESTONE)
GR  .API      00 310 00 00         : GR           - GAMMA RAY                   
ILD .OHMM     00 120 00 00         : RESD         - DEEP RESISTIVITY (DIL)      
~PARAMETER INFORMATION       
#MNEM.UNIT           DATA             DESCRIPTION OF MNEMONIC
#---------         -----------     ------------------------------
GL  .M        700.2                : gl           - GROUND LEVEL ELEVATION      
EREF.M        703.4                : kb           - ELEVATION OF DEPTH REFERENCE
DATM.M        703.4                : datum        - DATUM ELEVATION             
TDD .M        470                  : tdd          - TOTAL DEPTH DRILLER         
RUN .         ONE                  : Run          - RUN NUMBER                  
ENG .         BILL                 : Engineer     - RECORDING ENGINEER          
WIT .         JIM                  : Witness      - WITNESSED BY                
MUD .         GEL                  : Mud_type     - MUD TYPE                    
MATR.         LIMESTONE            : Logunit      - NEUTRON MATRIX              
TMAX.C        20                   : BHT          - MAXIMUM RECORDED TEMPERATURE
BHTD.M        470                  : BHTDEP       - MAXIMUM RECORDED TEMPERATURE
MATR.         1                    : LOGUNIT      - NEUTRON MATRIX              
RMT .C        25                   : MDTP         - TEMPERATURE OF MUD          
NEUT.         1                    : NEUTRON      - NEUTRON TYPE                
RESI.         0                    : RESIST       - RESISTIVITY TYPE            
RMC .OHMM     0.25                 : RMC          - RESISTIVITY OF MUD CAKE     
RMF .OHMM     0.25                 : RMF          - RESISTIVITY OF MUD FILTRATE 
SUFT.C        15                   : SUFT         - SURFACE TEMPERATURE         
~A  DEPTH     PHID     PHIN       GR     RESD
# ...
  292.199    0.410    0.440  108.885    8.475
  292.499    0.441    0.445  108.892    8.170
  292.799    0.522    0.515  102.305    7.874
  293.099    0.537    0.537   97.519    7.181
  293.399    0.532    0.520   98.725    7.050
  293.699    0.337    0.452  100.532    6.923
  293.999    0.259    0.428   98.142    6.925
  294.299    0.250    0.407   98.152    7.057
  294.599    0.244    0.419  105.956    7.191
  294.899    0.249    0.452  108.964    7.194
  295.199    0.266    0.448  104.774    7.197
  295.499    0.279    0.430   96.987    7.199
  295.799    0.306    0.431   92.202    7.070
  296.099    0.307    0.460   91.010    7.338
  296.399    0.327    0.497   93.418    7.906
  296.699    0.308    0.502   94.025    8.519
  296.999    0.261    0.431   80.242    8.681
  297.298    0.268    0.376   75.453    8.848
  297.598    0.312    0.419   84.456    8.850
  297.898    0.330    0.498   88.065    8.690
  298.198    0.257    0.432   84.475    8.223
  298.498    0.255    0.385   79.686    7.498
  298.798    0.264    0.418   74.300    7.227
  299.098    0.274    0.418   74.906    6.967
  299.398    0.280    0.398   77.314    6.968
  299.698    0.281    0.398   71.926    7.101
  299.998    0.290    0.426   67.738    7.236
  300.298    0.295    0.415   76.143    7.514
  300.598    0.296    0.410   77.349    7.516
  300.898    0.297    0.396   66.565    7.518
  301.198    0.295    0.375   60.576    7.383
  301.498    0.284    0.355   68.381    7.385
  301.798    0.280    0.351   57.596    7.526
  302.098    0.283    0.375   50.409    7.813
  302.398    0.293    0.394   51.618    8.263
  302.698    0.292    0.416   54.025    8.577
  302.998    0.272    0.428   54.035    9.071
  303.298    0.246    0.402   51.045    9.417
  303.598    0.265    0.394   50.453    9.598
  303.898    0.284    0.409   51.663    9.601
  304.198    0.313    0.399   52.870    9.426
  304.498    0.307    0.387   52.880    9.431
  304.798    0.290    0.383   51.689    9.260
  305.098    0.287    0.398   54.695    9.093
  305.398    0.314    0.411   58.903    8.930
  305.698    0.314    0.392   56.513    8.768
  305.998    0.297    0.386   52.924    8.772
  306.298    0.286    0.406   58.329    8.774
  306.598    0.281    0.415   62.536    8.778
  306.898    0.297    0.424   56.550    8.944
  307.198    0.309    0.379   55.958    9.115
  307.498    0.311    0.372   58.364    8.787
  307.798    0.309    0.381   62.571    8.628
  308.098    0.300    0.394   68.579    8.630
  308.398    0.297    0.394   67.987    8.320
  308.698    0.294    0.376   65.596    8.169
  308.998    0.292    0.371   67.404    8.327
  309.298    0.233    0.406   78.207    8.329
  309.598    0.236    0.429   93.206    8.331
  309.898    0.222    0.418  107.608    8.181
  310.198    0.230    0.417  114.212    7.886
  310.498    0.235    0.400  118.420    7.461
  310.798    0.222    0.413  117.828    7.060
  311.098    0.239    0.410  113.640    6.933
  311.398    0.264    0.395  107.652    6.807
  311.698    0.259    0.442  112.460    6.442
  311.998    0.261    0.475  111.870    6.095
  312.298    0.277    0.505  113.675    5.661
  312.598    0.294    0.514  116.083    5.457
  312.898    0.262    0.459  112.493    5.561
  313.198    0.251    0.415  101.710    5.773
  313.498    0.254    0.418   98.120    5.993
  313.798    0.256    0.465   97.529    6.107
  314.098    0.277    0.454  102.334    5.887
  314.398    0.287    0.441  108.340    5.571
  314.698    0.256    0.476  111.348    5.369
  314.998    0.251    0.482  110.758    5.176
  315.298    0.278    0.532  104.770    5.178
  315.598    0.290    0.498   99.381    5.179
  315.898    0.300    0.451   99.391    5.378
  316.198    0.278    0.451   99.398    5.479
  316.498    0.273    0.458   97.008    5.795
  316.798    0.246    0.486   89.822    5.905
  317.098    0.275    0.484   88.031    5.908
  317.398    0.279    0.449   94.038    5.909
  317.698    0.285    0.465   94.047    5.912
  317.998    0.291    0.489   91.056    6.024
  318.298    0.290    0.510   87.467    6.139
  318.598    0.273    0.454   89.877    6.374
  318.898    0.272    0.453   92.282    6.496
  319.198    0.298    0.470   88.094    6.497
  319.498    0.314    0.482   89.903    6.499
  319.798    0.349    0.505   91.710    6.383
  320.098    0.331    0.495   92.917    6.267
  320.398    0.337    0.487   88.729    6.154
  320.698    0.331    0.476   85.739    6.156
  320.998    0.347    0.536   84.549    6.274
  321.298    0.372    0.546   83.958    6.635
  321.598    0.357    0.522   85.168    7.016
  321.897    0.258    0.493   88.173    7.284
  322.197    0.246    0.461   89.983    7.563
  322.497    0.256    0.477   88.191    7.707
  322.797    0.284    0.423   85.803    7.853
  323.097    0.308    0.415   84.011    7.855
  323.397    0.320    0.439   84.622    7.859
  323.697    0.319    0.493   83.430    7.575
  323.997    0.322    0.535   80.441    7.438
  324.297    0.303    0.547   79.254    7.580
  324.597    0.301    0.536   79.261    8.017
  324.897    0.311    0.431   80.466    8.323
  325.197    0.315    0.424   86.473    8.327
  325.497    0.303    0.507   92.480    8.025
  325.797    0.294    0.522   91.887    7.737
  326.097    0.240    0.444   86.499    7.738
  326.397    0.245    0.429   88.308    7.741
  326.697    0.243    0.429   91.314    7.602
  326.997    0.240    0.446   93.721    7.465
  327.297    0.265    0.502   94.930    7.330
  327.597    0.244    0.489   96.738    7.333
  327.897    0.226    0.441   97.946    7.200
  328.197    0.242    0.410   97.955    7.337
  328.497    0.225    0.430   98.564    7.617
  328.797    0.235    0.435   96.776    7.762
  329.097    0.265    0.430   96.185    8.058
  329.397    0.277    0.428   96.791    8.367
  329.697    0.288    0.420   95.001    8.369
  329.997    0.283    0.411   95.611    8.218
  330.297    0.279    0.435   94.418    7.493
  330.597    0.321    0.509   99.224    6.960
  330.897    0.337    0.547   94.436    6.464
  331.197    0.340    0.516   89.648    5.785
  331.497    0.363    0.515   88.460    5.083
  331.797    0.394    0.536   89.067    4.899
  332.097    0.392    0.524   92.673    5.086
  332.397    0.305    0.502   95.080    5.582
  332.697    0.285    0.494   94.491    6.241
  332.997    0.277    0.503   90.300    6.978
  333.297    0.262    0.464   83.713    7.659
  333.597    0.255    0.432   89.121    7.951
  333.897    0.251    0.421   91.526    7.954
  334.197    0.253    0.432   90.937    7.810
  334.497    0.266    0.458   85.548    7.391
  334.797    0.279    0.477   86.157    7.257
  335.097    0.277    0.489   92.761    6.997
  335.397    0.312    0.463  101.766    6.870
  335.697    0.317    0.455  104.773    6.621
  335.997    0.347    0.521  105.381    5.605
  336.297    0.379    0.498  102.393    4.834
  336.597    0.403    0.492   96.404    3.594
  336.897    0.432    0.535   87.418    3.464
  337.197    0.401    0.588   89.826    3.340
  337.497    0.363    0.582   92.232    3.341
  337.797    0.315    0.563   88.044    3.281
  338.097    0.348    0.537   97.647    3.343
  338.397    0.352    0.558  101.855    3.406
  338.697    0.345    0.550   99.465    3.739
  338.997    0.325    0.532   97.676    4.259
  339.297    0.290    0.550  100.682    4.942
  339.597    0.286    0.549  100.690    5.424
  339.897    0.289    0.530   95.302    5.953
  340.197    0.298    0.487   90.513    6.413
  340.497    0.320    0.448   90.524    6.535
  340.797    0.306    0.455   90.532    6.660
  341.097    0.282    0.501   85.144    7.043
  341.397    0.274    0.484   81.557    7.449
  341.697    0.278    0.483   81.566    8.175
  341.997    0.295    0.466   82.772    8.808
  342.297    0.304    0.454   88.776    8.976
  342.597    0.316    0.449   89.986    8.033
  342.897    0.324    0.426   87.597    6.085
  343.197    0.332    0.489   87.006    5.975
  343.497    0.356    0.516   86.414    5.977
  343.797    0.345    0.494   84.624    6.808
  344.097    0.293    0.497   83.433    8.508
