~VERSION INFORMATION
 VERS.                 2.0:   CWLS LOG ASCII STANDARD -VERSION 2.0
 WRAP.                  NO:   ONE LINE PER DEPTH STEP
~WELL INFORMATION BLOCK
#MNEM.UNIT           DATA                    DESCRIPTION OF MNEMONIC
#---------    -------------------            -------------------------------
# Generated from Intellog Unique Number	CX_WELLS/WELL/2595
NULL.         -999.25                        : NULL_VALUE
WELL.         ARCO                           : Well_name    - WELL              
LOC .         AA/07-08-080-10W4/0            : Location     - LOCATION          
UWI .         AA/07-08-080-10W400            : Uwi          - UNIQUE WELL ID    
ENTR.         T                              : Entered      - ENTERED BY        
SRVC.         SCHLUMBERGER                   : Scn          - SERVICE COMPANY   
STRT.F        940                            : top_depth    - START DEPTH       
STOP.F        1569.92                        : bot_depth    - STOP DEPTH        
STEP.F        0.82                           : increment    - STEP LENGTH       
~CURVE INFORMATION BLOCK
#MNEM UNIT       ERCB CURVE CODE    CURVE DESCRIPTION
#-----------   ------------------   ----------------------------------
DEPT.F        00 001 00 00         : DEPTH        - DEPTH                       
GR  .API      00 310 00 00         : GR           - GAMMA RAY                   
NPHI.V/V      00 330 00 00         : PHIN         - NEUTRON POROSITY (SANDSTONE)
ILD .OHMM     00 120 00 00         : RESD         - DEEP RESISTIVITY (DIL)      
~PARAMETER INFORMATION       
#MNEM.UNIT           DATA             DESCRIPTION OF MNEMONIC
#---------         -----------     ------------------------------
GL  .F        2245                 : gl           - GROUND LEVEL ELEVATION      
EREF.F        2260                 : kb           - ELEVATION OF DEPTH REFERENCE
DATM.F        2260                 : datum        - DATUM ELEVATION             
TDD .F        1562                 : tdd          - TOTAL DEPTH DRILLER         
RUN .         ONE                  : Run          - RUN NUMBER                  
ENG .         BILL                 : Engineer     - RECORDING ENGINEER          
WIT .         JIM                  : Witness      - WITNESSED BY                
MUD .         GEL                  : Mud_type     - MUD TYPE                    
MATR.         SANDSTONE            : Logunit      - NEUTRON MATRIX              
TMAX.F        73                   : BHT          - MAXIMUM RECORDED TEMPERATURE
BHTD.F        1562                 : BHTDEP       - MAXIMUM RECORDED TEMPERATURE
MATR.         1                    : LOGUNIT      - NEUTRON MATRIX              
RMT .F        65                   : MDTP         - TEMPERATURE OF MUD          
NEUT.         1                    : NEUTRON      - NEUTRON TYPE                
RESI.         7.1                  : RESIST       - RESISTIVITY TYPE            
RMC .OHMM     6.5                  : RMC          - RESISTIVITY OF MUD CAKE     
RMF .OHMM     5                    : RMF          - RESISTIVITY OF MUD FILTRATE 
SUFT.F        35                   : SUFT         - SURFACE TEMPERATURE         
~A  DEPTH       GR     PHIN     RESD
# ...
 1295.970   83.119    0.403    4.034
 1296.790   88.434    0.408    4.038
 1297.610   89.120    0.399    4.119
 1298.430   87.170    0.392    4.199
 1299.250   84.559    0.385    4.531
 1300.070   81.949    0.373    4.887
 1300.890   80.653    0.350    5.173
 1301.710   80.703    0.327    5.277
 1302.530   82.043    0.332    5.088
 1303.350   84.050    0.341    4.904
 1304.170   83.434    0.347    4.641
 1304.990   82.131    0.357    4.392
 1305.810   79.527    0.360    4.080
 1306.630   77.564    0.365    4.082
 1307.450   74.954    0.370    4.011
 1308.270   73.671    0.372    4.091
 1309.090   75.684    0.373    4.095
 1309.910   78.351    0.372    4.255
 1310.730   82.345    0.372    4.340
 1311.560   83.692    0.371    4.344
 1312.380   83.069    0.367    4.430
 1313.200   82.427    0.359    4.433
 1314.020   83.126    0.350    4.437
 1314.840   83.151    0.350    4.441
 1315.660   80.546    0.351    4.445
 1316.480   76.615    0.349    4.367
 1317.300   75.980    0.344    4.371
 1318.120   75.357    0.339    4.376
 1318.940   72.740    0.332    4.380
 1319.760   70.123    0.322    4.384
 1320.580   66.846    0.273    4.388
 1321.400   64.895    0.255    4.391
 1322.220   68.242    0.302    4.314
 1323.040   70.243    0.336    4.239
 1323.860   72.916    0.372    4.242
 1324.680   74.262    0.392    4.091
 1325.500   76.955    0.386    4.017
 1326.320   77.628    0.380    3.947
 1327.140   77.011    0.378    3.878
 1327.960   75.068    0.380    3.808
 1328.780   74.420    0.384    3.742
 1329.600   73.124    0.387    3.677
 1330.420   73.162    0.390    3.545
 1331.240   73.853    0.396    3.482
 1332.060   75.200    0.395    3.419
 1332.880   76.552    0.398    3.298
 1333.700   77.905    0.406    3.239
 1334.520   79.912    0.412    3.123
 1335.340   79.949    0.419    3.245
 1336.160   78.660    0.413    3.436
 1336.980   76.710    0.386    3.777
 1337.800   74.753    0.358    4.074
 1338.620   72.797    0.328    4.477
 1339.440   70.199    0.313    5.014
 1340.260   68.890    0.281    5.212
 1341.080   67.601    0.251    5.118
 1341.900   65.003    0.289    4.935
 1342.720   63.047    0.354    4.758
 1343.540   61.744    0.320    4.854
 1344.360   58.480    0.307    5.042
 1345.180   57.844    0.267    5.339
 1346.000   58.536    0.236    5.760
 1346.820   61.877    0.195    5.985
 1347.640   64.537    0.188    5.878
 1348.460   71.174    0.321    5.669
 1349.280   78.484    0.370    5.364
 1350.100   82.478    0.394    5.076
 1350.930   83.818    0.406    4.893
 1351.750   85.171    0.410    4.630
 1352.570   87.196    0.411    4.464
 1353.390   87.870    0.409    4.305
 1354.210   89.882    0.403    4.151
 1355.030   90.575    0.396    4.155
 1355.850   91.266    0.385    4.158
 1356.670   91.958    0.378    4.162
 1357.490   93.965    0.366    4.166
 1358.310   98.620    0.355    4.169
 1359.130  101.954    0.349    3.872
 1359.950  100.004    0.373    3.400
 1360.770   97.400    0.378    3.157
 1361.590   96.098    0.404    2.825
 1362.410   92.166    0.427    2.575
 1363.230   88.901    0.428    2.261
 1364.050   87.612    0.433    2.061
 1364.870   86.316    0.443    1.878
 1365.690   85.687    0.455    1.680
 1366.510   86.373    0.473    1.475
 1367.330   83.775    0.490    1.320
 1368.150   81.806    0.485    1.249
 1368.970   78.534    0.475    1.227
 1369.790   77.912    0.451    1.275
 1370.610   78.610    0.441    1.375
 1371.430   79.969    0.418    1.484
 1372.250   80.648    0.406    1.630
 1373.070   82.649    0.383    1.968
 1373.890   84.001    0.361    2.375
 1374.710   85.354    0.346    2.761
 1375.530   84.731    0.331    3.396
 1376.350   82.775    0.320    3.275
 1377.170   82.806    0.330    3.156
 1377.990   83.492    0.340    2.772
 1378.810   85.505    0.375    2.527
 1379.630   88.178    0.393    2.392
 1380.450   90.191    0.406    2.306
 1381.270   92.198    0.397    2.223
 1382.090   94.211    0.395    2.183
 1382.910   92.934    0.398    2.105
 1383.730   92.305    0.402    2.030
 1384.550   92.984    0.420    2.031
 1385.370   94.997    0.425    1.996
 1386.190   97.010    0.425    1.998
 1387.010   96.375    0.425    2.000
 1387.830   93.771    0.421    2.039
 1388.650   92.481    0.413    2.080
 1389.480   92.506    0.401    2.161
 1390.300   90.550    0.385    2.288
 1391.120   90.582    0.372    2.515
 1391.940   90.619    0.363    2.713
 1392.760   89.978    0.353    2.818
 1393.580   88.688    0.345    2.874
 1394.400   88.059    0.334    2.877
 1395.220   88.091    0.336    2.934
 1396.040   88.789    0.344    3.166
 1396.860   88.814    0.341    3.480
 1397.680   89.506    0.339    3.684
 1398.500   89.544    0.332    3.973
 1399.320   88.902    0.322    4.367
 1400.140   87.606    0.310    4.983
 1400.960   81.033    0.303    5.902
 1401.780   77.774    0.303    6.992
 1402.600   78.460    0.304    8.283
 1403.420   77.831    0.305    9.451
 1404.240   77.189    0.307   10.388
 1405.060   73.924    0.310   10.398
 1405.880   71.968    0.313   10.406
 1406.700   70.018    0.319   10.814
 1407.520   70.710    0.331    9.495
 1408.340   72.723    0.341    8.031
 1409.160   76.051    0.364    7.185
 1409.980   91.274    0.398    6.549
 1410.800   87.342    0.385    6.804
 1411.620   79.454    0.350    7.071
 1412.440   75.510    0.322    7.486
 1413.260   68.282    0.308    7.778
 1414.080   63.683    0.303    8.392
 1414.900   61.066    0.292    9.053
 1415.720   58.468    0.284   10.141
 1416.540   57.833    0.278   10.733
 1417.360   57.858    0.286   12.022
 1418.180   57.896    0.295   12.967
 1419.000   55.933    0.306   13.225
 1419.820   50.681    0.311   13.235
 1420.640   42.786    0.312   14.553
 1421.460   36.867    0.312   15.696
 1422.280   35.590    0.312   17.578
 1423.100   34.954    0.311   19.679
 1423.920   33.665    0.309   31.456
 1424.740   31.708    0.308   45.780
 1425.560   31.079    0.302   55.256
 1426.380   31.765    0.300   55.299
 1427.200   31.136    0.297   54.336
 1428.020   29.846    0.295   53.380
 1428.850   30.538    0.295   50.514
 1429.670   33.866    0.293   47.784
 1430.490   40.503    0.292   43.557
 1431.310   54.418    0.291   29.986
 1432.130   57.739    0.288   23.092
 1432.950   67.678    0.288   17.457
 1433.770   76.309    0.290   13.199
 1434.590   76.995    0.295   11.159
 1435.410   77.674    0.301    9.617
 1436.230   79.687    0.307    8.605
 1437.050   83.688    0.318    8.297
 1437.870   87.683    0.323    8.305
 1438.690   90.350    0.324    8.158
 1439.510   86.424    0.321    7.575
 1440.330   84.462    0.326    7.168
 1441.150   84.493    0.337    6.785
 1441.970   86.506    0.345    6.542
 1442.790   85.883    0.345    6.424
 1443.610   84.588    0.344    6.311
 1444.430   83.292    0.344    6.438
 1445.250   83.996    0.343    6.566
 1446.070   86.657    0.340    6.695
 1446.890   84.066    0.334    6.957
 1447.710   83.418    0.329    7.097
 1448.530   80.807    0.326    7.235
 1449.350   78.190    0.320    7.662
 1450.170   73.611    0.313    7.811
 1450.990   70.987    0.306    8.587
 1451.810   67.050    0.301    9.437
 1452.630   62.464    0.295   10.768
 1453.450   61.168    0.289   13.243
 1454.270   59.872    0.290   13.761
 1455.090   63.867    0.296   11.639
 1455.910   75.787    0.302    9.842
 1456.730   89.690    0.325    8.325
 1457.550   96.326    0.337    6.913
 1458.370   97.691    0.337    6.789
 1459.190   99.037    0.339    6.424
 1460.010  100.390    0.338    6.313
 1460.830   99.755    0.335    6.317
 1461.650   98.465    0.332    6.325
 1462.470   94.527    0.326    6.328
 1463.290   88.620    0.311    6.337
 1464.110   86.658    0.300    6.460
 1464.930   79.424    0.293    6.589
 1465.750   69.547    0.289    6.719
 1466.570   62.313    0.297    6.851
 1467.400   59.696    0.303    7.120
 1468.220   58.413    0.302    7.130
 1469.040   58.444    0.302    7.405
 1469.860   60.445    0.304    7.991
 1470.680   63.118    0.306    8.302
 1471.500   65.805    0.307    8.790
 1472.320   65.163    0.308    9.305
 1473.140   63.873    0.309   10.038
