~VERSION INFORMATION
 VERS.                 2.0:   CWLS LOG ASCII STANDARD -VERSION 2.0
 WRAP.                  NO:   ONE LINE PER DEPTH STEP
~WELL INFORMATION BLOCK
#MNEM.UNIT           DATA                    DESCRIPTION OF MNEMONIC
#---------    -------------------            -------------------------------
# Generated from Intellog Unique Number	CN_94_101/WELL/4988
WELL.         TEXACO                         : Well_name    - WELL
LOC .         AA/07-08-101-12W4/0            : Location     - LOCATION
UWI .         AA/07-08-101-12W400            : Uwi          - UNIQUE WELL ID
ENTR.         TIM                            : Entered      - ENTERED BY
SRVC.         SCHLUMBERGER                   : Scn          - SERVICE COMPANY
DATE.         08/11/92                       : Date         - LOG DATE
STRT.M        380                            : top_depth    - START DEPTH
STOP.M        665                            : bot_depth    - STOP DEPTH
STEP.M        0.25                           : increment    - STEP LENGTH
NULL. -999.2500:NULL Value
~CURVE INFORMATION BLOCK
#MNEM UNIT       ERCB CURVE CODE    CURVE DESCRIPTION
#-----------   ------------------   ----------------------------------
DEPT.M        00 001 00 00         : DEPTH        - DEPTH
GR  .API      00 310 00 00         : GR           - GAMMA RAY
ILD .OHMM     00 120 00 00         : RESD         - DEEP RESISTIVITY (DIL)
NPHI.V/V      00 330 00 00         : PHIN         - NEUTRON POROSITY (SANDSTONE)
DPHI.V/V      00 890 00 00         : PHID         - DENSITY POROSITY (SANDSTONE)
~PARAMETER INFORMATION
#MNEM.UNIT           DATA             DESCRIPTION OF MNEMONIC
#---------         -----------     ------------------------------
GL  .M        814.2                : gl           - GROUND LEVEL ELEVATION
EREF.M        817.6                : kb           - ELEVATION OF DEPTH REFERENCE
DATM.M        817.6                : datum        - DATUM ELEVATION
TDD .M        667                  : tdd          - TOTAL DEPTH DRILLER
RUN .         ONE                  : Run          - RUN NUMBER
ENG .         JO                   : Engineer     - RECORDING ENGINEER
WIT .         TIM                  : Witness      - WITNESSED BY
MUD .         GEL                  : Mud_type     - MUD TYPE
MATR.         SANDSTONE            : Logunit      - NEUTRON MATRIX
TMAX.C        25                   : BHT          - MAXIMUM RECORDED TEMPERATURE
BHTD.M        667                  : BHTDEP       - MAXIMUM RECORDED TEMPERATURE
RMT .C        10                   : MDTP         - TEMPERATURE OF MUD
MUDD.KG/M     1050                 : MWT          - MUD DENSITY
NEUT.         1                    : NEUTRON      - NEUTRON TYPE
RESI.         0                    : RESIST       - RESISTIVITY TYPE
RM  .OHMM     0.84                 : RM           - RESISTIVITY OF MUD
RMC .OHMM     0.84                 : RMC          - RESISTIVITY OF MUD CAKE
RMF .OHMM     0.84                 : RMF          - RESISTIVITY OF MUD FILTRATE
SUFT.C        4                    : SUFT         - SURFACE TEMPERATURE
~A  DEPTH       GR     RESD     PHIN     PHID
# ...
  597.500  102.769    3.236    0.434    0.240
  597.750  100.964    3.304    0.446    0.241
  598.000   97.292    3.307    0.440    0.238
  598.250   93.633    3.314    0.422    0.236
  598.500   91.841    3.317    0.414    0.236
  598.750   91.879    3.323    0.408    0.238
  599.000   91.942    3.327    0.410    0.243
  599.250   93.242    3.332    0.411    0.247
  599.500   95.135    3.273    0.415    0.244
  599.750   95.791    3.218    0.412    0.239
  600.000   96.486    3.162    0.391    0.226
  600.250   95.905    3.049    0.393    0.213
  600.500   94.719    2.940    0.394    0.219
  600.750   91.072    2.730    0.400    0.240
  601.000   89.861    2.631    0.405    0.246
  601.250   85.583    2.397    0.409    0.255
  601.500   79.450    1.877    0.410    0.269
  601.750   73.935    1.678    0.404    0.282
  602.000   67.815    1.588    0.400    0.299
  602.250   63.524    1.531    0.400    0.314
  602.500   62.969    1.533    0.402    0.323
  602.750   63.007    1.535    0.405    0.328
  603.000   63.070    1.567    0.407    0.329
  603.250   63.108    1.599    0.404    0.313
  603.500   65.026    1.695    0.402    0.300
  603.750   66.301    1.764    0.400    0.297
  604.000   67.588    1.800    0.401    0.295
  604.250   68.257    1.803    0.403    0.291
  604.500   68.321    1.804    0.408    0.289
  604.750   68.371    1.741    0.403    0.291
  605.000   67.198    1.678    0.403    0.295
  605.250   65.381    1.588    0.405    0.298
  605.500   62.339    1.502    0.409    0.304
  605.750   59.917    1.395    0.412    0.307
  606.000   57.506    1.370    0.415    0.318
  606.250   55.677    1.272    0.417    0.327
  606.500   53.279    1.204    0.418    0.334
  606.750   52.068    1.161    0.416    0.340
  607.000   50.276    1.140    0.412    0.346
  607.250   49.077    1.142    0.413    0.351
  607.500   49.759    1.144    0.417    0.351
  607.750   51.046    1.212    0.413    0.344
  608.000   52.964    1.310    0.401    0.337
  608.250   56.107    1.389    0.393    0.330
  608.500   58.618    1.339    0.400    0.318
  608.750   58.669    1.341    0.406    0.326
  609.000   56.246    1.369    0.411    0.338
  609.250   53.217    1.423    0.411    0.349
  609.500   55.110    1.509    0.405    0.353
  609.750   58.253    1.630    0.393    0.356
  610.000   60.777    1.727    0.386    0.346
  610.250   65.800    1.763    0.385    0.330
  610.500   69.548    1.833    0.386    0.316
  610.750   72.072    1.836    0.391    0.304
  611.000   70.911    1.737    0.394    0.294
  611.250   70.318    1.614    0.399    0.299
  611.500   66.671    1.555    0.409    0.312
  611.750   64.236    1.471    0.416    0.326
  612.000   60.589    1.392    0.422    0.327
  612.250   57.535    1.293    0.428    0.328
  612.500   54.493    1.223    0.434    0.331
  612.750   50.846    1.158    0.435    0.336
  613.000   49.029    1.116    0.443    0.342
  613.250   45.357    1.076    0.439    0.347
  613.500   41.698    1.037    0.430    0.349
  613.750   37.420    0.982    0.424    0.352
  614.000   33.760    0.965    0.421    0.355
  614.250   28.245    0.966    0.427    0.356
  614.500   26.441    0.932    0.433    0.361
  614.750   25.873    0.933    0.441    0.365
  615.000   26.542    0.899    0.436    0.362
  615.250   27.211    0.884    0.421    0.355
  615.500   29.129    0.869    0.406    0.349
  615.750   30.417    0.854    0.406    0.345
  616.000   29.243    0.855    0.408    0.350
  616.250   26.202    0.840    0.413    0.351
  616.500   24.398    0.841    0.418    0.357
  616.750   23.817    0.859    0.426    0.366
  617.000   24.499    0.860    0.425    0.373
  617.250   25.773    0.877    0.404    0.368
  617.500   28.916    0.896    0.388    0.359
  617.750   33.913    0.897    0.388    0.351
  618.000   39.529    0.916    0.393    0.343
  618.250   43.303    0.935    0.401    0.339
  618.500   46.445    0.936    0.410    0.338
  618.750   46.508    0.937    0.418    0.338
  619.000   44.691    0.956    0.423    0.344
  619.250   39.176    0.976    0.421    0.348
  619.500   33.649    0.996    0.413    0.345
  619.750   29.371    1.017    0.404    0.338
  620.000   26.948    1.038    0.397    0.333
  620.250   25.762    1.059    0.397    0.327
  620.500   25.826    1.081    0.396    0.325
  620.750   27.125    1.103    0.392    0.333
  621.000   27.769    1.170    0.389    0.343
  621.250   30.937    1.239    0.387    0.335
  621.500   33.461    1.364    0.379    0.329
  621.750   35.985    1.530    0.377    0.323
  622.000   38.496    1.685    0.374    0.312
  622.250   43.494    1.625    0.372    0.307
  622.500   50.359    1.538    0.372    0.261
  622.750   56.593    1.540    0.373    0.249
  623.000   54.789    1.543    0.374    0.273
  623.250   54.840    1.604    0.374    0.278
  623.500   57.982    1.668    0.375    0.276
  623.750   61.743    1.671    0.376    0.270
  624.000   65.504    1.642    0.376    0.250
  624.250   71.763    1.613    0.377    0.244
  624.500   74.274    1.845    0.378    0.235
  624.750   76.193    2.149    0.378    0.226
  625.000   69.429    2.601    0.372    0.279
  625.250   53.389    3.089    0.364    0.275
  625.500   47.887    3.532    0.361    0.266
  625.750   51.017    4.038    0.307    0.257
  626.000   62.223    4.280    0.285    0.227
  626.250   67.208    4.051    0.260    0.102
  626.500   74.061    3.905    0.251    0.119
  626.750   85.255    3.765    0.287    0.142
  627.000   97.673    3.630    0.311    0.203
  627.250  106.380    3.570    0.345    0.200
  627.500  113.258    3.509    0.365    0.185
  627.750  117.006    3.512    0.368    0.182
  628.000  122.622    3.517    0.377    0.191
  628.250  128.869    3.589    0.388    0.198
  628.500  132.617    3.595    0.418    0.200
  628.750  131.456    3.600    0.419    0.198
  629.000  129.021    3.605    0.412    0.188
  629.250  126.598    3.611    0.403    0.156
  629.500  125.399    3.617    0.391    0.150
  629.750  123.607    3.622    0.380    0.147
  630.000  121.803    3.558    0.382    0.150
  630.250  120.617    3.565    0.383    0.157
  630.500  119.431    3.569    0.385    0.167
  630.750  118.850    3.506    0.390    0.171
  631.000  117.058    3.512    0.394    0.176
  631.250  115.872    3.453    0.404    0.180
  631.500  116.567    3.392    0.424    0.183
  631.750  117.210    3.333    0.434    0.193
  632.000  120.365    3.274    0.444    0.198
  632.250  122.258    3.158    0.451    0.207
  632.500  125.413    3.103    0.456    0.217
  632.750  128.543    3.109    0.465    0.245
  633.000  130.462    3.173    0.488    0.298
  633.250  127.420    3.363    0.518    0.317
  633.500  126.222    3.564    0.546    0.321
  633.750  123.193    3.707    0.554    0.250
  634.000  122.019    3.782    0.524    0.230
  634.250  120.808    3.860    0.481    0.185
  634.500  117.779    3.867    0.341    0.166
  634.750  114.726    3.948    0.348    0.149
  635.000  116.026    3.951    0.354    0.157
  635.250  117.919    3.957    0.363    0.166
  635.500  120.468    3.965    0.372    0.162
  635.750  123.005    3.896    0.372    0.155
  636.000  123.648    3.902    0.369    0.156
  636.250  121.844    3.762    0.362    0.150
  636.500  118.210    3.697    0.356    0.145
  636.750  116.405    3.701    0.352    0.138
  637.000  116.430    3.638    0.349    0.135
  637.250  117.112    3.644    0.346    0.133
  637.500  117.768    3.650    0.342    0.130
  637.750  117.832    3.584    0.339    0.129
  638.000  116.658    3.591    0.337    0.132
  638.250  114.841    3.597    0.343    0.139
  638.500  111.194    3.601    0.369    0.145
  638.750  108.746    3.606    0.371    0.158
  639.000  102.625    3.610    0.405    0.189
  639.250   98.953    3.618    0.449    0.202
  639.500   95.294    3.620    0.463    0.216
  639.750   92.883    3.695    0.493    0.219
  640.000   92.290    3.844    0.506    0.208
  640.250   91.142    3.849    0.515    0.207
  640.500   91.168    4.006    0.525    0.212
  640.750   91.218    4.088    0.524    0.222
