~VERSION INFORMATION
 VERS.                 2.0:   CWLS LOG ASCII STANDARD -VERSION 2.0
 WRAP.                  NO:   ONE LINE PER DEPTH STEP
~WELL INFORMATION BLOCK
#MNEM.UNIT           DATA                    DESCRIPTION OF MNEMONIC
#---------    -------------------            -------------------------------
# Generated from Intellog Unique Number	CS_73_76/WELL/1041
WELL.         06-14-076-07W4                 : Well_name    - WELL
LOC .         AA/06-14-076-07W4/0            : Location     - LOCATION
UWI .         AA/06-14-076-07W4/0            : Uwi          - UNIQUE WELL ID
ENTR.         SP                             : Entered      - ENTERED BY
SRVC.         SCHLUMBERGER                   : Scn          - SERVICE COMPANY
STRT.M        175                            : top_depth    - START DEPTH
STOP.M        415                            : bot_depth    - STOP DEPTH
STEP.M        0.25                           : increment    - STEP LENGTH
 NULL. -999.2500:NULL Value
~CURVE INFORMATION BLOCK
#MNEM UNIT       ERCB CURVE CODE    CURVE DESCRIPTION
#-----------   ------------------   ----------------------------------
DEPT.M        00 001 00 00         : DEPTH        - DEPTH
NPHI.V/V      00 330 00 00         : PHIN         - NEUTRON POROSITY (LIMESTONE)
DPHI.V/V      00 890 00 00         : PHID         - DENSITY POROSITY (LIMESTONE)
GR  .API      00 310 00 00         : GR           - GAMMA RAY
ILD .OHMM     00 120 00 00         : RESD         - DEEP RESISTIVITY (DIL)
~PARAMETER INFORMATION
#MNEM.UNIT           DATA             DESCRIPTION OF MNEMONIC
#---------         -----------     ------------------------------
GL  .M        607.14               : gl           - GROUND LEVEL ELEVATION
EREF.M        610.79               : kb           - ELEVATION OF DEPTH REFERENCE
DATM.M        607.14               : datum        - DATUM ELEVATION
TDD .M        414.9                : tdd          - TOTAL DEPTH DRILLER
RUN .         ONE                  : Run          - RUN NUMBER
ENG .         BILL                 : Engineer     - RECORDING ENGINEER
WIT .         JIM                  : Witness      - WITNESSED BY
MUD .         GEL                  : Mud_type     - MUD TYPE
MATR.         LIMESTONE            : Logunit      - NEUTRON MATRIX
TMAX.C        18                   : BHT          - MAXIMUM RECORDED TEMPERATURE
BHTD.M        414.9                : BHTDEP       - MAXIMUM RECORDED TEMPERATURE
MATR.         1                    : LOGUNIT      - NEUTRON MATRIX
RMT .C        25                   : MDTP         - TEMPERATURE OF MUD
NEUT.         1                    : NEUTRON      - NEUTRON TYPE
RESI.         0                    : RESIST       - RESISTIVITY TYPE
RMC .OHMM     0.25                 : RMC          - RESISTIVITY OF MUD CAKE
RMF .OHMM     0.25                 : RMF          - RESISTIVITY OF MUD FILTRATE
SUFT.C        15                   : SUFT         - SURFACE TEMPERATURE
~A  DEPTH     PHIN     PHID       GR     RESD
# ...
  305.500    0.484    0.330   64.602    9.304
  305.750    0.475    0.339   65.224    9.139
  306.000    0.440    0.341   64.621    8.976
  306.250    0.415    0.340   64.625    8.981
  306.500    0.431    0.340   63.408    9.160
  306.750    0.442    0.343   60.967    9.520
  307.000    0.462    0.339   57.913   10.082
  307.250    0.471    0.327   55.471   10.479
  307.500    0.478    0.314   52.417   10.291
  307.750    0.431    0.305   49.977   10.302
  308.000    0.412    0.309   49.372   10.308
  308.250    0.415    0.317   48.766   10.319
  308.500    0.433    0.323   47.552   10.522
  308.750    0.441    0.322   46.947   10.729
  309.000    0.456    0.320   46.341   11.154
  309.250    0.454    0.318   45.736   11.373
  309.500    0.404    0.311   44.519   11.824
  309.750    0.351    0.283   46.977   12.055
  310.000    0.326    0.280   52.493   12.295
  310.250    0.389    0.288   55.563   12.539
  310.500    0.421    0.298   57.409   13.031
  310.750    0.440    0.234   56.190   13.294
  311.000    0.357    0.207   50.688   13.301
  311.250    0.323    0.185   47.635   13.064
  311.500    0.368    0.259   50.705   12.353
  311.750    0.463    0.297   54.385   11.254
  312.000    0.472    0.318   56.229   11.051
  312.250    0.455    0.326   55.013   10.649
  312.500    0.474    0.326   53.182   10.461
  312.750    0.449    0.324   50.740   10.467
  313.000    0.469    0.320   48.913   10.281
  313.250    0.485    0.317   48.921   10.286
  313.500    0.496    0.316   49.541   10.297
  313.750    0.496    0.314   51.385   10.308
  314.000    0.441    0.310   50.781   10.121
  314.250    0.452    0.309   50.174   10.127
  314.500    0.453    0.310   52.020   10.140
  314.750    0.459    0.311   53.864   10.147
  315.000    0.480    0.307   56.320   10.155
  315.250    0.510    0.305   58.778   10.355
  315.500    0.510    0.301   55.724   10.362
  315.750    0.506    0.302   52.058   10.374
  316.000    0.483    0.307   50.840   10.379
  316.250    0.454    0.311   52.686   10.389
  316.500    0.451    0.312   51.469   10.394
  316.750    0.453    0.311   49.639   10.406
  317.000    0.469    0.309   50.258   10.413
  317.250    0.478    0.308   55.777   10.425
  317.500    0.476    0.309   59.459   10.430
  317.750    0.433    0.308   61.302   10.245
  318.000    0.427    0.301   61.921   10.444
  318.250    0.420    0.297   58.870   10.259
  318.500    0.433    0.301   55.817   10.076
  318.750    0.449    0.307   53.374   10.084
  319.000    0.438    0.312   52.157   10.092
  319.250    0.389    0.312   51.555   10.100
  319.500    0.391    0.304   52.171    9.919
  319.750    0.395    0.303   54.016    9.925
  320.000    0.408    0.302   60.146    9.936
  320.250    0.417    0.298   60.767    9.944
  320.500    0.438    0.292   58.327    9.764
  320.750    0.476    0.289   56.498    9.773
  321.000    0.513    0.297   54.669    9.780
  321.250    0.534    0.300   54.063    9.787
  321.500    0.478    0.308   54.683    9.797
  321.750    0.429    0.310   56.527    9.803
  322.000    0.436    0.311   58.371    9.811
  322.250    0.445    0.316   57.154    9.820
  322.500    0.426    0.317   54.713    9.826
  322.750    0.414    0.315   52.888    9.833
  323.000    0.413    0.315   51.670    9.842
  323.250    0.425    0.313   51.675    9.852
  323.500    0.484    0.316   51.681    9.859
  323.750    0.495    0.317   59.037    9.682
  324.000    0.464    0.312   60.269    9.509
  324.250    0.415    0.307   58.440    9.338
  324.500    0.419    0.302   59.061    9.171
  324.750    0.433    0.301   59.068    9.009
  325.000    0.454    0.319   58.462    9.016
  325.250    0.459    0.324   56.633    9.020
  325.500    0.444    0.313   56.029    9.028
  325.750    0.398    0.301   56.650    8.869
  326.000    0.379    0.303   56.656    8.876
  326.250    0.393    0.306   55.438    8.554
  326.500    0.410    0.309   58.511    8.399
  326.750    0.420    0.313   60.354    8.094
  327.000    0.437    0.320   62.197    7.512
  327.250    0.464    0.323   65.880    6.715
  327.500    0.470    0.313   68.335    6.350
  327.750    0.482    0.309   73.240    5.892
  328.000    0.491    0.321   81.819    5.572
  328.250    0.491    0.336   88.564    5.370
  328.500    0.483    0.340   89.796    5.581
  328.750    0.477    0.238   89.193    6.024
  329.000    0.471    0.224   88.585    6.627
  329.250    0.462    0.217   87.369    6.756
  329.500    0.476    0.212   89.828    6.890
  329.750    0.473    0.211   92.281    6.895
  330.000    0.456    0.209   92.902    6.904
  330.250    0.409    0.212   89.848    6.777
  330.500    0.433    0.214   83.121    6.532
  330.750    0.447    0.218   81.905    6.180
  331.000    0.425    0.224   84.973    6.183
  331.250    0.397    0.229   85.593    6.190
  331.500    0.396    0.231   83.151    6.193
  331.750    0.402    0.191   80.100    6.315
  332.000    0.409    0.176   78.882    6.689
  332.250    0.437    0.193   78.277    7.085
  332.500    0.452    0.220   80.122    7.646
  332.750    0.441    0.246   81.354    8.097
  333.000    0.425    0.260   81.361    7.236
  333.250    0.437    0.268   78.308    6.973
  333.500    0.452    0.279   78.928    6.849
  333.750    0.459    0.284   80.771    6.602
  334.000    0.422    0.248   83.843    6.482
  334.250    0.398    0.231   85.072    5.904
  334.500    0.381    0.210   87.531    5.377
  334.750    0.379    0.220   88.762    4.989
  335.000    0.382    0.270   89.384    4.458
  335.250    0.409    0.303   87.553    3.695
  335.500    0.463    0.403   83.888    3.240
  335.750    0.495    0.427   83.283    2.842
  336.000    0.519    0.399   82.064    2.540
  336.250    0.594    0.356   79.625    2.402
  336.500    0.543    0.323   79.632    2.359
  336.750    0.525    0.298   80.864    2.406
  337.000    0.499    0.282   80.871    2.454
  337.250    0.477    0.315   80.881    2.456
  337.500    0.451    0.330   80.273    2.458
  337.750    0.407    0.346   78.445    2.460
  338.000    0.373    0.331   76.004    2.462
  338.250    0.391    0.332   73.561    2.464
  338.500    0.484    0.305   71.732    2.512
  338.750    0.488    0.317   71.739    2.611
  339.000    0.448    0.324   72.972    2.765
  339.250    0.429    0.320   97.470    2.984
  339.500    0.449    0.276   99.928    3.282
  339.750    0.481    0.277   90.751    3.749
  340.000    0.501    0.279   84.635    4.364
  340.250    0.476    0.274   95.666    4.799
  340.500    0.446    0.258  103.631    5.277
  340.750    0.461    0.248   94.457    5.696
  341.000    0.425    0.247   86.506    5.920
  341.250    0.351    0.230   81.000    6.153
  341.500    0.322    0.142   77.946    6.043
  341.750    0.427    0.199   88.977    5.503
  342.000    0.482    0.311   92.656    5.011
  342.250    0.547    0.327   93.277    4.652
  342.500    0.523    0.284   93.897    4.482
  342.750    0.495    0.271   93.903    4.403
  343.000    0.462    0.260   90.237    4.406
  343.250    0.421    0.249   87.185    4.327
  343.500    0.378    0.232   87.804    4.249
  343.750    0.399    0.210   91.486    3.870
  344.000    0.347    0.216  100.679    3.459
  344.250    0.364    0.224  104.971    3.090
  344.500    0.438    0.231  103.756    2.762
  344.750    0.471    0.233  100.088    2.515
  345.000    0.503    0.242   96.421    2.248
  345.250    0.508    0.248   95.205    2.048
  345.500    0.471    0.254   96.437    1.936
  345.750    0.448    0.260   95.220    1.866
  346.000    0.422    0.260   91.555    1.832
  346.250    0.442    0.244   89.725    1.834
  346.500    0.454    0.235   93.406    2.055
  346.750    0.442    0.236   94.638    2.303
  347.000    0.492    0.239   94.034    2.262
  347.250    0.521    0.239   99.553    2.139
  347.500    0.553    0.240  106.295    1.985
  347.750    0.480    0.241  110.587    1.987
  348.000    0.477    0.245  110.595    2.145
  348.250    0.497    0.240  106.931    2.359
  348.500    0.521    0.257   99.594    2.594
  348.750    0.537    0.263   97.149    3.195
