~VERSION INFORMATION
 VERS.                 2.0:   CWLS LOG ASCII STANDARD -VERSION 2.0
 WRAP.                  NO:   ONE LINE PER DEPTH STEP
~WELL INFORMATION BLOCK
#MNEM.UNIT           DATA                    DESCRIPTION OF MNEMONIC
#---------    -------------------            -------------------------------
# Generated from Intellog Unique Number	CC_88_90/WELL/3020
WELL.         WESTERN HEMISPHERE PETROLEUM C : Well_name    - WELL
LOC .         AA/03-27-088-10W4/0            : Location     - LOCATION
UWI .         AA/03-27-088-10W400            : Uwi          - UNIQUE WELL ID
ENTR.         JOETTE                         : Entered      - ENTERED BY
SRVC.         SCHLUMBERGER                   : Scn          - SERVICE COMPANY
DATE.         03/06/92                       : Date         - LOG DATE
STRT.M        30.48                          : top_depth    - START DEPTH
STOP.M        134.23                         : bot_depth    - STOP DEPTH
STEP.M        0.25                           : increment    - STEP LENGTH
 NULL. -999.2500:NULL Value
~CURVE INFORMATION BLOCK
#MNEM UNIT       ERCB CURVE CODE    CURVE DESCRIPTION
#-----------   ------------------   ----------------------------------
DEPT.M        00 001 00 00         : DEPTH        - DEPTH
GR  .API      00 310 00 00         : GR           - GAMMA RAY
NPHI.V/V      00 330 00 00         : PHIN         - NEUTRON POROSITY (SANDSTONE)
ILD .OHMM     00 120 00 00         : RESD         - DEEP RESISTIVITY (DIL)
~PARAMETER INFORMATION
#MNEM.UNIT           DATA             DESCRIPTION OF MNEMONIC
#---------         -----------     ------------------------------
GL  .M        382.219              : gl           - GROUND LEVEL ELEVATION
EREF.M        382.219              : kb           - ELEVATION OF DEPTH REFERENCE
DATM.M        382.219              : datum        - DATUM ELEVATION
TDD .M        134.112              : tdd          - TOTAL DEPTH DRILLER
RUN .         ONE                  : Run          - RUN NUMBER
ENG .         JO                   : Engineer     - RECORDING ENGINEER
WIT .         TIM                  : Witness      - WITNESSED BY
MUD .         GEL                  : Mud_type     - MUD TYPE
MATR.         SANDSTONE            : Logunit      - NEUTRON MATRIX
TMAX.C        10                   : BHT          - MAXIMUM RECORDED TEMPERATURE
BHTD.M        134.112              : BHTDEP       - MAXIMUM RECORDED TEMPERATURE
RMT .C        10                   : MDTP         - TEMPERATURE OF MUD
MUDD.KG/M     9083.33              : MWT          - MUD DENSITY
NEUT.         1                    : NEUTRON      - NEUTRON TYPE
RESI.         0                    : RESIST       - RESISTIVITY TYPE
RM  .OHMM     8                    : RM           - RESISTIVITY OF MUD
RMC .OHMM     8                    : RMC          - RESISTIVITY OF MUD CAKE
RMF .OHMM     8                    : RMF          - RESISTIVITY OF MUD FILTRATE
SUFT.C        4                    : SUFT         - SURFACE TEMPERATURE
~A  DEPTH       GR     PHIN     RESD
# ...
   84.730   99.385    0.465   18.644
   84.980  102.492    0.475   18.319
   85.230  105.614    0.482   18.341
   85.480  105.678    0.476   18.363
   85.730  104.438    0.468   18.216
   85.980  101.894    0.456   18.245
   86.230  100.654    0.454   18.090
   86.480  100.718    0.470   17.750
   86.730   99.928    0.481   17.249
   86.980   99.558    0.478   16.902
   87.230  100.491    0.483   16.924
   87.480  103.178    0.495   16.762
   87.730  105.850    0.503   16.990
   87.980  108.103    0.498   17.012
   88.230  109.890    0.498   17.425
   88.480  110.839    0.505   17.816
   88.730  109.583    0.501   18.023
   88.980  107.908    0.496   18.797
   89.230  107.103    0.492   19.395
   89.480  110.660    0.478   19.594
   89.730  110.305    0.473   19.999
   89.980  106.441    0.479   20.021
   90.230   99.535    0.479   19.689
   90.480   95.687    0.476   18.797
   90.730   96.636    0.479   17.904
   90.980   97.585    0.483   17.018
   91.230   98.502    0.497   17.055
   91.480  105.102    0.500   17.623
   91.730  104.297    0.482   23.377
   91.980   99.145    0.427   58.507
   92.230   91.804    0.393   56.507
   92.480   68.800    0.368   52.664
   92.730   57.145    0.340   51.026
   92.980   58.497    0.329   45.146
   93.230   61.169    0.334   40.381
   93.480   64.291    0.342   44.468
   93.730   66.109    0.338   37.297
   93.980   67.026    0.362   35.106
   94.230   71.453    0.416   32.553
   94.480   81.561    0.428   37.754
   94.730   84.217    0.417   56.624
   94.980   86.888    0.387   62.755
   95.230   86.518    0.359   60.010
   95.480   75.265    0.347   53.762
   95.730   55.755    0.383   23.686
   95.980   50.587    0.369   25.375
   96.230   47.608    0.315   26.894
   96.480   41.587    0.276   26.363
   96.730   43.825    0.272   24.917
   96.980   60.436    0.329   24.585
   97.230   75.728    0.411   29.225
   97.480   81.040    0.412   34.064
   97.730   86.319    0.418   30.206
   97.980   91.164    0.440   25.441
   98.230   98.633    0.466   31.195
   98.480  104.814    0.477   36.026
   98.730  101.819    0.469   44.185
   98.980   92.740    0.408   54.926
   99.230   82.791    0.379   64.568
   99.480   69.381    0.333   59.242
   99.730   62.910    0.297   54.100
   99.980   57.758    0.302   47.106
  100.230   57.822    0.303   31.806
  100.480   59.222    0.319   25.927
  100.730   61.459    0.377   22.821
  100.980   66.288    0.382   21.928
  101.230   74.191    0.401   23.802
  101.480   85.571    0.442   29.187
  101.730   94.778    0.476   34.395
  101.980  101.394    0.458   30.551
  102.230   99.703    0.455   26.509
  102.480   96.290    0.461   23.772
  102.730   92.877    0.470   29.164
  102.980   96.852    0.467   30.300
  103.230   99.105    0.445   31.252
  103.480   94.823    0.415   35.346
  103.730   89.655    0.406   39.440
  103.980   80.592    0.405   37.625
  104.230   75.859    0.411   37.101
  104.480   74.619    0.426   36.024
  104.730   75.584    0.419   34.025
  104.980   73.475    0.405   36.083
  105.230   71.365    0.411   35.006
  105.480   69.691    0.423   29.318
  105.730   70.624    0.416   28.425
  105.980   72.410    0.411   33.434
  106.230   73.826    0.417   44.360
  106.480   73.858    0.429   57.321
  106.730   77.850    0.426   95.593
  106.980   83.998    0.407   98.765
  107.230   81.889    0.361   99.163
  107.480   72.826    0.298  101.037
  107.730   68.109    0.223  101.811
  107.980   65.983    0.151  100.550
  108.230   53.861    0.135   99.288
  108.480   40.001    0.184   99.871
  108.730   42.705    0.216   99.731
  108.980   45.361    0.300   99.384
  109.230   49.803    0.319   99.775
  109.480   52.024    0.322   99.074
  109.730   53.392    0.322  100.217
  109.980   55.645    0.323   98.572
  110.230   60.489    0.387   93.430
  110.480   61.455    0.423   86.075
  110.730   60.215    0.440   78.159
  110.980   58.524    0.450   44.018
  111.230   54.676    0.452   52.362
  111.480   52.567    0.451   53.690
  111.730   57.412    0.450   49.839
  111.980   68.358    0.452   45.988
  112.230   73.234    0.447   40.293
  112.480   72.429    0.429   39.031
  112.730   74.650    0.428   38.876
  112.980   79.076    0.426   43.155
  113.230   79.156    0.430   43.376
  113.480   77.047    0.440   39.525
  113.730   74.921    0.427   39.370
  113.980   71.074    0.410   40.875
  114.230   65.053    0.421   41.480
  114.480   59.450    0.440   41.125
  114.730   61.703    0.457   39.687
  114.980   67.852    0.473   38.418
  115.230   82.307    0.470   33.829
  115.480   80.198    0.457   35.518
  115.730   71.102    0.444   37.584
  115.980   60.300    0.442   34.286
  116.230   52.960    0.436   30.634
  116.480   40.403    0.422   31.210
  116.730   36.555    0.404   77.604
  116.980   33.593    0.413   76.527
  117.230   34.945    0.422   75.081
  117.480   38.517    0.423   72.521
  117.730   42.042    0.408   71.628
  117.980   47.338    0.409   71.842
  118.230   49.140    0.421   60.238
  118.480   46.596    0.431   49.740
  118.730   41.879    0.429   42.009
  118.980   39.336    0.417   37.059
  119.230   43.311    0.410   32.839
  119.480   56.011    0.414   28.804
  119.730   63.899    0.422   28.280
  119.980   80.526    0.428   30.161
  120.230   59.245    0.420   32.035
  120.480   45.836    0.425   40.009
  120.730   40.668    0.416   52.417
  120.980   45.094    0.404   54.114
  121.230   52.128    0.424   59.315
  121.480   52.643    0.445   68.949
  121.730   51.387    0.453   71.936
  121.980   48.424    0.457   67.909
  122.230   41.099    0.450   63.873
  122.480   39.843    0.440   62.604
  122.730   37.734    0.429   53.398
  122.980   52.591    0.414   33.849
  123.230   73.550    0.418   34.438
  123.480   84.930    0.436   39.270
  123.730   96.310    0.452   51.302
  123.980  101.171    0.467   56.326
  124.230   97.742    0.455   50.262
  124.480   88.244    0.448   43.268
  124.730   79.599    0.435   32.402
  124.980   74.448    0.429   26.154
  125.230   61.891    0.429   24.154
  125.480   51.073    0.431   23.822
  125.730   37.213    0.422   24.036
  125.980   32.496    0.419   23.512
  126.230   29.968    0.417   22.435
  126.480   29.162    0.423   21.719
  126.730   31.399    0.421   22.486
  126.980   34.103    0.413   26.765
  127.230   34.135    0.418   28.646
  127.480   33.330    0.420   30.704
  127.730   32.524    0.413   31.294
  127.980   31.735    0.417   28.366
  128.230   30.060    0.414   26.551
  128.480   31.428    0.419   23.069
  128.730   32.796    0.418   20.332
  128.980   33.745    0.417   19.439
  129.230   33.374    0.424   21.497
  129.480   32.569    0.417   25.414
  129.730   32.214    0.414   26.550
  129.980   31.843    0.425   27.686
  130.230   31.473    0.436   30.120
  130.480   31.971    0.426   32.363
  130.730   33.774    0.380   24.086
  130.980   36.880    0.359   16.915
  131.230   41.306    0.334   11.950
  131.480   41.805    0.273    8.660
  131.730   38.392    0.226   13.492
  131.980   38.021    0.079   15.742
  132.230   39.823    0.108   20.020
  132.480   41.658    0.141   27.634
  132.730   41.271    0.137   28.393
  132.980   39.162    0.109   24.727
  133.230   37.068    0.086   20.330
  133.480   37.148    0.041   18.323
  133.730   36.761    0.068   15.409
  133.980   36.391    0.084   15.992
  134.230   36.020    0.092   16.752
