~Version : LASO    vs 4.00 - DATA COPYRIGHT - RILEYS DATASHARE INTERNATIONAL
 VERS.                2.0 :   CWLS Log ASCII Standard -VERSION 2.0
 WRAP.                 NO :   One line per depth step
~Well Information Block
#MNEM.UNIT       Data                        Description of Mnemonic
#----.----      -------------------------- : -----------------------------
 STRT.M             0.0000                 : Start Depth
 STOP.M           204.7500                 : End Depth
 STEP.M             0.1250                 : Depth Increment
 NULL.           -999.25                   : NULL Value
 COMP.                                     : COMPANY
 WELL.    MOBIL CLARKE OV 7-25             : WELL NAME
 FLD .    WILDCAT                          : FIELD NAME
 LOC .    07-25-090-08W4                   : WELL LOCATION
 PROV.    ALBERTA                          : PROVINCE
 SRVC.    DRESSER ATLAS                    : LOGGING SERVICE COMPANY
 DATE.    19-FEB-81                        : DATE LOGGED
 UWI .    AA/07-25-090-08W400              : UNIQUE WELL ID
~Curve Information Block
#MNEM.UNIT        API CODE                   Curve Description
#----.----      LG--CV-CL--M               : -----------------
 DEPT.M          0   1  0  0               : 1 DEPTH
 DT  .US/M      60 520 42  1               : 2 SONIC INTERVAL TRANSIT TIME (COMPENSATED)
 CALI.MM        42 280  1  1               : 3 DENSITY CALIPER
 GR  .GAPI      42 310  1  1               : 4 GAMMA RAY
 NPHI.V/V       42 890  3  1               : 5 NEUTRON POROSITY (SANDSTONE)
 RHOB.K/M3      42 350  1  1               : 6 BULK DENSITY
 IL  .OHMM       5 120 45  1               : 7 INDUCTION
 SFL .OHMM       5 220  6  1               : 8 FOCUSSED RESISTIVITY
 SP  .MV         5  10  1  1               : 9 SPONTANEOUS POTENTIAL
~Parameter Information Block
#MNEM.UNIT       Data                        Description of Mnemonic
#----.----      -------------------------- : -----------------------------
 RUN .                   1                 : Run Number
 GL  .M           449.0000                 : Ground Level Elevation
 DREF.                  KB                 : Depth Reference
 EREF.M           449.0000                 : Elevation of Depth Reference
 TDL .M           202.0000                 : Total Depth Logger
 TDD .M           205.0000                 : Total Depth Driller
 BHT .DEGC         20.0000                 : Bottom Hole Temperature
 BS  .MM          159.0000                 : Bit Size
 DFD .           9999.0000                 : Mud Weight (Density)
 DFV .            150.0000                 : Mud Viscosity
 RM  .OHMM          4.1000                 : Mud Resistivity
 RMT .DEGC         20.0000                 : Mud Resistivity Temperature
 RMF .OHMM          3.9000                 : Mud Filtrate Resistivity
 RMFT.DEGC          8.0000                 : RMF Temperature
 RMC .OHMM          7.8000                 : Mud Cake Resistivity
 RMCT.DEGC          8.0000                 : RMC Temperature
~Asc DEPTH      DT         CALI       GR         NPHI       RHOB       IL         SFL        SP   
# ...
  182.2500   421.4000   161.3250    91.5450     0.3734  2176.1001    11.6650    18.9300  -114.9150
  182.3750   420.9200   161.3250    88.5900     0.3719  2174.8000    11.6650    20.2200  -114.9150
  182.5000   419.4400   161.6250    85.0950     0.3605  2172.3999    11.6650    19.7300  -114.9150
  182.6250   413.5200   161.6250    81.9600     0.3580  2169.8999    11.7900    19.3000  -115.4700
  182.7500   416.7200   162.2500    79.9350     0.3668  2176.7000    12.2200    24.0150  -116.7600
  182.8750   422.8800   162.2500    82.3350     0.3525  2185.8999    12.7700    22.3650  -116.7600
  183.0000   425.0800   162.2500    82.8750     0.3488  2187.7000    13.3850    16.6050  -114.3600
  183.1250   425.3200   161.6250    81.2250     0.3610  2182.8000    14.2400    12.5600  -112.6950
  183.2500   425.3200   161.9250    79.7550     0.3661  2183.3999    15.1000    15.8050  -115.2900
  183.3750   426.3200   162.8500    81.2250     0.3635  2174.2000    15.9600    24.0150  -119.9100
  183.5000   429.5200   164.3750    78.4650     0.3587  2153.3999    16.5750    38.1100  -122.1450
  183.6250   432.2000   164.7000    71.4600     0.3514  2119.7000    17.0650    40.5000  -121.7700
  183.7500   426.0800   165.0000    63.7200     0.3473  2091.5000    17.1850    36.8250  -119.5500
  183.8750   409.6000   165.3000    58.9200     0.3463  2084.7000    16.7550    33.3900  -118.4400
  184.0000   375.6800   165.3000    57.2700     0.3437  2093.3000    15.9000    47.5450  -118.6200
  184.1250   384.2800   165.6250    58.7400     0.3433  2101.8999    15.0400    62.3500  -119.7300
  184.2500   431.7200   165.3000    61.1400     0.3481  2109.8999    14.4900    62.3000  -119.1750
  184.3750   443.7600   165.0000    64.4550     0.3591  2125.8000    13.9950    20.7100  -116.2050
  184.5000   452.1200   165.3000    70.5300     0.3653  2156.3999    13.5650    11.0250  -112.3200
  184.6250   452.1200   165.9250    80.4900     0.3719  2196.8999    13.2600    10.6000  -111.2100
  184.7500   446.2000   165.3000    89.1450     0.3775  2217.7000    13.1400    12.8050  -111.7650
  184.8750   432.6800   163.4750    91.9050     0.3738  2209.1001    13.3850    15.5600  -113.2500
  185.0000   419.2000   164.3750    87.8550     0.3793  2184.0000    14.1200    17.9500  -116.5800
  185.1250   447.9200   165.0000    79.9350     0.3775  2163.2000    15.3450    19.2400  -121.2150
  185.2500   442.7600   165.3000    70.3500     0.3734  2140.5000    17.2500    27.0800  -127.3200
  185.3750   426.0800   166.5250    61.5000     0.3620  2119.1001    19.5800    47.3000  -135.4800
  185.5000   418.6800   166.2250    53.2050     0.3584  2089.0000    22.4650    80.5000  -142.3350
  185.6250   419.2000   166.5250    43.6350     0.3569  2048.0000    24.7350    69.6500  -144.3750
  185.7500   417.7200   166.8500    37.9200     0.3514  2028.4000    26.2050    54.7000  -144.3750
  185.8750   415.2400   167.1500    37.9200     0.3392  2037.6000    26.2650    52.2000  -143.0700
  186.0000   414.5200   167.1500    40.8600     0.3463  2048.0000    24.3650    58.2500  -142.3350
  186.1250   414.7600   167.4500    43.2600     0.3510  2049.2000    21.4200    68.4000  -141.2250
  186.2500   416.2400   167.7500    45.1050     0.3496  2053.5000    18.8450    65.4000  -138.6300
  186.3750   417.2000   168.0750    47.3100     0.3488  2075.0000    16.9400    58.6000  -134.7300
  186.5000   416.2400   168.0750    51.7350     0.3499  2095.2000    15.7150    35.6000  -129.7350
  186.6250   416.7200   168.3750    58.5600     0.3470  2121.5000    14.9150    19.7900  -124.3650
  186.7500   418.2000   168.6750    69.0600     0.3466  2166.2000    14.2400    11.3950  -117.5100
  186.8750   419.4400   168.3750    77.5350     0.3613  2212.8000    13.5650     9.9250  -112.6950
  187.0000   421.4000   168.6750    86.0100     0.3683  2250.8000    12.7700    11.2100  -112.6950
  187.1250   425.5600   168.6750    88.0350     0.3679  2254.5000    12.0350    14.0900  -116.5800
  187.2500   430.9600   168.3750    81.4050     0.3664  2228.1001    11.6050    21.7500  -121.7700
  187.3750   441.2800   168.0750    74.7750     0.3532  2190.1001    11.3600    33.3900  -127.5150
  187.5000   457.0400   168.0750    69.6150     0.3392  2157.1001    11.3600    34.7400  -128.2500
  187.6250   421.4000   167.4500    64.2750     0.3352  2143.0000    11.6650    29.7750  -124.9200
  187.7500   409.3600   166.2250    63.5250     0.3385  2155.8000    12.0350    19.5450  -121.2150
  187.8750   413.2800   165.6250    69.2400     0.3415  2174.8000    12.2800    13.5400  -116.7600
  188.0000   416.7200   165.3000    76.4250     0.3371  2198.1001    12.2200    10.1700  -113.4300
  188.1250   418.9200   165.6250    82.3350     0.3440  2228.7000    11.9100    11.7000  -114.1800
  188.2500   420.1600   165.9250    87.3000     0.3496  2236.7000    11.5450    17.2150  -119.5500
  188.3750   421.8800   166.2250    84.5400     0.3341  2226.3000    11.3600    26.1600  -126.9600
  188.5000   423.1200   166.8500    76.2450     0.3260  2210.3999    11.5450    35.0450  -131.9550
  188.6250   424.8400   167.4500    65.1900     0.3272  2190.1001    12.0950    31.4950  -131.2200
  188.7500   424.6000   167.1500    59.4750     0.3334  2165.6001    13.0150    18.4400  -127.1400
  188.8750   423.8400   165.6250    58.7400     0.3448  2163.2000    14.1200    11.7000  -122.8800
  189.0000   421.8800   165.3000    61.8750     0.3488  2176.7000    15.2250    11.4550  -123.2550
  189.1250   416.9600   166.2250    66.1050     0.3529  2179.7000    16.2650    15.8700  -131.7750
  189.2500   415.0000   169.3000    65.7450     0.3569  2160.1001    17.4950    23.1000  -147.1500
  189.3750   412.8000   169.3000    59.2950     0.3382  2127.0000    19.0900    32.8400  -158.6250
  189.5000   410.6000   168.0750    48.7950     0.3389  2078.6001    21.4800    46.2600  -169.0050
  189.6250   407.1600   165.6250    41.0550     0.3382  2052.8999    24.4850    61.7500  -176.9700
  189.7500   406.6400   165.9250    37.1850     0.3367  2054.1001    28.4150    71.5500  -182.5200
  189.8750   406.4000   168.3750    34.0500     0.3323  2062.1001    32.6450    74.0500  -187.5300
  190.0000   406.6400   169.9000    32.5800     0.3301  2064.5000    37.4950    78.4500  -192.7200
  190.1250   400.5200   169.9000    32.3850     0.3253  2058.3999    41.5450    78.9000  -197.3400
  190.2500   390.4400   169.6000    31.4700     0.3231  2048.0000    43.8750    79.8000  -201.2400
  190.3750   369.8000   169.9000    30.9150     0.3253  2036.3000    45.4700    80.4500  -204.5700
  190.5000   337.6000   169.6000    30.0000     0.3264  2032.7000    45.5900    79.5500  -206.7900
  190.6250   396.8400   169.3000    29.4450     0.3235  2034.5000    44.9800    78.4000  -208.2750
  190.7500   455.5600   169.3000    29.0700     0.3231  2037.6000    44.4250    77.6000  -208.6500
  190.8750   498.5600   168.9750    30.9150     0.3319  2041.9000    43.6900    75.4000  -207.3450
  191.0000   543.2800   168.6750    32.7600     0.3356  2043.1000    43.2600    66.6000  -204.0150
  191.1250   442.7600   168.3750    34.0500     0.3385  2041.9000    42.9550    62.2500  -200.1300
  191.2500   426.5600   167.7500    34.4100     0.3371  2038.2000    42.9550    63.7500  -197.3400
  191.3750   452.8400   167.4500    33.8700     0.3293  2037.0000    43.2000    71.9000  -196.6050
  191.5000   468.3200   165.9250    31.2900     0.3345  2042.5000    43.0150    74.4000  -196.0500
  191.6250   410.3200   163.4750    30.3600     0.3411  2053.5000    42.6450    70.0500  -195.1200
  191.7500   410.3200   162.5500    29.4450     0.3407  2059.0000    41.5450    70.8500  -194.3850
  191.8750   413.5200   163.1500    30.1800     0.3305  2061.5000    38.5350    76.3000  -194.9400
  192.0000   418.6800   165.6250    31.0950     0.3250  2071.3000    34.3050    81.9500  -195.1200
  192.1250   444.4800   166.2250    32.0250     0.3158  2093.8999    29.8250    81.1000  -194.3850
  192.2500   468.3200   165.6250    32.7600     0.3088  2109.8999    25.1600    78.1000  -192.5250
