~VERSION INFORMATION
 VERS.                 2.0:   CWLS LOG ASCII STANDARD -VERSION 2.0
 WRAP.                  NO:   ONE LINE PER DEPTH STEP
~WELL INFORMATION BLOCK
#MNEM.UNIT           DATA                    DESCRIPTION OF MNEMONIC
#---------    -------------------            -------------------------------
# Generated from Intellog Unique Number	CC_84_87/WELL/1068
NULL.         -999.25                        : NULL_VALUE
WELL.         COSEKA TOTAL #4                : Well_name    - WELL              
LOC .         06-13-087-07W4                 : Location     - LOCATION          
UWI .         AA/06-13-087-07W400            : Uwi          - UNIQUE WELL ID    
ENTR.         RJA                            : Entered      - ENTERED BY        
SRVC.         SCHLUMBERGER                   : Scn          - SERVICE COMPANY   
DATE.         03 FEB 81                      : Date         - LOG DATE
STRT.M        40                             : top_depth    - START DEPTH       
STOP.M        178.001                        : bot_depth    - STOP DEPTH        
STEP.M        0.3                            : increment    - STEP LENGTH       
~CURVE INFORMATION BLOCK
#MNEM UNIT       ERCB CURVE CODE    CURVE DESCRIPTION
#-----------   ------------------   ----------------------------------
DEPT.M        00 001 00 00         : DEPTH        - DEPTH                       
DPHI.V/V      00 890 00 00         : PHID         - DENSITY POROSITY (LIMESTONE)
NPHI.V/V      00 330 00 00         : PHIN         - NEUTRON POROSITY (LIMESTONE)
GR  .API      00 310 00 00         : GR           - GAMMA RAY                   
ILD .OHMM     00 120 00 00         : RESD         - DEEP RESISTIVITY (DIL)      
~PARAMETER INFORMATION       
#MNEM.UNIT           DATA             DESCRIPTION OF MNEMONIC
#---------         -----------     ------------------------------
GL  .M        436.85               : gl           - GROUND LEVEL ELEVATION      
EREF.M        438.38               : kb           - ELEVATION OF DEPTH REFERENCE
DATM.M        438.38               : datum        - DATUM ELEVATION             
TDD .M        185                  : tdd          - TOTAL DEPTH DRILLER         
RUN .         ONE                  : Run          - RUN NUMBER                  
ENG .         BILL                 : Engineer     - RECORDING ENGINEER          
WIT .         JIM                  : Witness      - WITNESSED BY                
MUD .         GEL                  : Mud_type     - MUD TYPE                    
MATR.         LIMESTONE            : Logunit      - NEUTRON MATRIX              
TMAX.C        15                   : BHT          - MAXIMUM RECORDED TEMPERATURE
BHTD.M        185                  : BHTDEP       - MAXIMUM RECORDED TEMPERATURE
MATR.         1                    : LOGUNIT      - NEUTRON MATRIX              
RMT .C        25                   : MDTP         - TEMPERATURE OF MUD          
NEUT.         1                    : NEUTRON      - NEUTRON TYPE                
RESI.         0                    : RESIST       - RESISTIVITY TYPE            
RMC .OHMM     0.25                 : RMC          - RESISTIVITY OF MUD CAKE     
RMF .OHMM     0.25                 : RMF          - RESISTIVITY OF MUD FILTRATE 
SUFT.C        4                    : SUFT         - SURFACE TEMPERATURE         
~A  DEPTH     PHID     PHIN       GR     RESD
# ...
   92.200    0.305    0.417   79.884    7.611
   92.500    0.319    0.419   83.036    6.782
   92.800    0.313    0.437   86.180    6.042
   93.100    0.254    0.509   86.223    5.083
   93.400    0.286    0.535   88.758    4.443
   93.700    0.261    0.553   90.035    4.193
   94.000    0.293    0.569   86.964    4.189
   94.300    0.290    0.573   89.498    4.605
   94.600    0.307    0.554   89.540    5.160
   94.900    0.292    0.567   90.197    5.782
   95.200    0.250    0.544   91.489    6.993
   95.500    0.237    0.519   85.928    6.989
   95.800    0.249    0.498   80.369    5.658
   96.100    0.270    0.482   77.913    4.671
   96.400    0.305    0.488   78.570    3.856
   96.700    0.301    0.539   84.851    3.435
   97.000    0.316    0.575   88.008    3.635
   97.300    0.352    0.627   89.279    4.655
   97.600    0.283    0.628   84.968    5.739
   97.900    0.274    0.553   83.760    7.211
   98.200    0.277    0.510   85.660    7.928
   98.500    0.244    0.492   88.190    7.923
   98.800    0.257    0.467   86.367    7.766
   99.100    0.271    0.457   82.050    7.466
   99.400    0.285    0.475   81.468    7.321
   99.700    0.255    0.514   82.755    7.177
  100.000    0.257    0.528   80.923    7.889
  100.300    0.239    0.523   78.477    8.841
  100.600    0.207    0.525   79.767    9.718
  100.900    0.192    0.487   75.447    9.710
  101.200    0.144    0.406   74.872    8.652
  101.500    0.098    0.413   78.637    7.562
  101.800    0.214    0.470   83.047    7.001
  102.100    0.256    0.463   83.077    6.861
  102.400    0.248    0.480   83.117    6.857
  102.700    0.238    0.511   88.143    6.227
  103.000    0.269    0.485   89.424    4.584
  103.300    0.217    0.457   88.838    3.247
  103.600    0.292    0.482   80.173    2.732
  103.900    0.326    0.528   73.988    2.678
  104.200    0.352    0.594   70.290    2.780
  104.500    0.358    0.563   68.473    3.115
  104.800    0.316    0.569   70.376    3.626
  105.100    0.309    0.580   74.152    3.911
  105.400    0.268    0.576   74.191    4.640
  105.700    0.269    0.536   78.590    5.100
  106.000    0.267    0.499   77.389    5.001
  106.300    0.255    0.464   74.931    4.456
  106.600    0.240    0.459   76.839    4.285
  106.900    0.226    0.470   76.255    4.622
  107.200    0.245    0.502   78.171    5.381
  107.500    0.272    0.537   81.313    6.634
  107.800    0.265    0.541   80.733    7.293
  108.100    0.281    0.496   78.288    6.253
  108.400    0.227    0.476   72.734    4.782
  108.700    0.170    0.459   69.650    3.656
  109.000    0.126    0.438   70.315    3.258
  109.300    0.181    0.497   80.321    3.381
  109.600    0.302    0.549   80.353    3.445
  109.900    0.295    0.580   80.399    3.576
  110.200    0.299    0.581   83.550    3.573
  110.500    0.308    0.580   82.965    3.502
  110.800    0.276    0.557   81.138    3.432
  111.100    0.276    0.543   84.299    3.430
  111.400    0.288    0.548   86.821    3.494
  111.700    0.280    0.535   83.763    3.840
  112.000    0.260    0.527   83.165    4.142
  112.300    0.255    0.541   82.594    4.641
  112.600    0.277    0.558   83.249    4.818
  112.900    0.242    0.540   85.166    4.814
  113.200    0.221    0.514   85.200    5.094
  113.500    0.208    0.515   81.516    7.748
  113.800    0.236    0.507   74.709   10.920
  114.100    0.246    0.463   68.527   13.207
  114.400    0.262    0.433   65.443   14.520
  114.700    0.298    0.400   63.613   15.072
  115.000    0.313    0.363   63.664   15.061
  115.300    0.311    0.344   64.317   15.335
  115.600    0.308    0.350   66.850   14.472
  115.900    0.276    0.371   66.901   11.499
  116.200    0.214    0.376   65.687    8.962
  116.500    0.154    0.373   66.970    7.686
  116.800    0.089    0.371   71.368    8.289
  117.100    0.261    0.435   74.522    9.650
  117.400    0.301    0.436   70.222   11.449
  117.700    0.297    0.397   68.376   13.585
  118.000    0.319    0.360   65.925   15.817
  118.300    0.281    0.333   68.464   16.421
  118.600    0.254    0.315   66.016   16.724
  118.900    0.252    0.326   68.538   16.392
  119.201    0.275    0.331   71.080   14.606
  119.501    0.269    0.342   70.499   13.520
  119.801    0.259    0.360   73.648   13.768
  120.101    0.254    0.414   78.662   13.498
  120.401    0.253    0.429   74.967   13.233
  120.701    0.271    0.386   64.428   11.346
  121.001    0.211    0.312   59.484   10.110
  121.301    0.141    0.394   65.132    9.182
  121.601    0.209    0.422   73.270    8.830
  121.901    0.204    0.436   73.300    9.342
  122.201    0.190    0.453   75.841    9.698
  122.501    0.218    0.462   77.114    9.691
  122.801    0.240    0.458   75.295    9.870
  123.101    0.223    0.438   75.333   10.849
  123.401    0.189    0.437   77.862   11.263
  123.701    0.219    0.433   76.045   12.147
  124.001    0.239    0.399   75.458   14.415
  124.301    0.252    0.389   74.253   20.313
  124.601    0.256    0.383   72.420   30.315
  124.901    0.268    0.366   74.326   35.975
  125.201    0.356    0.348   72.516   40.312
  125.501    0.367    0.254   73.166   37.315
  125.801    0.349    0.275   78.182   25.445
  126.101    0.332    0.300   76.369   16.382
  126.401    0.318    0.319   78.264   12.058
  126.701    0.268    0.350   90.131    9.951
  127.001    0.223    0.399   85.191   10.530
  127.301    0.227    0.425   85.241   17.626
  127.601    0.244    0.420   85.900   54.364
  127.901    0.259    0.380   80.964  100.097
  128.201    0.314    0.302   72.295   87.505
  128.501    0.326    0.337   69.221   56.334
  128.801    0.317    0.375   67.385   38.419
  129.101    0.307    0.383   73.036   18.571
  129.401    0.278    0.379   83.658   16.234
  129.701    0.272    0.386   86.804   15.915
  130.001    0.270    0.401   84.366   19.997
  130.301    0.266    0.406   81.913   26.610
  130.601    0.242    0.421   81.323   40.481
  130.901    0.275    0.365   81.361   54.911
  131.201    0.308    0.347   79.535   67.676
  131.501    0.305    0.347   68.995   73.017
  131.801    0.313    0.371   54.719   91.757
  132.101    0.299    0.402   44.800  100.858
  132.401    0.291    0.408   55.426   95.160
  132.701    0.281    0.415   62.937   93.294
  133.001    0.274    0.431   67.330   89.694
  133.301    0.303    0.429   76.709   86.276
  133.601    0.298    0.416   84.230   78.351
  133.901    0.306    0.415   86.122   58.780
  134.201    0.310    0.421   79.941   46.700
  134.501    0.307    0.428   78.121   43.233
  134.801    0.324    0.417   76.913   43.195
  135.101    0.301    0.408   64.502   48.388
  135.401    0.293    0.408   60.811   49.296
  135.701    0.305    0.396   74.543   41.474
  136.001    0.295    0.418   72.101   31.712
  136.301    0.297    0.434   67.152   27.718
  136.601    0.268    0.409   66.572   24.229
  136.901    0.249    0.418   64.125   22.429
  137.201    0.266    0.426   59.813   21.573
  137.501    0.299    0.399   66.704   22.392
  137.801    0.289    0.396   70.469   24.618
  138.101    0.283    0.412   61.804   33.384
  138.401    0.280    0.416   58.099   43.589
  138.701    0.309    0.410   61.257   42.735
  139.001    0.289    0.417   66.288   26.486
  139.301    0.304    0.408   68.801   16.730
  139.601    0.270    0.392   73.209   12.793
  139.901    0.249    0.407   73.243   11.184
  140.201    0.196    0.444   67.680   11.173
  140.501    0.272    0.412   59.642   11.823
  140.801    0.281    0.392   56.574   13.247
  141.101    0.284    0.394   54.126   15.415
  141.401    0.293    0.411   53.528   16.009
  141.701    0.313    0.414   57.922   17.264
  142.001    0.280    0.405   54.867   17.587
  142.301    0.288    0.388   52.410   18.962
  142.601    0.280    0.394   50.591   20.850
  142.901    0.281    0.415   48.763   28.280
  143.201    0.301    0.436   47.558   39.099
  143.501    0.316    0.442   45.732   46.401
  143.801    0.315    0.433   44.521   54.003
  144.101    0.320    0.441   42.696   58.262
