~VERSION INFORMATION
 VERS.                 2.0:   CWLS LOG ASCII STANDARD -VERSION 2.0
 WRAP.                  NO:   ONE LINE PER DEPTH STEP
~WELL INFORMATION BLOCK
#MNEM.UNIT           DATA                    DESCRIPTION OF MNEMONIC
#---------    -------------------            -------------------------------
# Generated from Intellog Unique Number	CC_88_90/WELL/3141
WELL.         HUSKY OIL OPERATIONS LTD.      : Well_name    - WELL
LOC .         06-36-090-09W4                 : Location     - LOCATION
UWI .         AA/06-36-090-09W400            : Uwi          - UNIQUE WELL ID
ENTR.         JOETTE                         : Entered      - ENTERED BY
SRVC.         SCHLUMBERGER                   : Scn          - SERVICE COMPANY
DATE.         03/06/92                       : Date         - LOG DATE
STRT.M        30.48                          : top_depth    - START DEPTH
STOP.M        131.480                        : bot_depth    - STOP DEPTH
STEP.M        0.25                           : increment    - STEP LENGTH
 NULL. -999.2500:NULL Value
~CURVE INFORMATION BLOCK
#MNEM UNIT       ERCB CURVE CODE    CURVE DESCRIPTION
#-----------   ------------------   ----------------------------------
DEPT.M        00 001 00 00         : DEPTH        - DEPTH
GR  .API      00 310 00 00         : GR           - GAMMA RAY
CALI.MM       00 280 01 00         : CAL          - CALIPER
DPHI.V/V      00 890 00 00         : PHID         - DENSITY POROSITY (SANDSTONE)
ILD .OHMM     00 120 00 00         : RESD         - DEEP RESISTIVITY (DIL)
~PARAMETER INFORMATION
#MNEM.UNIT           DATA             DESCRIPTION OF MNEMONIC
#---------         -----------     ------------------------------
GL  .M        409.042              : gl           - GROUND LEVEL ELEVATION
EREF.M        410.261              : kb           - ELEVATION OF DEPTH REFERENCE
DATM.M        410.261              : datum        - DATUM ELEVATION
TDD .M        186.842              : tdd          - TOTAL DEPTH DRILLER
RUN .         ONE                  : Run          - RUN NUMBER
ENG .         JO                   : Engineer     - RECORDING ENGINEER
WIT .         TIM                  : Witness      - WITNESSED BY
MUD .         GEL                  : Mud_type     - MUD TYPE
MATR.         SANDSTONE            : Logunit      - NEUTRON MATRIX
TMAX.C        6.7                  : BHT          - MAXIMUM RECORDED TEMPERATURE
BHTD.M        186.842              : BHTDEP       - MAXIMUM RECORDED TEMPERATURE
RMT .C        3.88889              : MDTP         - TEMPERATURE OF MUD
MUDD.KG/M     11300                : MWT          - MUD DENSITY
NEUT.         1                    : NEUTRON      - NEUTRON TYPE
RESI.         0                    : RESIST       - RESISTIVITY TYPE
RM  .OHMM     36.5                 : RM           - RESISTIVITY OF MUD
RMC .OHMM     9.3                  : RMC          - RESISTIVITY OF MUD CAKE
RMF .OHMM     10                   : RMF          - RESISTIVITY OF MUD FILTRATE
SUFT.C        4                    : SUFT         - SURFACE TEMPERATURE
~A  DEPTH       GR      CAL     PHID     RESD
   30.480   85.425  170.590    0.215   63.483
   30.730   84.199  169.585    0.224   49.541
   30.980   87.275  167.554    0.230   53.442
   31.230   96.496  162.433    0.238   63.407
   31.480  112.478  157.290    0.247   63.384
   31.730  106.336  155.258    0.253   47.620
   31.980  105.725  154.254    0.256   35.101
   32.230  119.863  154.308    0.265   34.420
   32.480  127.241  154.341    0.269   38.568
   32.730  113.723  156.481    0.259   40.828
   32.980  111.268  157.572    0.259   45.752
   33.230  124.792  158.632    0.261   56.385
   33.480  121.108  159.734    0.270   59.683
   33.730  110.048  159.756    0.256   57.432
   33.980  109.437  162.922    0.252   44.823
   34.230  105.138  169.212    0.244   41.517
   34.480  102.683  171.308    0.225   39.197
   34.730  103.916  164.090    0.236   33.647
   34.980  112.523  163.096    0.259   30.578
   35.230  105.765  167.311    0.266   31.154
   35.480   93.477  172.541    0.254   33.604
   35.730  100.855  171.547    0.255   35.572
   35.980   95.942  169.505    0.245   43.013
   36.230  108.237  168.512    0.250   43.820
   36.480  115.614  168.566    0.255   42.978
   36.730  119.920  168.609    0.258   40.577
   36.980  127.297  161.392    0.252   37.591
   37.230  112.551  159.371    0.231   35.491
   37.480  104.565  162.527    0.218   39.017
   37.730  107.641  165.704    0.222   47.188
   37.980  118.706  161.587    0.216   62.751
   38.230  121.168  157.482    0.236   57.037
   38.480  121.171  159.611    0.245   54.880
   38.730  109.497  161.707    0.237   62.687
   38.980   90.449  162.799    0.235   55.899
   39.230   89.838  153.506    0.236   38.183
   39.480   93.528  153.550    0.236   34.700
   39.730   94.760  156.705    0.252   36.033
   39.980  108.899  159.861    0.268   28.663
   40.230  120.578  164.054    0.262   25.077
   40.480  126.727  167.220    0.250   32.108
   40.730  125.501  167.264    0.250   45.216
   40.980  106.453  167.340    0.274   41.095
   41.230   84.331  167.362    0.271   35.950
   41.480   97.856  167.394    0.254   41.842
   41.730   89.255  167.449    0.237   41.834
   41.980   91.102  167.503    0.241   34.569
   42.230   99.094  166.509    0.244   28.565
   42.480   99.712  163.441    0.262   28.016
   42.730  102.173  160.383    0.258   32.614
   42.980   96.030  159.389    0.252   36.544
   43.230  102.794  160.481    0.244   26.937
   43.480  124.307  161.540    0.261   22.259
   43.730  135.987  162.621    0.279   26.917
   43.980  129.230  159.563    0.274   43.310
   44.230  116.941  158.580    0.262   54.407
   44.480  102.195  160.698    0.231   71.001
   44.730  112.646  161.779    0.243   67.034
   44.980  114.493  161.823    0.271   53.317
   45.230  118.183  161.877    0.283   44.900
   45.480  121.874  162.947    0.280   41.596
   45.730  118.189  165.087    0.255   42.380
   45.980  115.734  165.109    0.214   44.009
   46.230  118.196  163.078    0.210   43.989
   46.480  120.043  155.860    0.213   44.822
   46.730  108.984  159.015    0.198   46.544
   46.980  100.998  166.331    0.193   52.158
   47.230  102.229  166.386    0.189   65.516
   47.480  113.295  163.317    0.182   73.418
   47.730  102.850  162.323    0.186   76.232
   47.980  101.625  158.217    0.198   73.357
   48.230  104.701  155.149    0.206   67.952
   48.480  110.849  158.304    0.198   64.156
   48.730  112.082  166.647    0.186   62.929
   48.980  105.325  166.690    0.178   62.900
   49.230  109.630  160.510    0.183   64.079
   49.480  109.633  157.463    0.187   64.056
   49.730  107.792  159.581    0.187   65.269
   49.980  108.410  162.737    0.184   60.455
   50.230   99.809  164.866    0.178   56.006
   50.480   99.812  165.936    0.177   59.271
   50.730   97.972  167.016    0.182   70.330
   50.980   83.225  167.060    0.194   86.676
   51.230   88.145  165.040    0.189   90.007
   51.480   94.909  161.971    0.195   84.971
   51.730   89.380  159.951    0.208   81.766
   51.980   91.842  161.032    0.215   80.195
   52.230  101.678  162.102    0.199   80.165
   52.480  102.296  166.305    0.184   78.631
   52.730   93.081  166.349    0.168   72.832
   52.980  105.375  165.344    0.177   70.085
   53.230  120.742  163.335    0.186   70.059
   53.480  120.131  163.378    0.193   70.033
   53.730  117.061  163.422    0.202   72.725
   53.980  120.137  163.465    0.200   75.505
   54.230  109.079  161.434    0.193   74.068
   54.480   99.249  160.430    0.204   68.605
   54.730   94.949  159.457    0.201   64.772
   54.980   98.640  158.453    0.196   58.868
   55.230   99.258  157.481    0.208   48.645
   55.480  100.490  157.513    0.233   43.373
   55.730   98.650  157.568    0.262   42.539
   55.980   91.892  158.659    0.275   46.775
   56.230   96.197  159.719    0.276   57.652
   56.480  108.492  161.848    0.270   59.862
   56.730   94.975  161.880    0.252   54.406
   56.980   95.593  161.924    0.223   65.793
   57.230  102.356  158.877    0.231   73.721
   57.480   92.526  157.872    0.224   62.088
   57.730  101.747  158.975    0.219   63.264
   57.980  100.522  158.997    0.218   68.239
   58.230   89.463  159.051    0.232   55.324
   58.480   88.852  158.068    0.236   58.549
   58.730   94.386  157.063    0.220   65.617
   58.980   98.691  157.118    0.217   69.448
   59.230   95.621  159.236    0.234   38.474
   59.480   88.864  161.354    0.240   23.894
   59.730   91.325  158.286    0.260   22.555
   59.980  118.369  158.329    0.285   25.277
   60.230  104.852  165.645    0.313   29.991
   60.480   93.178  168.801    0.281   25.259
   60.730   90.723  167.818    0.274   20.870
   60.980   89.498  160.589    0.268   24.297
   61.230  112.239  157.531    0.259   27.227
   61.480  123.919  157.564    0.253   21.656
   61.730  113.475  157.618    0.253   20.839
   61.980  114.708  160.774    0.258   23.353
   62.230  114.710  166.004    0.260   31.061
   62.480  104.266  169.181    0.248   49.030
   62.730   98.738  170.240    0.231   34.791
   62.980   97.512  165.108    0.214   31.026
   63.230  109.806  160.991    0.206   28.741
   63.480  120.258  160.008    0.220   32.823
   63.730  110.427  161.089    0.231   41.233
   63.980  107.357  161.144    0.220   47.094
   64.230  109.819  160.139    0.191   47.077
   64.480  108.593  160.182    0.198   35.368
   64.730  108.597  162.301    0.209   33.389
   64.980  116.589  164.441    0.236   33.377
   65.230  112.290  162.398    0.239   32.738
   65.480   93.241  156.218    0.226   32.103
   65.730   87.099  157.310    0.219   32.094
   65.980   82.800  162.529    0.225   30.884
   66.230   80.960  168.818    0.224   30.872
   66.480   72.974  168.851    0.217   32.675
   66.730   64.987  167.857    0.217   35.922
   66.980   74.823  167.912    0.218   36.602
   67.230   83.430  167.944    0.205   37.285
   67.480   88.350  167.999    0.205   37.275
   67.730   96.957  169.079    0.207   37.258
   67.980  116.012  169.134    0.208   35.853
   68.230  106.797  169.166    0.222   35.843
   68.480  117.862  169.210    0.226   36.515
   68.730  127.084  168.227    0.215   36.505
   68.980  120.327  168.281    0.218   37.908
   69.230  116.642  166.261    0.228   40.114
   69.480  120.948  165.246    0.230   40.870
   69.730  124.024  163.225    0.239   40.859
   69.980  128.329  161.194    0.242   39.314
   70.230  116.655  159.174    0.249   37.831
   70.480  110.512  159.206    0.264   37.104
   70.730   95.766  159.261    0.265   37.090
   70.980   90.239  159.315    0.243   39.256
   71.230   97.002  159.337    0.242   39.242
   71.480  102.536  158.354    0.250   37.761
   71.730  110.528  159.435    0.265   35.652
   71.980  106.844  162.590    0.245   42.300
   72.230  111.764  165.746    0.218   52.136
   72.480  106.850  166.849    0.226   55.181
   72.730  108.697  165.855    0.224   49.205
   72.980  105.627  164.850    0.224   39.137
   73.230   93.954  162.819    0.212   34.241
   73.480   93.957  160.799    0.217   32.949
   73.730  104.408  159.805    0.223   38.353
