~VERSION INFORMATION
 VERS.                 2.0:   CWLS LOG ASCII STANDARD -VERSION 2.0
 WRAP.                  NO:   ONE LINE PER DEPTH STEP
~WELL INFORMATION BLOCK
#MNEM.UNIT           DATA                    DESCRIPTION OF MNEMONIC
#---------    -------------------            -------------------------------
# Generated from Intellog Unique Number	CW_82_90/WELL/637
WELL.         GULF LIVOCK OV 07-31           : Well_name    - WELL
LOC .         AA/07-31-084-23W4/0            : Location     - LOCATION
UWI .         AA/07-31-084-23W4/0            : Uwi          - UNIQUE WELL ID
ENTR.         JAYE                           : Entered      - ENTERED BY
SRVC.         SCHLUMBERGER                   : Scn          - SERVICE COMPANY
DATE.         9 FEB 82                       : Date         - LOG DATE
STRT.M        150                            : top_depth    - START DEPTH
STOP.M        405                            : bot_depth    - STOP DEPTH
STEP.M        0.25                           : increment    - STEP LENGTH
 NULL. -999.2500:NULL Value
~CURVE INFORMATION BLOCK
#MNEM UNIT       ERCB CURVE CODE    CURVE DESCRIPTION
#-----------   ------------------   ----------------------------------
DEPT.M        00 001 00 00         : DEPTH        - DEPTH
CALI.MM       00 280 01 00         : CAL          - CALIPER
GR  .API      00 310 00 00         : GR           - GAMMA RAY
NPHI.V/V      00 330 00 00         : PHIN         - NEUTRON POROSITY (SANDSTONE)
DPHI.V/V      00 890 00 00         : PHID         - DENSITY POROSITY (SANDSTONE)
ILD .OHMM     00 120 00 00         : RESD         - DEEP RESISTIVITY (DIL)
~PARAMETER INFORMATION
#MNEM.UNIT           DATA             DESCRIPTION OF MNEMONIC
#---------         -----------     ------------------------------
GL  .M        574.7                : gl           - GROUND LEVEL ELEVATION
EREF.M        579.1                : kb           - ELEVATION OF DEPTH REFERENCE
DATM.M        574.7                : datum        - DATUM ELEVATION
TDD .M        410                  : tdd          - TOTAL DEPTH DRILLER
RUN .         ONE                  : Run          - RUN NUMBER
ENG .         GARTH                : Engineer     - RECORDING ENGINEER
WIT .         WALKER               : Witness      - WITNESSED BY
BASE.         EDMONTON             : Branch       - HOME BASE OF LOGGING UNIT
MUD .         GEL                  : Mud_type     - MUD TYPE
MATR.         SANDSTONE            : Logunit      - NEUTRON MATRIX
TMAX.C        26.1                 : BHT          - MAXIMUM RECORDED TEMPERATURE
BHTD.M        410                  : BHTDEP       - MAXIMUM RECORDED TEMPERATURE
RMT .C        15.5                 : MDTP         - TEMPERATURE OF MUD
MUDD.KG/M     1090                 : MWT          - MUD DENSITY
NEUT.         1                    : NEUTRON      - NEUTRON TYPE
RESI.         0                    : RESIST       - RESISTIVITY TYPE
RM  .OHMM     5.77                 : RM           - RESISTIVITY OF MUD
RMC .OHMM     0                    : RMC          - RESISTIVITY OF MUD CAKE
RMF .OHMM     6.87                 : RMF          - RESISTIVITY OF MUD FILTRATE
SUFT.C        0                    : SUFT         - SURFACE TEMPERATURE
~A  DEPTH      CAL       GR     PHIN     PHID     RESD
# ...
  259.500  261.843   81.001    0.479    0.265    7.143
  259.750  262.054   81.873    0.485    0.260    6.896
  260.000  262.683   83.804    0.479    0.250    6.015
  260.250  262.998   85.299    0.501    0.247    4.894
  260.500  263.732   84.741    0.502    0.255    4.383
  260.750  263.630   83.560    0.491    0.272    4.146
  261.000  263.320   81.507    0.465    0.273    4.048
  261.250  263.220   77.525    0.465    0.275    4.012
  261.500  263.015   68.253    0.482    0.284    4.106
  261.750  262.185   64.582    0.484    0.297    4.634
  262.000  261.563   65.144    0.490    0.310    5.638
  262.250  261.357   63.402    0.539    0.305    7.369
  262.500  261.048   59.171    0.560    0.305    7.846
  262.750  260.948   58.924    0.538    0.325    8.641
  263.000  260.847   59.734    0.492    0.328    9.606
  263.250  260.537   58.491    0.472    0.305   10.985
  263.500  260.020   57.248    0.457    0.295   12.538
  263.750  259.295   58.681    0.458    0.308   13.757
  264.000  259.193   60.986    0.494    0.329   13.012
  264.250  259.301   63.725    0.496    0.318   12.282
  264.500  259.512   68.146    0.480    0.298   11.704
  264.750  259.412   68.396    0.468    0.284   11.151
  265.000  259.832   68.398    0.455    0.274   10.666
  265.250  260.564   70.391    0.456    0.283   10.259
  265.500  260.879   73.754    0.502    0.290   10.130
  265.750  260.879   71.265    0.512    0.295   10.042
  266.000  260.991   68.030    0.498    0.304    9.992
  266.250  261.098   65.605    0.450    0.300    9.848
  266.500  260.892   68.780    0.461    0.295    9.743
  266.750  260.583   70.960    0.473    0.299    9.532
  267.000  260.378   74.385    0.490    0.296    9.256
  267.250  260.591   78.556    0.485    0.290    8.542
  267.500  260.801   84.658    0.492    0.276    7.824
  267.750  260.908   85.966    0.506    0.265    6.981
  268.000  261.224   87.150    0.494    0.257    6.466
  268.250  261.644   90.637    0.457    0.256    5.791
  268.500  263.002   93.004    0.461    0.251    4.659
  268.750  263.109   91.761    0.515    0.255    3.542
  269.000  263.008   86.347    0.542    0.258    2.926
  269.250  262.803   81.743    0.550    0.254    3.069
  269.500  262.702   79.317    0.502    0.245    3.734
  269.750  262.497   77.389    0.479    0.250    5.019
  270.000  261.250   75.772    0.469    0.263    5.949
  270.250  259.795   73.533    0.472    0.279    6.777
  270.500  259.381   70.297    0.534    0.291    7.549
  270.750  258.657   65.506    0.537    0.288    8.158
  271.000  259.597   64.948    0.514    0.288    8.444
  271.250  261.058   64.451    0.479    0.295    8.078
  271.500  260.436   66.818    0.474    0.271    7.610
  271.750  259.398   75.969    0.477    0.258    6.262
  272.000  260.130   79.082    0.510    0.274    5.182
  272.250  261.071   77.217    0.532    0.305    4.828
  272.500  261.595   72.674    0.550    0.320    4.696
  272.750  261.390   60.601    0.548    0.313    5.231
  273.000  260.352   58.922    0.533    0.315    6.401
  273.250  259.938   58.177    0.525    0.326    7.500
  273.500  260.463   58.178    0.515    0.325    9.548
  273.750  260.987   60.358    0.510    0.322   10.835
  274.000  261.823   63.098    0.500    0.301   11.912
  274.250  263.389   62.353    0.491    0.292   12.659
  274.500  265.684   63.101    0.491    0.301   12.811
  274.750  266.208   68.455    0.482    0.305   12.344
  275.000  266.211   73.810    0.467    0.299   10.468
  275.250  265.798   78.417    0.478    0.288    7.424
  275.500  265.801   80.410    0.519    0.282    6.368
  275.750  265.804   80.163    0.542    0.285    5.027
  276.000  265.912   79.791    0.532    0.287    4.369
  276.250  266.748   78.796    0.526    0.287    4.086
  276.500  267.689   75.126    0.493    0.262    4.432
  276.750  269.775   76.808    0.487    0.226    5.283
  277.000  272.383   80.543    0.480    0.214    6.063
  277.250  273.636   84.342    0.469    0.211    6.494
  277.500  274.369   83.098    0.482    0.224    6.486
  277.750  274.372   79.863    0.496    0.225    6.525
  278.000  274.480   77.500    0.490    0.231    6.690
  278.250  274.066   75.883    0.485    0.223    6.795
  278.500  274.069   73.083    0.459    0.194    6.661
  278.750  273.968   72.711    0.424    0.184    6.665
  279.000  273.659   72.713    0.429    0.185    6.719
  279.250  273.663   73.586    0.443    0.197    6.877
  279.500  273.770   73.587    0.452    0.203    7.065
  279.750  274.398   74.460    0.421    0.195    7.149
  280.000  274.818   75.520    0.403    0.186    7.073
  280.250  275.030   78.073    0.408    0.197    7.158
  280.500  274.929   80.191    0.479    0.211    7.217
  280.750  275.140   80.379    0.499    0.227    7.248
  281.000  275.143   82.248    0.478    0.225    7.405
  281.250  275.355   84.116    0.469    0.209    7.693
  281.500  275.671   88.475    0.501    0.207    8.069
  281.750  276.195   89.970    0.500    0.216    8.103
  282.000  276.719   88.166    0.485    0.219    8.063
  282.250  276.201   83.749    0.452    0.215    8.007
  282.500  274.225   78.895    0.453    0.216    7.968
  282.750  271.625   72.237    0.469    0.216    8.184
  283.000  267.253   68.940    0.489    0.194    8.913
  283.250  264.443   69.937    0.333    0.108   10.060
  283.500  263.301   74.483    0.379    0.094   11.100
  283.750  263.200   74.048    0.425    0.286   11.907
  284.000  263.203   61.726    0.471    0.311   11.582
  284.250  263.623   59.175    0.486    0.305   11.120
  284.500  264.252   62.102    0.476    0.287   10.517
  284.750  264.151   69.324    0.450    0.262   10.020
  285.000  264.154   74.740    0.433    0.233    8.806
  285.250  264.053   73.683    0.442    0.234    5.675
  285.500  263.848   67.585    0.473    0.241    4.438
  285.750  263.643   63.852    0.495    0.270    4.972
  286.000  263.333   62.734    0.481    0.281    8.081
  286.250  262.400   61.303    0.454    0.287   10.443
  286.500  262.299   59.873    0.451    0.296   12.055
  286.750  262.197   62.800    0.452    0.301   13.503
  287.000  263.034   59.441    0.458    0.248   15.268
  287.250  263.662   57.886    0.391    0.212   17.201
  287.500  265.228   57.390    0.355    0.168   18.766
  287.750  265.752   58.760    0.351    0.150   21.377
  288.000  265.131   59.260    0.364    0.165   24.084
  288.250  263.675   58.950    0.381    0.171   25.118
  288.500  262.533   59.387    0.386    0.174   25.511
  288.750  261.911   60.696    0.377    0.180   24.865
  289.000  261.601   59.515    0.375    0.185   24.323
  289.250  262.022   57.587    0.380    0.177   23.706
  289.500  261.608   58.397    0.377    0.166   22.890
  289.750  260.466   59.519    0.366    0.177   21.769
  290.000  258.906   59.272    0.367    0.225   20.508
  290.250  257.451   60.580    0.387    0.259   18.646
  290.500  256.413   59.648    0.412    0.269   17.014
  290.750  256.103   59.898    0.444    0.287   15.555
  291.000  256.419   59.900    0.495    0.301   14.573
  291.250  257.047   59.404    0.501    0.303   13.809
  291.500  257.884   61.148    0.492    0.294   13.308
  291.750  261.012   66.315    0.483    0.285   12.994
  292.000  263.411   70.113    0.463    0.272   12.427
  292.250  264.560   68.995    0.443    0.268   11.492
  292.500  265.085   64.888    0.432    0.282   11.305
  292.750  266.025   64.329    0.443    0.286   11.549
  293.000  267.174   64.766    0.483    0.281   12.182
  293.250  268.220   64.768    0.487    0.274   12.704
  293.500  269.369   68.629    0.469    0.262   12.878
  293.750  270.205   73.049    0.459    0.239   12.411
  294.000  271.146   79.586    0.443    0.241   11.542
  294.250  271.774   79.898    0.432    0.241   10.874
  294.500  272.194   80.212    0.461    0.232    9.978
  294.750  271.885   81.457    0.458    0.232    9.245
  295.000  270.950   81.832    0.442    0.233    8.908
  295.250  269.079   81.709    0.446    0.237    8.864
  295.500  263.457   81.026    0.433    0.248    8.919
  295.750  262.835   79.970    0.436    0.248    9.372
