~Version : LASO    vs 4.00 - DATA COPYRIGHT - RILEYS DATASHARE INTERNATIONAL
VERS.                2.00:   CWLS Log ASCII Standard -VERSION 2.0
WRAP.                  NO:
~Well Information Block
#MNEM.UNIT       Data                        Description of Mnemonic
#----.----      -------------------------- : -----------------------------
COMP.                                     : COMPANY
FLD .    WILDCAT                          : FIELD NAME
LOC .    03-06-091-07W4                   : WELL LOCATION
UWI .    AA/03-06-091-07W400              : UNIQUE WELL ID
STRT.M             9.0000:
STOP.M           161.0000:
STEP.M             0.1250:
NULL.           -999.2500:
COMP.  MOBIL OIL CANADA:COMPANY
WELL.  MOBIL CLARKE OV 3-6:WELL
FLD.   :FIELD
LOC.   03-06-091-07W4:LOCATION
CTRY.  CANADA:COUNTRY
PROV.  ALBERTA:PROVINCE
SRVC.  DRESSER ATLAS:SERVICE COMPANY
DATE.  08-FEB-81:LOG DATE
UWI.   AA/03-06-091-07W4/0:UNIQUE WELL ID
~Parameter Information Block
#MNEM.UNIT       Data                        Description of Mnemonic
#----.----      -------------------------- : -----------------------------
RUN .                   1                 : Run Number
GL  .M           418.1000                 : Ground Level Elevation
DREF.                  KB                 : Depth Reference
EREF.M           419.1000                 : Elevation of Depth Reference
TDL .M           162.8000                 : Total Depth Logger
TDD .M           160.0000                 : Total Depth Driller
BHT .DEGC         10.0000                 : Bottom Hole Temperature
BS  .MM          171.0000                 : Bit Size
DFD .           1090.0000                 : Mud Weight (Density)
DFV .             85.0000                 : Mud Viscosity
RM  .OHMM          1.9000                 : Mud Resistivity
RMT .DEGC         10.0000                 : Mud Resistivity Temperature
RMF .OHMM          1.1000                 : Mud Filtrate Resistivity
RMFT.DEGC         18.0000                 : RMF Temperature
RMC .OHMM          1.8000                 : Mud Cake Resistivity
RMCT.DEGC         18.0000                 : RMC Temperature
~Curve Information Block
#MNEM.UNIT        API CODE    Curve Description
#---------    ------------    -------------------------------------------
DEPT.M                    :   DEPTH
CALI.MM       42 280  1  1:   3 DENSITY CALIPER
DPHI.V/V                  :   DPHI
DT  .US/M     60 520 32  1:   2 SONIC INTERVAL TRANSIT TIME (COMPENSATED)
GR  .GAPI     42 310  1  1:   4 GAMMA RAY
ILD .OHMM      5 120 46  1:   7 DEEP INDUCTION
NPHI.V/V      42 890  3  1:   5 NEUTRON POROSITY (SANDSTONE)
RHOB.K/M3     42 350  1  1:   6 BULK DENSITY
SFL .OHMM      5 220  6  1:   8 FOCUSSED RESISTIVITY
SP  .MV        5  10  1  1:   9 SPONTANEOUS POTENTIAL
~A  Depth           CALI        DPHI          DT          GR         ILD        NPHI        RHOB         SFL          SP
# ...
143.0000        202.5500      0.3233    403.4800     36.0150     27.4000      0.3113   2104.8999     31.7000    -44.0900
143.1250        202.8750      0.3276    404.7200     38.4150     31.3200      0.3127   2101.8000     41.7300    -44.0900
143.2500        202.5500      0.3262    401.2800     39.8850     36.8200      0.3123   2098.2000     42.4700    -43.8500
143.3750        201.9500      0.3231    399.8000     38.5950     46.2500      0.3174   2105.5000     40.5100    -43.4900
143.5000        202.2500      0.3196    407.6400     39.3300     60.6900      0.3214   2126.2000     39.1600    -43.0100
143.6250        202.2500      0.3143    415.2400     41.5350    103.1000      0.3226   2134.1001     33.5300    -42.7700
143.7500        202.2500      0.3101    421.6000     43.7400    166.6000      0.3221   2137.7000     27.4100    -42.2900
143.8750        202.5500      0.3106    420.4000     42.8250    424.2000      0.3194   2142.0000     24.3500    -42.4100
144.0000        203.4750      0.3141    416.7200     43.3800    662.3000      0.3143   2155.3999     26.9200    -44.0900
144.1250        205.9250      0.3177    419.1600     46.1250    788.1000      0.3110   2151.7000     39.2900    -45.1700
144.2500        204.1000      0.3213    416.7200     47.9700    803.9999      0.3116   2132.8999     70.6200    -45.8900
144.3750        202.8750      0.3216    408.8800     47.7900    844.2999      0.3112   2136.5000    193.1000    -46.3800
144.5000        202.2500      0.3143    405.4400     45.3900    954.0999      0.3092   2145.0000    409.5000    -47.4600
144.6250        201.3250      0.3037    403.4800     45.9450   1180.9999      0.3061   2173.0000    810.4999    -49.1400
144.7500        201.0250      0.2935    398.8000     47.2350   1431.9999      0.3033   2147.5000    910.7000    -51.3000
144.8750        201.3250      0.2994    389.7600     48.1500   1877.9999      0.2996   2136.5000    996.2999    -51.6600
145.0000        201.0250      0.2900    387.2800     45.7650   1881.9999      0.2960   2142.0000   1102.9999    -51.0600
145.1250        200.7250      0.2802    388.5200     43.3800   1878.9999      0.2923   2160.8000   1195.9999    -50.5800
145.2500        201.0250      0.2751    386.8000     42.0900   1873.9999      0.2882   2163.8999   1243.9999    -51.4200
145.3750        202.5500      0.2702    387.5600     41.5350   1833.9999      0.2814   2185.8000   1264.9999    -53.3500
145.5000        202.5500      0.2665    378.0000     41.3550   1754.9999      0.2707   2224.1001   1300.9999    -56.5900
145.6250        203.1750      0.2685    373.3200     41.7150   1595.9999      0.2597   2257.5000   1338.9999    -62.1200
145.7500        202.5500      0.2766    369.6400     41.1750   1363.9999      0.2589   2266.7000   1376.9999    -69.0900
145.8750        201.9500      0.2840    370.4000     39.7050   1480.9999      0.2678   2249.0000   1398.9999    -72.1000
146.0000        202.5500      0.2957    370.8800     38.2350   1695.9999      0.2741   2190.0000   1384.9999    -73.1800
146.1250        204.7000      0.3056    371.6000     36.0150   1839.9999      0.2802   2140.8000   1315.9999    -74.0200
146.2500        205.3250      0.3055    373.5600     33.8100   1829.9999      0.2863   2115.2000   1227.9999    -74.2600
146.3750        205.0000      0.3033    373.3200     34.5450   1555.9999      0.2924   2111.6001   1133.9999    -74.6200
146.5000        205.0000      0.2988    366.2400     36.3900   1148.9999      0.2974   2112.2000   1023.9999    -75.2200
146.6250        205.3250      0.2950    364.2400     38.4150    538.9999      0.2980   2120.7000    932.7000    -75.7000
146.7500        205.3250      0.2892    362.0400     42.0900    252.1000      0.2917   2132.2000    864.2999    -75.5800
146.8750        205.0000      0.2842    358.6400     47.2350    107.4000      0.2835   2143.8000    809.2000    -75.2200
147.0000        205.3250      0.2793    353.7200     50.5500     59.4700      0.2781   2157.2000    772.6000    -74.9800
147.1250        205.6250      0.2754    353.0000     49.9950     40.3700      0.2768   2212.5000    746.9000    -74.6200
147.2500        205.9250      0.2768    354.7200     41.1750     32.6600      0.2781   2215.0000    715.1000    -74.1400
147.3750        206.5250      0.2811    358.6400     31.8000     27.1500      0.2783   2190.6001    675.9999    -73.1800
147.5000        206.5250      0.2859    368.4400     29.5950     23.8500      0.2803   2136.5000    645.4000    -71.5000
147.6250        206.5250      0.2897    374.3200     28.4850     21.5200      0.2827   2085.3999    622.2000    -70.6500
147.7500        206.2250      0.2954    379.9600     27.5700     19.3200      0.2851   2076.3000    609.9999    -70.0500
147.8750        206.2250      0.3023    381.6800     27.5700     17.4900      0.2875   2069.6001    625.9000    -69.8100
148.0000        206.2250      0.3096    381.4000     28.1250     15.7700      0.2889   2069.6001    671.1000    -69.4500
148.1250        206.2250      0.3159    381.4000     29.0400     15.2800      0.2891   2074.5000    723.7000    -69.0900
148.2500        206.5250      0.3201    381.4000     30.1350     15.1600      0.2883   2079.3000    660.1000    -68.1300
148.3750        206.8500      0.3181    381.4000     29.7750     15.2800      0.2871   2089.7000    229.8000    -66.8100
148.5000        207.4500      0.3164    381.1600     29.5950     15.5300      0.2850   2100.0000     41.8600    -65.6100
148.6250        207.4500      0.3145    380.2000     27.7500     16.1400      0.2835   2114.0000     16.7600    -65.2500
148.7500        207.7500      0.3158    378.7200     28.1250     16.8700      0.2822   2117.7000     13.5800    -64.8800
148.8750        207.7500      0.3161    377.4800     28.8600     17.7300      0.2819   2121.3000     16.2700    -64.1600
149.0000        207.7500      0.3171    375.0400     29.9550     18.7100      0.2809   2120.7000     22.6400    -62.7200
149.1250        208.0750      0.3165    375.5200     29.7750     19.9300      0.2806   2122.5000     30.8400    -61.1600
149.2500        208.3750      0.3145    376.5200     29.4000     21.2800      0.2815   2117.7000     33.2900    -59.7200
149.3750        208.3750      0.3103    378.0000     28.6650     22.8700      0.2826   2116.3999     25.2100    -58.2700
149.5000        208.6750      0.3056    379.9600     27.5700     24.9500      0.2820   2123.1001     21.7800    -56.4700
149.6250        208.6750      0.3017    380.2000     28.4850     27.5200      0.2792   2137.7000     28.6400    -53.5900
149.7500        209.3000      0.2988    381.9200     29.5950     29.8500      0.2775   2140.8000     39.5300    -50.7000
149.8750        208.9750      0.2963    382.6400     30.6900     32.3000      0.2770   2150.5000     34.7600    -46.8600
150.0000        208.9750      0.2938    399.3200     32.8950     34.8700      0.2781   2156.6001     24.3500    -43.2500
150.1250        208.6750      0.2930    409.3600     34.9200     36.8200      0.2789   2157.2000     21.0500    -40.1300
150.2500        208.3750      0.2928    418.4400     37.8600     37.5600      0.2799   2156.0000     23.0100    -36.6400
150.3750        208.0750      0.2927    425.7600     42.2700     37.6800      0.2794   2161.3999     26.1900    -35.6800
150.5000        208.6750      0.2952    436.0800     46.5000     37.4400      0.2799   2166.3000     31.8200    -36.0400
150.6250        209.9000      0.2985    428.7200     48.1500     37.0700      0.2777   2167.5000     36.9600    -37.6000
150.7500        211.4250      0.3037    418.2000     47.7900     36.2100      0.2753   2157.2000     41.1200    -39.2800
150.8750        207.7500      0.3129    412.5600     45.0300     35.6000      0.2745   2143.8000     42.8300    -40.8500
151.0000        205.0000      0.3200    414.0000     42.0900     34.9900      0.2801   2137.7000     43.9400    -41.9300
151.1250        204.1000      0.3214    411.5600     41.5350     34.5000      0.2892   2121.8999     44.1800    -44.5700
151.2500        204.4000      0.3172    408.8800     43.5600     34.5000      0.2975   2112.8000     42.3400    -49.2600
