~VERSION INFORMATION
 VERS.                 2.0:   CWLS LOG ASCII STANDARD -VERSION 2.0
 WRAP.                  NO:   ONE LINE PER DEPTH STEP
~WELL INFORMATION BLOCK
#MNEM.UNIT           DATA                    DESCRIPTION OF MNEMONIC
#---------    -------------------            -------------------------------
# Generated from Intellog Unique Number	CX_WELLS/WELL/3528
WELL.         AMOCO GREGOIRE                 : Well_name    - WELL
LOC .         AA/05-15-085-07W4/0            : Location     - LOCATION
UWI .         AA/05-15-085-07W400            : Uwi          - UNIQUE WELL ID
ENTR.         T                              : Entered      - ENTERED BY
SRVC.         SCHLUMBERGER                   : Scn          - SERVICE COMPANY
STRT.F        350                            : top_depth    - START DEPTH
STOP.F        874.114                        : bot_depth    - STOP DEPTH
STEP.F        0.82                           : increment    - STEP LENGTH
 NULL. -999.2500:NULL Value
~CURVE INFORMATION BLOCK
#MNEM UNIT       ERCB CURVE CODE    CURVE DESCRIPTION
#-----------   ------------------   ----------------------------------
DEPT.F        00 001 00 00         : DEPTH        - DEPTH
GR  .API      00 310 00 00         : GR           - GAMMA RAY
DPHI.V/V      00 890 00 00         : PHID         - DENSITY POROSITY (SANDSTONE)
ILD .OHMM     00 120 00 00         : RESD         - DEEP RESISTIVITY (OTHER)
~PARAMETER INFORMATION
#MNEM.UNIT           DATA             DESCRIPTION OF MNEMONIC
#---------         -----------     ------------------------------
GL  .F        1553                 : gl           - GROUND LEVEL ELEVATION
EREF.F        1557                 : kb           - ELEVATION OF DEPTH REFERENCE
DATM.F        1557                 : datum        - DATUM ELEVATION
TDD .F        897                  : tdd          - TOTAL DEPTH DRILLER
RUN .         ONE                  : Run          - RUN NUMBER
ENG .         BILL                 : Engineer     - RECORDING ENGINEER
WIT .         JIM                  : Witness      - WITNESSED BY
MUD .         GEL                  : Mud_type     - MUD TYPE
MATR.         SANDSTONE            : Logunit      - NEUTRON MATRIX
TMAX.F        77                   : BHT          - MAXIMUM RECORDED TEMPERATURE
BHTD.F        897                  : BHTDEP       - MAXIMUM RECORDED TEMPERATURE
MATR.         1                    : LOGUNIT      - NEUTRON MATRIX
RMT .F        62.6                 : MDTP         - TEMPERATURE OF MUD
NEUT.         1                    : NEUTRON      - NEUTRON TYPE
RESI.         6.7                  : RESIST       - RESISTIVITY TYPE
RMC .OHMM     6.3                  : RMC          - RESISTIVITY OF MUD CAKE
RMF .OHMM     6.3                  : RMF          - RESISTIVITY OF MUD FILTRATE
SUFT.F        39.2                 : SUFT         - SURFACE TEMPERATURE
~A  DEPTH       GR     PHID     RESD
  350.000   75.125    0.305    8.801
  350.820   74.525    0.298    9.303
  351.640   76.349    0.289    9.504
  352.461   86.653    0.273    9.706
  353.281   93.928    0.267    8.707
  354.101   96.359    0.267    7.008
  354.921   96.367    0.263    5.310
  355.741   94.555    0.262    4.912
  356.562   92.743    0.259    4.514
  357.382   87.296    0.259    4.115
  358.202   82.457    0.261    3.817
  359.022   80.038    0.263    3.518
  359.843   80.044    0.269    3.320
  360.663   84.900    0.269    3.321
  361.483   89.753    0.263    3.722
  362.303   96.421    0.259    4.724
  363.123   99.458    0.245    4.726
  363.944  102.492    0.236    3.627
  364.764  106.134    0.233    3.529
  365.584  106.744    0.232    3.530
  366.404  108.571    0.234    3.732
  367.224  109.789    0.240    3.834
  368.045  111.006    0.242    3.835
  368.865  110.405    0.235    3.837
  369.685  107.989    0.236    3.738
  370.505  105.572    0.237    3.639
  371.325  103.153    0.238    3.741
  372.146   99.528    0.238    4.043
  372.966   98.926    0.240    4.044
  373.786  100.144    0.244    4.046
  374.606  101.362    0.249    3.747
  375.427  102.581    0.245    3.649
  376.247  103.797    0.242    3.751
  377.067  105.016    0.238    3.852
  377.887  106.232    0.238    3.754
  378.707  108.665    0.242    3.755
  379.528  109.883    0.245    3.757
  380.348  110.494    0.248    3.758
  381.168  111.712    0.244    3.760
  381.988  113.536    0.237    3.761
  382.808  114.147    0.234    3.763
  383.629  114.759    0.231    3.464
  384.449  115.371    0.232    3.066
  385.269  115.377    0.231    2.868
  386.089  114.173    0.231    2.670
  386.909  111.150    0.235    2.571
  387.730  109.943    0.242    2.472
  388.550  111.767    0.243    2.374
  389.370  112.378    0.243    2.276
  390.190  111.782    0.244    2.077
  391.010  111.182    0.246    1.978
  391.831  110.582    0.249    2.280
  392.651  109.378    0.252    2.582
  393.471  106.352    0.252    2.784
  394.291  105.752    0.252    2.785
  395.112  103.941    0.254    2.687
  395.932  102.129    0.267    2.888
  396.752   98.504    0.283    3.290
  397.572   97.904    0.281    3.691
  398.392   98.516    0.277    4.193
  399.213  100.338    0.275    4.694
  400.033  103.979    0.272    3.596
  400.853  110.652    0.271    2.597
  401.673  111.261    0.265    2.499
  402.493  113.087    0.260    2.700
  403.314  113.092    0.270    2.802
  404.134  113.098    0.286    2.904
  404.954  111.892    0.286    2.705
  405.774  110.082    0.282    2.606
  406.594  110.088    0.282    2.408
  407.415  109.488    0.281    2.410
  408.235  108.889    0.280    2.512
  409.055  104.048    0.281    2.613
  409.875   99.813    0.283    2.615
  410.696  101.031    0.287    2.616
  411.516  101.037    0.290    2.817
  412.336   99.226    0.293    2.819
  413.156   98.020    0.297    2.821
  413.976   95.603    0.302    2.822
  414.797   93.186    0.308    2.824
  415.617   88.953    0.317    3.125
  416.437   85.929    0.321    3.927
  417.257   82.302    0.315    4.828
  418.077   83.520    0.308    4.730
  418.898   84.133    0.302    4.132
  419.718   84.138    0.288    3.733
  420.538   84.144    0.273    3.334
  421.358   84.754    0.282    3.836
  422.178   89.002    0.294    4.738
  422.999   93.249    0.307    5.039
  423.819   98.102    0.321    5.042
  424.639   92.656    0.321    5.442
  425.459   79.333    0.322    5.444
  426.280   69.646    0.325    5.145
  427.100   69.654    0.323    5.647
  427.920   71.477    0.318    6.149
  428.740   74.513    0.321    5.751
  429.560   78.759    0.330    5.252
  430.381   83.006    0.335    5.453
  431.201   86.649    0.333    5.955
  432.021   89.682    0.333    5.857
  432.841   89.690    0.335    5.658
  433.661   83.636    0.336    5.259
  434.482   78.797    0.337    5.161
  435.302   78.200    0.338    5.263
  436.122   79.417    0.338    5.665
  436.942   80.028    0.329    5.766
  437.762   80.034    0.332    5.668
  438.583   80.646    0.333    5.869
  439.403   81.863    0.334    5.771
  440.223   86.112    0.330    5.372
  441.043   87.934    0.331    5.074
  441.864   84.306    0.331    5.076
  442.684   81.282    0.330    5.177
  443.504   78.865    0.326    4.978
  444.324   77.660    0.322    4.680
  445.144   77.667    0.318    4.882
  445.965   76.462    0.316    5.184
  446.785   75.863    0.314    5.285
  447.605   75.869    0.317    5.286
  448.425   76.483    0.320    5.288
  449.245   77.092    0.330    5.089
  450.066   78.309    0.339    5.191
  450.886   78.921    0.334    5.892
  451.706   78.927    0.334    5.794
  452.526   80.755    0.338    5.496
  453.346   80.758    0.342    5.397
  454.167   81.370    0.345    5.099
  454.987   81.376    0.349    5.100
  455.807   81.990    0.351    5.102
  456.627   81.996    0.353    5.203
  457.448   82.002    0.355    5.205
  458.268   80.796    0.356    5.307
  459.088   80.198    0.356    5.308
  459.908   80.202    0.355    5.209
  460.728   80.209    0.354    5.111
  461.549   79.609    0.350    5.013
  462.369   77.799    0.342    5.014
  463.189   76.593    0.335    5.216
  464.009   74.176    0.322    5.417
  464.829   71.759    0.309    5.319
  465.650   68.737    0.291    5.220
  466.470   66.320    0.261    6.322
  467.290   63.901    0.054    7.824
  468.110   60.274    0.097   38.627
  468.930   60.886    0.151   41.830
  469.751   63.919    0.206   33.430
  470.571   68.772    0.240   27.231
  471.391   73.022    0.290   22.832
  472.211   74.845    0.324   16.934
  473.031   76.063    0.366   12.935
  473.852   77.281    0.365    6.736
  474.672   78.498    0.363    4.738
  475.492   79.715    0.362    5.039
  476.312   80.326    0.360    5.341
  477.133   79.124    0.356    5.542
  477.953   77.918    0.348    5.644
  478.773   77.924    0.338    5.346
  479.593   79.141    0.333    5.147
  480.413   83.993    0.330    4.949
  481.234   88.846    0.327    4.750
  482.054   93.698    0.323    4.052
  482.874   98.553    0.325    3.353
  483.694  102.194    0.328    2.855
  484.514   98.566    0.321    2.756
  485.335   95.542    0.311    2.858
  486.155   97.365    0.305    2.959
  486.975  104.035    0.308    2.961
  487.795  108.891    0.311    2.963
  488.615  109.503    0.312    2.964
  489.436  108.903    0.316    2.966
  490.256  107.696    0.336    2.967
  491.076  106.490    0.342    2.968
  491.896  101.651    0.344    3.170
  492.717   99.233    0.346    4.772
  493.537   98.633    0.339    5.574
  494.357  100.459    0.330    5.075
  495.177  102.890    0.321    4.477
  495.997  103.499    0.309    3.978
  496.818  105.324    0.285    3.579
  497.638  106.542    0.279    3.082
  498.458  107.152    0.274    2.883
  499.278  108.371    0.268    2.784
  500.098  109.589    0.274    2.586
  500.919  110.204    0.282    2.588
  501.739  110.208    0.288    2.589
  502.559  110.215    0.292    2.491
  503.379  110.828    0.297    2.492
  504.199  110.831    0.302    2.393
  505.020  112.656    0.307    2.395
  505.840  113.874    0.313    2.397
  506.660  114.486    0.320    2.399
  507.480  114.493    0.324    2.500
  508.301  114.501    0.323    2.501
  509.121  115.110    0.317    2.503
  509.941  115.117    0.313    2.604
  510.761  113.304    0.303    2.606
  511.581  107.858    0.290    2.708
  512.402  105.442    0.266    2.709
  513.222  104.238    0.253    2.811
  514.042  103.032    0.244    2.912
  514.862  104.250    0.245    3.014
  515.682  105.468    0.252    3.116
  516.503  106.078    0.261    3.418
  517.323  106.692    0.272    3.519
  518.143  108.515    0.283    3.720
  518.963  109.125    0.288    3.822
  519.783  110.345    0.291    3.923
  520.604  110.351    0.299    4.025
  521.424  110.358    0.299    4.127
  522.244  112.182    0.294    4.328
  523.064  114.005    0.288    4.430
  523.885  114.617    0.284    4.731
  524.705  111.594    0.282    5.133
  525.525  108.574    0.278    5.035
  526.345  107.971    0.273    5.436
  527.165  107.979    0.268    6.038
