~VERSION INFORMATION
 VERS.                 2.0:   CWLS LOG ASCII STANDARD -VERSION 2.0
 WRAP.                  NO:   ONE LINE PER DEPTH STEP
~WELL INFORMATION BLOCK
#MNEM.UNIT           DATA                    DESCRIPTION OF MNEMONIC
#---------    -------------------            -------------------------------
# Generated from Intellog Unique Number	CX_WELLS/WELL/2645
NULL.         -999.25                        : NULL_VALUE
WELL.         ARCO ACI MCMURRAY OV           : Well_name    - WELL              
LOC .         07-26-080-10W4                 : Location     - LOCATION          
UWI .         AA/07-26-080-10W400            : Uwi          - UNIQUE WELL ID    
ENTR.         T                              : Entered      - ENTERED BY        
SRVC.         SCHLUMBERGER                   : Scn          - SERVICE COMPANY   
DATE.         19 JAN 76                      : Date         - LOG DATE
STRT.F        800                            : top_depth    - START DEPTH       
STOP.F        1549.67                        : bot_depth    - STOP DEPTH        
STEP.F        0.82                           : increment    - STEP LENGTH       
~CURVE INFORMATION BLOCK
#MNEM UNIT       ERCB CURVE CODE    CURVE DESCRIPTION
#-----------   ------------------   ----------------------------------
DEPT.F        00 001 00 00         : DEPTH        - DEPTH                       
GR  .API      00 310 00 00         : GR           - GAMMA RAY                   
NPHI.V/V      00 330 00 00         : PHIN         - NEUTRON POROSITY (SANDSTONE)
ILD .OHMM     00 120 00 00         : RESD         - DEEP RESISTIVITY (DIL)      
~PARAMETER INFORMATION       
#MNEM.UNIT           DATA             DESCRIPTION OF MNEMONIC
#---------         -----------     ------------------------------
GL  .F        2280                 : gl           - GROUND LEVEL ELEVATION      
EREF.F        2289                 : kb           - ELEVATION OF DEPTH REFERENCE
DATM.F        2289                 : datum        - DATUM ELEVATION             
TDD .F        1556                 : tdd          - TOTAL DEPTH DRILLER         
RUN .         ONE                  : Run          - RUN NUMBER                  
ENG .         BILL                 : Engineer     - RECORDING ENGINEER          
WIT .         JIM                  : Witness      - WITNESSED BY                
MUD .         GEL                  : Mud_type     - MUD TYPE                    
MATR.         SANDSTONE            : Logunit      - NEUTRON MATRIX              
TMAX.F        77                   : BHT          - MAXIMUM RECORDED TEMPERATURE
BHTD.F        1556                 : BHTDEP       - MAXIMUM RECORDED TEMPERATURE
MATR.         1                    : LOGUNIT      - NEUTRON MATRIX              
RMT .F        77                   : MDTP         - TEMPERATURE OF MUD          
NEUT.         1                    : NEUTRON      - NEUTRON TYPE                
RESI.         0                    : RESIST       - RESISTIVITY TYPE            
RMC .OHMM     6                    : RMC          - RESISTIVITY OF MUD CAKE     
RMF .OHMM     6                    : RMF          - RESISTIVITY OF MUD FILTRATE 
SUFT.F        32                   : SUFT         - SURFACE TEMPERATURE         
~A  DEPTH       GR     PHIN     RESD
# ...
 1333.960   97.204    0.428    3.189
 1334.780   97.955    0.425    3.205
 1335.600   97.997    0.420    3.219
 1336.420   98.101    0.416    3.232
 1337.240   98.790    0.412    3.248
 1338.060   98.894    0.406    3.258
 1338.880   98.393    0.411    3.275
 1339.700   98.435    0.417    3.288
 1340.520   97.350    0.425    3.242
 1341.340   96.807    0.435    3.027
 1342.160   96.265    0.446    2.534
 1342.980   95.138    0.449    2.119
 1343.800   92.821    0.453    1.840
 1344.620   91.110    0.459    1.656
 1345.440   90.588    0.481    1.493
 1346.260   88.856    0.522    1.394
 1347.080   86.519    0.526    1.325
 1347.900   84.787    0.530    1.306
 1348.720   83.660    0.532    1.312
 1349.540   83.723    0.531    1.317
 1350.360   85.058    0.521    1.324
 1351.180   85.747    0.512    1.379
 1352.000   85.810    0.494    1.516
 1352.820   85.288    0.485    1.698
 1353.640   84.808    0.471    2.008
 1354.460   84.265    0.463    2.604
 1355.280   83.785    0.447    3.255
 1356.100   83.243    0.424    3.785
 1356.920   83.305    0.417    3.941
 1357.740   82.805    0.409    3.548
 1358.560   82.283    0.393    2.917
 1359.380   82.972    0.369    2.395
 1360.200   85.476    0.318    2.005
 1361.020   90.421    0.296    1.872
 1361.840   92.926    0.269    1.748
 1362.660   94.240    0.201    1.692
 1363.480   94.971    0.273    1.640
 1364.300   95.033    0.453    1.645
 1365.120   95.117    0.474    1.653
 1365.940   95.180    0.481    1.653
 1366.770   95.868    0.488    1.798
 1367.590   96.014    0.493    1.835
 1368.410   96.077    0.497    1.811
 1369.230   96.160    0.498    1.817
 1370.050   96.244    0.497    1.793
 1370.870   96.327    0.494    1.768
 1371.690   97.016    0.492    1.745
 1372.510   97.099    0.487    1.749
 1373.330   97.225    0.475    1.760
 1374.150   97.287    0.467    1.765
 1374.970   97.391    0.457    1.840
 1375.790   97.496    0.452    1.879
 1376.610   97.579    0.451    2.034
 1377.430   97.621    0.448    2.196
 1378.250   97.704    0.444    2.374
 1379.070   97.809    0.438    2.430
 1379.890   98.539    0.423    2.440
 1380.710   98.602    0.413    2.447
 1381.530   99.311    0.406    2.416
 1382.350   99.979    0.402    2.428
 1383.170  100.083    0.397    2.435
 1383.990  100.167    0.392    2.488
 1384.810   99.645    0.376    2.692
 1385.630   92.446    0.363    2.852
 1386.450   84.078    0.373    3.380
 1387.270   81.114    0.370    3.717
 1388.090   76.356    0.363    4.238
 1388.910   73.435    0.349    4.834
 1389.730   74.144    0.348    6.044
 1390.550   75.397    0.348    7.420
 1391.370   78.548    0.349    8.021
 1392.190   80.447    0.350    7.361
 1393.010   82.951    0.351    6.735
 1393.830   86.060    0.349    6.064
 1394.650   89.775    0.346    5.559
 1395.470   94.720    0.344    5.097
 1396.290   99.082    0.347    4.593
 1397.110  100.939    0.350    4.211
 1397.930  102.859    0.355    3.861
 1398.750  104.174    0.361    3.734
 1399.570  104.862    0.365    3.487
 1400.390  104.925    0.369    3.255
 1401.210  105.029    0.370    3.210
 1402.030  104.528    0.370    3.285
 1402.850  104.591    0.370    3.555
 1403.670  102.880    0.368    3.628
 1404.490  101.127    0.368    3.847
 1405.310  100.021    0.364    4.010
 1406.140   98.268    0.363    4.180
 1406.960   95.367    0.359    4.274
 1407.780   94.219    0.358    4.455
 1408.600   92.487    0.359    4.555
 1409.420   90.776    0.360    4.658
 1410.240   90.234    0.360    4.672
 1411.060   90.338    0.357    4.870
 1411.880   89.816    0.354    4.890
 1412.700   89.921    0.346    4.915
 1413.520   89.420    0.341    4.946
 1414.340   89.462    0.340    4.956
 1415.160   88.940    0.339    4.891
 1415.980   88.418    0.339    4.818
 1416.800   87.917    0.338    4.755
 1417.620   88.063    0.338    4.775
 1418.440   88.126    0.338    4.623
 1419.260   88.189    0.340    4.642
 1420.080   88.251    0.341    4.577
 1420.900   88.356    0.344    4.361
 1421.720   88.460    0.345    4.370
 1422.540   87.917    0.345    4.313
 1423.360   88.043    0.346    4.326
 1424.180   88.710    0.345    4.274
 1425.000   88.794    0.345    4.283
 1425.820   89.483    0.345    4.232
 1426.640   90.797    0.346    4.245
 1427.460   91.486    0.347    4.245
 1428.280   93.385    0.347    4.376
 1429.100   96.536    0.349    4.466
 1429.920   97.788    0.350    4.493
 1430.740   99.708    0.351    4.507
 1431.560  102.233    0.352    4.516
 1432.380  102.922    0.352    4.535
 1433.200  103.047    0.351    4.563
 1434.020  103.088    0.350    4.581
 1434.840  103.172    0.348    4.600
 1435.660  103.255    0.342    4.540
 1436.480  103.360    0.337    4.472
 1437.300  103.443    0.331    4.491
 1438.120  102.337    0.329    4.432
 1438.940  101.189    0.329    4.446
 1439.760   99.457    0.324    4.469
 1440.580   95.931    0.319    4.565
 1441.400   92.383    0.310    4.851
 1442.220   89.441    0.305    5.243
 1443.040   87.083    0.300    5.454
 1443.860   84.140    0.297    5.902
 1444.690   81.845    0.295    6.133
 1445.510   80.697    0.295    6.766
 1446.330   78.360    0.295    6.904
 1447.150   76.649    0.291    7.189
 1447.970   75.501    0.288    7.366
 1448.790   75.000    0.286    7.389
 1449.610   76.899    0.285    7.154
 1450.430   80.614    0.283    6.679
 1451.250   81.907    0.282    6.474
 1452.070   82.617    0.282    6.383
 1452.890   82.680    0.281    6.403
 1453.710   82.805    0.278    6.674
 1454.530   82.304    0.278    6.957
 1455.350   81.761    0.279    7.106
 1456.170   81.240    0.280    7.690
 1456.990   80.697    0.281    7.713
 1457.810   78.965    0.282    8.188
 1458.630   77.859    0.282    8.372
 1459.450   79.174    0.281    8.569
 1460.270   78.652    0.276    8.754
 1461.090   75.689    0.268    8.951
 1461.910   71.536    0.261    9.152
 1462.730   67.988    0.254    9.218
 1463.550   63.230    0.253    9.071
 1464.370   58.472    0.269    8.624
 1465.190   59.787    0.276    8.216
 1466.010   62.897    0.274    8.085
 1466.830   66.611    0.268    7.836
 1467.650   70.326    0.253    7.587
 1468.470   76.482    0.247    7.346
 1469.290   81.406    0.243    7.105
 1470.110   89.378    0.241    6.763
 1470.930   94.324    0.252    6.554
 1471.750   94.428    0.265    6.232
 1472.570   91.465    0.275    6.138
 1473.390   87.917    0.283    6.065
 1474.210   88.627    0.292    6.195
 1475.030   89.921    0.297    6.341
 1475.850   91.235    0.299    6.603
 1476.670   90.714    0.300    7.261
 1477.490   87.145    0.301    7.985
 1478.310   78.130    0.300    8.943
 1479.130   68.531    0.297    9.667
 1479.950   58.326    0.292   10.066
 1480.770   56.010    0.291    9.936
 1481.590   57.325    0.295    9.797
 1482.410   59.182    0.298    9.669
 1483.230   64.754    0.300    9.534
 1484.060   68.468    0.305    9.222
 1484.880   72.183    0.307    9.102
 1485.700   74.708    0.308    9.139
 1486.520   76.607    0.309    9.195
 1487.340   71.244    0.310    9.205
 1488.160   58.598    0.311    9.595
 1488.980   47.767    0.311   10.361
 1489.800   41.194    0.310   11.615
 1490.620   37.646    0.307   12.317
 1491.440   35.914    0.305   13.328
 1492.260   34.808    0.299   13.879
 1493.080   33.702    0.295   14.206
 1493.900   33.785    0.292   14.264
 1494.720   34.453    0.293   14.079
 1495.540   34.453    0.298   14.108
 1496.360   32.888    0.303   13.925
 1497.180   32.304    0.303   13.967
 1498.000   33.013    0.302   13.800
 1498.820   33.702    0.302   13.348
 1499.640   33.765    0.301   13.175
 1500.460   34.516    0.298   13.215
 1501.280   35.163    0.297   13.297
 1502.100   35.246    0.296   13.084
 1502.920   35.330    0.293   13.164
 1503.740   35.413    0.293   12.967
 1504.560   36.123    0.290   13.033
 1505.380   36.832    0.290   13.073
 1506.200   37.500    0.288   12.890
 1507.020   38.815    0.286   12.723
 1507.840   40.108    0.284   12.532
 1508.660   42.028    0.283   12.134
 1509.480   43.322    0.280   11.761
 1510.300   46.452    0.277   10.969
 1511.120   48.936    0.277   10.067
