~VERSION INFORMATION
 VERS.                 2.0:   CWLS LOG ASCII STANDARD -VERSION 2.0
 WRAP.                  NO:   ONE LINE PER DEPTH STEP
~WELL INFORMATION BLOCK
#MNEM.UNIT           DATA                    DESCRIPTION OF MNEMONIC
#---------    -------------------            -------------------------------
# Generated from Intellog Unique Number	CN_94_101/WELL/4982
WELL.         PEX/NOVA                       : Well_name    - WELL
LOC .         AA/06-18-097-09W4/0            : Location     - LOCATION
UWI .         AA/06-18-097-09W400            : Uwi          - UNIQUE WELL ID
ENTR.         J                              : Entered      - ENTERED BY
SRVC.         SCHLUMBERGER                   : Scn          - SERVICE COMPANY
DATE.         08/11/92                       : Date         - LOG DATE
STRT.M        50                             : top_depth    - START DEPTH
STOP.M        150                            : bot_depth    - STOP DEPTH
STEP.M        0.25                           : increment    - STEP LENGTH
 NULL. -999.2500:NULL Value
~CURVE INFORMATION BLOCK
#MNEM UNIT       ERCB CURVE CODE    CURVE DESCRIPTION
#-----------   ------------------   ----------------------------------
DEPT.M        00 001 00 00         : DEPTH        - DEPTH
GR  .API      00 310 00 00         : GR           - GAMMA RAY
ILD .OHMM     00 120 00 00         : RESD         - DEEP RESISTIVITY (DIL)
NPHI.V/V      00 330 00 00         : PHIN         - NEUTRON POROSITY (SANDSTONE)
DPHI.V/V      00 890 00 00         : PHID         - DENSITY POROSITY (SANDSTONE)
~PARAMETER INFORMATION
#MNEM.UNIT           DATA             DESCRIPTION OF MNEMONIC
#---------         -----------     ------------------------------
GL  .M        315                  : gl           - GROUND LEVEL ELEVATION
EREF.M        315                  : kb           - ELEVATION OF DEPTH REFERENCE
DATM.M        315                  : datum        - DATUM ELEVATION
TDD .M        151                  : tdd          - TOTAL DEPTH DRILLER
RUN .         ONE                  : Run          - RUN NUMBER
ENG .         JO                   : Engineer     - RECORDING ENGINEER
WIT .         TIM                  : Witness      - WITNESSED BY
MUD .         GEL                  : Mud_type     - MUD TYPE
MATR.         SANDSTONE            : Logunit      - NEUTRON MATRIX
TMAX.C        15                   : BHT          - MAXIMUM RECORDED TEMPERATURE
BHTD.M        151                  : BHTDEP       - MAXIMUM RECORDED TEMPERATURE
RMT .C        15                   : MDTP         - TEMPERATURE OF MUD
MUDD.KG/M     1020                 : MWT          - MUD DENSITY
NEUT.         1                    : NEUTRON      - NEUTRON TYPE
RESI.         0                    : RESIST       - RESISTIVITY TYPE
RM  .OHMM     13.8                 : RM           - RESISTIVITY OF MUD
RMC .OHMM     13.8                 : RMC          - RESISTIVITY OF MUD CAKE
RMF .OHMM     13.8                 : RMF          - RESISTIVITY OF MUD FILTRATE
SUFT.C        4                    : SUFT         - SURFACE TEMPERATURE
~A  DEPTH       GR     RESD     PHIN     PHID
   50.000   14.338   23.897    0.417    0.256
   50.250   20.912   20.671    0.423    0.312
   50.500   28.681   17.513    0.440    0.333
   50.750   39.438   15.955    0.478    0.334
   51.000   52.583   14.237    0.442    0.384
   51.250   61.548   13.380    0.436    0.418
   51.500   60.356   16.467    0.448    0.400
   51.750   45.424   24.425    0.440    0.374
   52.000   26.908   24.683    0.423    0.338
   52.250   39.456   25.204    0.428    0.352
   52.500   34.681   25.736    0.431    0.328
   52.750   31.099   23.938    0.432    0.322
   53.000   39.465   22.732    0.421    0.317
   53.250   32.300   23.699    0.407    0.330
   53.500   28.122   26.021    0.417    0.328
   53.750   31.709   23.707    0.427    0.332
   54.000   37.089   21.598    0.431    0.315
   54.250   41.273   20.509    0.446    0.320
   54.500   38.887   23.472    0.444    0.331
   54.750   46.656   24.984    0.427    0.326
   55.000   46.659   29.193    0.426    0.330
   55.250   32.922   29.809    0.431    0.338
   55.500   28.146   36.308    0.430    0.340
   55.750   26.357   35.568    0.419    0.346
   56.000   29.347   35.945    0.407    0.337
   56.250   23.376   39.880    0.420    0.326
   56.500   18.601   40.722    0.428    0.330
   56.750   26.370   39.072    0.431    0.334
   57.000   29.360   39.078    0.436    0.338
   57.250   29.960   41.594    0.428    0.324
   57.500   32.951   42.915    0.431    0.336
   57.750   26.382   42.923    0.434    0.341
   58.000   19.814   41.185    0.428    0.345
   58.250   23.999   39.109    0.429    0.351
   58.500   33.560   43.842    0.431    0.349
   58.750   25.200   46.184    0.425    0.340
   59.000   18.034   48.147    0.441    0.337
   59.250   23.414   46.681    0.451    0.342
   59.500   33.573   46.681    0.432    0.354
   59.750   24.018   45.740    0.416    0.351
   60.000   27.606   45.270    0.430    0.341
   60.250   18.050   45.270    0.435    0.331
   60.500   18.053   44.359    0.437    0.343
   60.750   22.835   43.452    0.439    0.350
   61.000   27.020   42.566    0.442    0.337
   61.250   26.426   41.699    0.429    0.349
   61.500   32.404   41.705    0.440    0.342
   61.750   40.770   40.016    0.428    0.341
   62.000   40.176   40.023    0.426    0.345
   62.250   32.412   47.747    0.422    0.346
   62.500   32.416   49.777    0.427    0.337
   62.750   31.224   47.763    0.412    0.334
   63.000   21.669   45.829    0.423    0.340
   63.250   16.296   43.520    0.444    0.340
   63.500   19.883   40.901    0.434    0.341
   63.750   25.860   39.654    0.433    0.344
   64.000   27.058   39.250    0.448    0.357
   64.250   41.996   40.080    0.442    0.352
   64.500   27.661   38.857    0.432    0.344
   64.750   33.041   36.144    0.434    0.343
   65.000   30.057   34.679    0.446    0.338
   65.250   23.489   33.276    0.442    0.327
   65.500   25.882   38.084    0.436    0.320
   65.750   32.456   47.852    0.437    0.332
   66.000   25.291   60.126    0.434    0.340
   66.250   21.709   60.134    0.431    0.339
   66.500   21.713   58.302    0.430    0.339
   66.750   16.936   56.525    0.416    0.343
   67.000   19.927   54.236    0.412    0.352
   67.250   19.930   52.583    0.432    0.341
   67.500   26.505   50.455    0.436    0.336
   67.750   22.326   46.929    0.425    0.340
   68.000   27.108   43.200    0.432    0.343
   68.250   27.111   40.600    0.434    0.331
   68.500   31.893   38.956    0.431    0.334
   68.750   33.091   38.962    0.427    0.337
   69.000   23.536   39.375    0.442    0.330
   69.250   27.123   44.139    0.436    0.337
   69.500   37.880   53.761    0.415    0.344
   69.750   21.156   61.529    0.433    0.347
   70.000   18.770   62.183    0.418    0.339
   70.250   24.746   62.190    0.415    0.336
   70.500   31.919   62.201    0.418    0.329
   70.750   19.376   62.209    0.412    0.334
   71.000   21.171   62.868    0.411    0.341
   71.250   21.174   62.879    0.418    0.340
   71.500   15.801   62.240    0.424    0.339
   71.750   16.999   62.901    0.400    0.329
   72.000   18.794   62.908    0.411    0.331
   72.250   17.603   62.918    0.405    0.339
   72.500   17.008   62.279    0.424    0.338
   72.750   17.609   62.288    0.415    0.338
   73.000   23.586   61.656    0.428    0.333
   73.250   20.602   61.029    0.405    0.348
   73.500   22.398   57.957    0.413    0.344
   73.750   24.790   56.187    0.421    0.342
   74.000   18.222   53.912    0.412    0.338
   74.250   23.601   56.790    0.413    0.338
   74.500   20.617   55.633    0.407    0.338
   74.750   17.634   50.161    0.412    0.340
   75.000   14.052   45.700    0.403    0.338
   75.250   20.029   41.632    0.373    0.335
   75.500   17.046   37.150    0.385    0.317
   75.750   24.217   32.808    0.404    0.302
   76.000   24.221   28.674    0.426    0.297
   76.250   27.808   25.854    0.447    0.296
   76.500   40.357   26.400    0.461    0.314
   76.750   40.957   29.289    0.444    0.327
   77.000   52.908   29.294    0.453    0.324
   77.250   60.677   32.164    0.442    0.336
   77.500   44.551   38.371    0.441    0.343
   77.750   40.969   38.777    0.443    0.339
   78.000   39.180   43.022    0.443    0.338
   78.250   30.223   42.586    0.448    0.340
   78.500   26.044   40.441    0.421    0.339
   78.750   33.216   38.802    0.433    0.326
   79.000   33.219   36.468    0.431    0.326
   79.250   35.612   34.991    0.428    0.326
   79.500   42.784   33.924    0.432    0.328
   79.750   38.605   32.551    0.430    0.328
   80.000   30.245   29.964    0.435    0.321
   80.250   30.248   27.016    0.436    0.314
   80.500   31.446   23.858    0.447    0.320
   80.750   34.436   20.637    0.444    0.321
   81.000   40.413   17.485    0.461    0.315
   81.250   45.792   16.433    0.467    0.279
   81.500   81.639   17.490    0.447    0.266
   81.750   84.032   38.875    0.424    0.279
   82.000   53.568   43.581    0.410    0.300
   82.250   41.026   41.384    0.418    0.311
   82.500   36.847   38.894    0.433    0.318
   82.750   34.461   35.802    0.424    0.322
   83.000   20.724   31.947    0.423    0.322
   83.250   29.688   28.805    0.415    0.317
   83.500   45.821   25.438    0.438    0.311
   83.750   42.239   21.110    0.421    0.313
   84.000   38.061   16.123    0.394    0.321
   84.250   29.701   11.101    0.390    0.305
   84.500   31.495    8.219    0.485    0.281
   84.750   37.472    7.886    0.535    0.261
   85.000   87.059    5.156    0.535    0.272
   85.250  113.348    5.319    0.531    0.316
   85.500  137.247    6.967    0.527    0.321
   85.750  125.302    7.263    0.518    0.297
   86.000  128.292    7.572    0.509    0.288
   86.250  112.763    7.652    0.509    0.297
   86.500  113.961    7.496    0.517    0.297
   86.750  127.107    7.420    0.523    0.286
   87.000  128.305    7.269    0.523    0.263
   87.250  153.398    6.761    0.520    0.269
   87.500  139.661    6.832    0.531    0.265
   87.750  137.872    7.659    0.542    0.276
   88.000  152.810    6.978    0.541    0.301
   88.250  157.592    6.357    0.543    0.292
   88.500  136.687    6.491    0.541    0.297
   88.750  118.768    6.838    0.529    0.309
   89.000  142.070    6.768    0.507    0.307
   89.250  159.995    6.699    0.531    0.282
   89.500  161.790    6.912    0.533    0.269
   89.750  157.611    6.842    0.533    0.294
   90.000  141.485    6.565    0.547    0.319
   90.250  131.930    7.060    0.552    0.371
   90.500  109.232    8.250    0.543    0.409
   90.750   65.028    9.541    0.486    0.453
   91.000   49.498    9.844    0.447    0.568
   91.250   81.163    8.875    0.444    0.501
   91.500  109.244    7.920    0.488    0.247
   91.750  119.403    7.599    0.545    0.259
   92.000  105.069    7.601    0.553    0.286
   92.250  112.838    7.369    0.543    0.331
   92.500  115.231    6.783    0.541    0.387
   92.750  133.156    6.576    0.536    0.319
   93.000  160.041    6.310    0.546    0.321
   93.250  156.460    6.578    0.536    0.338
