~VERSION INFORMATION
 VERS.                 2.0:   CWLS LOG ASCII STANDARD -VERSION 2.0
 WRAP.                  NO:   ONE LINE PER DEPTH STEP
~WELL INFORMATION BLOCK
#MNEM.UNIT           DATA                    DESCRIPTION OF MNEMONIC
#---------    -------------------            -------------------------------
# Generated from Intellog Unique Number	CW_82_90/WELL/637
WELL.         GULF LIVOCK OV 07-31           : Well_name    - WELL
LOC .         AA/07-31-084-23W4/0            : Location     - LOCATION
UWI .         AA/07-31-084-23W4/0            : Uwi          - UNIQUE WELL ID
ENTR.         JAYE                           : Entered      - ENTERED BY
SRVC.         SCHLUMBERGER                   : Scn          - SERVICE COMPANY
DATE.         9 FEB 82                       : Date         - LOG DATE
STRT.M        150                            : top_depth    - START DEPTH
STOP.M        405                            : bot_depth    - STOP DEPTH
STEP.M        0.25                           : increment    - STEP LENGTH
 NULL. -999.2500:NULL Value
~CURVE INFORMATION BLOCK
#MNEM UNIT       ERCB CURVE CODE    CURVE DESCRIPTION
#-----------   ------------------   ----------------------------------
DEPT.M        00 001 00 00         : DEPTH        - DEPTH
CALI.MM       00 280 01 00         : CAL          - CALIPER
GR  .API      00 310 00 00         : GR           - GAMMA RAY
NPHI.V/V      00 330 00 00         : PHIN         - NEUTRON POROSITY (SANDSTONE)
DPHI.V/V      00 890 00 00         : PHID         - DENSITY POROSITY (SANDSTONE)
ILD .OHMM     00 120 00 00         : RESD         - DEEP RESISTIVITY (DIL)
~PARAMETER INFORMATION
#MNEM.UNIT           DATA             DESCRIPTION OF MNEMONIC
#---------         -----------     ------------------------------
GL  .M        574.7                : gl           - GROUND LEVEL ELEVATION
EREF.M        579.1                : kb           - ELEVATION OF DEPTH REFERENCE
DATM.M        574.7                : datum        - DATUM ELEVATION
TDD .M        410                  : tdd          - TOTAL DEPTH DRILLER
RUN .         ONE                  : Run          - RUN NUMBER
ENG .         GARTH                : Engineer     - RECORDING ENGINEER
WIT .         WALKER               : Witness      - WITNESSED BY
BASE.         EDMONTON             : Branch       - HOME BASE OF LOGGING UNIT
MUD .         GEL                  : Mud_type     - MUD TYPE
MATR.         SANDSTONE            : Logunit      - NEUTRON MATRIX
TMAX.C        26.1                 : BHT          - MAXIMUM RECORDED TEMPERATURE
BHTD.M        410                  : BHTDEP       - MAXIMUM RECORDED TEMPERATURE
RMT .C        15.5                 : MDTP         - TEMPERATURE OF MUD
MUDD.KG/M     1090                 : MWT          - MUD DENSITY
NEUT.         1                    : NEUTRON      - NEUTRON TYPE
RESI.         0                    : RESIST       - RESISTIVITY TYPE
RM  .OHMM     5.77                 : RM           - RESISTIVITY OF MUD
RMC .OHMM     0                    : RMC          - RESISTIVITY OF MUD CAKE
RMF .OHMM     6.87                 : RMF          - RESISTIVITY OF MUD FILTRATE
SUFT.C        0                    : SUFT         - SURFACE TEMPERATURE
~A  DEPTH      CAL       GR     PHIN     PHID     RESD
# ...
  332.500  266.855   88.154    0.427    0.163   11.614
  332.750  266.963   87.719    0.421    0.192   11.213
  333.000  267.383   85.916    0.428    0.208   10.867
  333.250  267.282   83.490    0.449    0.193   10.813
  333.500  266.973   82.122    0.464    0.178   11.621
  333.750  266.767   80.941    0.456    0.189   12.703
  334.000  266.979   80.258    0.439    0.201   13.026
  334.250  267.295   80.944    0.427    0.201   12.816
  334.500  267.298   83.684    0.413    0.207   12.325
  334.750  266.572   83.935    0.411    0.208   11.269
  335.000  266.575   82.504    0.426    0.202   10.439
  335.250  266.995   79.581    0.424    0.160    9.891
  335.500  269.082   76.781    0.388    0.114   11.657
  335.750  269.605   75.289    0.371    0.080   13.532
  336.000  267.213   76.597    0.397    0.139   15.445
  336.250  264.820   79.587    0.386    0.149   17.398
  336.500  262.949   81.766    0.372    0.161   17.643
  336.750  261.493   83.697    0.388    0.203   17.225
  337.000  260.039   84.882    0.405    0.232   16.136
  337.250  258.271   87.933    0.391    0.239   15.758
  337.500  257.649   85.507    0.384    0.231   15.709
  337.750  258.069   79.035    0.389    0.214   16.197
  338.000  258.697   68.456    0.348    0.159   18.142
  338.250  260.263   67.026    0.300    0.069   21.542
  338.500  262.141   74.247    0.271    0.044   33.470
  338.750  264.436   78.854    0.326    0.069   30.371
  339.000  263.711   84.644    0.384    0.132   21.022
  339.250  263.923   87.758    0.406    0.191   17.527
  339.500  264.029   85.332    0.380    0.214   16.238
  339.750  264.032   81.910    0.392    0.215   15.824
  340.000  264.452   79.920    0.403    0.178   18.233
  340.250  265.498   73.760    0.368    0.089   21.689
  340.500  267.794   75.255    0.303    0.041   21.339
  340.750  268.838   79.613    0.346    0.091   19.842
  341.000  269.987   85.465    0.384    0.190   16.266
  341.250  270.406   94.740    0.451    0.199   13.871
  341.500  270.826   96.547    0.483    0.197   12.214
  341.750  270.829   99.100    0.482    0.193    9.790
  342.000  270.416  100.285    0.472    0.184    9.381
  342.250  270.003   97.547    0.488    0.181    8.990
  342.500  269.693   95.184    0.499    0.175    8.647
  342.750  268.864   93.629    0.470    0.164    8.427
  343.000  268.658   91.950    0.446    0.107    8.184
  343.250  268.557   89.586    0.422    0.141    8.096
  343.500  268.873   83.551    0.440    0.149    8.347
  343.750  267.939   80.316    0.422    0.103    9.333
  344.000  269.193   81.002    0.403    0.078   10.435
  344.250  272.633   86.356    0.418    0.134   10.700
  344.500  275.553   91.337    0.444    0.184   10.467
  344.750  274.827   91.400    0.458    0.208   10.454
  345.000  271.184   89.348    0.457    0.215   11.666
  345.250  266.292   86.984    0.438    0.222   12.777
  345.500  264.941   85.554    0.416    0.225   13.576
  345.750  265.048   85.680    0.407    0.223   14.133
  346.000  265.364   73.047    0.434    0.196   14.410
  346.250  266.617   69.936    0.471    0.053   15.112
  346.500  268.495   76.909    0.423    0.038   15.323
  346.750  269.853   79.213    0.376    0.122   15.046
  347.000  269.856   85.065    0.420    0.191   13.964
  347.250  268.922   85.316    0.453    0.198   12.552
  347.500  268.717   82.143    0.462    0.166   11.916
  347.750  268.929   82.704    0.447    0.138   11.548
  348.000  270.598   85.569    0.453    0.140   11.490
  348.250  271.747   89.740    0.457    0.183   11.219
  348.500  271.439   89.991    0.449    0.180   11.080
  348.750  270.504   90.304    0.442    0.176   11.149
  349.000  267.694   89.994    0.447    0.176   11.915
  349.250  266.448   89.746    0.454    0.177   12.380
  349.500  266.139   92.549    0.446    0.170   12.387
  349.750  266.246   94.231    0.439    0.168   12.209
  350.000  266.562   98.176    0.470    0.184   11.443
  350.250  266.573  100.860    0.467    0.177   11.139
  350.500  267.104  102.859    0.465    0.182   11.280
  350.750  267.432  104.422    0.462    0.180   11.399
  351.000  267.342   90.847    0.455    0.145   11.982
  351.250  267.251   88.049    0.451    0.130   13.051
  351.500  267.058   88.677    0.348    0.154   13.979
  351.750  267.382   89.492    0.368    0.179   14.919
  352.000  268.122   87.815    0.410    0.180   15.505
  352.250  268.136   85.516    0.431    0.172   16.267
  352.500  267.527   82.282    0.438    0.136   17.884
  352.750  266.813   76.681    0.375   -0.015   19.963
  353.000  264.855   69.772    0.246    0.004   21.990
  353.250  262.898   68.656    0.257    0.063   24.086
  353.500  262.287   78.005    0.301    0.139   25.324
  353.750  261.992   85.361    0.376    0.205   22.361
  354.000  262.420   88.917    0.394    0.207   19.235
  354.250  263.471   87.615    0.389    0.211   16.487
  354.500  263.902   88.057    0.382    0.222   15.930
  354.750  264.227   87.563    0.381    0.226   16.160
  355.000  264.241   87.569    0.395    0.212   16.364
  355.250  264.251   85.892    0.404    0.208   16.443
  355.500  264.890   81.911    0.398    0.221   17.029
  355.750  265.006   77.306    0.375    0.232   17.704
  356.000  265.227   72.453    0.374    0.216   18.327
  356.250  265.864   72.022    0.360    0.119   20.416
  356.500  265.461   71.653    0.285    0.025   23.349
  356.750  265.062   70.413    0.265    0.023   29.159
  357.000  265.076   69.857    0.247    0.050   33.344
  357.250  265.087   72.169    0.250    0.074   35.114
  357.500  265.102   74.540    0.311    0.103   36.431
  357.750  264.079   74.109    0.326    0.117   37.445
  358.000  262.949   66.827    0.288    0.073   39.291
  358.250  262.234   61.350    0.250   -0.010   42.958
  358.500  261.315   60.546    0.235   -0.000   46.180
  358.750  260.189   64.227    0.233    0.029   46.413
  359.000  259.164   71.147    0.289    0.074   37.604
  359.250  258.139   74.328    0.321    0.142   27.590
  359.500  257.010   76.390    0.378    0.194   17.071
  359.750  255.986   79.136    0.421    0.199   17.091
  360.000  255.380   82.817    0.445    0.207   16.148
  360.250  255.806   82.635    0.443    0.214   16.881
  360.500  257.168   78.094    0.421    0.187   16.868
  360.750  258.843   76.105    0.420    0.167   16.119
  361.000  261.451   75.238    0.396    0.141   16.411
  361.250  264.267   74.932    0.373    0.136   17.673
  361.500  265.526   73.380    0.348    0.120   18.683
  361.750  265.747   73.947    0.362    0.138   19.131
  362.000  266.490   75.384    0.390    0.161   19.370
  362.250  266.711   77.198    0.402    0.177   19.724
  362.500  267.240   77.015    0.401    0.159   19.456
  362.750  267.981   76.522    0.391    0.136   18.551
  363.000  268.413   77.711    0.400    0.164   17.040
  363.250  268.631   80.955    0.422    0.180   13.965
  363.500  269.164   87.252    0.427    0.192   12.518
  363.750  269.904   92.117    0.434    0.191   11.285
  364.000  270.332   92.870    0.446    0.179   11.008
  364.250  269.726   91.193    0.459    0.178   11.023
  364.500  269.011   87.585    0.440    0.175   11.201
  364.750  265.808   84.227    0.424    0.164   11.470
  365.000  262.604   81.928    0.443    0.138   11.613
  365.250  259.816   86.106    0.432    0.133   11.368
  365.500  258.792   90.597    0.413    0.173   10.560
  365.750  259.218   91.911    0.421    0.168    9.902
  366.000  259.339   91.168    0.428    0.012    9.586
  366.250  259.561   78.216    0.414   -0.018    9.671
  366.500  259.781   73.425    0.376    0.015   11.287
  366.750  259.900   79.660    0.388    0.053   11.451
  367.000  259.910   86.954    0.413    0.163   10.479
  367.250  260.027   99.854    0.432    0.178    9.395
  367.500  260.356  101.666    0.446    0.176    9.266
  367.750  260.265   99.990    0.444    0.179    8.988
  368.000  260.070  100.057    0.435    0.181    8.831
  368.250  260.086  103.488    0.424    0.178    8.677
  368.500  260.409  106.485    0.418    0.175    8.559
  368.750  260.838  106.863    0.420    0.176    8.192
