~VERSION INFORMATION
 VERS.                 2.0:   CWLS LOG ASCII STANDARD -VERSION 2.0
 WRAP.                  NO:   ONE LINE PER DEPTH STEP
~WELL INFORMATION BLOCK
#MNEM.UNIT           DATA                    DESCRIPTION OF MNEMONIC
#---------    -------------------            -------------------------------
# Generated from Intellog Unique Number	CN_94_101/WELL/2684
WELL.         IMPERIAL OIL LTD.              : Well_name    - WELL
LOC .         AA/06-06-094-16W4/0            : Location     - LOCATION
UWI .         AA/06-06-094-16W400            : Uwi          - UNIQUE WELL ID
ENTR.         JOETTE                         : Entered      - ENTERED BY
SRVC.         SCHLUMBERGER                   : Scn          - SERVICE COMPANY
DATE.         06/19/92                       : Date         - LOG DATE
STRT.F        300                            : top_depth    - START DEPTH
STOP.F        879.888                        : bot_depth    - STOP DEPTH
STEP.F        0.82                           : increment    - STEP LENGTH
 NULL. -999.2500:NULL Value
~CURVE INFORMATION BLOCK
#MNEM UNIT       ERCB CURVE CODE    CURVE DESCRIPTION
#-----------   ------------------   ----------------------------------
DEPT.F        00 001 00 00         : DEPTH        - DEPTH
GR  .API      00 310 00 00         : GR           - GAMMA RAY
NPHI.V/V      00 330 00 00         : PHIN         - NEUTRON POROSITY (SANDSTONE)
ILD .OHMM     00 120 00 00         : RESD         - DEEP RESISTIVITY (DIL)
~PARAMETER INFORMATION
#MNEM.UNIT           DATA             DESCRIPTION OF MNEMONIC
#---------         -----------     ------------------------------
GL  .F        1718                 : gl           - GROUND LEVEL ELEVATION
EREF.F        1720                 : kb           - ELEVATION OF DEPTH REFERENCE
DATM.F        1720                 : datum        - DATUM ELEVATION
TDD .F        876                  : tdd          - TOTAL DEPTH DRILLER
RUN .         ONE                  : Run          - RUN NUMBER
ENG .         JO                   : Engineer     - RECORDING ENGINEER
WIT .         TIM                  : Witness      - WITNESSED BY
MUD .         GEL                  : Mud_type     - MUD TYPE
MATR.         SANDSTONE            : Logunit      - NEUTRON MATRIX
TMAX.F        48                   : BHT          - MAXIMUM RECORDED TEMPERATURE
BHTD.F        876                  : BHTDEP       - MAXIMUM RECORDED TEMPERATURE
RMT .F        48                   : MDTP         - TEMPERATURE OF MUD
MUDD.LB/G     1                    : MWT          - MUD DENSITY
NEUT.         1                    : NEUTRON      - NEUTRON TYPE
RESI.         0                    : RESIST       - RESISTIVITY TYPE
RM  .OHMM     18.4                 : RM           - RESISTIVITY OF MUD
RMC .OHMM     18.4                 : RMC          - RESISTIVITY OF MUD CAKE
RMF .OHMM     18.4                 : RMF          - RESISTIVITY OF MUD FILTRATE
SUFT.F        39.2                 : SUFT         - SURFACE TEMPERATURE
~A  DEPTH       GR     PHIN     RESD
# ...
  655.971   60.093    0.147   24.476
  656.791   62.272    0.113   18.676
  657.612   63.373    0.262   19.752
  658.432   61.762    0.360   20.542
  659.252   71.533    0.414   20.758
  660.072   87.815    0.466   17.608
  660.892   97.589    0.453   15.962
  661.713  105.740    0.465   15.247
  662.533  110.091    0.479   12.241
  663.353  109.020    0.485   12.529
  664.173  112.287    0.473   13.175
  664.993  118.265    0.464   13.606
  665.814  123.159    0.449   13.536
  666.634  115.580    0.432   13.538
  667.454  104.747    0.469   14.183
  668.274   94.457    0.479   18.482
  669.094  104.234    0.482   20.417
  669.915  111.297    0.492   21.206
  670.735  114.567    0.484   12.112
  671.555  112.408    0.493   11.612
  672.375  106.998    0.487   12.115
  673.196   99.419    0.456   11.472
  674.016  102.144    0.450   10.542
  674.836  111.921    0.478   11.403
  675.656  115.734    0.491   12.908
  676.476  117.913    0.434   12.050
  677.297  121.180    0.387   12.410
  678.117  108.720    0.365   13.199
  678.937   95.718    0.386   14.490
  679.757  102.239    0.414   17.141
  680.577  107.132    0.445   12.488
  681.398  116.368    0.463   11.415
  682.218  120.719    0.479   11.917
  683.038  125.613    0.461   11.776
  683.858  134.306    0.449   11.562
  684.678  130.520    0.447   11.779
  685.499  116.979    0.490   11.780
  686.319  122.411    0.498   11.208
  687.139  126.766    0.503    9.276
  687.959  124.071    0.478    8.704
  688.780  118.116    0.462   10.139
  689.600  105.114    0.491   13.220
  690.420  102.958    0.511   16.802
  691.240  109.478    0.504   12.148
  692.060  118.710    0.482   10.216
  692.881  123.062    0.477   10.719
  693.701  127.959    0.483   12.224
  694.521  124.176    0.469   12.942
  695.341  122.562    0.453   10.150
  696.161  124.744    0.478    9.149
  696.982  129.638    0.495    9.509
  697.802  128.024    0.510    9.868
  698.622  117.734    0.508   11.373
  699.442  122.089    0.480   10.802
  700.262  126.437    0.463   10.302
  701.083  121.572    0.435   10.232
  701.903  111.824    0.414   10.018
  702.723  114.007    0.444   12.741
  703.543  119.985    0.474   14.820
  704.364  125.421    0.486   16.253
  705.184  129.772    0.492   12.173
  706.004  124.905    0.478   10.742
  706.824  121.664    0.484   11.030
  707.644  122.223    0.466   12.105
  708.465  116.813    0.504   11.390
  709.285  116.284    0.526   10.247
  710.105  122.804    0.527    8.457
  710.925  116.852    0.507    7.242
  711.745  105.477    0.495    6.527
  712.566  102.240    0.504    6.671
  713.386  107.676    0.508    7.460
  714.206  110.400    0.482    8.393
  715.026  118.009    0.426    7.964
  715.846  121.272    0.405    7.322
  716.667  110.982    0.379    7.466
  717.487   61.101    0.392    7.897
  718.307   57.321    0.414   26.806
  719.127   54.626    0.417   27.523
  719.948   54.094    0.418   35.618
  720.768   58.445    0.419   31.680
  721.588   59.004    0.432   26.382
  722.408   57.929    0.448   28.031
  723.228   57.942    0.441   34.693
  724.049   63.920    0.450   31.901
  724.869   68.817    0.456   31.043
  725.689   74.796    0.444   33.980
  726.509   84.028    0.427   36.417
  727.329   84.041    0.413   36.132
  728.150   74.293    0.411   37.853
  728.970   62.375    0.425   38.498
  729.790   63.473    0.428   40.147
  730.610   69.994    0.428   39.934
  731.430   74.891    0.442   38.503
  732.251   81.411    0.447   37.000
  733.071   88.474    0.442   23.394
  733.891   94.995    0.427   20.459
  734.711   97.180    0.414   19.601
  735.531   92.852    0.350   22.181
  736.352   84.188    0.337   22.397
  737.172   67.390    0.385   24.690
  737.992   58.727    0.392   28.488
  738.812   51.693    0.387   32.285
  739.633   51.164    0.404   33.504
  740.453   50.641    0.417   29.065
  741.273   50.109    0.412   22.406
  742.093   49.037    0.409   32.219
  742.913   46.339    0.399   43.680
  743.734   44.180    0.388   43.252
  744.554   40.397    0.385   42.895
  745.374   45.290    0.352   42.037
  746.194   42.050    0.344   41.537
  747.014   40.439    0.359   42.183
  747.835   45.875    0.373   41.325
  748.655   52.938    0.367   40.968
  749.475   55.120    0.356   44.479
  750.295   43.203    0.344   44.553
  751.115   33.997    0.349   44.840
  751.936   30.757    0.341   45.056
  752.756   28.601    0.332   44.986
  753.576   32.955    0.342   45.632
  754.396   36.222    0.341   45.132
  755.217   37.862    0.342   44.776
  756.037   38.417    0.360   45.565
  756.857   40.606    0.355   45.781
  757.677   41.158    0.356   45.210
  758.497   42.798    0.373   44.566
  759.318   43.896    0.387   44.640
  760.138   48.790    0.389   45.142
  760.958   47.176    0.387   44.858
  761.778   47.731    0.402   44.357
  762.598   50.998    0.410   43.858
  763.419   55.350    0.409   44.504
  764.239   58.620    0.413   44.935
  765.059   60.799    0.404   44.578
  765.879   59.191    0.394   43.935
  766.699   55.405    0.376   37.133
  767.520   47.826    0.349   32.980
  768.340   38.078    0.328   30.475
  769.160   31.584    0.322   34.702
  769.980   29.970    0.328   39.717
  770.801   31.071    0.324   41.723
  771.621   29.999    0.328   43.300
  772.441   28.386    0.319   43.373
  773.261   27.314    0.314   42.945
  774.081   26.782    0.296   42.302
  774.902   26.795    0.314   41.587
  775.722   28.983    0.309   41.732
  776.542   31.166    0.321   42.522
  777.362   33.887    0.342   43.096
  778.182   36.612    0.367   42.811
  779.003   40.421    0.377   42.740
  779.823   44.230    0.369   43.244
  780.643   44.789    0.367   42.743
  781.463   46.971    0.343   41.097
  782.283   49.695    0.332   37.590
  783.104   50.251    0.322   34.941
  783.924   45.926    0.327   37.234
  784.744   39.438    0.357   35.803
  785.564   40.529    0.356   35.519
  786.385   42.714    0.338   36.308
  787.205   44.897    0.325   40.248
  788.025   47.621    0.325   40.966
  788.845   48.177    0.342   40.681
  789.665   47.647    0.348   40.181
  790.486   44.407    0.345   40.684
  791.306   44.962    0.340   41.044
  792.126   44.975    0.382   40.686
  792.946   44.995    0.364   41.047
  793.766   45.005    0.382   40.833
  794.587   49.356    0.453   40.619
  795.407   69.434    0.508   36.825
  796.227   80.835    0.516   13.980
  797.047   90.067    0.478    9.756
  797.867   85.203    0.442    7.036
  798.688   92.266    0.419   11.478
  799.508   96.078    0.434   15.060
  800.328  100.969    0.430   20.433
  801.148  107.493    0.421   23.084
  801.969  111.299    0.410   23.587
  802.789  119.456    0.403   20.581
  803.609  115.666    0.392   17.860
  804.429  107.545    0.383   16.000
  805.249   99.966    0.375   15.715
  806.070   95.641    0.381   17.220
  806.890   96.739    0.393   20.015
  807.710   96.752    0.395   23.096
  808.530   88.630    0.383   28.540
  809.350   79.424    0.357   32.123
  810.171   82.695    0.349   33.198
  810.991   81.620    0.324   29.476
  811.811   69.702    0.334   39.361
  812.631   74.599    0.377   38.073
  813.451   78.951    0.382   35.209
  814.272   91.979    0.372   34.495
  815.092   75.723    0.373   36.000
  815.912   62.725    0.366   38.723
  816.732   69.242    0.366   39.441
  817.552   73.593    0.356   39.800
  818.373   73.067    0.387   39.372
  819.193   69.827    0.347   39.087
  820.013   78.517    0.328   39.662
  820.833   86.122    0.321   40.307
  821.654   92.642    0.316   41.240
  822.474   99.705    0.325   41.528
  823.294   92.126    0.358   40.813
  824.114   91.604    0.366   30.215
  824.934   93.783    0.366   28.856
  825.755   93.799    0.392   27.854
  826.575   91.104    0.403   26.782
  827.395   90.026    0.400   37.096
  828.215   94.923    0.407   38.673
  829.035   97.644    0.405   36.884
  829.856   95.488    0.387   35.238
  830.676   78.148    0.370   32.518
  831.496   74.910    0.365   30.156
  832.316   74.924    0.371   27.651
  833.136   79.817    0.373   38.825
