~VERSION INFORMATION
 VERS.                 2.0:   CWLS LOG ASCII STANDARD -VERSION 2.0
 WRAP.                  NO:   ONE LINE PER DEPTH STEP
~WELL INFORMATION BLOCK
#MNEM.UNIT           DATA                    DESCRIPTION OF MNEMONIC
#---------    -------------------            -------------------------------
# Generated from Intellog Unique Number	CX_WELLS/WELL/3923
WELL.         04-08-098-12W4                 : Well_name    - WELL
LOC .         AA/04-08-098-12W4/0            : Location     - LOCATION
UWI .         AA/04-08-098-12W400            : Uwi          - UNIQUE WELL ID
ENTR.         JOETTE                         : Entered      - ENTERED BY
SRVC.         SCHLUMBERGER                   : Scn          - SERVICE COMPANY
DATE.         08/28/92                       : Date         - LOG DATE
STRT.M        75                             : top_depth    - START DEPTH
STOP.M        270                            : bot_depth    - STOP DEPTH
STEP.M        0.25                           : increment    - STEP LENGTH
 NULL. -999.2500:NULL Value
~CURVE INFORMATION BLOCK
#MNEM UNIT       ERCB CURVE CODE    CURVE DESCRIPTION
#-----------   ------------------   ----------------------------------
DEPT.M        00 001 00 00         : DEPTH        - DEPTH
GR  .API      00 310 00 00         : GR           - GAMMA RAY
NPHI.V/V      00 330 00 00         : PHIN         - NEUTRON POROSITY (SANDSTONE)
DPHI.V/V      00 890 00 00         : PHID         - DENSITY POROSITY (SANDSTONE)
ILD .OHMM     00 120 00 00         : RESD         - DEEP RESISTIVITY (DIL)
~PARAMETER INFORMATION
#MNEM.UNIT           DATA             DESCRIPTION OF MNEMONIC
#---------         -----------     ------------------------------
GL  .M        513.25               : gl           - GROUND LEVEL ELEVATION
EREF.M        516.5                : kb           - ELEVATION OF DEPTH REFERENCE
DATM.M        516.5                : datum        - DATUM ELEVATION
TDD .M        275                  : tdd          - TOTAL DEPTH DRILLER
RUN .         ONE                  : Run          - RUN NUMBER
ENG .         JO                   : Engineer     - RECORDING ENGINEER
WIT .         TIM                  : Witness      - WITNESSED BY
MUD .         GEL                  : Mud_type     - MUD TYPE
MATR.         SANDSTONE            : Logunit      - NEUTRON MATRIX
TMAX.C        17                   : BHT          - MAXIMUM RECORDED TEMPERATURE
BHTD.M        275                  : BHTDEP       - MAXIMUM RECORDED TEMPERATURE
RMT .C        17                   : MDTP         - TEMPERATURE OF MUD
MUDD.KG/M     1080                 : MWT          - MUD DENSITY
NEUT.         1                    : NEUTRON      - NEUTRON TYPE
RESI.         0                    : RESIST       - RESISTIVITY TYPE
RM  .OHMM     4.35                 : RM           - RESISTIVITY OF MUD
RMC .OHMM     3.95                 : RMC          - RESISTIVITY OF MUD CAKE
RMF .OHMM     2.85                 : RMF          - RESISTIVITY OF MUD FILTRATE
SUFT.C        4                    : SUFT         - SURFACE TEMPERATURE
~A  DEPTH       GR     PHIN     PHID     RESD
# ...
  205.500  106.937    0.504    0.269    8.684
  205.750  112.721    0.502    0.268    8.368
  206.000  117.064    0.507    0.254    8.375
  206.250  117.555    0.524    0.247    8.382
  206.500  115.168    0.537    0.236    8.387
  206.750  110.863    0.533    0.233    8.394
  207.000  108.476    0.530    0.231    8.401
  207.250  106.569    0.528    0.221    8.410
  207.500  105.142    0.523    0.204    7.954
  207.750  103.236    0.517    0.199    7.808
  208.000  103.731    0.514    0.207    7.384
  208.250  105.668    0.520    0.208    7.115
  208.500  107.120    0.526    0.210    7.828
  208.750  111.467    0.531    0.214    8.945
  209.000  114.845    0.537    0.232    8.302
  209.250  115.817    0.541    0.254    7.557
  209.500  112.469    0.547    0.251    6.501
  209.750  107.203    0.550    0.246    5.702
  210.000  103.374    0.551    0.231    5.493
  210.250  103.385    0.550    0.212    5.602
  210.500  106.283    0.543    0.212    6.049
  210.750  109.181    0.535    0.217    6.406
  211.000  111.117    0.521    0.226    6.659
  211.250  114.019    0.520    0.241    6.418
  211.500  116.436    0.525    0.283    6.185
  211.750  117.892    0.523    0.258    5.960
  212.000  116.946    0.531    0.259    5.965
  212.250  111.676    0.525    0.318    5.857
  212.500  104.965    0.522    0.353    6.207
  212.750   98.254    0.569    0.388    6.330
  213.000   91.539    0.592    0.424    6.337
  213.250   86.749    0.614    0.446    5.990
  213.500   82.444    0.612    0.462    5.351
  213.750   81.979    0.609    0.475    4.433
  214.000   82.958    0.608    0.469    3.469
  214.250   82.977    0.604    0.447    2.820
  214.500   82.984    0.594    0.363    2.380
  214.750   81.078    0.567    0.328    2.167
  215.000   77.249    0.566    0.313    2.169
  215.250   74.381    0.562    0.292    2.387
  215.500   73.435    0.557    0.275    2.576
  215.750   75.856    0.557    0.265    3.175
  216.000   78.270    0.555    0.261    4.909
  216.250   80.210    0.542    0.260    5.716
  216.500   75.897    0.525    0.259    7.319
  216.750   71.592    0.529    0.256    8.360
  217.000   71.603    0.534    0.250   11.325
  217.250   87.957    0.542    0.245   12.459
  217.500   92.776    0.554    0.240   12.006
  217.750   97.115    0.568    0.249   10.328
  218.000  104.817    0.579    0.242    7.354
  218.250  100.989    0.579    0.236    5.137
  218.500   97.641    0.568    0.247    4.504
  218.750   96.214    0.563    0.245    4.179
  219.000   97.674    0.558    0.247    3.953
  219.250   99.615    0.552    0.259    3.955
  219.500  102.032    0.549    0.215    4.036
  219.750  103.485    0.540    0.202    4.194
  220.000  104.941    0.540    0.194    4.442
  220.250  106.885    0.540    0.184    4.887
  220.500  106.896    0.544    0.190    5.480
  220.750  106.431    0.551    0.241    5.916
  221.000  105.485    0.559    0.268    6.388
  221.250  103.101    0.578    0.284    6.391
  221.500  101.671    0.588    0.293    6.047
  221.750   98.327    0.590    0.282    5.826
  222.000   96.897    0.584    0.258    5.405
  222.250   95.955    0.563    0.242    4.920
  222.500   95.482    0.557    0.237    4.565
  222.750   73.877    0.525    0.253    4.317
  223.000   59.478    0.499    0.261    4.239
  223.250   48.443    0.469    0.264    4.243
  223.500   38.849    0.439    0.264    4.580
  223.750   34.060    0.279    0.263    5.863
  224.000   29.751    0.286    0.263   34.096
  224.250   24.004    0.290    0.263   59.066
  224.500   24.977    0.295    0.265 2913.570
  224.750   24.991    0.301    0.269 1198.450
  225.000   23.085    0.304    0.269  144.102
  225.250   20.221    0.309    0.274  313.254
  225.500   19.275    0.314    0.282  466.635
  225.750   20.254    0.322    0.282  694.831
  226.000   21.703    0.321    0.281  735.864
  226.250   23.644    0.318    0.275 1055.030
  226.500   24.627    0.317    0.272 1484.900
  226.750   24.634    0.315    0.278  147.739
  227.000   24.653    0.313    0.284  303.440
  227.250   24.664    0.313    0.280  469.252
  227.500   24.687    0.311    0.275  578.289
  227.750   24.214    0.306    0.274  754.436
  228.000   24.233    0.303    0.275 1123.370
  228.250   24.244    0.301    0.275 1873.800
  228.500   24.259    0.298    0.274 1438.980
  228.750   24.274    0.306    0.274 2956.740
  229.000   24.292    0.334    0.274 3191.150
  229.250   25.268    0.356    0.286 1845.170
  229.500   27.685    0.415    0.287 3319.710
  229.750   30.103    0.436    0.287  278.637
  230.000   34.441    0.448    0.289  384.738
  230.250   42.147    0.451    0.289   28.276
  230.500   44.561    0.444    0.289   41.340
  230.750   50.821    0.439    0.288   42.960
  231.000   57.562    0.430    0.282   35.578
  231.250   62.386    0.422    0.284   24.861
  231.500   65.283    0.423    0.287   25.841
  231.750   67.700    0.432    0.289   30.657
  232.000   68.200    0.430    0.295   35.027
  232.250   68.695    0.427    0.301   40.020
  232.500   68.710    0.418    0.294   57.389
  232.750   67.284    0.413    0.282   50.313
  233.000   66.814    0.410    0.270   45.828
  233.250   66.353    0.406    0.265   44.145
  233.500   66.371    0.408    0.265   43.354
  233.750   66.382    0.414    0.269   45.924
  234.000   65.921    0.424    0.276   52.470
  234.250   65.455    0.435    0.289   59.949
  234.500   65.470    0.441    0.295   48.726
  234.750   65.966    0.443    0.291   41.149
  235.000   67.426    0.437    0.289   40.403
  235.250   67.433    0.433    0.291   38.205
  235.500   66.487    0.432    0.287   42.824
  235.750   66.502    0.438    0.293   49.863
  236.000   67.962    0.441    0.292   45.410
  236.250   69.899    0.438    0.281   44.586
  236.500   71.359    0.444    0.275   46.363
  236.750   71.847    0.442    0.271   43.832
  237.000   72.826    0.427    0.267   47.317
  237.250   71.404    0.415    0.265   48.261
  237.500   68.052    0.401    0.268   44.799
  237.750   66.149    0.397    0.278   47.435
  238.000   64.722    0.397    0.287   45.712
  238.250   63.296    0.391    0.294   50.288
  238.500   61.386    0.391    0.293   61.974
  238.750   57.077    0.391    0.293  115.846
  239.000   57.576    0.392    0.293  145.461
  239.250   53.743    0.392    0.285  233.622
  239.500   55.688    0.391    0.279  354.586
  239.750   57.136    0.395    0.277  428.789
  240.000   60.041    0.398    0.274  361.958
  240.250   60.529    0.402    0.274   94.531
  240.500   61.989    0.414    0.272  239.122
  240.750   62.965    0.425    0.272  306.049
  241.000   63.461    0.440    0.265   57.947
  241.250   61.554    0.436    0.243   63.749
  241.500   62.530    0.420    0.240  112.566
  241.750   63.506    0.404    0.244   68.874
  242.000   56.318    0.398    0.249   52.892
  242.250   55.372    0.398    0.266   88.242
  242.500   55.387    0.409    0.280  115.097
  242.750   61.644    0.420    0.272   70.437
  243.000   76.552    0.435    0.265   52.094
  243.250   86.660    0.447    0.253   64.186
  243.500   96.764    0.452    0.242   70.612
  243.750  104.466    0.448    0.228   29.600
  244.000   99.197    0.443    0.217   25.459
  244.250   96.329    0.432    0.226   19.555
  244.500   92.504    0.420    0.235   18.840
  244.750   90.601    0.424    0.239   19.583
  245.000   89.167    0.429    0.246   21.149
  245.250   86.780    0.440    0.247   23.711
  245.500   88.717    0.445    0.250   34.637
  245.750   87.778    0.465    0.247   22.435
  246.000   89.711    0.472    0.242   23.334
  246.250   92.609    0.481    0.245   24.712
  246.500   95.991    0.485    0.244   27.694
  246.750   98.404    0.478    0.247   30.467
  247.000   97.939    0.477    0.252   22.959
  247.250   96.512    0.484    0.251   23.869
  247.500   95.566    0.483    0.246   19.396
  247.750   96.065    0.455    0.242   20.938
  248.000   96.080    0.447    0.237   26.804
  248.250   96.572    0.431    0.231   31.806
  248.500   98.993    0.421    0.228   21.405
  248.750   97.086    0.410    0.232   31.865
