~Version : LASO    vs 4.00
VERS.                2.00:   CWLS Log ASCII Standard -VERSION 2.0
WRAP.                  NO:
~Well Information Block
#MNEM.UNIT       Data                        Description of Mnemonic
#----.----      -------------------------- : -----------------------------
COMP.                                     : COMPANY
FLD .    WILDCAT                          : FIELD NAME
LOC .    02-32-090-08W4                   : WELL LOCATION
UWI .    AA/02-32-090-08W400              : UNIQUE WELL ID
STRT.M             0.0000:
STOP.M           201.3750:
STEP.M             0.1250:
NULL.           -999.2500:
COMP.  :COMPANY
WELL.  MOBIL CLARKE OV 2-32:WELL
FLD.   :FIELD
LOC.   :LOCATION
CTRY.  :COUNTRY
PROV.  ALBERTA:PROVINCE
SRVC.  DRESSER ATLAS:SERVICE COMPANY
DATE.  17-FEB-81:LOG DATE
UWI.   :UNIQUE WELL ID
~Parameter Information Block
#MNEM.UNIT       Data                        Description of Mnemonic
#----.----      -------------------------- : -----------------------------
RUN .                   1                 : Run Number
GL  .M           431.8000                 : Ground Level Elevation
DREF.                  KB                 : Depth Reference
EREF.M           431.8000                 : Elevation of Depth Reference
TDL .M           202.0000                 : Total Depth Logger
TDD .M           201.6000                 : Total Depth Driller
BHT .DEGC         20.0000                 : Bottom Hole Temperature
BS  .MM          159.0000                 : Bit Size
DFD .             10.3000                 : Mud Weight (Density)
DFV .             85.0000                 : Mud Viscosity
DFPH.             10.0000                 : Mud pH
RM  .OHMM          4.9000                 : Mud Resistivity
RMT .DEGC         20.0000                 : Mud Resistivity Temperature
RMF .OHMM          4.7000                 : Mud Filtrate Resistivity
RMFT.DEGC         10.0000                 : RMF Temperature
RMC .OHMM          9.5000                 : Mud Cake Resistivity
RMCT.DEGC         10.0000                 : RMC Temperature
~Curve Information Block
#MNEM.UNIT        API CODE    Curve Description
#---------    ------------    -------------------------------------------
DEPT.M                    :   DEPTH
CALI.MM       42 280  1  1:   3 DENSITY CALIPER
DPHI.V/V                  :   DPHI
DT  .US/M     60 520 42  1:   2 SONIC INTERVAL TRANSIT TIME (COMPENSATED)
GR  .GAPI     42 310  1  1:   4 GAMMA RAY
IL  .OHMM      5 120 45  1:   7 INDUCTION
NPHI.V/V      42 890  3  1:   5 NEUTRON POROSITY (SANDSTONE)
RHOB.K/M3     42 350  1  1:   6 BULK DENSITY
SFL .OHMM      5 220  6  1:   8 FOCUSSED RESISTIVITY
SP  .MV        5  10  1  1:   9 SPONTANEOUS POTENTIAL
~A  Depth           CALI        DPHI          DT          GR          IL        NPHI        RHOB         SFL          SP
# ...
16.7500         173.9750      0.2505    497.4000     49.9800     46.4450      0.2861   2236.3999     71.1000   -124.7300
16.8750         173.9500      0.2457    536.4400     51.6000     46.3200      0.2842   2233.8999     70.4000   -124.7300
17.0000         174.1750      0.2426    492.5200     53.1300     45.9550      0.2822   2235.5000     69.3500   -124.7300
17.1250         175.1750      0.2384    452.7600     51.4050     45.7100      0.2858   2247.8000     68.1000   -124.7300
17.2500         176.0750      0.2354    523.1600     50.6850     45.5250      0.2820   2244.5000     65.9999   -124.7300
17.3750         176.7500      0.2327    505.0000     51.0450     45.4650      0.2861   2241.1001     64.6500   -124.7300
17.5000         176.8750      0.2269    550.6400     52.2600     45.2200      0.2835   2282.3000     64.9500   -124.7300
17.6250         176.8500      0.2221    497.8800     53.4600     45.2200      0.2946   2294.2000     65.8000   -124.7300
17.7500         176.8250      0.2174    464.7600     54.6750     45.4000      0.2947   2297.3999     66.0500   -124.7300
17.8750         177.1000      0.2167    526.3600     54.7050     45.4000      0.2935   2300.3000     65.8000   -124.7300
18.0000         177.7500      0.2166    561.7200     53.0250     45.5250      0.2935   2288.2000     65.2000   -124.7300
18.1250         176.8500      0.2166    565.6400     52.2150     45.7100      0.2941   2283.5000     64.6500   -124.7300
18.2500         176.7750      0.2176    539.3600     51.9750     45.8300      0.2971   2286.7000     64.1000   -124.7300
18.3750         176.4250      0.2207    483.6800     51.9750     45.9550      0.2935   2286.2000     64.1500   -124.7300
18.5000         175.7500      0.2242    496.9200     53.6100     45.8300      0.2892   2276.8000     65.4000   -124.7300
18.6250         174.6000      0.2239    487.1200     51.0450     45.8300      0.2917   2270.2000     66.5500   -124.7300
18.7500         172.5250      0.2164    477.2800     49.9950     45.8950      0.2948   2265.2000     66.4500   -124.7300
18.8750         170.6000      0.2018    480.4800     51.3000     45.8300      0.3003   2294.6001     65.4000   -124.7300
19.0000         169.4000      0.1879    481.2000     54.9150     45.7100      0.2985   2334.6001     64.1500   -124.7300
19.1250         169.7000      0.1753    483.6800     53.0850     45.5850      0.2917   2371.3000     64.3000   -124.7300
19.2500         176.7500      0.1703    478.0400     50.1900     45.4650      0.2936   2353.2000     65.9999   -124.7300
19.3750         184.3250      0.1744    477.5200     51.3900     45.3400      0.2849   2335.0000     66.7000   -124.7300
19.5000         188.3250      0.1803    476.3200     52.2450     45.4000      0.2789   2316.8000     68.5000   -124.7300
19.6250         187.8500      0.1853    474.0800     51.4800     45.4000      0.2706   2300.3000     66.5500   -124.7300
19.7500         180.5000      0.1913    473.1200     49.9800     45.4650      0.2765   2287.8999     64.3000   -124.7300
19.8750         175.7000      0.1975    482.9200     49.3650     45.5850      0.2793   2275.5000     62.9000   -124.7300
20.0000         163.0500      0.2048    484.8800     50.1150     45.6450      0.2785   2263.1001     63.6000   -124.7300
20.1250         158.7500      0.2222    483.1600     54.3750     45.7700      0.2748   2254.0000     65.1000   -124.7300
20.2500         156.6250      0.2314    476.5600     56.8350     45.7100      0.2771   2320.1001     65.2000   -124.7300
20.3750         162.4000      0.2227    475.3200     55.1100     45.6450      0.2712   2328.1001     64.3000   -124.7300
20.5000         170.3750      0.2063    480.7200     51.6900     45.5850      0.2724   2315.7000     63.1000   -124.7300
20.6250         172.1750      0.1981    484.1600     49.3950     45.5250      0.2723   2320.8999     63.5000   -124.7300
20.7500         171.4750      0.1948    485.6400     47.4150     45.4650      0.2738   2369.5000     65.3500   -124.7300
20.8750         169.4000      0.1804    487.3600     45.4050     45.4650      0.2717   2383.8999     66.7000   -124.7300
21.0000         167.9000      0.1707    518.7600     44.7600     45.5850      0.2704   2379.8000     65.1500   -124.7300
21.1250         168.0500      0.1647    574.2000     49.0650     45.6450      0.2729   2377.0000     64.2000   -124.7300
21.2500         167.2000      0.1621    557.7600     51.1200     45.7100      0.2774   2380.2000     63.9999   -124.7300
21.3750         165.1250      0.1621    482.4400     51.7500     45.2200      0.2804   2383.5000     63.0500   -124.7300
21.5000         168.1250      0.1637    480.4800     50.5500     44.4200      0.2785   2347.0000     63.6000   -124.7300
21.6250         179.6750      0.1667    479.2400     51.1800     43.8700      0.2828   2342.3000     64.9500   -124.7300
21.7500         180.8000      0.1718    477.2800     52.2000     43.2550      0.2773   2350.3000     66.3000   -124.7300
21.8750         178.3250      0.1751    462.5600     49.6950     42.5800      0.2830   2353.6001     65.9000   -124.7300
22.0000         181.7500      0.1742    439.0000     48.8700     42.2100      0.2905   2350.1001     63.9999   -124.7300
22.1250         183.7500      0.1734    414.9600     50.0850     42.0300      0.2906   2350.1001     59.9999   -124.7300
22.2500         181.7250      0.1730    480.4800     51.8850     41.9650      0.2892   2360.2000     56.5500   -124.7300
22.3750         185.1000      0.1764    490.5200     50.6250     42.1500      0.2941   2363.0000     55.2000   -124.7300
22.5000         188.2250      0.1812    489.3200     51.9150     42.1500      0.2976   2350.1001     58.3500   -124.7300
22.6250         185.7000      0.1837    490.5200     53.1300     42.0900      0.2929   2328.1001     62.8000   -124.7300
22.7500         183.2000      0.1827    492.2400     52.0950     42.2750      0.2926   2334.3000     66.4500   -124.7300
22.8750         184.9500      0.1815    490.5200     50.4450     42.5800      0.2991   2337.5000     66.9999   -124.7300
23.0000         187.8750      0.1803    491.7600     51.1950     43.1300      0.2972   2340.8000     65.9999   -124.7300
23.1250         188.9750      0.1791    490.2800     52.6200     43.6850      0.2884   2344.0000     64.7000   -124.7300
23.2500         189.2250      0.1769    477.2800     53.8350     43.9900      0.2844   2346.6001     66.1000   -124.7300
23.3750         187.1500      0.1765    478.2800     51.8100     44.3000      0.2863   2348.2000     65.6500   -124.7300
23.5000         187.1500      0.1771    483.4400     51.4950     44.3600      0.2812   2349.8999     63.9000   -124.6000
23.6250         193.0500      0.1775    479.2400     52.4550     44.5450      0.2737   2341.1001     63.7500   -124.7300
23.7500         192.9750      0.1766    477.5200     52.5450     44.5450      0.2681   2338.7000     66.9000   -124.7300
23.8750         190.9000      0.1745    476.0400     50.3850     44.6050      0.2691   2344.8999     67.3500   -124.7300
24.0000         191.4000      0.1722    476.5600     49.4550     44.6050      0.2732   2358.3000     66.5000   -124.7300
24.1250         193.0000      0.1698    482.6800     51.0600     44.6650      0.2705   2366.7000     63.5500   -124.7300
24.2500         192.9750      0.1674    496.4400     52.8150     44.7900      0.2713   2375.0000     62.1000   -124.7300
24.3750         192.9750      0.1633    545.2800     52.6350     44.7900      0.2616   2383.3999     61.8500   -124.7300
24.5000         192.2500      0.1604    478.5200     52.9200     44.6650      0.2645   2391.7000     62.7500   -124.7300
24.6250         191.2250      0.1579    472.3600     54.9450     44.4200      0.2699   2385.1001     64.7000   -124.7300
24.7500         189.4250      0.1554    471.1600     55.5150     44.2350      0.2749   2371.2000     65.7000   -124.7300
24.8750         186.6250      0.1553    451.5200     55.2900     43.8700      0.2770   2367.8999     65.7500   -124.7300
25.0000         184.9250      0.1564    460.3600     56.0400     43.7450      0.2765   2366.2000     65.1500   -124.6000
