~VERSION INFORMATION
 VERS.                 2.0:   CWLS LOG ASCII STANDARD -VERSION 2.0
 WRAP.                  NO:   ONE LINE PER DEPTH STEP
~WELL INFORMATION BLOCK
#MNEM.UNIT           DATA                    DESCRIPTION OF MNEMONIC
#---------    -------------------            -------------------------------
# Generated from Intellog Unique Number	CX_WELLS/WELL/3566
WELL.         AMOCO GREGOIRE                 : Well_name    - WELL
LOC .         AA/03-08-085-08W4/0            : Location     - LOCATION
UWI .         AA/03-08-085-08W400            : Uwi          - UNIQUE WELL ID
ENTR.         T                              : Entered      - ENTERED BY
SRVC.         SCHLUMBERGER                   : Scn          - SERVICE COMPANY
STRT.F        1150                           : top_depth    - START DEPTH
STOP.F        1569.95                        : bot_depth    - STOP DEPTH
STEP.F        0.82                           : increment    - STEP LENGTH
 NULL. -999.2500:NULL Value
~CURVE INFORMATION BLOCK
#MNEM UNIT       ERCB CURVE CODE    CURVE DESCRIPTION
#-----------   ------------------   ----------------------------------
DEPT.F        00 001 00 00         : DEPTH        - DEPTH
GR  .API      00 310 00 00         : GR           - GAMMA RAY
DPHI.V/V      00 890 00 00         : PHID         - DENSITY POROSITY (SANDSTONE)
ILD .OHMM     00 120 00 00         : RESD         - DEEP RESISTIVITY (OTHER)
~PARAMETER INFORMATION
#MNEM.UNIT           DATA             DESCRIPTION OF MNEMONIC
#---------         -----------     ------------------------------
GL  .F        2337.6               : gl           - GROUND LEVEL ELEVATION
EREF.F        2347.6               : kb           - ELEVATION OF DEPTH REFERENCE
DATM.F        2347.6               : datum        - DATUM ELEVATION
TDD .F        1602                 : tdd          - TOTAL DEPTH DRILLER
RUN .         ONE                  : Run          - RUN NUMBER
ENG .         BILL                 : Engineer     - RECORDING ENGINEER
WIT .         JIM                  : Witness      - WITNESSED BY
MUD .         GEL                  : Mud_type     - MUD TYPE
MATR.         SANDSTONE            : Logunit      - NEUTRON MATRIX
TMAX.F        77                   : BHT          - MAXIMUM RECORDED TEMPERATURE
BHTD.F        1602                 : BHTDEP       - MAXIMUM RECORDED TEMPERATURE
MATR.         1                    : LOGUNIT      - NEUTRON MATRIX
RMT .F        77                   : MDTP         - TEMPERATURE OF MUD
NEUT.         1                    : NEUTRON      - NEUTRON TYPE
RESI.         5                    : RESIST       - RESISTIVITY TYPE
RMC .OHMM     4.25                 : RMC          - RESISTIVITY OF MUD CAKE
RMF .OHMM     4.25                 : RMF          - RESISTIVITY OF MUD FILTRATE
SUFT.F        39.2                 : SUFT         - SURFACE TEMPERATURE
~A  DEPTH       GR     PHID     RESD
# ...
 1327.990  115.439    0.310   22.106
 1328.810  115.460    0.322   20.698
 1329.630  111.175    0.321   18.077
 1330.450  111.195    0.315   16.468
 1331.270  109.984    0.311   16.071
 1332.090  108.773    0.309   16.278
 1332.910  110.641    0.311   16.689
 1333.730  109.429    0.315   17.305
 1334.550  106.371    0.319   17.310
 1335.370  101.470    0.316   16.712
 1336.190   97.790    0.312   15.504
 1337.010   92.884    0.306   10.660
 1337.830   86.752    0.303    7.029
 1338.650   84.314    0.298    6.027
 1339.470   85.566    0.293    6.638
 1340.290   84.355    0.297   10.687
 1341.110   88.681    0.304   12.514
 1341.930   88.706    0.307   12.319
 1342.750   86.258    0.310   11.114
 1343.570   86.279    0.315   10.917
 1344.390   96.773    0.328   10.317
 1345.210  104.183    0.342   10.124
 1346.030  104.204    0.317    9.927
 1346.850   98.066    0.306    8.720
 1347.670   89.470    0.282    8.325
 1348.490   88.875    0.271   12.171
 1349.310   93.201    0.276   13.391
 1350.130  101.848    0.301   13.599
 1350.950  110.490    0.319   12.798
 1351.770  112.984    0.338   11.389
 1352.590  112.383    0.343    9.779
 1353.410  112.404    0.343    7.765
 1354.230  113.661    0.343    5.952
 1355.050  113.681    0.342    5.353
 1355.870  114.933    0.340    4.554
 1356.690  116.190    0.336    4.157
 1357.510  116.816    0.328    3.557
 1358.330  116.837    0.328    3.159
 1359.150  116.242    0.327    2.762
 1359.970  118.120    0.325    2.565
 1360.790  116.293    0.325    2.169
 1361.610  115.087    0.326    2.179
 1362.430  113.865    0.323    2.182
 1363.250  111.422    0.315    2.595
 1364.070  108.980    0.313    2.802
 1364.900  112.079    0.305    3.014
 1365.720  117.031    0.303    3.221
 1366.540  117.051    0.303    3.431
 1367.360  113.993    0.302    3.435
 1368.180  109.087    0.300    3.441
 1369.000  107.265    0.297    3.451
 1369.820  109.749    0.297    3.459
 1370.640  109.769    0.301    3.464
 1371.460  108.553    0.304    3.469
 1372.280  106.110    0.309    3.882
 1373.100   99.977    0.312    4.089
 1373.920   91.992    0.310    5.106
 1374.740   86.470    0.307    9.561
 1375.560   83.412    0.301   10.780
 1376.380   82.201    0.299   14.425
 1377.200   84.684    0.295   18.678
 1378.020   86.552    0.293   17.675
 1378.840   86.573    0.289   17.074
 1379.660   89.672    0.288   15.868
 1380.480   93.398    0.284   15.066
 1381.300   94.650    0.284   15.278
 1382.120   97.744    0.282   15.486
 1382.940  101.459    0.282   15.290
 1383.760  105.175    0.282   14.690
 1384.580  108.274    0.280   14.089
 1385.400  107.684    0.282   13.289
 1386.220  111.404    0.288   12.489
 1387.040  111.420    0.297   12.696
 1387.860  116.982    0.302   12.905
 1388.680  126.856    0.304   12.308
 1389.500  134.887    0.307   11.707
 1390.320  142.297    0.307   11.105
 1391.140  142.938    0.304   10.107
 1391.960  140.491    0.303    9.909
 1392.780  136.200    0.294    9.913
 1393.600  129.452    0.284   11.336
 1394.420  117.161    0.269   15.991
 1395.240  115.940    0.258   20.848
 1396.060  108.570    0.246   25.707
 1396.880  100.585    0.234   31.980
 1397.700   88.290    0.233   38.454
 1398.520   79.689    0.263   37.854
 1399.340   80.330    0.285   29.978
 1400.160   82.198    0.279   32.614
 1400.980   87.766    0.276   35.855
 1401.800   87.170    0.274   38.489
 1402.620   85.338    0.284   40.314
 1403.440   79.816    0.300   40.121
 1404.270   73.684    0.294   39.117
 1405.090   76.168    0.286   39.325
 1405.910   78.035    0.280   42.566
 1406.730   82.366    0.281   46.211
 1407.550   87.319    0.290   48.846
 1408.370   89.797    0.303   47.841
 1409.190   88.586    0.299   45.828
 1410.010   87.996    0.293   49.473
 1410.830   92.332    0.284   49.075
 1411.650   96.042    0.278   44.029
 1412.470  100.373    0.276   29.482
 1413.290  105.941    0.276   19.989
 1414.110  103.493    0.283   15.347
 1414.930   98.587    0.291   16.162
 1415.750   92.449    0.298   17.183
 1416.570   86.927    0.293   17.186
 1417.390   79.563    0.289   21.439
 1418.210   70.962    0.289   32.359
 1419.030   74.067    0.289   48.335
 1419.850   78.393    0.289   50.565
 1420.670   85.803    0.289   45.721
 1421.490   88.908    0.287   40.068
 1422.310   90.776    0.290   27.948
 1423.130   96.954    0.291   23.912
 1423.950  100.670    0.291   23.717
 1424.770  104.390    0.292   25.340
 1425.590  103.789    0.292   26.762
 1426.410   97.036    0.292   26.566
 1427.230   93.987    0.292   25.362
 1428.050   95.229    0.292   26.179
 1428.870   94.639    0.292   26.992
 1429.690   90.354    0.293   28.212
 1430.510   87.906    0.298   33.069
 1431.330   84.232    0.299   35.098
 1432.150   84.252    0.290   33.288
 1432.970   87.352    0.281   32.890
 1433.790   91.067    0.275   31.884
 1434.610   94.792    0.269   29.466
 1435.430   96.660    0.272   25.632
 1436.250   97.907    0.276   22.607
 1437.070  100.391    0.285   20.795
 1437.890  107.185    0.296   19.387
 1438.710  112.748    0.306   17.980
 1439.530  117.700    0.311   17.178
 1440.350  120.805    0.312   15.974
 1441.170  118.973    0.309   15.371
 1441.990  116.530    0.304   13.762
 1442.810  115.939    0.297   12.757
 1443.640  117.192    0.295   11.753
 1444.460  118.444    0.292   14.995
 1445.280  109.843    0.292   18.842
 1446.100   85.225    0.286   35.828
 1446.920   80.935    0.277   47.153
 1447.740   89.582    0.266   48.980
 1448.560   95.761    0.262   47.978
 1449.380  100.092    0.263   27.972
 1450.200  101.960    0.267   22.521
 1451.020  103.217    0.269   19.092
 1451.840  102.001    0.274   16.269
 1452.660   92.784    0.280   14.861
 1453.480   81.104    0.284   14.868
 1454.300   81.745    0.284   16.693
 1455.120   82.387    0.281   29.030
 1455.940   78.712    0.274   33.888
 1456.760   75.648    0.267   40.768
 1457.580   75.058    0.261   47.040
 1458.400   75.073    0.250   49.674
 1459.220   77.562    0.242   49.681
 1460.040   78.809    0.242   49.485
 1460.860   76.987    0.278   50.506
 1461.680   75.776    0.296   51.321
 1462.500   75.181    0.299   51.530
 1463.320   80.749    0.299   52.950
 1464.140   84.459    0.298   54.977
 1464.960   88.179    0.296   56.401
 1465.780   88.200    0.296   55.397
 1466.600   90.068    0.296   54.797
 1467.420   92.551    0.296   55.208
 1468.240   95.651    0.297   56.023
 1469.060   99.982    0.301   56.838
 1469.880   98.155    0.303   56.440
 1470.700   92.017    0.304   56.245
 1471.520   92.664    0.307   57.264
 1472.340   93.295    0.307   58.283
 1473.160   94.552    0.304   58.894
 1473.980   95.188    0.303   59.911
 1474.800   93.982    0.301   60.526
 1475.620   92.145    0.298   61.137
 1476.440   86.628    0.296   60.537
 1477.260   82.949    0.295   58.931
 1478.080   79.895    0.291   57.927
 1478.900   92.232    0.286   57.325
 1479.720  102.105    0.284   56.119
 1480.540  109.520    0.282   55.115
 1481.360  110.773    0.282   55.730
 1482.190   97.245    0.308   57.150
 1483.010   89.871    0.314   58.977
 1483.830   85.586    0.311   60.400
 1484.650   81.295    0.306   59.597
 1485.470   73.310    0.303   60.615
 1486.290   66.557    0.298   61.429
 1487.110   68.425    0.298   61.033
 1487.930   70.913    0.298   60.634
 1488.750   66.618    0.298   61.449
 1489.570   62.944    0.296   62.672
 1490.390   72.817    0.295   63.487
 1491.210   85.775    0.295   62.887
 1492.030   97.496    0.294   62.892
 1492.850   93.821    0.292   63.707
 1493.670   80.909    0.285   64.928
 1494.490   72.924    0.285   65.945
 1495.310   67.402    0.296   66.558
 1496.130   69.886    0.306   67.779
 1496.950   72.370    0.300   68.391
 1497.770   73.632    0.294   67.184
 1498.590   74.884    0.285   65.978
 1499.410   73.673    0.280   64.570
 1500.230   73.078    0.278   63.366
 1501.050   75.561    0.280   61.552
 1501.870   78.040    0.274   60.752
 1502.690   82.992    0.267   60.961
 1503.510   89.170    0.266   59.148
 1504.330   94.733    0.266   53.292
 1505.150  105.838    0.261   39.959
