~VERSION INFORMATION
 VERS.                 2.0:   CWLS LOG ASCII STANDARD -VERSION 2.0
 WRAP.                  NO:   ONE LINE PER DEPTH STEP
~WELL INFORMATION BLOCK
#MNEM.UNIT           DATA                    DESCRIPTION OF MNEMONIC
#---------    -------------------            -------------------------------
# Generated from Intellog Unique Number	CW_79_81/WELL/637
WELL.         07-33-079-25W4                 : Well_name    - WELL
LOC .         AA/07-33-079-25W4/0            : Location     - LOCATION
UWI .         AA/07-33-079-25W4/0            : Uwi          - UNIQUE WELL ID
ENTR.         MAX                            : Entered      - ENTERED BY
SRVC.         SCHLUMBERGER                   : Scn          - SERVICE COMPANY
STRT.M        200                            : top_depth    - START DEPTH
STOP.M        475                            : bot_depth    - STOP DEPTH
STEP.M        0.25                           : increment    - STEP LENGTH
 NULL. -999.2500:NULL Value
~CURVE INFORMATION BLOCK
#MNEM UNIT       ERCB CURVE CODE    CURVE DESCRIPTION
#-----------   ------------------   ----------------------------------
DEPT.M        00 001 00 00         : DEPTH        - DEPTH
ILD .OHMM     00 120 00 00         : RESD         - DEEP RESISTIVITY (DIL)
NPHI.V/V      00 330 00 00         : PHIN         - NEUTRON POROSITY (SANDSTONE)
DPHI.V/V      00 890 00 00         : PHID         - DENSITY POROSITY (SANDSTONE)
CALI.MM       00 280 01 00         : CAL          - CALIPER
GR  .API      00 310 00 00         : GR           - GAMMA RAY
~PARAMETER INFORMATION
#MNEM.UNIT           DATA             DESCRIPTION OF MNEMONIC
#---------         -----------     ------------------------------
GL  .M        557.85               : gl           - GROUND LEVEL ELEVATION
EREF.M        562.3                : kb           - ELEVATION OF DEPTH REFERENCE
DATM.M        557.85               : datum        - DATUM ELEVATION
TDD .M        485.5                : tdd          - TOTAL DEPTH DRILLER
RUN .         ONE                  : Run          - RUN NUMBER
ENG .         BILL                 : Engineer     - RECORDING ENGINEER
WIT .         JIM                  : Witness      - WITNESSED BY
MUD .         GEL                  : Mud_type     - MUD TYPE
MATR.         SANDSTONE            : Logunit      - NEUTRON MATRIX
TMAX.C        17.7                 : BHT          - MAXIMUM RECORDED TEMPERATURE
BHTD.M        485                  : BHTDEP       - MAXIMUM RECORDED TEMPERATURE
RMT .C        20                   : MDTP         - TEMPERATURE OF MUD
MUDD.KG/M     1110                 : MWT          - MUD DENSITY
NEUT.         1                    : NEUTRON      - NEUTRON TYPE
RESI.         0                    : RESIST       - RESISTIVITY TYPE
RM  .OHMM     11.3                 : RM           - RESISTIVITY OF MUD
RMC .OHMM     0.25                 : RMC          - RESISTIVITY OF MUD CAKE
RMF .OHMM     4.93                 : RMF          - RESISTIVITY OF MUD FILTRATE
SUFT.C        -15                  : SUFT         - SURFACE TEMPERATURE
~A  DEPTH     RESD     PHIN     PHID      CAL       GR
# ...
  273.000    8.184    0.482    0.318  248.733   60.339
  273.250    7.672    0.525    0.322  248.225   62.150
  273.500    7.602    0.524    0.354  248.225   58.521
  273.750    9.312    0.486    0.375  248.215   51.568
  274.000   11.302    0.481    0.387  247.709   48.242
  274.250   16.196    0.470    0.373  247.704   46.728
  274.500   19.477    0.453    0.360  247.701   45.517
  274.750   20.968    0.426    0.359  248.201   45.515
  275.000   21.756    0.416    0.358  249.203   46.721
  275.250   22.160    0.424    0.354  250.208   46.718
  275.500   22.160    0.448    0.355  251.210   47.320
  275.750   22.158    0.438    0.361  251.207   50.038
  276.000   22.158    0.432    0.366  251.207   52.755
  276.250   22.158    0.414    0.362  250.693   52.149
  276.500   22.156    0.403    0.358  250.187   48.822
  276.750   22.156    0.399    0.361  250.183   47.913
  277.000   21.749    0.478    0.364  250.178   47.306
  277.250   21.351    0.481    0.369  250.175   46.095
  277.500   21.350    0.447    0.364  250.169   46.093
  277.750   21.349    0.409    0.355  249.664   48.810
  278.000   21.547    0.404    0.357  248.652   51.225
  278.250   21.546    0.426    0.358  247.137   50.618
  278.500   21.546    0.458    0.353  246.126   50.616
  278.750   21.544    0.456    0.351  246.122   52.729
  279.000   21.743    0.462    0.355  246.117   49.100
  279.250   21.743    0.463    0.358  246.113   45.774
  279.500   21.943    0.448    0.360  246.109   45.469
  279.750   22.146    0.429    0.357  246.106   46.675
  280.000   22.145    0.427    0.355  246.101   47.579
  280.250   22.144    0.428    0.354  246.098   48.786
  280.500   22.143    0.429    0.353  245.590   50.295
  280.750   22.143    0.430    0.354  245.586   52.105
  281.000   22.143    0.424    0.357  245.582   51.196
  281.250   22.141    0.423    0.358  245.578   48.172
  281.500   22.140    0.419    0.357  246.077   47.867
  281.750   22.139    0.409    0.354  246.074   48.167
  282.000   22.551    0.427    0.354  246.070   46.049
  282.250   23.398    0.463    0.358  246.070   44.536
  282.500   24.053    0.462    0.362  246.563   45.440
  282.750   24.053    0.438    0.359  246.561   45.135
  283.000   24.499    0.422    0.357  246.557   43.925
  283.250   24.726    0.425    0.355  246.557   42.109
  283.500   24.954    0.427    0.354  246.549   40.898
  283.750   24.953    0.429    0.352  246.546   40.291
  284.000   24.723    0.438    0.354  246.541   40.892
  284.250   24.722    0.438    0.357  246.537   41.193
  284.500   24.494    0.436    0.351  246.534   41.794
  284.750   24.269    0.443    0.345  246.529   42.094
  285.000   24.045    0.433    0.346  246.524   42.394
  285.250   23.823    0.414    0.351  246.521   42.392
  285.500   23.387    0.426    0.356  247.021   42.994
  285.750   22.539    0.437    0.363  247.520   42.991
  286.000   21.522    0.431    0.365  247.520   43.896
  286.250   20.741    0.412    0.366  247.513   45.706
  286.500   20.362    0.402    0.368  249.019   46.006
  286.750   20.174    0.418    0.371  250.022   44.493
  287.000   20.360    0.428    0.370  250.522   43.886
  287.250   20.172    0.429    0.360  251.022   48.114
  287.500   19.986    0.432    0.359  251.521   48.716
  287.750   19.802    0.430    0.361  251.517   47.203
  288.000   19.801    0.433    0.360  251.513   45.690
  288.250   19.984    0.437    0.359  251.510   46.291
  288.500   20.544    0.433    0.358  251.505   46.591
  288.750   20.734    0.417    0.356  251.501   46.589
  289.000   20.543    0.413    0.351  251.496   47.191
  289.250   19.798    0.418    0.347  251.496   48.699
  289.500   19.080    0.435    0.348  251.488   49.604
  289.750   18.558    0.439    0.351  251.486   48.392
  290.000   18.558    0.437    0.360  251.482   45.368
  290.250   18.557    0.450    0.362  251.478   45.667
  290.500   18.728    0.464    0.363  251.474   45.363
  290.750   19.253    0.447    0.367  251.466   46.267
  291.000   19.076    0.434    0.372  251.465   48.985
  291.250   18.384    0.440    0.373  251.965   51.400
  291.500   17.882    0.445    0.370  251.961   50.793
  291.750   17.393    0.459    0.369  251.956   50.790
  292.000   17.233    0.460    0.374  251.952   50.183
  292.250   17.553    0.455    0.375  251.952   48.670
  292.500   17.715    0.441    0.373  251.944   47.459
  292.750   17.714    0.440    0.370  252.445   47.759
  293.000   17.390    0.445    0.368  252.440   48.965
  293.250   16.759    0.436    0.368  252.436   48.963
  293.500   16.452    0.419    0.372  252.433   48.961
  293.750   16.151    0.424    0.370  252.429   49.261
  294.000   16.002    0.469    0.371  252.425   50.467
  294.250   15.854    0.498    0.375  252.923   53.486
  294.500   15.421    0.493    0.371  253.423   55.297
  294.750   15.139    0.467    0.366  253.923   51.971
  295.000   14.999    0.446    0.366  254.423   49.853
  295.250   14.998    0.438    0.360  254.419   51.361
  295.500   14.860    0.432    0.355  254.919   52.568
  295.750   14.588    0.436    0.353  255.419   54.680
  296.000   13.425    0.467    0.349  255.918   54.678
  296.250   12.018    0.466    0.332  257.425   52.560
  296.500   10.179    0.399    0.274  258.427   50.141
  296.750    6.016    0.375    0.242  258.424   52.253
  297.000    4.777    0.495    0.219  257.916   58.899
  297.250    4.689    0.478    0.289  257.913   64.336
  297.500    5.048    0.463    0.270  259.420   69.169
  297.750    6.127    0.494    0.266  261.430   72.793
  298.000    7.436    0.495    0.272  261.426   72.186
  298.250    9.026    0.442    0.251  259.407   66.744
  298.500   12.934    0.365    0.228  257.388   57.676
  298.750   19.771    0.280    0.102  255.370   53.745
  299.000   23.128    0.222    0.068  254.862   52.232
  299.250   22.289    0.240    0.083  254.858   54.647
  299.500   17.535    0.291    0.114  254.855   61.292
  299.750   13.542    0.471    0.160  255.354   62.800
  300.000   10.752    0.463    0.299  255.350   64.914
  300.250   10.363    0.508    0.296  255.849   69.142
  300.500    9.895    0.512    0.304  255.845   70.046
  300.750    9.714    0.499    0.326  255.338   67.324
  301.000    9.624    0.488    0.330  255.334   65.207
  301.250    9.275    0.475    0.309  255.331   65.809
  301.500    8.695    0.462    0.294  255.326   67.921
  301.750    8.226    0.449    0.284  255.321   69.128
  302.000    8.002    0.439    0.282  255.318   71.543
  302.250    8.001    0.456    0.277  255.313   73.354
  302.500    8.075    0.465    0.264  256.317   76.071
  302.750    8.301    0.466    0.264  256.817   77.881
  303.000    8.378    0.465    0.261  257.317   77.275
  303.250    8.074    0.462    0.251  257.816   75.459
  303.500    7.431    0.441    0.239  258.315   76.061
  303.750    6.713    0.437    0.237  258.816   77.872
  304.000    6.590    0.467    0.239  259.315   79.985
  304.250    6.713    0.473    0.237  260.318   78.774
  304.500    7.029    0.459    0.233  260.818   77.562
  304.750    7.638    0.434    0.224  260.813   78.467
  305.000    8.453    0.413    0.223  260.810   81.184
  305.250    9.185    0.430    0.227  260.806   81.484
  305.500    9.270    0.449    0.236  260.802   78.157
  305.750    9.016    0.449    0.248  260.798   75.133
  306.000    8.530    0.451    0.241  261.297   74.828
  306.250    7.997    0.450    0.233  261.798   76.941
  306.500    7.850    0.433    0.226  262.297   84.494
  306.750    7.706    0.434    0.225  262.797   83.584
  307.000    7.706    0.457    0.222  263.297   79.050
  307.250    7.427    0.469    0.227  263.795   78.745
  307.500    7.092    0.466    0.229  264.296   83.275
  307.750    6.898    0.449    0.227  265.299   88.410
  308.000    6.587    0.434    0.227  265.798   85.688
  308.250    6.466    0.434    0.228  265.794   82.059
  308.500    6.289    0.442    0.227  265.790   82.661
  308.750    5.788    0.448    0.230  265.283   90.214
  309.000    5.527    0.461    0.239  265.279   88.096
  309.250    5.326    0.494    0.247  264.771   84.769
