~VERSION INFORMATION
 VERS.                 2.0:   CWLS LOG ASCII STANDARD -VERSION 2.0
 WRAP.                  NO:   ONE LINE PER DEPTH STEP
~WELL INFORMATION BLOCK
#MNEM.UNIT           DATA                    DESCRIPTION OF MNEMONIC
#---------    -------------------            -------------------------------
# Generated from Intellog Unique Number	CN_94_101/WELL/2546
WELL.         04-23-094-10W4                 : Well_name    - WELL
LOC .         AA/04-23-094-10W4/0            : Location     - LOCATION
UWI .         AA/04-23-094-10W400            : Uwi          - UNIQUE WELL ID
ENTR.         JOETTE                         : Entered      - ENTERED BY
SRVC.         SCHLUMBERGER                   : Scn          - SERVICE COMPANY
DATE.         05/17/92                       : Date         - LOG DATE
STRT.M        0                              : top_depth    - START DEPTH
STOP.M        65                             : bot_depth    - STOP DEPTH
STEP.M        0.25                           : increment    - STEP LENGTH
 NULL. -999.2500:NULL Value
~CURVE INFORMATION BLOCK
#MNEM UNIT       ERCB CURVE CODE    CURVE DESCRIPTION
#-----------   ------------------   ----------------------------------
DEPT.M        00 001 00 00         : DEPTH        - DEPTH
GR  .API      00 310 00 00         : GR           - GAMMA RAY
NPHI.V/V      00 330 00 00         : PHIN         - NEUTRON POROSITY (SANDSTONE)
RHOB.KG/M3    00 350 00 00         : DENS         - BULK DENSITY
ILD .OHMM     00 120 00 00         : RESD         - DEEP RESISTIVITY (DIL)
~PARAMETER INFORMATION
#MNEM.UNIT           DATA             DESCRIPTION OF MNEMONIC
#---------         -----------     ------------------------------
GL  .M        308.3                : gl           - GROUND LEVEL ELEVATION
EREF.M        308.3                : kb           - ELEVATION OF DEPTH REFERENCE
DATM.M        308.3                : datum        - DATUM ELEVATION
TDD .M        73.8                 : tdd          - TOTAL DEPTH DRILLER
RUN .         ONE                  : Run          - RUN NUMBER
ENG .         JO                   : Engineer     - RECORDING ENGINEER
WIT .         TIM                  : Witness      - WITNESSED BY
MUD .         GEL                  : Mud_type     - MUD TYPE
MATR.         SANDSTONE            : Logunit      - NEUTRON MATRIX
TMAX.C        16                   : BHT          - MAXIMUM RECORDED TEMPERATURE
BHTD.M        73.8                 : BHTDEP       - MAXIMUM RECORDED TEMPERATURE
RMT .C        16                   : MDTP         - TEMPERATURE OF MUD
MUDD.KG/M     1060                 : MWT          - MUD DENSITY
NEUT.         1                    : NEUTRON      - NEUTRON TYPE
RESI.         0                    : RESIST       - RESISTIVITY TYPE
RM  .OHMM     3.5                  : RM           - RESISTIVITY OF MUD
RMC .OHMM     3.5                  : RMC          - RESISTIVITY OF MUD CAKE
RMF .OHMM     3.5                  : RMF          - RESISTIVITY OF MUD FILTRATE
SUFT.C        4                    : SUFT         - SURFACE TEMPERATURE
~A  DEPTH       GR     PHIN     DENS     RESD
    0.000   39.230    0.298 2702.150    0.000
    0.250   31.934    0.420 2700.190    0.000
    0.500   47.940    0.520 2694.130    0.000
    0.750   59.635    0.514 2686.010    0.000
    1.000   80.530    0.528 2667.570    0.000
    1.250   72.008    0.536 2622.380    0.000
    1.500   56.131    0.537 2562.780    0.000
    1.750   52.512    0.538 2669.950    0.000
    2.000   64.214    0.532 2661.820    0.000
    2.250   63.659    0.529 2659.880    0.000
    2.500   68.626    0.526 2655.860    0.000
    2.750   72.361    0.518 2666.260    0.000
    3.000   58.323    0.524 2682.840    0.000
    3.250   65.735    0.526 2703.550    0.000
    3.500   65.187    0.525 2713.940    0.000
    3.750   54.206    0.520 2695.530    0.000
    4.000   54.264    0.511 2695.630    0.000
    4.250   53.709    0.512 2716.350    0.000
    4.500   53.774    0.525 2737.030    0.000
    4.750   50.767    0.527 2712.430    0.000
    5.000   50.818    0.514 2702.250    0.000
    5.250   47.811    0.515 2714.720    0.000
    5.500   38.676    0.508 2702.490    0.000
    5.750   32.605    0.509 2694.350    0.000
    6.000   32.663    0.511 2692.380    0.000
    6.250   40.688    0.512 2686.310    0.000
    6.500   44.422    0.516 2735.850    0.000
    6.750   46.319    0.517 2727.710    0.000
    7.000   49.448    0.523 2694.870    0.000
    7.250   56.247    0.522 2692.930    0.000
    7.500   51.402    0.520 2660.080    0.000
    7.750   52.080    0.520 2709.610    0.000
    8.000   59.485    0.518 2724.150    0.000
    8.250   69.348    0.511 2705.700    0.000
    8.500   62.051    0.505 2699.650    0.000
    8.750   57.819    0.491 2683.270    0.000
    9.000   83.624    0.474 2458.950    0.000
    9.250   95.939    0.457 2249.050    0.000
    9.500   99.068    0.446 2249.140    0.000
    9.750  101.578    0.460 2325.430    0.000
   10.000  120.021    0.471 2323.510    3.669
   10.250  109.660    0.486 2366.840    2.818
   10.500  115.847    0.492 2336.060    2.816
   10.750  125.710    0.483 2334.120    2.513
   11.000  118.413    0.493 2354.810    2.657
   11.250  119.697    0.482 2307.560    2.284
   11.500  116.077    0.477 2332.370    2.507
   11.750   92.234    0.475 2316.020    2.076
   12.000   86.163    0.454 2258.470    3.197
   12.250   99.090    0.459 2178.260    5.307
   12.500  101.600    0.458 2168.070    5.716
   12.750  108.406    0.461 2141.430    6.766
   13.000  102.948    0.468 2219.790    5.004
   13.250  104.231    0.465 2238.430    5.000
   13.500  117.159    0.456 2269.410    5.387
   13.750  101.903    0.464 2232.450    3.626
   14.000   92.767    0.456 2226.380    5.083
   14.250   96.495    0.448 2144.130    3.977
   14.500  104.520    0.463 2247.190    3.618
   14.750   99.062    0.461 2302.890    3.615
   15.000  107.094    0.474 2259.760    3.681
   15.250  113.273    0.476 2272.230    3.476
   15.500   97.396    0.481 2290.860    3.888
   15.750   87.035    0.473 2342.450    3.536
   16.000  103.028    0.473 2348.740    3.403
   16.250  101.247    0.478 2315.900    3.879
   16.500  100.086    0.464 2351.010    3.462
   16.750   92.169    0.476 2382.010    3.525
   17.000   98.363    0.471 2332.710    3.589
   17.250   99.040    0.457 2332.800    2.917
   17.500  101.550    0.448 2316.440    3.452
   17.750   90.569    0.456 2281.540    3.081
   18.000   97.988    0.461 2357.830    3.136
   18.250  102.956    0.466 2314.700    3.316
   18.500   98.716    0.458 2318.930    3.132
   18.750   90.807    0.448 2321.090    3.311
   19.000   85.954    0.454 2312.960    3.247
   19.250   82.948    0.452 2311.010    3.432
   19.500   88.521    0.469 2337.890    3.007
   19.750  111.875    0.470 2362.720    1.986
   20.000   97.837    0.476 2303.100    2.395
   20.250   75.211    0.477 2249.680    2.021
   20.500   50.142    0.444 2183.900    2.579
   20.750   31.814    0.446 2196.360    5.570
   21.000   30.033    0.414 2128.520   33.848
   21.250   31.936    0.415 2138.940   44.007
   21.500   37.502    0.425 2120.510   80.251
   21.750   41.245    0.435 2130.900   98.623
   22.000   33.941    0.433 2145.420  118.932
   22.250   35.844    0.426 2141.410  121.083
   22.500   32.830    0.424 2092.100  123.285
   22.750   34.114    0.430 2114.860  114.264
   23.000   35.397    0.429 2102.610  120.800
   23.250   38.519    0.439 2075.970  132.605
   23.500   45.326    0.431 2102.830  145.562
   23.750   61.931    0.450 2135.890  178.887
   24.000   68.737    0.465 2119.530  189.120
   24.250   71.852    0.466 2197.890    6.285
   24.500   66.394    0.447 2179.450   26.715
   24.750   54.807    0.450 2115.750   18.327
   25.000   59.155    0.442 2122.020   22.101
   25.250   51.245    0.440 2153.010   26.652
   25.500   42.110    0.441 2128.410   37.358
   25.750   51.988    0.426 2202.640   14.041
   26.000   43.451    0.430 2233.630   18.955
   26.250   50.265    0.438 2219.330   25.112
   26.500   68.088    0.429 2153.550    4.980
   26.750   60.799    0.420 2256.620    9.256
   27.000   73.720    0.428 2283.490   14.252
   27.250   90.339    0.420 2236.240   12.252
   27.500   78.745    0.419 2277.530    8.565
   27.750   66.538    0.429 2279.710    7.225
   28.000   62.919    0.434 2292.160    7.356
   28.250   77.080    0.428 2292.260   11.118
   28.500   69.170    0.399 2304.720    7.074
   28.750   48.391    0.376 2311.010    4.945
   29.000   29.442    0.361 2354.350    7.197
   29.250   35.629    0.389 2296.830    4.755
   29.500   35.701    0.401 2309.270    5.122
   29.750   46.177    0.408 2352.620    4.838
   30.000   43.170    0.416 2360.980    6.290
   30.250   38.931    0.428 2297.240    5.015
   30.500   32.860    0.414 2237.640    5.716
   30.750   26.789    0.401 2270.690    5.103
   31.000   23.790    0.385 2328.460    3.919
   31.250   23.235    0.381 2375.930    5.095
   31.500   26.357    0.392 2378.090    8.146
   31.750   30.084    0.398 2355.550    5.087
   32.000   25.239    0.389 2285.650    4.714
   32.250   19.781    0.396 2314.590    5.793
   32.500   26.580    0.402 2316.750    4.707
   32.750   19.896    0.379 2300.390    6.354
   33.000   23.026    0.370 2261.380    9.076
   33.250   30.431    0.397 2382.980    5.885
   33.500   25.593    0.402 2362.480    8.727
   33.750   28.707    0.402 2339.940    8.088
   34.000   24.482    0.401 2325.640    6.571
   34.250   26.386    0.400 2319.570    8.385
   34.500   25.831    0.396 2282.610   13.407
   34.750   22.204    0.378 2303.340    8.370
   35.000   29.010    0.361 2303.420   10.883
   35.250   29.061    0.375 2352.950   13.628
   35.500   19.320    0.393 2359.240   11.716
   35.750   17.532    0.390 2274.910    6.660
   36.000   19.428    0.376 2275.020   18.369
   36.250   27.453    0.368 2380.150    7.875
   36.500   49.581    0.392 2425.550    7.163
   36.750   43.510    0.401 2403.010   11.239
   37.000   61.954    0.385 2450.480    4.819
   37.250   89.597    0.383 2394.990    3.564
   37.500   73.721    0.382 2370.410    3.912
   37.750   47.418    0.393 2232.550    5.281
   38.000   29.097    0.397 2199.710    5.479
   38.250   19.349    0.394 2247.180   15.400
   38.500   27.374    0.403 2325.530    7.118
   38.750   17.619    0.412 2323.570    4.616
   39.000   13.394    0.406 2220.730    8.906
   39.250   17.129    0.393 2253.780   25.991
   39.500   26.985    0.363 2220.950    6.460
   39.750   18.470    0.372 2303.410    6.829
   40.000   24.036    0.401 2324.120    4.512
   40.250   33.914    0.406 2328.340    4.952
   40.500   35.803    0.405 2320.220    4.100
   40.750   35.255    0.405 2262.670    3.946
   41.000   22.443    0.398 2254.550    4.094
   41.250   28.009    0.410 2273.190    3.723
   41.500   24.397    0.402 2236.220    3.583
   41.750   20.157    0.391 2279.580    3.581
   42.000   23.286    0.379 2343.520    3.382
   42.250   28.247    0.403 2296.270    3.018
   42.500   26.459    0.395 2304.620    2.960
   42.750   25.298    0.408 2273.850    2.743
   43.000   21.671    0.411 2261.600    2.793
   43.250   28.471    0.409 2269.930    2.897
