~VERSION INFORMATION
 VERS.                 2.0:   CWLS LOG ASCII STANDARD -VERSION 2.0
 WRAP.                  NO:   ONE LINE PER DEPTH STEP
~WELL INFORMATION BLOCK
#MNEM.UNIT           DATA                    DESCRIPTION OF MNEMONIC
#---------    -------------------            -------------------------------
# Generated from Intellog Unique Number	CN_94_101/WELL/3182
WELL.         THE CALIFORNIA STANDARD COMPAN : Well_name    - WELL
LOC .         AA/03-13-095-13W4/0            : Location     - LOCATION
UWI .         AA/03-13-095-13W4/0            : Uwi          - UNIQUE WELL ID
ENTR.         JOETTE                         : Entered      - ENTERED BY
SRVC.         SCHLUMBERGER                   : Scn          - SERVICE COMPANY
DATE.         07/16/92                       : Date         - LOG DATE
STRT.F        50                             : top_depth    - START DEPTH
STOP.F        529.823                        : bot_depth    - STOP DEPTH
STEP.F        0.8202                         : increment    - STEP LENGTH
 NULL. -999.2500:NULL Value
~CURVE INFORMATION BLOCK
#MNEM UNIT       ERCB CURVE CODE    CURVE DESCRIPTION
#-----------   ------------------   ----------------------------------
DEPT.F        00 001 00 00         : DEPTH        - DEPTH
ILD .OHMM     00 120 00 00         : RESD         - DEEP RESISTIVITY (DIL)
GR  .API      00 310 00 00         : GR           - GAMMA RAY
NPHI.V/V      00 330 00 00         : PHIN         - NEUTRON POROSITY (SANDSTONE)
~PARAMETER INFORMATION
#MNEM.UNIT           DATA             DESCRIPTION OF MNEMONIC
#---------         -----------     ------------------------------
GL  .F        1216.4               : gl           - GROUND LEVEL ELEVATION
EREF.F        1216.4               : kb           - ELEVATION OF DEPTH REFERENCE
DATM.F        1216.4               : datum        - DATUM ELEVATION
TDD .F        531                  : tdd          - TOTAL DEPTH DRILLER
RUN .         ONE                  : Run          - RUN NUMBER
ENG .         JO                   : Engineer     - RECORDING ENGINEER
WIT .         TIM                  : Witness      - WITNESSED BY
MUD .         GEL                  : Mud_type     - MUD TYPE
MATR.         SANDSTONE            : Logunit      - NEUTRON MATRIX
TMAX.C        37                   : BHT          - MAXIMUM RECORDED TEMPERATURE
BHTD.M        531                  : BHTDEP       - MAXIMUM RECORDED TEMPERATURE
RMT .C        37                   : MDTP         - TEMPERATURE OF MUD
MUDD.KG/M     1030                 : MWT          - MUD DENSITY
NEUT.         1                    : NEUTRON      - NEUTRON TYPE
RESI.         0                    : RESIST       - RESISTIVITY TYPE
RM  .OHMM     14                   : RM           - RESISTIVITY OF MUD
RMC .OHMM     14                   : RMC          - RESISTIVITY OF MUD CAKE
RMF .OHMM     14                   : RMF          - RESISTIVITY OF MUD FILTRATE
SUFT.C        4                    : SUFT         - SURFACE TEMPERATURE
~A  DEPTH     RESD       GR     PHIN
   50.000   51.253   54.044    0.362
   50.820   40.460   59.847    0.438
   51.640   26.058   59.908    0.464
   52.461   18.873   59.060    0.497
   53.281   16.027   59.109    0.493
   54.101   16.060   64.481    0.501
   54.921   15.371   74.722    0.511
   55.742   14.674   80.524    0.523
   56.562   12.541   79.245    0.528
   57.382   12.582   72.213    0.515
   58.202   14.780   61.197    0.494
   59.022   16.257   61.676    0.482
   59.843   17.012   72.360    0.489
   60.663   17.044   81.715    0.500
   61.483   15.634   83.534    0.507
   62.303   14.961   81.383    0.523
   63.123   15.699   77.436    0.533
   63.944   15.019   74.817    0.506
   64.764   14.330   69.555    0.511
   65.584   14.363   67.391    0.525
   66.404   11.500   78.984    0.541
   67.224    9.376   81.222    0.556
   68.045   10.852   84.381    0.568
   68.865   11.599   83.114    0.558
   69.685   12.354   81.823    0.546
   70.505   12.386   79.659    0.526
   71.326   12.419   79.266    0.512
   72.146   13.174   81.982    0.504
   72.966   13.215   81.146    0.511
   73.786   12.526   78.982    0.525
   74.606   12.559   78.588    0.536
   75.427   12.592   80.838    0.551
   76.247   11.190   81.342    0.561
   77.067    9.779   79.621    0.556
   77.887    9.812   79.227    0.523
   78.707   10.575   80.616    0.520
   79.528   11.313   81.525    0.510
   80.348   10.624   82.914    0.500
   81.168   10.657   83.418    0.507
   81.988   16.472   82.594    0.540
   82.808   13.610   81.303    0.559
   83.629   10.755   79.594    0.578
   84.449    8.631   78.303    0.551
   85.269    9.386   77.012    0.515
   86.089   11.584   77.946    0.503
   86.909   13.060   77.565    0.503
   87.730   14.537   75.401    0.504
   88.550   13.848   72.794    0.517
   89.370   12.437   71.958    0.557
   90.190   10.313   75.535    0.583
   91.010    9.624   80.453    0.618
   91.831    8.935   84.497    0.636
   92.651    8.968   85.443    0.647
   93.471    9.731   85.492    0.629
   94.291    9.747   84.656    0.599
   95.112   10.502   85.590    0.577
   95.932   11.257   83.869    0.567
   96.752   12.011   80.808    0.530
   97.572   12.766   78.201    0.519
   98.392   12.807   75.152    0.523
   99.213   11.396   78.299    0.550
  100.033    9.264   82.774    0.551
  100.853   10.749   85.933    0.542
  101.673   12.225   85.097    0.531
  102.493   12.250   88.698    0.517
  103.314   12.283   88.317    0.501
  104.134   12.315   87.456    0.497
  104.954   13.792   87.960    0.494
  105.774   15.268   90.222    0.483
  106.594   16.753   88.931    0.486
  107.415   13.899   82.784    0.500
  108.235   13.923   81.972    0.512
  109.055   14.678   82.009    0.519
  109.875   14.711   84.283    0.512
  110.696   14.022   86.975    0.498
  111.516   15.498   88.794    0.485
  112.336   13.366   87.970    0.481
  113.156   14.129   87.134    0.485
  113.976   16.327   86.298    0.488
  114.797   17.803   84.122    0.486
  115.617   17.836   79.745    0.486
  116.437   17.869   77.581    0.486
  117.257   17.902   75.417    0.482
  118.077   17.935   78.564    0.478
  118.898   16.524   83.924    0.475
  119.718   13.678   83.530    0.473
  120.538   12.989   80.493    0.475
  121.358   13.022   77.874    0.480
  122.178   12.333   76.608    0.484
  122.999   12.366   81.513    0.496
  123.819   13.842   82.902    0.504
  124.639   14.589   81.623    0.511
  125.459   14.638   85.655    0.511
  126.280   13.219   86.602    0.512
  127.100   13.252   84.425    0.501
  127.920   15.450   80.934    0.480
  128.740   16.205   80.540    0.477
  129.560   14.794   81.032    0.484
  130.381   13.392   81.535    0.494
  131.201   14.868   80.699    0.474
  132.021   15.623   78.523    0.453
  132.841   15.656   75.916    0.438
  133.661   14.967   77.293    0.445
  134.482   14.278   78.227    0.457
  135.302   14.311   78.276    0.468
  136.122   14.344   75.670    0.479
  136.942   14.377   72.178    0.490
  137.762   13.688   70.911    0.497
  138.583   13.721   70.960    0.504
  139.403   13.754   74.993    0.507
  140.223   13.795   75.939    0.498
  141.043   13.828   77.316    0.493
  141.864   14.582   75.594    0.477
  142.684   14.607   76.959    0.455
  143.504   14.640   65.931    0.432
  144.324   29.830   55.370    0.409
  145.144   90.499   50.981    0.065
  145.965  129.515   47.477    0.047
  146.785  101.399   60.385    0.157
  147.605   22.743   65.302    0.214
  148.425   13.402   70.675    0.307
  149.245   13.434   72.937    0.388
  150.066   12.737   71.645    0.457
  150.886   12.778   69.481    0.529
  151.706   12.811   69.531    0.554
  152.526   12.122   73.587    0.575
  153.346   10.712   77.607    0.571
  154.167    9.309   84.295    0.564
  154.987    8.620   90.552    0.562
  155.807    8.653   89.716    0.568
  156.627    7.956   87.995    0.571
  157.448    7.989   82.745    0.561
  158.268    8.022   81.011    0.541
  159.088    8.055   78.847    0.522
  159.908    8.096   81.994    0.521
  160.728    8.129   82.486    0.527
  161.549    8.875   82.092    0.531
  162.369    8.908   86.567    0.536
  163.189    8.941   83.960    0.533
  164.009    8.974   79.153    0.521
  164.829   13.345   76.092    0.509
  165.650   12.657   74.370    0.509
  166.470    9.081   79.730    0.536
  167.290    8.392   89.528    0.543
  168.110    8.425   94.003    0.549
  168.930    8.457   98.490    0.558
  169.751    7.769   96.769    0.594
  170.571    7.080   92.835    0.606
  171.391    7.129   88.900    0.619
  172.211    7.145   89.847    0.630
  173.031    6.465   88.101    0.627
  173.852    6.498   84.609    0.610
  174.672    6.522   88.653    0.576
  175.492    6.563   91.358    0.559
  176.312    6.596   95.845    0.546
  177.133    6.637   96.336    0.534
  177.953    6.654   94.603    0.498
  178.773    7.425   88.456    0.484
  179.593    8.901   79.210    0.456
  180.413    9.656   82.812    0.466
  181.234    9.689   85.529    0.481
  182.054    9.722   85.996    0.495
  182.874    9.746   86.045    0.504
  183.694    9.779   85.209    0.505
  184.514    9.812   85.257    0.499
  185.335   10.575   86.204    0.484
  186.155   12.051   89.351    0.465
  186.975   14.971   92.068    0.450
  187.795   22.213   90.334    0.437
  188.615   22.246   87.740    0.469
  189.436   14.340   87.788    0.486
  190.256   11.494   88.710    0.500
  191.076   10.805   88.772    0.517
  191.896   10.838   89.251    0.533
  192.717   10.887   89.300    0.518
  193.537   10.182   88.906    0.497
  194.357    9.501   89.840    0.507
  195.177    8.821   93.885    0.513
  195.997    8.115   92.606    0.529
  196.818    8.148   88.229    0.536
  197.638    9.624   90.061    0.503
  198.458   12.544   87.884    0.481
  199.278   16.908   83.950    0.487
  200.098   19.106   83.114    0.515
  200.919   14.086   87.146    0.526
  201.739   11.232   85.867    0.546
  202.559   10.552   84.146    0.560
  203.379   10.576   89.948    0.568
  204.199    9.896   98.861    0.554
  205.020    9.929   97.140    0.549
  205.840    9.240   94.103    0.568
  206.660    8.551   92.369    0.578
  207.480    8.584   90.218    0.550
  208.301    8.617   88.496    0.527
  209.121    8.658   86.775    0.504
  209.941    8.690   84.611    0.535
  210.761    8.715   82.889    0.554
  211.581    8.748   82.951    0.572
  212.402    8.059   83.418    0.582
  213.222    7.378   84.807    0.566
  214.042    6.690   86.195    0.568
  214.862    6.731   86.675    0.572
  215.682    6.747   88.482    0.567
  216.503    6.066   86.318    0.565
  217.323    6.099   83.281    0.562
  218.143    6.132   86.416    0.559
  218.963    6.165   94.444    0.557
  219.783    6.198   99.361    0.554
  220.604    6.231   98.525    0.557
  221.424    6.985   82.198    0.580
  222.244    7.740   77.809    0.594
  223.064    7.773   76.100    0.613
  223.885    7.084   75.276    0.629
  224.705    5.682   75.300    0.630
  225.525    4.993   79.345    0.634
  226.345    4.296   78.951    0.641
  227.165    4.328   70.136    0.648
