~VERSION INFORMATION
 VERS.                 2.0:   CWLS LOG ASCII STANDARD -VERSION 2.0
 WRAP.                  NO:   ONE LINE PER DEPTH STEP
~WELL INFORMATION BLOCK
#MNEM.UNIT           DATA                    DESCRIPTION OF MNEMONIC
#---------    -------------------            -------------------------------
# Generated from Intellog Unique Number	CW_79_81/WELL/637
WELL.         07-33-079-25W4                 : Well_name    - WELL
LOC .         AA/07-33-079-25W4/0            : Location     - LOCATION
UWI .         AA/07-33-079-25W4/0            : Uwi          - UNIQUE WELL ID
ENTR.         MAX                            : Entered      - ENTERED BY
SRVC.         SCHLUMBERGER                   : Scn          - SERVICE COMPANY
STRT.M        200                            : top_depth    - START DEPTH
STOP.M        475                            : bot_depth    - STOP DEPTH
STEP.M        0.25                           : increment    - STEP LENGTH
 NULL. -999.2500:NULL Value
~CURVE INFORMATION BLOCK
#MNEM UNIT       ERCB CURVE CODE    CURVE DESCRIPTION
#-----------   ------------------   ----------------------------------
DEPT.M        00 001 00 00         : DEPTH        - DEPTH
ILD .OHMM     00 120 00 00         : RESD         - DEEP RESISTIVITY (DIL)
NPHI.V/V      00 330 00 00         : PHIN         - NEUTRON POROSITY (SANDSTONE)
DPHI.V/V      00 890 00 00         : PHID         - DENSITY POROSITY (SANDSTONE)
CALI.MM       00 280 01 00         : CAL          - CALIPER
GR  .API      00 310 00 00         : GR           - GAMMA RAY
~PARAMETER INFORMATION
#MNEM.UNIT           DATA             DESCRIPTION OF MNEMONIC
#---------         -----------     ------------------------------
GL  .M        557.85               : gl           - GROUND LEVEL ELEVATION
EREF.M        562.3                : kb           - ELEVATION OF DEPTH REFERENCE
DATM.M        557.85               : datum        - DATUM ELEVATION
TDD .M        485.5                : tdd          - TOTAL DEPTH DRILLER
RUN .         ONE                  : Run          - RUN NUMBER
ENG .         BILL                 : Engineer     - RECORDING ENGINEER
WIT .         JIM                  : Witness      - WITNESSED BY
MUD .         GEL                  : Mud_type     - MUD TYPE
MATR.         SANDSTONE            : Logunit      - NEUTRON MATRIX
TMAX.C        17.7                 : BHT          - MAXIMUM RECORDED TEMPERATURE
BHTD.M        485                  : BHTDEP       - MAXIMUM RECORDED TEMPERATURE
RMT .C        20                   : MDTP         - TEMPERATURE OF MUD
MUDD.KG/M     1110                 : MWT          - MUD DENSITY
NEUT.         1                    : NEUTRON      - NEUTRON TYPE
RESI.         0                    : RESIST       - RESISTIVITY TYPE
RM  .OHMM     11.3                 : RM           - RESISTIVITY OF MUD
RMC .OHMM     0.25                 : RMC          - RESISTIVITY OF MUD CAKE
RMF .OHMM     4.93                 : RMF          - RESISTIVITY OF MUD FILTRATE
SUFT.C        -15                  : SUFT         - SURFACE TEMPERATURE
~A  DEPTH     RESD     PHIN     PHID      CAL       GR
# ...
  382.500   10.966    0.421    0.194  251.582   74.453
  382.750   10.771    0.419    0.184  251.097   76.256
  383.000   10.581    0.417    0.185  250.611   78.956
  383.250   10.393    0.437    0.200  250.124   80.162
  383.500   10.303    0.458    0.206  250.136   79.569
  383.750   10.120    0.458    0.203  250.150   80.177
  384.000   10.123    0.427    0.207  249.666   82.577
  384.250   10.313    0.431    0.211  249.677   86.176
  384.500   10.506    0.424    0.208  250.190   84.687
  384.750   10.703    0.409    0.214  250.701   82.001
  385.000   11.206    0.433    0.218  251.212   81.113
  385.250   11.733    0.423    0.208  251.722   79.623
  385.500   12.173    0.407    0.188  251.736   77.238
  385.750   12.402    0.372    0.161  252.249   76.049
  386.000   12.519    0.356    0.117  252.763   76.656
  386.250   12.409    0.369    0.128  253.768   79.356
  386.500   11.754    0.390    0.198  255.777   82.653
  386.750   11.032    0.393    0.199  256.785   89.244
  387.000   10.639    0.416    0.199  257.796   89.852
  387.250   10.262    0.423    0.207  257.809   89.260
  387.500   10.173    0.428    0.212  257.823   86.576
  387.750   10.458    0.424    0.213  257.834   84.489
  388.000   11.050    0.413    0.200  257.350   82.700
  388.250   11.257    0.404    0.190  255.868   80.015
  388.500   11.261    0.405    0.180  254.388   80.921
  388.750   10.961    0.404    0.182  253.899   85.118
  389.000   10.382    0.395    0.184  253.913   85.723
  389.250    9.655    0.385    0.180  254.422   85.132
  389.500    9.483    0.387    0.177  255.431   86.337
  389.750    9.147    0.430    0.183  256.440   90.833
  390.000    9.067    0.446    0.190  257.950   91.438
  390.250    9.757    0.434    0.184  256.966   87.257
  390.500   10.122    0.419    0.177  253.988   84.572
  390.750   10.992    0.399    0.177  253.501   86.973
  391.000   11.935    0.405    0.196  253.016   87.280
  391.250   14.459    0.425    0.193  252.033   83.399
  391.500   17.356    0.446    0.180  251.045   76.226
  391.750   24.774    0.424    0.146  250.062   69.953
  392.000   26.174    0.370    0.088  249.576   68.762
  392.250   32.292    0.321    0.075  250.087   68.471
  392.500   38.062    0.290    0.072  249.103   67.880
  392.750   45.274    0.264    0.056  249.115   66.692
  393.000   49.612    0.234    0.030  251.621   58.920
  393.250   49.629    0.218    0.010  250.641   55.636
  393.500   47.434    0.211    0.120  249.653   56.243
  393.750   43.715    0.258    0.200  249.167   58.345
  394.000   35.459    0.388    0.222  250.677   58.652
  394.250   32.978    0.407    0.196  250.688   63.147
  394.500   30.391    0.367    0.149  250.701   62.257
  394.750   27.005    0.338    0.111  251.215   61.069
  395.000   23.347    0.325    0.122  252.225   65.863
  395.250   21.321    0.352    0.175  253.233   73.649
  395.500   18.944    0.375    0.178  253.249   81.136
  395.750   17.300    0.385    0.210  253.260   83.237
  396.000   16.535    0.393    0.235  252.774   86.836
  396.250   16.693    0.409    0.241  251.789   85.350
  396.500   15.955    0.432    0.240  251.305   81.167
  396.750   14.973    0.459    0.225  251.316   76.389
  397.000   13.427    0.466    0.190  251.330   75.499
  397.250   12.374    0.414    0.157  250.845   72.513
  397.500   11.826    0.377    0.160  250.855   75.812
  397.750   11.723    0.392    0.173  250.869   79.112
  398.000   11.723    0.418    0.200  250.883   77.324
  398.250   11.732    0.430    0.209  250.894   76.135
  398.500   11.735    0.413    0.209  250.908   76.743
  398.750   11.528    0.413    0.208  250.919   79.740
  399.000   11.118    0.411    0.194  250.932   80.645
  399.250   10.822    0.400    0.188  250.946   79.459
  399.500   10.731    0.414    0.179  250.958   79.763
  399.750   10.635    0.413    0.185  251.471   82.463
  400.000   10.638    0.414    0.187  251.482   81.874
  400.250   10.450    0.454    0.196  250.998   81.582
  400.500   10.264    0.458    0.193  251.009   82.785
  400.750   10.264    0.430    0.175  250.526   82.195
  401.000   10.178    0.431    0.178  250.040   78.015
  401.250    9.998    0.443    0.178  249.554   76.527
  401.500   10.004    0.434    0.168  249.565   76.535
  401.750    9.914    0.410    0.149  249.577   78.038
  402.000    9.917    0.400    0.149  250.090   82.532
  402.250   10.012    0.406    0.169  250.600   84.337
  402.500   10.107    0.413    0.173  250.614   82.250
  402.750   10.390    0.397    0.163  250.628   84.053
  403.000   10.979    0.398    0.172  250.640   84.958
  403.250   11.287    0.409    0.173  251.153   80.776
  403.500   11.291    0.416    0.170  251.163   77.194
  403.750   11.192    0.413    0.195  251.178   76.902
  404.000   10.894    0.404    0.194  251.191   78.406
  404.250   10.508    0.413    0.179  251.702   81.406
  404.500   10.228    0.422    0.164  251.713   83.208
  404.750   10.231    0.408    0.147  252.227   84.413
  405.000   10.235    0.403    0.176  252.238   84.420
  405.250   10.145    0.409    0.168  252.750   82.634
  405.500   10.150    0.401    0.162  253.264   79.351
  405.750   10.153    0.390    0.151  253.273   79.358
  406.000   10.249    0.396    0.164  253.288   83.553
  406.250   10.442    0.402    0.185  253.299   86.852
  406.500   10.637    0.404    0.175  253.311   86.261
  406.750   11.552    0.400    0.173  253.824   79.089
  407.000   11.876    0.382    0.199  253.838   75.806
  407.250   11.879    0.360    0.209  253.350   74.618
  407.500   11.775    0.351    0.210  253.366   74.625
  407.750   11.672    0.347    0.215  252.877   74.632
  408.000   11.677    0.332    0.218  252.890   74.641
  408.250   12.115    0.338    0.204  252.904   74.647
  408.500   12.917    0.406    0.191  252.916   72.562
  408.750   14.950    0.398    0.167  252.929   68.380
  409.000   17.462    0.325    0.120  253.442   62.105
  409.250   21.740    0.300    0.098  253.953   60.318
  409.500   24.263    0.290    0.079  253.965   59.727
  409.750   23.832    0.285    0.061  253.978   60.333
  410.000   22.163    0.289    0.071  253.991   62.734
  410.250   19.693    0.322    0.133  254.503   67.230
  410.500   16.567    0.387    0.205  254.514   71.427
  410.750   14.066    0.394    0.216  254.528   73.827
  411.000   12.728    0.393    0.213  254.539   77.424
  411.250   11.729    0.394    0.208  254.554   79.526
  411.500   11.211    0.423    0.208  254.566   83.424
  411.750   10.912    0.415    0.201  255.080   84.927
  412.000   10.916    0.391    0.181  255.091   81.345
  412.250   10.919    0.381    0.168  255.104   82.848
  412.500   10.726    0.365    0.169  255.617   86.447
  412.750    9.976    0.352    0.177  255.629   87.950
  413.000    9.710    0.384    0.181  255.639   91.847
  413.250    9.803    0.412    0.181  255.156   95.744
  413.500   10.170    0.432    0.179  255.169   91.862
  413.750   10.550    0.419    0.169  255.180   84.989
  414.000   11.352    0.352    0.117  255.194   74.824
  414.250   12.217    0.300    0.073  255.705   70.944
  414.500   12.221    0.313    0.117  255.716   79.626
  414.750   12.003    0.350    0.163  255.732   89.508
  415.000   11.684    0.357    0.171  255.743   88.618
  415.250   11.476    0.364    0.164  256.254   89.225
  415.500   11.481    0.373    0.162  257.267   91.625
  415.750   10.678    0.373    0.171  257.778   95.820
  416.000   10.299    0.393    0.178  258.788  100.915
  416.250   10.397    0.406    0.180  259.299  104.514
  416.500   10.688    0.403    0.179  258.313  100.331
  416.750   11.501    0.362    0.177  255.837   90.167
  417.000   12.602    0.367    0.173  255.351   87.783
  417.250   13.937    0.386    0.166  255.360   85.098
  417.500   14.591    0.400    0.166  255.371   83.309
  417.750   14.464    0.388    0.166  256.883   79.428
  418.000   13.951    0.367    0.166  258.391   78.839
  418.250   13.214    0.380    0.167  258.404   81.538
  418.500   13.461    0.431    0.173  256.422   81.546
  418.750   16.913    0.435    0.194  255.439   73.475
