~VERSION INFORMATION
 VERS.                 2.0:   CWLS LOG ASCII STANDARD -VERSION 2.0
 WRAP.                  NO:   ONE LINE PER DEPTH STEP
~WELL INFORMATION BLOCK
#MNEM.UNIT           DATA                    DESCRIPTION OF MNEMONIC
#---------    -------------------            -------------------------------
# Generated from Intellog Unique Number	CN_94_101/WELL/3212
WELL.         SHELL CANADA LTD.              : Well_name    - WELL
LOC .         AA/01-23-095-17W4/0            : Location     - LOCATION
UWI .         AA/01-23-095-17W4/0            : Uwi          - UNIQUE WELL ID
ENTR.         JOETTE                         : Entered      - ENTERED BY
SRVC.         SCHLUMBERGER                   : Scn          - SERVICE COMPANY
DATE.         07/27/92                       : Date         - LOG DATE
STRT.F        350                            : top_depth    - START DEPTH
STOP.F        989.764                        : bot_depth    - STOP DEPTH
STEP.F        0.82                           : increment    - STEP LENGTH
 NULL. -999.2500:NULL Value
~CURVE INFORMATION BLOCK
#MNEM UNIT       ERCB CURVE CODE    CURVE DESCRIPTION
#-----------   ------------------   ----------------------------------
DEPT.F        00 001 00 00         : DEPTH        - DEPTH
ILD .OHMM     00 120 00 00         : RESD         - DEEP RESISTIVITY (DIL)
GR  .API      00 310 00 00         : GR           - GAMMA RAY
DPHI.V/V      00 890 00 00         : PHID         - DENSITY POROSITY (SANDSTONE)
~PARAMETER INFORMATION
#MNEM.UNIT           DATA             DESCRIPTION OF MNEMONIC
#---------         -----------     ------------------------------
GL  .M        582.778              : gl           - GROUND LEVEL ELEVATION
EREF.M        583.997              : kb           - ELEVATION OF DEPTH REFERENCE
DATM.M        583.997              : datum        - DATUM ELEVATION
TDD .M        275.844              : tdd          - TOTAL DEPTH DRILLER
RUN .         ONE                  : Run          - RUN NUMBER
ENG .         BILL                 : Engineer     - RECORDING ENGINEER
WIT .         JIM                  : Witness      - WITNESSED BY
MUD .         GEL                  : Mud_type     - MUD TYPE
MATR.         SANDSTONE            : Logunit      - NEUTRON MATRIX
TMAX.F        69                   : BHT          - MAXIMUM RECORDED TEMPERATURE
BHTD.F        1005                 : BHTDEP       - MAXIMUM RECORDED TEMPERATURE
RMT .F        69                   : MDTP         - TEMPERATURE OF MUD
MUDD.LB/G     9.8                  : MWT          - MUD DENSITY
NEUT.         1                    : NEUTRON      - NEUTRON TYPE
RESI.         0                    : RESIST       - RESISTIVITY TYPE
RM  .OHMM     0.95                 : RM           - RESISTIVITY OF MUD
RMC .OHMM     0.95                 : RMC          - RESISTIVITY OF MUD CAKE
RMF .OHMM     0.95                 : RMF          - RESISTIVITY OF MUD FILTRATE
SUFT.F        4                    : SUFT         - SURFACE TEMPERATURE
~A  DEPTH     RESD       GR     PHID
# ...
  883.957    7.137  100.942    0.128
  884.777    5.717  114.115    0.213
  885.597    5.725  127.272    0.255
  886.417    4.761  144.016    0.259
  887.238    5.135  147.082    0.244
  888.058    5.337  145.341    0.242
  888.878    5.151  141.247    0.235
  889.698    4.612  138.925    0.238
  890.518    4.287  127.063    0.243
  891.339    4.889  124.726    0.234
  892.159    5.792  124.785    0.223
  892.979    6.022  129.637    0.217
  893.799    6.139  132.659    0.259
  894.619    6.147  136.290    0.255
  895.440    5.206  140.562    0.246
  896.260    5.119  141.782    0.244
  897.080    6.174  142.452    0.250
  897.900    6.660  127.613    0.245
  898.720    6.427  130.053    0.235
  899.541    6.201  140.234    0.234
  900.361    6.814  137.331    0.224
  901.181    7.772  125.469    0.203
  902.001    8.544  109.453    0.184
  902.822    8.088  100.568    0.161
  903.642    7.953  106.596    0.135
  904.462    8.265  114.395    0.128
  905.282    8.432  121.613    0.184
  906.102    8.604  130.603    0.226
  906.923    8.145  134.250    0.245
  907.743    6.404  131.927    0.244
  908.563    5.325  130.796    0.248
  909.383    4.511  134.443    0.251
  910.203    4.351  137.464    0.247
  911.024    5.056  144.683    0.246
  911.844    5.767  148.314    0.246
  912.664    5.670  145.397    0.238
  913.484    5.784  134.144    0.232
  914.304    6.011  129.456    0.241
  915.125    6.730  132.477    0.255
  915.945    8.269  131.346    0.245
  916.765   12.705  125.452    0.245
  917.585   16.208  113.604    0.258
  918.406   16.844  104.733    0.298
  919.226   19.573   76.781    0.336
  920.046   26.889   69.100    0.321
  920.866   22.355   65.588    0.287
  921.686   16.623   67.433    0.242
  922.507   16.958   64.546    0.326
  923.327   20.458   71.734    0.347
  924.147   29.718   74.771    0.338
  924.967   35.180   75.425    0.326
  925.787   48.345   73.714    0.318
  926.608   66.414   68.415    0.316
  927.428   86.314   63.697    0.338
  928.248  108.044   57.802    0.387
  929.068  130.305   53.099    0.400
  929.888  146.032   48.395    0.401
  930.709  146.228   43.692    0.405
  931.529  146.326   38.408    0.399
  932.349  170.087   34.880    0.385
  933.169  229.352   30.192    0.376
  933.990  339.409   30.832    0.367
  934.810  180.572   36.264    0.365
  935.630  131.797   42.277    0.352
  936.450   96.164   45.313    0.355
  937.270   58.315   48.975    0.378
  938.091   59.449   49.034    0.387
  938.911   58.432   46.712    0.398
  939.731   50.420   44.390    0.385
  940.551   36.123   43.259    0.368
  941.371   27.888   46.280    0.356
  942.192   26.905   48.751    0.356
  943.012   27.963   47.620    0.352
  943.832   29.071   45.893    0.345
  944.652   29.110   44.166    0.336
  945.472   27.050   45.431    0.343
  946.293   25.616   46.056    0.348
  947.113   27.641   46.145    0.354
  947.933   30.386   46.175    0.365
  948.753   32.777   48.065    0.362
  949.573   32.216   48.690    0.355
  950.394   29.394   50.551    0.347
  951.214   18.482   49.404    0.343
  952.034   14.264   44.701    0.339
  952.854   15.107   29.877    0.340
  953.675   17.549   25.173    0.344
  954.495   27.985   24.652    0.356
  955.315   37.041   26.497    0.366
  956.135   71.145   28.343    0.376
  956.955   89.115   32.570    0.373
  957.776   82.781   34.415    0.375
  958.596   65.088   31.498    0.377
  959.416   59.407   30.382    0.371
  960.236   59.486   31.036    0.374
  961.056   60.705   32.897    0.375
  961.877   59.666   33.522    0.369
  962.697   52.452   34.206    0.361
  963.517   42.789   34.846    0.354
  964.337   38.335   38.478    0.347
  965.157   38.399   41.514    0.342
  965.978   39.159   45.756    0.346
  966.798   39.935   49.402    0.348
  967.618   40.015   51.233    0.353
  968.438   40.042   52.483    0.355
  969.259   37.945   52.557    0.359
  970.079   36.596   51.426    0.362
  970.899   34.040   46.127    0.364
  971.719   32.830   42.034    0.360
  972.539   29.412   42.079    0.353
  973.360   26.827   42.733    0.357
  974.180   21.489   43.998    0.362
  975.000   21.128   43.448    0.365
  975.820   21.143   40.545    0.363
  976.640   21.178   39.399    0.360
  977.461   21.213   43.641    0.357
  978.281   20.089   46.692    0.353
  979.101   17.009   48.552    0.353
  979.921   10.114   52.764    0.341
  980.741    8.892   82.011    0.157
  981.562    7.531  111.258    0.141
  982.382    7.132  141.711    0.128
  983.202    7.840  151.891    0.118
  984.022    9.455  150.775    0.108
  984.843   11.194   88.887    0.100
  985.663   14.016   82.978    0.099
  986.483   16.593   71.725    0.106
  987.303   19.281   70.594    0.124
  988.123   16.637   71.844    0.133
  988.944   12.840   80.834    0.148
  989.764   11.288   92.220    0.157
