~VERSION INFORMATION
 VERS.                 2.0:   CWLS LOG ASCII STANDARD -VERSION 2.0
 WRAP.                  NO:   ONE LINE PER DEPTH STEP
~WELL INFORMATION BLOCK
#MNEM.UNIT           DATA                    DESCRIPTION OF MNEMONIC
#---------    -------------------            -------------------------------
# Generated from Intellog Unique Number	CX_WELLS/WELL/2909
WELL.         GULF                           : Well_name    - WELL
LOC .         AA/06-08-082-09W4/0            : Location     - LOCATION
UWI .         AA/06-08-082-09W400            : Uwi          - UNIQUE WELL ID
ENTR.         T                              : Entered      - ENTERED BY
SRVC.         SCHLUMBERGER                   : Scn          - SERVICE COMPANY
STRT.F        900                            : top_depth    - START DEPTH
STOP.F        1599.64                        : bot_depth    - STOP DEPTH
STEP.F        0.82                           : increment    - STEP LENGTH
 NULL. -999.2500:NULL Value
~CURVE INFORMATION BLOCK
#MNEM UNIT       ERCB CURVE CODE    CURVE DESCRIPTION
#-----------   ------------------   ----------------------------------
DEPT.F        00 001 00 00         : DEPTH        - DEPTH
GR  .API      00 310 00 00         : GR           - GAMMA RAY
NPHI.V/V      00 330 00 00         : PHIN         - NEUTRON POROSITY (SANDSTONE)
DPHI.V/V      00 890 00 00         : PHID         - DENSITY POROSITY (SANDSTONE)
ILD .OHMM     00 120 00 00         : RESD         - DEEP RESISTIVITY (OTHER)
~PARAMETER INFORMATION
#MNEM.UNIT           DATA             DESCRIPTION OF MNEMONIC
#---------         -----------     ------------------------------
GL  .F        2322                 : gl           - GROUND LEVEL ELEVATION
EREF.F        2335                 : kb           - ELEVATION OF DEPTH REFERENCE
DATM.F        2335                 : datum        - DATUM ELEVATION
TDD .F        1625                 : tdd          - TOTAL DEPTH DRILLER
RUN .         ONE                  : Run          - RUN NUMBER
ENG .         BILL                 : Engineer     - RECORDING ENGINEER
WIT .         JIM                  : Witness      - WITNESSED BY
MUD .         GEL                  : Mud_type     - MUD TYPE
MATR.         SANDSTONE            : Logunit      - NEUTRON MATRIX
TMAX.F        73                   : BHT          - MAXIMUM RECORDED TEMPERATURE
BHTD.F        1625                 : BHTDEP       - MAXIMUM RECORDED TEMPERATURE
MATR.         1                    : LOGUNIT      - NEUTRON MATRIX
RMT .F        68                   : MDTP         - TEMPERATURE OF MUD
NEUT.         1                    : NEUTRON      - NEUTRON TYPE
RESI.         8.52                 : RESIST       - RESISTIVITY TYPE
RMC .OHMM     7.76                 : RMC          - RESISTIVITY OF MUD CAKE
RMF .OHMM     7.76                 : RMF          - RESISTIVITY OF MUD FILTRATE
SUFT.F        37.4                 : SUFT         - SURFACE TEMPERATURE
~A  DEPTH       GR     PHIN     PHID     RESD
# ...
 1042.720   50.840    0.476    0.339   27.118
 1043.540   49.616    0.487    0.339   27.226
 1044.360   48.404    0.489    0.339   26.802
 1045.180   48.410    0.487    0.339   26.866
 1046.000   49.041    0.485    0.339   26.468
 1046.820   49.056    0.479    0.343   26.056
 1047.640   49.069    0.477    0.349   26.139
 1048.460   49.081    0.476    0.355   25.732
 1049.280   49.709    0.476    0.359   25.352
 1050.100   49.718    0.476    0.357   24.957
 1050.920   49.734    0.477    0.352   24.548
 1051.740   49.131    0.478    0.351   24.666
 1052.560   48.535    0.481    0.358   24.243
 1053.380   48.544    0.482    0.360   24.340
 1054.200   47.938    0.483    0.363   24.437
 1055.020   47.957    0.480    0.366   24.534
 1055.840   47.966    0.476    0.369   24.573
 1056.660   47.370    0.474    0.368   24.671
 1057.480   47.376    0.471    0.355   24.730
 1058.300   47.389    0.470    0.346   24.809
 1059.120   47.401    0.469    0.351   24.888
 1059.940   46.798    0.467    0.353   24.988
 1060.760   46.811    0.466    0.351   25.087
 1061.580   46.211    0.466    0.351   25.147
 1062.400   46.224    0.467    0.350   25.268
 1063.220   46.236    0.467    0.347   25.811
 1064.040   46.248    0.469    0.349   25.873
 1064.860   46.270    0.470    0.350   26.492
 1065.680   46.276    0.475    0.352   26.576
 1066.500   46.286    0.477    0.354   27.148
 1067.320   46.304    0.478    0.348   27.256
 1068.140   46.932    0.472    0.340   27.321
 1068.960   47.559    0.468    0.344   27.408
 1069.780   47.569    0.468    0.351   27.540
 1070.600   45.736    0.471    0.356   27.605
 1071.420   40.213    0.474    0.357   27.197
 1072.240   35.306    0.478    0.354   27.262
 1073.060   31.634    0.485    0.330   26.378
 1073.880   32.258    0.480    0.294   26.420
 1074.700   34.119    0.459    0.244   26.008
 1075.520   37.818    0.457    0.217   25.144
 1076.350   43.366    0.454    0.166   24.772
 1077.170   50.147    0.451    0.189   24.367
 1077.990   52.619    0.403    0.215   23.595
 1078.810   52.631    0.407    0.292   23.191
 1079.630   52.647    0.425    0.361   23.246
 1080.450   52.659    0.441    0.359   22.902
 1081.270   52.675    0.457    0.355   22.545
 1082.090   52.681    0.472    0.348   22.599
 1082.910   52.703    0.478    0.346   22.265
 1083.730   52.709    0.479    0.346   22.354
 1084.550   52.109    0.480    0.344   22.407
 1085.370   50.892    0.479    0.344   22.076
 1086.190   49.059    0.478    0.340   22.146
 1087.010   47.839    0.472    0.336   21.819
 1087.830   46.009    0.469    0.340   21.871
 1088.650   43.561    0.466    0.343   21.976
 1089.470   41.729    0.458    0.347   22.028
 1090.290   38.669    0.457    0.349   22.081
 1091.110   37.449    0.453    0.350   22.609
 1091.930   36.849    0.450    0.350   22.663
 1092.750   36.861    0.449    0.351   23.151
 1093.570   36.874    0.450    0.353   24.137
 1094.390   36.886    0.450    0.354   25.146
 1095.210   36.902    0.450    0.355   25.728
 1096.030   36.302    0.449    0.359   26.281
 1096.850   36.309    0.446    0.362   26.386
 1097.670   35.091    0.420    0.366   26.996
 1098.490   33.873    0.410    0.364   27.104
 1099.310   33.889    0.396    0.361   27.147
 1100.130   34.523    0.402    0.358   26.767
 1100.950   35.144    0.408    0.361   26.831
 1101.770   37.004    0.412    0.362   26.392
 1102.590   37.629    0.416    0.357   26.022
 1103.410   40.104    0.415    0.352   25.596
 1104.230   41.347    0.414    0.349   25.238
 1105.050   41.977    0.414    0.344   25.278
 1105.870   41.986    0.413    0.338   24.904
 1106.690   42.002    0.405    0.335   24.964
 1107.510   42.011    0.393    0.339   24.595
 1108.330   42.027    0.392    0.343   23.777
 1109.150   42.045    0.393    0.341   23.834
 1109.970   42.052    0.394    0.335   23.043
 1110.790   42.064    0.394    0.340   22.684
 1111.610   42.080    0.389    0.349   22.312
 1112.430   42.089    0.386    0.353   21.571
 1113.250   42.108    0.386    0.350   21.252
 1114.070   42.114    0.386    0.340   20.905
 1114.900   42.751    0.387    0.335   20.579
 1115.720   43.375    0.388    0.332   20.242
 1116.540   44.614    0.392    0.329   19.204
 1117.360   46.478    0.395    0.317   18.890
 1118.180   47.714    0.406    0.294   18.248
 1119.000   52.650    0.404    0.267   17.311
 1119.820   58.815    0.393    0.251   17.042
 1120.640   61.900    0.368    0.202   16.776
 1121.460   60.067    0.340    0.160   16.528
 1122.280   61.309    0.295    0.118   16.258
 1123.100   65.012    0.259    0.088   15.123
 1123.920   70.562    0.297    0.133   13.557
 1124.740   75.495    0.365    0.162   12.365
 1125.560   74.277    0.424    0.191   11.076
 1126.380   71.830    0.490    0.228    9.546
 1127.200   69.997    0.469    0.252    8.391
 1128.020   69.398    0.459    0.265    7.954
 1128.840   72.485    0.419    0.274    8.313
 1129.660   75.573    0.428    0.280    8.646
 1130.480   76.203    0.452    0.287    9.001
 1131.300   75.597    0.463    0.293    9.556
 1132.120   73.156    0.473    0.294   10.560
 1132.940   72.547    0.472    0.298   11.203
 1133.760   70.103    0.468    0.302   11.662
 1134.580   67.655    0.460    0.311   12.637
 1135.400   65.207    0.454    0.318   13.682
 1136.220   63.375    0.448    0.322   13.966
 1137.040   62.157    0.445    0.326   14.838
 1137.860   61.555    0.440    0.329   15.753
 1138.680   61.570    0.437    0.329   16.118
 1139.500   60.971    0.444    0.329   16.156
 1140.320   61.601    0.447    0.329   16.208
 1141.140   62.222    0.449    0.327   16.272
 1141.960   64.086    0.450    0.321   15.732
 1142.780   65.937    0.450    0.315   15.173
 1143.600   69.025    0.451    0.291   13.861
 1144.420   72.727    0.455    0.285   12.642
 1145.240   83.813    0.457    0.271   11.112
 1146.060   89.364    0.463    0.250    9.406
 1146.880   87.531    0.470    0.244    7.961
 1147.700   85.695    0.481    0.249    6.744
 1148.520   84.478    0.501    0.252    6.036
 1149.340   84.493    0.525    0.252    5.835
 1150.160   84.506    0.513    0.253    5.740
 1150.980   83.903    0.505    0.255    5.758
 1151.800   80.228    0.511    0.261    5.776
 1152.620   76.548    0.514    0.265    5.905
 1153.440   73.488    0.516    0.283    6.152
 1154.270   72.886    0.494    0.284    6.414
 1155.090   77.821    0.489    0.280    6.435
 1155.910   82.751    0.488    0.237    5.990
 1156.730   89.531    0.491    0.211    5.270
 1157.550   93.231    0.496    0.213    4.898
 1158.370   94.473    0.500    0.221    4.553
 1159.190   95.100    0.501    0.230    4.235
 1160.010   95.119    0.503    0.237    3.866
 1160.830   95.753    0.506    0.242    3.602
 1161.650   95.759    0.507    0.251    3.476
 1162.470   95.768    0.514    0.257    3.419
 1163.290   95.781    0.525    0.251    3.369
 1164.110   96.408    0.540    0.231    3.377
 1164.930   96.427    0.556    0.226    3.388
 1165.750   96.439    0.569    0.237    3.532
 1166.570   96.448    0.563    0.256    3.614
 1167.390   96.464    0.566    0.259    3.768
 1168.210   94.628    0.572    0.264    3.846
 1169.030   92.184    0.566    0.276    4.161
 1169.850   89.736    0.547    0.285    4.859
 1170.670   86.677    0.516    0.276    5.459
 1171.490   85.456    0.498    0.267    6.619
 1172.310   81.778    0.484    0.270    7.028
 1173.130   78.716    0.474    0.276    6.537
 1173.950   76.268    0.471    0.281    5.972
 1174.770   76.287    0.480    0.286    5.456
 1175.590   77.523    0.489    0.292    5.262
 1176.410   82.462    0.481    0.296    4.803
 1177.230   85.549    0.473    0.298    5.099
 1178.050   86.788    0.464    0.262    5.734
 1178.870   84.959    0.454    0.263    5.756
 1179.690   83.738    0.438    0.266    5.556
 1180.510   82.524    0.428    0.271    5.368
 1181.330   81.924    0.426    0.289    5.185
 1182.150   81.319    0.461    0.283    4.915
 1182.970   80.716    0.476    0.275    5.322
 1183.790   78.883    0.488    0.266    5.758
 1184.610   76.436    0.459    0.255    6.469
