~VERSION INFORMATION
 VERS.                 2.0:   CWLS LOG ASCII STANDARD -VERSION 2.0
 WRAP.                  NO:   ONE LINE PER DEPTH STEP
~WELL INFORMATION BLOCK
#MNEM.UNIT           DATA                    DESCRIPTION OF MNEMONIC
#---------    -------------------            -------------------------------
# Generated from Intellog Unique Number	CW_76_78/WELL/2778
WELL.         AMOCO MCULLEN                  : Well_name    - WELL
LOC .         AA/06-23-077-25W4/0            : Location     - LOCATION
UWI .         AA/06-23-077-25W4/0            : Uwi          - UNIQUE WELL ID
ENTR.         JOE                            : Entered      - ENTERED BY
SRVC.         WESTERN ATLAS                  : Scn          - SERVICE COMPANY
STRT.M        435                            : top_depth    - START DEPTH
STOP.M        686                            : bot_depth    - STOP DEPTH
STEP.M        0.25                           : increment    - STEP LENGTH
 NULL. -999.2500:NULL Value
~CURVE INFORMATION BLOCK
#MNEM UNIT       ERCB CURVE CODE    CURVE DESCRIPTION
#-----------   ------------------   ----------------------------------
DEPT.M        00 001 00 00         : DEPTH        - DEPTH
CALI.MM       00 280 01 00         : CAL          - CALIPER
ILD .OHMM     00 120 00 00         : RESD         - DEEP RESISTIVITY (DIL)
DPHI.V/V      00 890 00 00         : PHID         - DENSITY POROSITY (SANDSTONE)
NPHI.V/V      00 330 00 00         : PHIN         - NEUTRON POROSITY (SANDSTONE)
GR  .API      00 310 00 00         : GR           - GAMMA RAY
~PARAMETER INFORMATION
#MNEM.UNIT           DATA             DESCRIPTION OF MNEMONIC
#---------         -----------     ------------------------------
GL  .M        737.31               : gl           - GROUND LEVEL ELEVATION
EREF.M        741                  : kb           - ELEVATION OF DEPTH REFERENCE
DATM.M        741                  : datum        - DATUM ELEVATION
TDD .M        690                  : tdd          - TOTAL DEPTH DRILLER
RUN .         ONE                  : Run          - RUN NUMBER
ENG .         KAWOLSKI             : Engineer     - RECORDING ENGINEER
WIT .         BROWN                : Witness      - WITNESSED BY
MUD .         GEL                  : Mud_type     - MUD TYPE
MATR.         SANDSTONE            : Logunit      - NEUTRON MATRIX
TMAX.C        32                   : BHT          - MAXIMUM RECORDED TEMPERATURE
BHTD.M        687.5                : BHTDEP       - MAXIMUM RECORDED TEMPERATURE
RMT .C        24                   : MDTP         - TEMPERATURE OF MUD
MUDD.KG/M     1130                 : MWT          - MUD DENSITY
NEUT.         1                    : NEUTRON      - NEUTRON TYPE
RESI.         0                    : RESIST       - RESISTIVITY TYPE
RM  .OHMM     3                    : RM           - RESISTIVITY OF MUD
RMC .OHMM     3.2                  : RMC          - RESISTIVITY OF MUD CAKE
RMF .OHMM     2.8                  : RMF          - RESISTIVITY OF MUD FILTRATE
SUFT.C        0                    : SUFT         - SURFACE TEMPERATURE
~A  DEPTH      CAL     RESD     PHID     PHIN       GR
  435.000  209.751    2.339    0.227    0.375  111.848
  435.250  211.849    2.362    0.228    0.381  109.106
  435.500  212.920    2.363    0.237    0.391  104.827
  435.750  215.024    2.364    0.249    0.396  101.465
  436.000  215.601    2.387    0.243    0.418  102.423
  436.250  215.132    2.433    0.221    0.433  105.843
  436.500  214.663    2.457    0.217    0.424  105.569
  436.750  214.206    2.504    0.217    0.372  105.595
  437.000  213.743    2.600    0.214    0.387  105.930
  437.250  213.794    2.650    0.215    0.406  106.892
  437.500  213.851    2.726    0.229    0.410  101.681
  437.750  213.895    2.753    0.246    0.396   96.782
  438.000  213.946    2.780    0.252    0.387   91.884
  438.250  213.489    2.781    0.253    0.396   93.454
  438.500  213.026    2.757    0.252    0.408   98.106
  438.750  212.563    2.732    0.244    0.423  100.909
  439.000  211.581    2.733    0.245    0.434   99.399
  439.250  211.631    2.760    0.247    0.417  100.045
  439.500  211.682    2.761    0.242    0.416  103.776
  439.750  211.232    2.789    0.222    0.433  107.199
  440.000  210.756    2.789    0.204    0.431  107.849
  440.250  209.266    2.791    0.189    0.411  107.568
  440.500  205.729    2.792    0.193    0.397  105.130
  440.750  201.685    2.742    0.200    0.380  103.004
  441.000  198.141    2.743    0.206    0.382  103.034
  441.250  195.098    2.744    0.214    0.383  101.832
  441.500  192.582    2.797    0.204    0.346   97.862
  441.750  188.525    3.014    0.167    0.299   93.575
  442.000  184.480    3.279    0.113    0.295   85.596
  442.250  181.444    3.635    0.152    0.302   72.375
  442.500  179.434    4.381    0.181    0.316   66.244
  442.750  177.437    5.796    0.184    0.328   68.743
  443.000  176.975    8.260    0.181    0.338   78.323
  443.250  177.545    9.155    0.176    0.335   85.131
  443.500  179.130    8.908    0.169    0.320   90.711
  443.750  180.714    8.271    0.154    0.310   89.817
  444.000  181.278    7.470    0.146    0.309   86.150
  444.250  181.842    7.199    0.143    0.308   84.948
  444.500  182.419    7.003    0.148    0.312   85.595
  444.750  182.989    6.750    0.157    0.332   88.094
  445.000  183.553    6.446    0.161    0.357   93.665
  445.250  183.591    6.271    0.164    0.365   98.933
  445.500  183.135    6.044    0.173    0.352  103.896
  445.750  182.158    5.935    0.154    0.322   98.689
  446.000  181.689    6.279    0.154    0.292   94.095
  446.250  184.320    6.767    0.162    0.283   91.052
  446.500  187.952    7.294    0.182    0.306   92.315
  446.750  193.663    7.574    0.199    0.337   96.038
  447.000  198.848    7.649    0.226    0.343  103.770
  447.250  199.412    7.236    0.226    0.343  113.662
  447.500  195.349    6.473    0.211    0.353  112.152
  447.750  190.785    5.528    0.215    0.354  102.937
  448.000  186.208    4.720    0.224    0.338   95.882
  448.250  180.617    4.031    0.241    0.346   96.224
  448.500  180.154    3.674    0.252    0.365  105.500
  448.750  181.225    3.317    0.259    0.375  102.446
  449.000  181.789    3.080    0.251    0.410   98.167
  449.250  182.873    2.887    0.254    0.443   99.426
  449.500  183.437    2.706    0.257    0.431  101.921
  449.750  185.028    2.633    0.269    0.408  102.567
  450.000  188.165    2.585    0.279    0.421  100.441
  450.250  190.783    2.492    0.300    0.433   98.315
  450.500  190.834    2.516    0.306    0.429   95.573
  450.750  188.831    2.613    0.299    0.393   92.214
  451.000  184.260    2.869    0.275    0.376   87.007
  451.250  180.203    3.426    0.242    0.342   80.568
  451.500  178.707    4.748    0.239    0.331   71.665
  451.750  177.731    6.895    0.257    0.329   65.222
  452.000  177.781    9.827    0.285    0.341   64.332
  452.250  177.325   14.007    0.291    0.373   67.447
  452.500  177.369   24.966    0.285    0.375   69.322
  452.750  177.426   37.628    0.270    0.337   69.664
  453.000  176.982   41.319    0.248    0.313   65.377
  453.250  177.020   32.145    0.239    0.318   59.246
  453.500  177.590   22.784    0.236    0.324   61.129
  453.750  178.142   11.986    0.235    0.333   65.164
  454.000  178.706    8.901    0.233    0.337   68.583
  454.250  179.270    7.889    0.237    0.334   72.310
  454.500  179.320    7.191    0.246    0.321   74.809
  454.750  179.377    6.995    0.252    0.317   73.915
  455.000  179.421    6.998    0.250    0.323   71.481
  455.250  178.971    7.199    0.244    0.329   68.739
  455.500  178.001    7.689    0.248    0.334   66.917
  455.750  178.052    8.287    0.259    0.341   65.099
  456.000  178.096    8.766    0.272    0.353   67.906
  456.250  178.140    9.275    0.278    0.366   70.089
  456.500  178.191    9.365    0.280    0.372   70.427
  456.750  178.254    9.908    0.278    0.376   68.917
  457.000  177.779   11.084    0.272    0.376   67.407
  457.250  177.829   11.946    0.262    0.370   64.973
  457.500  176.865   12.997    0.255    0.359   61.310
  457.750  176.910   13.248    0.247    0.362   61.960
  458.000  176.441   12.887    0.236    0.348   65.072
  458.250  175.984   11.746    0.208    0.330   69.411
  458.500  176.035   10.706    0.202    0.332   72.522
  458.750  176.085    9.314    0.208    0.343   70.704
  459.000  176.136    7.880    0.217    0.360   71.967
  459.250  176.186    7.115    0.219    0.365   78.162
  459.500  176.237    6.132    0.217    0.359   83.430
  459.750  176.294    5.385    0.219    0.361   87.773
  460.000  176.344    4.908    0.226    0.366   88.728
  460.250  176.389    4.687    0.235    0.367   90.302
  460.500  176.439    4.733    0.251    0.355   93.413
  460.750  178.030    4.960    0.278    0.330   95.600
  461.000  179.114    5.601    0.312    0.313   88.545
  461.250  178.657    6.267    0.309    0.314   73.168
  461.500  177.168    7.345    0.304    0.317   61.800
  461.750  176.698    9.537    0.296    0.314   57.209
  462.000  176.242   16.075    0.287    0.309   52.310
  462.250  176.292   22.700    0.275    0.309   58.502
  462.500  176.343   27.361    0.273    0.315   62.233
  462.750  176.387   28.945    0.272    0.317   60.723
  463.000  175.931   28.958    0.271    0.307   58.905
  463.250  175.468   27.397    0.275    0.298   58.007
  463.500  174.999   26.404    0.281    0.305   58.657
  463.750  174.542   24.981    0.279    0.320   61.460
  464.000  174.092   24.076    0.273    0.319   63.955
  464.250  174.130   22.358    0.265    0.323   63.065
  464.500  174.180   20.956    0.253    0.343   61.859
  464.750  174.751   19.640    0.237    0.337   62.814
  465.000  175.315   17.736    0.210    0.325   63.460
  465.250  175.372   15.573    0.210    0.332   63.183
  465.500  175.923   13.175    0.216    0.330   64.761
  465.750  177.001   11.569    0.223    0.312   66.944
  466.000  176.544   10.448    0.233    0.316   70.363
  466.250  175.048    9.976    0.240    0.319   69.165
  466.500  172.030    9.796    0.248    0.368   66.731
  466.750  170.534   10.657    0.251    0.379   63.060
  467.000  169.564   12.376    0.258    0.373   54.773
  467.250  169.609   13.589    0.270    0.356   56.964
  467.500  169.666   14.647    0.271    0.358   55.450
  467.750  169.716   13.857    0.253    0.313   56.404
  468.000  170.280   12.867    0.238    0.306   61.056
  468.250  171.364   11.618    0.210    0.312   66.023
  468.500  172.429   10.689    0.199    0.313   70.366
  468.750  174.020    9.834    0.207    0.308   76.862
  469.000  175.617    9.217    0.219    0.312   91.992
  469.250  178.241    8.400    0.231    0.317   97.259
  469.500  179.826    7.800    0.246    0.329  102.843
  469.750  181.423    7.380    0.257    0.344  106.566
  470.000  180.954    7.248    0.262    0.335  106.596
  470.250  178.957    7.387    0.259    0.316  102.314
  470.500  176.954    7.815    0.256    0.292   87.553
  470.750  174.944    8.501    0.258    0.283   62.934
  471.000  173.454    9.780    0.260    0.289   41.091
  471.250  172.991   11.462    0.260    0.299   37.117
