~VERSION INFORMATION
 VERS.                 2.0:   CWLS LOG ASCII STANDARD -VERSION 2.0
 WRAP.                  NO:   ONE LINE PER DEPTH STEP
~WELL INFORMATION BLOCK
#MNEM.UNIT           DATA                    DESCRIPTION OF MNEMONIC
#---------    -------------------            -------------------------------
# Generated from Intellog Unique Number	CC_84_87/WELL/1062
NULL.         -999.2500                      : null value
LOC .         05-25-085-09W4                 : Location     - LOCATION          
UWI .         AA/05-25-085-09W400            : Uwi          - UNIQUE WELL ID    
ENTR.         DW                             : Entered      - ENTERED BY        
SRVC.         SCHLUMBERGER                   : Scn          - SERVICE COMPANY   
STRT.M        200.000                        : top_depth    - START DEPTH       
STOP.M        449.893                        : bot_depth    - STOP DEPTH        
STEP.M        0.3                            : increment    - STEP LENGTH       
~CURVE INFORMATION BLOCK
#MNEM UNIT       ERCB CURVE CODE    CURVE DESCRIPTION
#-----------   ------------------   ----------------------------------
DEPT.M        00 001 00 00         : DEPTH        - DEPTH                       
DPHI.V/V      00 890 00 00         : PHID         - DENSITY POROSITY (LIMESTONE)
NPHI.V/V      00 330 00 00         : PHIN         - NEUTRON POROSITY (LIMESTONE)
GR  .API      00 310 00 00         : GR           - GAMMA RAY                   
ILD .OHMM     00 120 00 00         : RESD         - DEEP RESISTIVITY (DIL)      
~PARAMETER INFORMATION       
#MNEM.UNIT           DATA             DESCRIPTION OF MNEMONIC
#---------         -----------     ------------------------------
GL  .M        705                  : gl           - GROUND LEVEL ELEVATION      
EREF.M        708.5                : kb           - ELEVATION OF DEPTH REFERENCE
DATM.M        708.5                : datum        - DATUM ELEVATION             
TDD .M        449                  : tdd          - TOTAL DEPTH DRILLER         
RUN .         ONE                  : Run          - RUN NUMBER                  
ENG .         BILL                 : Engineer     - RECORDING ENGINEER          
WIT .         JIM                  : Witness      - WITNESSED BY                
MUD .         GEL                  : Mud_type     - MUD TYPE                    
MATR.         LIMESTONE            : Logunit      - NEUTRON MATRIX              
TMAX.C        17                   : BHT          - MAXIMUM RECORDED TEMPERATURE
BHTD.M        449                  : BHTDEP       - MAXIMUM RECORDED TEMPERATURE
MATR.         1                    : LOGUNIT      - NEUTRON MATRIX              
RMT .C        25                   : MDTP         - TEMPERATURE OF MUD          
NEUT.         1                    : NEUTRON      - NEUTRON TYPE                
RESI.         0                    : RESIST       - RESISTIVITY TYPE            
RMC .OHMM     0.25                 : RMC          - RESISTIVITY OF MUD CAKE     
RMF .OHMM     0.25                 : RMF          - RESISTIVITY OF MUD FILTRATE 
SUFT.C        15                   : SUFT         - SURFACE TEMPERATURE         
~A  DEPTH     PHID     PHIN       GR     RESD
# ...
  408.794    0.243    0.376   76.448   10.189
  409.094    0.235    0.345   68.915   10.582
  409.394    0.191    0.354   75.813   10.581
  409.694    0.073    0.350   85.849   10.377
  409.994    0.199    0.309   72.041   10.179
  410.294    0.191    0.395   90.234    9.611
  410.594    0.199    0.424  102.152    8.903
  410.894    0.209    0.396   99.639    8.246
  411.194    0.222    0.379  101.518    8.245
  411.494    0.236    0.375   99.632    8.729
  411.794    0.248    0.357   87.707   10.166
  412.094    0.243    0.334   74.526   12.300
  412.394    0.237    0.320   63.857   13.529
  412.694    0.251    0.316   62.598   14.880
  412.994    0.283    0.303   66.359   15.753
  413.294    0.289    0.298   60.081   16.361
  413.594    0.281    0.306   52.548   16.049
  413.894    0.236    0.327   55.682   15.153
  414.194    0.231    0.307   65.718   15.739
  414.494    0.318    0.278   72.617   18.683
  414.794    0.353    0.216   58.181   21.759
  415.094    0.359    0.243   34.334   27.352
  415.394    0.352    0.275   30.566   29.514
  415.694    0.317    0.350   43.739   28.403
  415.994    0.288    0.380   53.147   24.845
  416.294    0.304    0.384   61.301   21.733
  416.594    0.280    0.359   66.317   20.134
  416.894    0.241    0.348   68.196   17.611
  417.194    0.236    0.344   69.447   16.005
  417.494    0.247    0.363   69.444   15.403
  417.794    0.311    0.406   47.479   15.109
  418.094    0.324    0.417   44.966   15.395
  418.394    0.289    0.396   58.766   15.689
  418.694    0.291    0.384   62.528   16.295
  418.994    0.283    0.374   59.386   15.985
  419.294    0.278    0.371   53.109   14.807
  419.594    0.316    0.393   47.458   14.524
  419.894    0.318    0.399   36.160   17.573
  420.194    0.328    0.378   41.175   26.229
  420.494    0.335    0.384   41.801   36.966
  420.794    0.337    0.373   35.522   42.239
  421.094    0.337    0.369   27.990   43.874
  421.394    0.334    0.398   22.339   43.036
  421.694    0.332    0.402   27.355   41.413
  421.994    0.332    0.399   27.352   41.407
  422.294    0.334    0.398   21.700   43.835
  422.594    0.338    0.405   21.698   48.212
  422.894    0.338    0.409   26.086   52.025
  423.194    0.327    0.396   24.199   56.138
  423.494    0.322    0.384   23.569   59.429
  423.794    0.323    0.381   25.448   61.727
  424.094    0.330    0.393   21.679   62.902
  424.394    0.344    0.378   17.911   60.529
  424.694    0.354    0.381   15.398   59.378
  424.994    0.350    0.425   22.924   57.138
  425.294    0.343    0.409   26.058   57.131
  425.594    0.335    0.394   28.564   58.216
  425.894    0.329    0.411   28.561   62.817
  426.194    0.327    0.402   29.185   65.252
  426.494    0.325    0.383   28.554   66.492
  426.794    0.325    0.375   26.668   66.475
  427.094    0.329    0.399   24.782   63.975
  427.394    0.333    0.381   29.798   57.043
  427.694    0.330    0.373   34.187   43.661
  427.994    0.316    0.376   29.791   22.384
  428.294    0.319    0.350   39.199   20.734
  428.594    0.339    0.383   37.314   19.954
  428.894    0.349    0.394   21.623   21.126
  429.194    0.342    0.400   19.737   26.554
  429.493    0.337    0.401   20.362   32.749
  429.793    0.342    0.399   22.241   41.167
  430.093    0.342    0.405   24.747   53.758
  430.393    0.332    0.395   25.371   62.609
  430.693    0.328    0.380   22.230   68.865
  430.993    0.329    0.365   17.834   78.684
  431.293    0.329    0.363   14.066   80.185
  431.593    0.330    0.376   16.572   80.167
  431.893    0.332    0.384   19.078   74.253
  432.193    0.332    0.393   19.075   71.465
  432.493    0.329    0.401   17.816   61.330
  432.793    0.324    0.384   17.813   51.644
  433.093    0.317    0.365   22.202   30.844
  433.393    0.313    0.358   33.493   25.482
  433.693    0.316    0.353   41.019   21.051
  433.993    0.329    0.350   44.152   18.414
  434.293    0.330    0.357   43.522   18.411
  434.593    0.338    0.402   40.381   21.855
  434.893    0.339    0.407   25.946   29.651
  435.193    0.339    0.383   19.039   38.722
  435.493    0.338    0.394   17.782   48.673
  435.793    0.335    0.424   17.151   61.182
  436.093    0.334    0.416   19.657   72.629
  436.393    0.332    0.407   20.908   78.371
  436.693    0.332    0.399   20.904   81.400
  436.993    0.330    0.386   22.155   79.843
  437.293    0.332    0.378   23.408   75.385
  437.593    0.330    0.375   25.285   64.698
  437.893    0.327    0.384   26.537   49.522
  438.193    0.324    0.393   28.417   37.187
  438.493    0.330    0.398   32.806   32.532
  438.793    0.342    0.410   35.939   29.565
  439.093    0.350    0.425   35.307   27.385
  439.393    0.355    0.407   32.795   26.354
  439.693    0.354    0.396   32.164   23.951
  439.993    0.345    0.407   32.161   21.768
  440.293    0.322    0.436   37.176   18.681
  440.593    0.308    0.446   42.820   17.638
  440.893    0.359    0.463   45.327   17.300
  441.193    0.347    0.452   36.539   17.631
  441.493    0.333    0.429   39.044   18.310
  441.793    0.344    0.407   40.924   18.308
  442.093    0.355    0.448   41.547   18.657
  442.393    0.353    0.461   40.917   18.653
  442.693    0.339    0.461   44.678   17.949
  442.993    0.296    0.416   52.831   17.945
  443.293    0.311    0.409   53.456   18.639
  443.593    0.329    0.401   47.178   20.114
  443.893    0.332    0.419   43.408   23.426
  444.193    0.338    0.430   40.895   25.278
  444.493    0.347    0.445   39.010   25.759
  444.793    0.347    0.402   40.888   24.790
  445.093    0.365    0.375   41.511   21.684
  445.393    0.334    0.404   41.509   19.334
  445.693    0.312    0.436   39.623   18.255
  445.993    0.304    0.401   42.756   17.235
  446.293    0.308    0.386   44.636   17.232
  446.593    0.312    0.388   45.888   16.902
  446.893    0.309    0.395   45.257   17.224
  447.193    0.308    0.402   42.743   17.891
  447.493    0.312    0.414   42.740   18.939
  447.793    0.317    0.402   41.481   18.935
  448.093    0.324    0.440   42.105   18.573
  448.393    0.318    0.425   43.355   18.569
  448.693    0.277    0.404   43.353   18.215
  448.993    0.282    0.389   39.585   17.865
  449.293    0.309    0.406   39.581   17.524
  449.593    0.316    0.405   42.087   17.190
  449.893    0.318    0.425   43.339   16.860
