~VERSION INFORMATION
 VERS.                 2.0:   CWLS LOG ASCII STANDARD -VERSION 2.0
 WRAP.                  NO:   ONE LINE PER DEPTH STEP
~WELL INFORMATION BLOCK
#MNEM.UNIT           DATA                    DESCRIPTION OF MNEMONIC
#---------    -------------------            -------------------------------
# Generated from Intellog Unique Number	CN_94_101/WELL/2482
WELL.         05-36-094-09W4                 : Well_name    - WELL
LOC .         AA/05-36-094-09W4/0            : Location     - LOCATION
UWI .         AA/05-36-094-09W400            : Uwi          - UNIQUE WELL ID
ENTR.         JOETTE                         : Entered      - ENTERED BY
SRVC.         SCHLUMBERGER                   : Scn          - SERVICE COMPANY
DATE.         05/17/92                       : Date         - LOG DATE
STRT.M        15                             : top_depth    - START DEPTH
STOP.M        140                            : bot_depth    - STOP DEPTH
STEP.M        0.25                           : increment    - STEP LENGTH
 NULL. -999.2500:NULL Value
~CURVE INFORMATION BLOCK
#MNEM UNIT       ERCB CURVE CODE    CURVE DESCRIPTION
#-----------   ------------------   ----------------------------------
DEPT.M        00 001 00 00         : DEPTH        - DEPTH
GR  .API      00 310 00 00         : GR           - GAMMA RAY
CALI.MM       00 280 01 00         : CAL          - CALIPER
NPHI.V/V      00 330 00 00         : PHIN         - NEUTRON POROSITY (SANDSTONE)
DPHI.V/V      00 890 00 00         : PHID         - DENSITY POROSITY (SANDSTONE)
ILD .OHMM     00 120 00 00         : RESD         - DEEP RESISTIVITY (DIL)
~PARAMETER INFORMATION
#MNEM.UNIT           DATA             DESCRIPTION OF MNEMONIC
#---------         -----------     ------------------------------
GL  .M        332.67               : gl           - GROUND LEVEL ELEVATION
EREF.M        332.67               : kb           - ELEVATION OF DEPTH REFERENCE
DATM.M        332.67               : datum        - DATUM ELEVATION
TDD .M        147                  : tdd          - TOTAL DEPTH DRILLER
RUN .         ONE                  : Run          - RUN NUMBER
ENG .         JO                   : Engineer     - RECORDING ENGINEER
WIT .         TIM                  : Witness      - WITNESSED BY
MUD .         GEL                  : Mud_type     - MUD TYPE
MATR.         SANDSTONE            : Logunit      - NEUTRON MATRIX
TMAX.C        18                   : BHT          - MAXIMUM RECORDED TEMPERATURE
BHTD.M        147                  : BHTDEP       - MAXIMUM RECORDED TEMPERATURE
RMT .C        18.6                 : MDTP         - TEMPERATURE OF MUD
MUDD.KG/M     0                    : MWT          - MUD DENSITY
NEUT.         1                    : NEUTRON      - NEUTRON TYPE
RESI.         0                    : RESIST       - RESISTIVITY TYPE
RM  .OHMM     6.04                 : RM           - RESISTIVITY OF MUD
RMC .OHMM     9.17                 : RMC          - RESISTIVITY OF MUD CAKE
RMF .OHMM     6.2                  : RMF          - RESISTIVITY OF MUD FILTRATE
SUFT.C        4                    : SUFT         - SURFACE TEMPERATURE
~A  DEPTH       GR      CAL     PHIN     PHID     RESD
# ...
   51.500   71.762  141.803    0.467    0.247   62.840
   51.750   72.959  141.787    0.426    0.261   55.158
   52.000   52.839  141.777    0.462    0.205   85.924
   52.250   61.344  141.767    0.477    0.244  109.199
   52.500   78.985  141.753    0.333    0.282   82.660
   52.750   69.828  142.141    0.410    0.294   71.209
   53.000   64.325  142.124    0.445    0.252  104.960
   53.250   60.650  141.713    0.371    0.234  189.634
   53.500   49.051  141.700    0.351    0.249  241.001
   53.750   65.474  142.899    0.332    0.237  133.162
   54.000   78.248  142.478    0.333    0.208   95.356
   54.250   75.181  141.656    0.386    0.215  128.103
   54.500   59.319  141.643    0.406    0.239   95.192
   54.750   52.598  142.037    0.382    0.261   72.057
   55.000   43.441  142.024    0.396    0.248  120.873
   55.250   53.768  142.415    0.444    0.248   89.819
   55.500   51.920  143.608    0.456    0.238  107.984
   55.750   62.867  144.005    0.369    0.202  116.181
   56.000   83.552  144.396    0.517    0.205   87.945
   56.250   88.403  144.379    0.550    0.231   84.677
   56.500   79.856  144.369    0.546    0.259   55.277
   56.750   65.217  143.544    0.478    0.269   28.364
   57.000   60.932  142.314    0.442    0.213   56.213
   57.250   55.430  141.495    0.461    0.229  111.383
   57.500   41.400  141.479    0.483    0.248   48.384
   57.750   26.757  141.061    0.417    0.256   62.652
   58.000   34.653  140.640    0.359    0.230  313.215
   58.250   39.504  140.229    0.351    0.251  182.942
   58.500   26.692  139.407    0.418    0.276  102.992
   58.750   28.498  138.585    0.440    0.281   71.072
   59.000   25.432  140.590    0.456    0.259  254.596
   59.250   27.237  142.598    0.393    0.232  172.468
   59.500   31.479  142.588    0.338    0.233   86.892
   59.750   28.413  140.957    0.320    0.245  367.754
   60.000   27.168  140.135    0.337    0.245  860.734
   60.250   26.537  140.122    0.349    0.256  512.235
   60.500   22.253  140.102    0.315    0.219   96.762
   60.750   19.795  140.095    0.302    0.215  178.050
   61.000   25.869  140.486    0.314    0.242   86.445
   61.250   28.893  141.281    0.326    0.251 2045.140
   61.500   23.390  142.882    0.338    0.259 1862.800
   61.750   23.978  143.681    0.318    0.255 1010.610
   62.000   26.997  143.664    0.319    0.241  190.906
   62.250   31.244  144.055    0.307    0.248  351.281
   62.500   22.087  145.662    0.315    0.237  971.380
   62.750   25.720  146.050    0.326    0.253 1167.840
   63.000   32.398  145.632    0.336    0.282 1044.210
   63.250   28.113  144.406    0.349    0.269  376.970
   63.500   29.913  142.775    0.328    0.259 1277.740
   63.750   35.988  141.545    0.343    0.316  362.649
   64.000   35.967  141.127    0.402    0.338  179.358
   64.250   26.804  141.926    0.474    0.304  896.659
   64.500   22.519  141.913    0.465    0.256   69.665
   64.750   21.889  141.090    0.415    0.253  341.886
   65.000   18.817  142.290    0.373    0.267  374.707
   65.250   20.628  142.681    0.364    0.252  562.502
   65.500   27.306  141.856    0.307    0.243  844.597
   65.750   30.330  141.842    0.318    0.245 1769.050
   66.000   27.258  142.233    0.358    0.256 1092.480
   66.250   29.064  142.220    0.358    0.263  796.927
   66.500   30.261  142.206    0.352    0.261  456.933
   66.750   22.936  142.193    0.412    0.256  408.563
   67.000   32.050  142.985    0.356    0.225  794.702
   67.250   47.255  143.787    0.315    0.213  499.937
   67.500   61.241  144.582    0.328    0.230  187.327
   67.750   54.520  144.165    0.439    0.243  778.121
   68.000   41.709  141.725    0.473    0.254  422.148
   68.250   33.770  140.499    0.362    0.267   92.469
   68.500   24.613  140.081    0.358    0.272   58.171
   68.750   23.977  140.469    0.384    0.268   41.655
   69.000   23.962  142.076    0.345    0.260  312.884
   69.250   22.722  143.272    0.329    0.244  336.633
   69.500   19.030  143.255    0.337    0.240  290.062
   69.750   17.802  143.249    0.367    0.247  477.646
   70.000   16.562  142.427    0.362    0.258  895.318
   70.250   17.759  142.413    0.374    0.265 1474.640
   70.500   23.828  143.613    0.377    0.281 1247.330
   70.750   22.588  141.578    0.427    0.299  676.561
   71.000   23.176  139.536    0.475    0.271  402.632
   71.250   25.585  139.526    0.420    0.258  156.521
   71.500   22.519  140.722    0.358    0.274  424.884
   71.750   18.849  141.925    0.358    0.275  103.997
   72.000   15.777  141.100    0.340    0.267  379.580
   72.250   18.197  141.086    0.358    0.281  287.268
   72.500   17.561  141.477    0.340    0.270  973.699
   72.750   18.148  141.467    0.338    0.285 1357.410
   73.000   17.518  141.050    0.338    0.284 1790.520
   73.250   17.497  141.033    0.340    0.276  901.898
   73.500   21.135  141.023    0.355    0.281  399.183
   73.750   19.895  141.006    0.412    0.304  599.245
   74.000   16.823  142.206    0.417    0.285 1302.470
   74.250   18.629  142.196    0.423    0.277  834.673
   74.500   19.826  143.395    0.397    0.283  362.578
   74.750   19.805  144.191    0.368    0.255 2025.910
   75.000   22.219  144.177    0.367    0.218 1346.940
   75.250   24.030  143.352    0.387    0.201 1249.760
   75.500   25.227  142.934    0.399    0.241 1000.030
   75.750   23.379  142.924    0.381    0.276  354.402
   76.000   22.134  142.911    0.363    0.258  512.690
   76.250   26.990  143.302    0.353    0.228 1016.090
   76.500   60.466  143.288    0.307    0.203 1315.440
   76.750   89.678  142.871    0.474    0.204 1092.270
   77.000   68.341  141.644    0.504    0.230  202.549
   77.250   51.875  139.606    0.534    0.251   36.196
   77.500   43.936  141.213    0.591    0.244  105.781
   77.750   31.729  143.221    0.586    0.253  107.664
   78.000   26.226  141.180    0.524    0.229  118.025
   78.250   54.835  139.552    0.316    0.173  194.352
   78.500   70.039  139.535    0.343    0.194  430.318
   78.750   81.590  139.930    0.388    0.219  517.347
   79.000   75.478  140.317    0.495    0.231   61.532
   79.250   82.765  140.304    0.496    0.227   47.448
   79.500   72.390  139.886    0.465    0.235   76.683
   79.750   77.845  139.472    0.494    0.227   64.877
   80.000   74.174  139.455    0.397    0.207   53.871
   80.250   71.108  139.445    0.461    0.196   68.463
   80.500   67.421  139.428    0.428    0.227   67.150
   80.750   71.669  140.224    0.436    0.225   46.338
   81.000   78.352  141.022    0.457    0.232   72.184
   81.250   85.030  141.009    0.448    0.202   56.701
   81.500   78.913  140.995    0.507    0.197   63.305
   81.750   74.019  140.578    0.493    0.233   60.940
   82.000   66.689  141.774    0.486    0.248   51.557
   82.250   64.841  142.168    0.473    0.253   40.499
   82.500   70.910  139.726    0.485    0.253   63.088
   82.750   64.798  139.311    0.439    0.261   56.397
   83.000   55.032  139.298    0.439    0.277   74.392
   83.250   51.351  139.278    0.506    0.264   81.534
   83.500   58.035  139.271    0.444    0.234   66.460
   83.750   70.803  140.467    0.425    0.223   97.918
   84.000   69.564  139.642    0.480    0.246  109.346
   84.250   62.234  138.820    0.463    0.266   71.382
   84.500   69.521  138.806    0.507    0.229   53.043
   84.750   60.364  138.796    0.419    0.235   61.440
   85.000   32.321  139.184    0.524    0.274   52.940
   85.250   37.172  139.171    0.441    0.304   46.458
   85.500   56.036  139.562    0.366    0.246   43.912
   85.750   70.632  139.548    0.388    0.243   49.952
   86.000   29.799  139.538    0.506    0.279   46.349
   86.250   34.650  139.521    0.559    0.315   35.084
   86.500   31.584  139.912    0.476    0.293   27.559
   86.750   33.998  140.307    0.439    0.299   40.612
   87.000   57.730  142.716    0.441    0.245   41.326
   87.250   71.716  141.493    0.405    0.180   43.657
   87.500   78.400  139.053    0.557    0.198   44.425
   87.750   66.801  138.632    0.496    0.226   38.287
