~VERSION INFORMATION
 VERS.                 2.0:   CWLS LOG ASCII STANDARD -VERSION 2.0
 WRAP.                  NO:   ONE LINE PER DEPTH STEP
~WELL INFORMATION BLOCK
#MNEM.UNIT           DATA                    DESCRIPTION OF MNEMONIC
#---------    -------------------            -------------------------------
# Generated from Intellog Unique Number	CN_94_101/WELL/2832
WELL.         06-08-096-14W4                 : Well_name    - WELL
LOC .         AA/06-08-096-14W4/0            : Location     - LOCATION
UWI .         AA/06-08-096-14W400            : Uwi          - UNIQUE WELL ID
ENTR.         JOETTE                         : Entered      - ENTERED BY
SRVC.         SCHLUMBERGER                   : Scn          - SERVICE COMPANY
DATE.         07/07/92                       : Date         - LOG DATE
STRT.M        40                             : top_depth    - START DEPTH
STOP.M        310                            : bot_depth    - STOP DEPTH
STEP.M        0.25                           : increment    - STEP LENGTH
 NULL. -999.2500:NULL Value
~CURVE INFORMATION BLOCK
#MNEM UNIT       ERCB CURVE CODE    CURVE DESCRIPTION
#-----------   ------------------   ----------------------------------
DEPT.M        00 001 00 00         : DEPTH        - DEPTH
CALI.MM       00 280 01 00         : CAL          - CALIPER
GR  .API      00 310 00 00         : GR           - GAMMA RAY
NPHI.V/V      00 330 00 00         : PHIN         - NEUTRON POROSITY (SANDSTONE)
DPHI.V/V      00 890 00 00         : PHID         - DENSITY POROSITY (SANDSTONE)
ILD .OHMM     00 120 00 00         : RESD         - DEEP RESISTIVITY (DIL)
~PARAMETER INFORMATION
#MNEM.UNIT           DATA             DESCRIPTION OF MNEMONIC
#---------         -----------     ------------------------------
GL  .M        559.67               : gl           - GROUND LEVEL ELEVATION
EREF.M        562.67               : kb           - ELEVATION OF DEPTH REFERENCE
DATM.M        562.67               : datum        - DATUM ELEVATION
TDD .M        320                  : tdd          - TOTAL DEPTH DRILLER
RUN .         ONE                  : Run          - RUN NUMBER
ENG .         JO                   : Engineer     - RECORDING ENGINEER
WIT .         TIM                  : Witness      - WITNESSED BY
MUD .         GEL                  : Mud_type     - MUD TYPE
MATR.         SANDSTONE            : Logunit      - NEUTRON MATRIX
TMAX.C        17                   : BHT          - MAXIMUM RECORDED TEMPERATURE
BHTD.M        320                  : BHTDEP       - MAXIMUM RECORDED TEMPERATURE
RMT .C        15                   : MDTP         - TEMPERATURE OF MUD
MUDD.KG/M     1120                 : MWT          - MUD DENSITY
NEUT.         1                    : NEUTRON      - NEUTRON TYPE
RESI.         0                    : RESIST       - RESISTIVITY TYPE
RM  .OHMM     0.709                : RM           - RESISTIVITY OF MUD
RMC .OHMM     0.709                : RMC          - RESISTIVITY OF MUD CAKE
RMF .OHMM     0.709                : RMF          - RESISTIVITY OF MUD FILTRATE
SUFT.C        4                    : SUFT         - SURFACE TEMPERATURE
~A  DEPTH      CAL       GR     PHIN     PHID     RESD
# ...
   76.500  158.529   18.972    0.391    0.356   56.368
   76.750  158.715   19.061    0.385    0.356   58.733
   77.000  158.864   18.567    0.378    0.350   58.811
   77.250  158.975   18.678    0.375    0.345   60.112
   77.500  158.151   19.329    0.376    0.347   60.272
   77.750  158.337   19.396    0.387    0.348   60.433
   78.000  158.524   19.486    0.391    0.340   60.595
   78.250  158.598   19.597    0.391    0.350   60.675
   78.500  157.774   19.664    0.399    0.353   59.720
   78.750  157.960   19.754    0.394    0.342   57.738
   79.000  158.109   19.888    0.386    0.353   56.791
   79.250  158.295   19.932    0.384    0.350   55.971
   79.500  158.407   19.460    0.388    0.343   56.046
   79.750  158.519   19.527    0.409    0.352   55.200
   80.000  158.705   19.639    0.416    0.356   55.348
   80.250  158.816   19.145    0.426    0.364   55.495
   80.500  158.965   19.234    0.422    0.366   54.585
   80.750  159.114   19.907    0.413    0.357   54.731
   81.000  159.338   19.974    0.412    0.357   53.905
   81.250  158.476   21.276    0.417    0.359   53.056
   81.500  159.635   21.904    0.419    0.356   53.162
   81.750  159.747   23.161    0.413    0.365   52.360
   82.000  160.832   24.418    0.402    0.361   51.501
   82.250  161.055   24.530    0.397    0.355   49.825
   82.500  160.157   24.597    0.404    0.363   48.975
   82.750  160.380   24.708    0.411    0.371   48.172
   83.000  160.454   25.382    0.405    0.364   47.413
   83.250  159.630   25.471    0.397    0.366   46.667
   83.500  159.854   25.560    0.396    0.374   45.962
   83.750  158.992   26.211    0.405    0.363   45.269
   84.000  159.104   26.300    0.412    0.352   45.329
   84.250  159.253   27.018    0.421    0.364   45.450
   84.500  159.439   27.063    0.426    0.377   45.602
   84.750  159.625   27.152    0.433    0.374   44.914
   85.000  159.700   27.848    0.424    0.361   44.974
   85.250  159.849   29.105    0.425    0.366   45.094
   85.500  159.024   29.216    0.428    0.368   44.384
   85.750  159.173   28.160    0.423    0.372   43.743
   86.000  159.360   27.621    0.417    0.377   43.743
   86.250  159.508   26.543    0.417    0.377   39.373
   86.500  159.620   26.610    0.421    0.378   39.373
   86.750  159.769   26.700    0.421    0.385   40.325
   87.000  158.945   28.585    0.415    0.382   37.467
   87.250  159.131   29.842    0.415    0.392   36.902
   87.500  159.243   29.909    0.425    0.369   36.951
   87.750  159.466   29.414    0.434    0.369   37.075
   88.000  159.578   30.671    0.438    0.370   36.515
   88.250  159.727   33.118    0.434    0.367   36.588
   88.500  159.913   34.353    0.425    0.373   36.661
   88.750  159.987   37.967    0.424    0.390   36.759
   89.000  160.173   43.895    0.431    0.382   36.205
   89.250  160.360   56.850    0.429    0.378   35.635
   89.500  160.508   63.361    0.424    0.373   34.429
   89.750  159.610   68.121    0.428    0.362   32.653
   90.000  159.833   72.948    0.434    0.351   30.969
   90.250  159.908   73.576    0.426    0.352   29.332
   90.500  161.104   72.498    0.416    0.357   26.314
   90.750  162.189   71.420    0.418    0.360   21.122
   91.000  163.311   73.283    0.424    0.355   17.582
   91.250  163.497   75.146    0.430    0.359   11.090
   91.500  164.544   76.381    0.430    0.366    9.231
   91.750  168.660   77.031    0.427    0.361    7.690
   92.000  172.738   78.333    0.432    0.361    7.298
   92.250  178.688   78.984    0.439    0.364    7.317
   92.500  183.664   79.051    0.447    0.361    7.342
   92.750  192.608   79.769    0.476    0.346    7.216
   93.000  196.648   79.252    0.521    0.321    6.844
   93.250  201.662   77.612    0.549    0.296    6.368
   93.500  205.741   76.512    0.570    0.285    5.716
   93.750  207.835   74.850    0.576    0.264    5.322
   94.000  208.920   77.274    0.570    0.263    5.051
   94.250  209.069   79.676    0.571    0.274    5.058
   94.500  209.292   79.788    0.578    0.276    5.166
   94.750  210.377   78.710    0.581    0.283    5.280
   95.000  210.489   78.193    0.544    0.279    5.298
   95.250  211.685   78.282    0.541    0.279    5.305
   95.500  211.797   80.123    0.549    0.281    5.125
   95.750  211.909   81.964    0.558    0.276    4.861
   96.000  212.095   79.718    0.554    0.272    4.694
   96.250  212.244   75.721    0.556    0.261    4.457
   96.500  212.393   72.891    0.567    0.267    4.463
   96.750  211.606   71.251    0.570    0.272    4.318
   97.000  211.717   73.070    0.555    0.273    4.327
   97.250  210.856   74.910    0.555    0.277    4.422
   97.500  210.032   74.416    0.552    0.282    4.517
   97.750  210.218   71.586    0.550    0.278    4.608
   98.000  210.330   71.114    0.545    0.250    4.710
   98.250  210.479   71.204    0.535    0.253    4.808
   98.500  210.665   72.460    0.523    0.264    4.917
   98.750  210.814   73.134    0.514    0.275    4.837
   99.000  210.963   72.617    0.518    0.265    4.757
   99.250  211.112   69.226    0.542    0.261    4.512
   99.500  211.223   66.957    0.549    0.271    4.282
   99.750  210.436   66.463    0.555    0.277    4.212
  100.000  209.649   68.304    0.558    0.272    4.302
  100.250  208.751   70.728    0.536    0.275    4.311
  100.500  208.900   72.008    0.514    0.286    4.485
  100.750  205.194   72.703    0.508    0.290    4.582
  101.000  204.407   72.164    0.501    0.275    4.777
  101.250  203.509   71.692    0.520    0.273    4.786
  101.500  201.711   72.949    0.508    0.281    4.886
  101.750  198.979   74.790    0.505    0.278    4.896
  102.000  197.144   73.711    0.530    0.258    4.818
  102.250  194.374   73.195    0.535    0.269    4.746
  102.500  191.604   74.496    0.545    0.280    4.668
  102.750  186.925   75.125    0.542    0.265    4.430
  103.000  185.128   76.382    0.532    0.262    4.277
  103.250  187.186   74.719    0.527    0.277    3.988
  103.500  186.399   69.577    0.536    0.291    3.996
  103.750  183.554   66.141    0.544    0.280    4.009
  104.000  179.811   62.122    0.539    0.245    4.169
  104.250  174.196   58.124    0.509    0.213    4.675
  104.500  173.335   59.987    0.480    0.193    4.858
  104.750  176.403   62.390    0.452    0.179    5.444
  105.000  177.525   64.253    0.433    0.190    5.883
  105.250  174.792   62.568    0.461    0.232    6.125
  105.500  171.012   61.490    0.469    0.259    6.142
  105.750  171.198   59.828    0.495    0.281    6.154
  106.000  174.229   66.968    0.527    0.278    6.166
  106.250  176.286   67.057    0.538    0.291    6.195
  106.500  178.418   66.001    0.480    0.287    6.208
  106.750  178.567   65.462    0.472    0.269    6.220
  107.000  176.770   64.968    0.516    0.274    6.353
  107.250  174.000   65.641    0.539    0.286    6.366
  107.500  170.220   68.649    0.510    0.295    6.629
  107.750  171.342   72.847    0.511    0.304    7.026
  108.000  178.376   74.666    0.506    0.308    7.311
  108.250  179.424   76.507    0.477    0.295    7.755
  108.500  179.573   74.261    0.472    0.280    8.070
  108.750  176.802   71.431    0.501    0.287    7.503
  109.000  176.016   72.688    0.513    0.300    6.250
  109.250  178.110   68.691    0.479    0.309    5.303
  109.500  179.195   63.548    0.470    0.316    4.670
  109.750  178.371   65.973    0.497    0.299    4.509
  110.000  175.638   70.732    0.533    0.302    4.124
  110.250  173.804   67.297    0.558    0.268    3.842
  110.500  173.990   62.693    0.552    0.239    3.776
  110.750  169.237   58.112    0.542    0.227    3.518
  111.000  163.548   54.137    0.549    0.201    3.463
  111.250  165.642   51.285    0.558    0.284    3.406
  111.500  170.656   48.478    0.559    0.305    3.479
  111.750  174.697   49.151    0.548    0.268    4.046
  112.000  169.981   45.715    0.523    0.256    5.068
  112.250  158.454   42.279    0.490    0.233    5.785
  112.500  153.738   38.282    0.478    0.257    6.737
  112.750  155.833   38.371    0.491    0.280    7.271
