~VERSION INFORMATION
 VERS.                 2.0:   CWLS LOG ASCII STANDARD -VERSION 2.0
 WRAP.                  NO:   ONE LINE PER DEPTH STEP
~WELL INFORMATION BLOCK
#MNEM.UNIT           DATA                    DESCRIPTION OF MNEMONIC
#---------    -------------------            -------------------------------
# Generated from Intellog Unique Number	CN_94_101/WELL/3244
WELL.         02-03-096-10W4                 : Well_name    - WELL
LOC .         AA/02-03-096-10W4/0            : Location     - LOCATION
UWI .         AA/02-03-096-10W400            : Uwi          - UNIQUE WELL ID
ENTR.         JOETTE                         : Entered      - ENTERED BY
SRVC.         SCHLUMBERGER                   : Scn          - SERVICE COMPANY
DATE.         07/20/92                       : Date         - LOG DATE
STRT.M        0                              : top_depth    - START DEPTH
STOP.M        110.5                          : bot_depth    - STOP DEPTH
STEP.M        0.25                           : increment    - STEP LENGTH
 NULL. -999.2500:NULL Value
~CURVE INFORMATION BLOCK
#MNEM UNIT       ERCB CURVE CODE    CURVE DESCRIPTION
#-----------   ------------------   ----------------------------------
DEPT.M        00 001 00 00         : DEPTH        - DEPTH
GR  .API      00 310 00 00         : GR           - GAMMA RAY
ILD .OHMM     00 120 00 00         : RESD         - DEEP RESISTIVITY (DIL)
NPHI.V/V      00 330 00 00         : PHIN         - NEUTRON POROSITY (SANDSTONE)
DPHI.V/V      00 890 00 00         : PHID         - DENSITY POROSITY (SANDSTONE)
~PARAMETER INFORMATION
#MNEM.UNIT           DATA             DESCRIPTION OF MNEMONIC
#---------         -----------     ------------------------------
GL  .M        299.8                : gl           - GROUND LEVEL ELEVATION
EREF.M        299.8                : kb           - ELEVATION OF DEPTH REFERENCE
DATM.M        299.8                : datum        - DATUM ELEVATION
TDD .M        112.2                : tdd          - TOTAL DEPTH DRILLER
RUN .         ONE                  : Run          - RUN NUMBER
ENG .         JO                   : Engineer     - RECORDING ENGINEER
WIT .         TIM                  : Witness      - WITNESSED BY
MUD .         GEL                  : Mud_type     - MUD TYPE
MATR.         SANDSTONE            : Logunit      - NEUTRON MATRIX
TMAX.C        16                   : BHT          - MAXIMUM RECORDED TEMPERATURE
BHTD.M        112.2                : BHTDEP       - MAXIMUM RECORDED TEMPERATURE
RMT .C        16                   : MDTP         - TEMPERATURE OF MUD
MUDD.KG/M     0                    : MWT          - MUD DENSITY
NEUT.         1                    : NEUTRON      - NEUTRON TYPE
RESI.         0                    : RESIST       - RESISTIVITY TYPE
RM  .OHMM     6.5                  : RM           - RESISTIVITY OF MUD
RMC .OHMM     6.5                  : RMC          - RESISTIVITY OF MUD CAKE
RMF .OHMM     6.5                  : RMF          - RESISTIVITY OF MUD FILTRATE
SUFT.C        4                    : SUFT         - SURFACE TEMPERATURE
~A  DEPTH       GR     RESD     PHIN     PHID
    0.000   16.745    3.515    0.479    0.349
    0.250   20.576    3.511    0.475    0.346
    0.500   34.062    3.592    0.472    0.336
    0.750   34.014    3.674    0.479    0.331
    1.000   30.087    3.628    0.485    0.334
    1.250   29.395    3.582    0.492    0.337
    1.500   30.636    3.621    0.497    0.330
    1.750   27.997    3.747    0.503    0.329
    2.000   26.684    3.699    0.504    0.331
    2.250   26.636    3.652    0.505    0.331
    2.500   24.655    3.692    0.502    0.331
    2.750   20.740    3.959    0.491    0.332
    3.000   14.879    4.244    0.467    0.330
    3.250   10.964   20.712    0.369    0.329
    3.500   10.272   85.743    0.371    0.326
    3.750   23.102  133.880    0.378    0.264
    4.000   22.421  192.497    0.384    0.270
    4.250   26.228  261.054    0.380    0.279
    4.500   25.547  237.416    0.365    0.287
    4.750   31.300  245.696    0.374    0.295
    5.000   38.998  266.495    0.381    0.269
    5.250   37.016  228.542    0.381    0.263
    5.500   29.866  299.064    0.372    0.256
    5.750   33.685  250.578    0.371    0.251
    6.000   47.828  171.871    0.384    0.248
    6.250   51.003  222.333    0.389    0.246
    6.500   37.408  238.282    0.384    0.249
    6.750   27.693  264.722    0.380    0.269
    7.000   44.402  304.425    0.384    0.274
    7.250   48.865  163.203    0.380    0.280
    7.500   48.817  133.506    0.388    0.267
    7.750   43.613  118.598    0.430    0.264
    8.000   36.475  141.311    0.427    0.265
    8.250   39.650  162.582    0.412    0.263
    8.500   44.113  178.428    0.408    0.262
    8.750   48.577  153.017    0.408    0.264
    9.000   58.208  140.773    0.411    0.269
    9.250   62.672  140.605    0.413    0.273
    9.500   59.389  147.228    0.416    0.267
    9.750   55.462  161.654    0.421    0.256
   10.000   50.914  181.627    0.425    0.260
   10.250   55.366  157.563    0.430    0.275
   10.500   50.818  143.296    0.426    0.278
   10.750   41.747  172.796    0.411    0.280
   11.000   36.543  215.791    0.402    0.273
   11.250   50.029  187.245    0.401    0.271
   11.500   56.426  158.666    0.396    0.274
   11.750   53.156  149.474    0.396    0.274
   12.000   45.374  182.332    0.397    0.272
   12.250   45.326  230.390    0.392    0.273
   12.500   47.211  224.880    0.388    0.269
   12.750   43.917  224.666    0.392    0.273
   13.000   45.814  206.687    0.403    0.282
   13.250   48.989  216.474    0.413    0.287
   13.500   47.651  183.434    0.418    0.289
   13.750   46.959  170.749    0.425    0.284
   14.000   52.067  162.796    0.436    0.275
   14.250   52.651  151.538    0.417    0.231
   14.500   50.025  166.308    0.398    0.225
   14.750   47.399  178.323    0.414    0.268
   15.000   46.718  205.117    0.402    0.287
   15.250   55.693  158.260    0.405    0.279
   15.500   65.325  134.137    0.433    0.270
   15.750   65.265  111.024    0.447    0.270
   16.000   60.061   98.627    0.427    0.269
   16.250   56.778  138.550    0.409    0.266
   16.500   56.098  183.489    0.411    0.266
   16.750   54.761  157.357    0.413    0.270
   17.000   55.357  139.786    0.415    0.276
   17.250   54.664  157.057    0.423    0.279
   17.500   48.816  151.475    0.434    0.281
   17.750   48.111  154.928    0.434    0.281
   18.000   53.876  171.995    0.428    0.284
   18.250   50.605  197.886    0.417    0.285
   18.500   51.846  224.961    0.409    0.288
   18.750   56.942  186.244    0.402    0.285
   19.000   59.472  192.739    0.406    0.277
   19.250   54.924  167.243    0.412    0.271
   19.500   49.696  159.378    0.411    0.272
   19.750   48.359  189.945    0.400    0.272
   20.000   48.956  187.503    0.394    0.273
   20.250   48.263  201.049    0.391    0.280
   20.500   47.583  176.515    0.396    0.282
   20.750   49.456  147.827    0.407    0.285
   21.000   50.064  132.872    0.418    0.286
   21.250   50.661  122.268    0.401    0.285
   21.500   51.902  147.404    0.395    0.282
   21.750   54.432  179.807    0.407    0.278
   22.000   56.293  173.417    0.412    0.272
   22.250   55.625  171.229    0.408    0.266
   22.500   56.866  157.564    0.414    0.261
   22.750   59.395  127.418    0.423    0.261
   23.000   56.769  101.812    0.431    0.262
   23.250   57.366   98.194    0.431    0.261
   23.500   62.462  110.326    0.415    0.255
   23.750   54.047  121.107    0.396    0.245
   24.000   43.031  154.836    0.410    0.229
   24.250   59.107  167.943    0.427    0.215
   24.500   55.825  126.570    0.434    0.232
   24.750   56.433   82.830    0.441    0.248
   25.000   71.196   76.202    0.423    0.256
   25.250   67.293   80.734    0.412    0.268
   25.500   60.144   84.556    0.411    0.260
   25.750   66.541   75.115    0.431    0.256
   26.000   63.927   45.277    0.446    0.253
   26.250   66.457   36.606    0.472    0.246
   26.500   78.654   25.114    0.497    0.237
   26.750   86.984   15.317    0.514    0.218
   27.000  103.061   13.291    0.511    0.219
   27.250  103.645   12.081    0.508    0.215
   27.500   98.441   12.067    0.507    0.215
   27.750  101.616   12.204    0.503    0.214
   28.000  109.314   12.629    0.497    0.209
   28.250   99.586   13.224    0.486    0.203
   28.500  107.916   14.344    0.465    0.198
   28.750   95.611   15.200    0.467    0.199
   29.000   88.485   18.325    0.465    0.217
   29.250   77.469   22.879    0.460    0.222
   29.500   76.776   23.122    0.459    0.216
   29.750   77.361   23.384    0.449    0.182
   30.000   74.102   25.966    0.439    0.163
   30.250   73.397   29.175    0.428    0.168
   30.500   76.572   29.840    0.426    0.185
   30.750   76.524   30.888    0.432    0.226
   31.000   77.120   31.957    0.409    0.229
   31.250   71.928   30.469    0.415    0.240
   31.500   66.712   34.638    0.436    0.243
   31.750   74.398   35.419    0.443    0.232
   32.000   75.651   32.985    0.416    0.214
   32.250   76.892   28.601    0.420    0.196
   32.500   74.266   27.598    0.424    0.211
   32.750   79.374   27.572    0.434    0.219
   33.000   77.392   34.038    0.434    0.218
   33.250   70.863   34.814    0.418    0.215
   33.500   70.827   29.849    0.412    0.227
   33.750   76.604   32.375    0.418    0.242
   34.000   81.712   35.951    0.422    0.253
   34.250   76.496   33.472    0.429    0.239
   34.500   71.936   30.434    0.442    0.224
   34.750   70.599   28.343    0.442    0.218
   35.000   78.929   26.075    0.439    0.220
   35.250   84.037   24.284    0.460    0.228
   35.500   84.622   22.346    0.474    0.232
   35.750   80.719   24.813    0.477    0.221
   36.000   73.581   29.915    0.458    0.203
   36.250   76.111   33.210    0.444    0.195
   36.500   89.597   29.858    0.445    0.208
   36.750   86.327   27.475    0.448    0.218
   37.000   80.478   30.138    0.429    0.225
   37.250   84.942   29.074    0.437    0.232
   37.500   78.449   30.095    0.440    0.243
   37.750   59.698   33.029    0.434    0.240
   38.000   69.974   35.824    0.434    0.240
   38.250   78.304   36.204    0.426    0.241
   38.500   75.678   37.030    0.387    0.190
   38.750   69.818   42.106    0.363    0.147
   39.000   54.946   64.219    0.358    0.097
   39.250   50.387   52.545    0.404    0.148
   39.500   60.006   36.467    0.423    0.203
   39.750   70.915   30.908    0.436    0.218
   40.000   70.222   26.813    0.438    0.214
   40.250   65.650   33.888    0.446    0.202
   40.500   73.348   36.757    0.468    0.209
   40.750   80.378   26.424    0.479    0.218
   41.000   77.119   24.603    0.466    0.229
   41.250   71.259   38.869    0.452    0.253
   41.500   68.633   54.602    0.432    0.256
   41.750   66.007   94.739    0.427    0.237
   42.000   62.748   72.243    0.425    0.233
   42.250   61.387   60.516    0.430    0.218
   42.500   65.874   51.886    0.434    0.207
   42.750   80.005   44.496    0.449    0.208
   43.000  103.816   26.198    0.456    0.205
   43.250  109.568   20.214    0.475    0.201
