~VERSION INFORMATION
 VERS.                 2.0:   CWLS LOG ASCII STANDARD -VERSION 2.0
 WRAP.                  NO:   ONE LINE PER DEPTH STEP
~WELL INFORMATION BLOCK
#MNEM.UNIT           DATA                    DESCRIPTION OF MNEMONIC
#---------    -------------------            -------------------------------
# Generated from Intellog Unique Number	CW_76_78/WELL/2567
WELL.         06-06-078-25W4                 : Well_name    - WELL
LOC .         AA/06-06-078-25W4/0            : Location     - LOCATION
UWI .         AA/06-06-078-25W4/0            : Uwi          - UNIQUE WELL ID
ENTR.         MAX                            : Entered      - ENTERED BY
SRVC.         SCHLUMBERGER                   : Scn          - SERVICE COMPANY
STRT.M        350                            : top_depth    - START DEPTH
STOP.M        590                            : bot_depth    - STOP DEPTH
STEP.M        0.25                           : increment    - STEP LENGTH
 NULL. -999.2500:NULL Value
~CURVE INFORMATION BLOCK
#MNEM UNIT       ERCB CURVE CODE    CURVE DESCRIPTION
#-----------   ------------------   ----------------------------------
DEPT.M        00 001 00 00         : DEPTH        - DEPTH
ILD .OHMM     00 120 00 00         : RESD         - DEEP RESISTIVITY (DIL)
NPHI.V/V      00 330 00 00         : PHIN         - NEUTRON POROSITY (SANDSTONE)
DPHI.V/V      00 890 00 00         : PHID         - DENSITY POROSITY (SANDSTONE)
CALI.MM       00 280 01 00         : CAL          - CALIPER
GR  .API      00 310 00 00         : GR           - GAMMA RAY
~PARAMETER INFORMATION
#MNEM.UNIT           DATA             DESCRIPTION OF MNEMONIC
#---------         -----------     ------------------------------
GL  .M        645.28               : gl           - GROUND LEVEL ELEVATION
EREF.M        650.03               : kb           - ELEVATION OF DEPTH REFERENCE
DATM.M        645.28               : datum        - DATUM ELEVATION
TDD .M        594                  : tdd          - TOTAL DEPTH DRILLER
RUN .         ONE                  : Run          - RUN NUMBER
ENG .         BILL                 : Engineer     - RECORDING ENGINEER
WIT .         JIM                  : Witness      - WITNESSED BY
MUD .         GEL                  : Mud_type     - MUD TYPE
MATR.         SANDSTONE            : Logunit      - NEUTRON MATRIX
TMAX.C        34.4                 : BHT          - MAXIMUM RECORDED TEMPERATURE
BHTD.M        594                  : BHTDEP       - MAXIMUM RECORDED TEMPERATURE
RMT .C        18                   : MDTP         - TEMPERATURE OF MUD
MUDD.KG/M     8.5                  : MWT          - MUD DENSITY
NEUT.         1                    : NEUTRON      - NEUTRON TYPE
RESI.         0                    : RESIST       - RESISTIVITY TYPE
RM  .OHMM     6.56                 : RM           - RESISTIVITY OF MUD
RMC .OHMM     0.25                 : RMC          - RESISTIVITY OF MUD CAKE
RMF .OHMM     5.94                 : RMF          - RESISTIVITY OF MUD FILTRATE
SUFT.C        -20                  : SUFT         - SURFACE TEMPERATURE
~A  DEPTH     RESD     PHIN     PHID      CAL       GR
# ...
  386.500    4.648    0.484    0.232  223.128   90.901
  386.750    5.604    0.481    0.224  221.703   89.463
  387.000    5.990    0.478    0.223  219.297   87.427
  387.250    6.642    0.454    0.255  217.386   84.200
  387.500    7.505    0.422    0.276  214.009   79.787
  387.750    8.803    0.407    0.275  213.078   74.489
  388.000    9.495    0.391    0.270  212.163   69.192
  388.250    9.867    0.389    0.265  212.212   68.935
  388.500   10.255    0.383    0.256  212.286   69.863
  388.750   10.361    0.388    0.245  212.351   71.390
  389.000   10.471    0.396    0.237  212.408   73.208
  389.250   10.485    0.389    0.241  212.481   74.729
  389.500   10.399    0.382    0.236  212.547   76.256
  389.750   10.128    0.396    0.224  212.620   76.893
  390.000    9.502    0.392    0.213  213.674   77.219
  390.250    9.080    0.388    0.200  218.178   77.554
  390.500    8.597    0.383    0.215  226.643   77.307
  390.750    8.216    0.408    0.215  233.140   76.447
  391.000    7.706    0.416    0.220  231.237   74.114
  391.250    7.030    0.408    0.228  227.836   70.304
  391.500    6.236    0.408    0.232  225.924   69.760
  391.750    5.533    0.429    0.240  230.437   70.970
  392.000    5.386    0.474    0.270  237.420   71.603
  392.250    6.743    0.488    0.282  236.513   68.974
  392.500    8.443    0.477    0.279  231.127   62.194
  392.750   10.664    0.451    0.281  220.321   57.494
  393.000   13.225    0.422    0.295  212.481   50.418
  393.250   15.657    0.411    0.294  209.581   47.789
  393.500   16.272    0.404    0.278  208.666   46.642
  393.750   15.843    0.404    0.276  208.732   46.676
  394.000   14.860    0.403    0.272  208.797   47.313
  394.250   12.940    0.402    0.277  208.854   47.946
  394.500   11.267    0.403    0.285  208.928   48.573
  394.750    9.720    0.406    0.289  208.993   49.798
  395.000    8.950    0.426    0.281  209.058   50.727
  395.250    8.635    0.425    0.293  209.626   50.776
  395.500    8.808    0.408    0.293  209.683   51.111
  395.750    9.151    0.410    0.289  210.745   52.035
  396.000    9.336    0.417    0.279  211.296   53.556
  396.250    9.260    0.429    0.279  212.349   55.967
  396.500    8.688    0.426    0.255  212.423   58.378
  396.750    7.926    0.407    0.237  211.508   60.508
  397.000    7.163    0.407    0.251  209.589   61.728
  397.250    6.595    0.421    0.259  209.152   62.948
  397.500    6.541    0.461    0.275  210.205   63.585
  397.750    7.257    0.469    0.284  212.749   63.921
  398.000    8.047    0.441    0.275  214.799   63.965
  398.250    9.350    0.418    0.276  215.351   61.622
  398.500   10.566    0.398    0.260  215.918   57.812
  398.750   10.579    0.401    0.238  217.474   56.068
  399.000    9.741    0.411    0.208  220.488   56.107
  399.250    8.097    0.413    0.208  225.494   58.518
  399.500    7.318    0.422    0.220  232.494   62.421
  399.750    6.082    0.469    0.237  237.986   65.123
  400.000    5.813    0.486    0.225  247.958   68.132
  400.250    5.661    0.496    0.227  245.537   69.945
  400.500    5.562    0.492    0.240  249.077   71.768
  400.750    5.835    0.495    0.260  247.150   71.215
  401.000    6.009    0.493    0.280  246.737   69.771
  401.250    5.849    0.499    0.300  252.221   67.448
  401.500    5.849    0.489    0.334  254.757   66.885
  401.750    5.702    0.442    0.306  235.552   67.527
  402.000    5.449    0.421    0.278  244.025   69.632
  402.250    5.355    0.417    0.273  246.059   71.459
  402.500    5.362    0.437    0.296  247.121   69.720
  402.750    5.368    0.456    0.321  252.135   68.267
  403.000    5.475    0.473    0.342  260.593   67.723
  403.250    5.638    0.509    0.360  262.148   67.465
  403.500    5.749    0.494    0.366  273.587   67.198
  403.750    5.921    0.482    0.296  259.800   67.539
  404.000    5.984    0.464    0.274  240.595   67.879
  404.250    6.046    0.442    0.277  246.104   66.145
  404.500    6.341    0.452    0.256  242.208   63.511
  404.750    7.368    0.470    0.286  236.846   60.872
  405.000   10.123    0.459    0.337  230.973   57.353
  405.250   11.984    0.432    0.288  215.721   56.508
  405.500   14.186    0.426    0.257  221.222   56.839
  405.750   17.434    0.422    0.283  222.275   57.179
  406.000   18.454    0.405    0.255  217.893   57.821
  406.250   22.262    0.397    0.235  216.979   58.152
  406.500   23.561    0.389    0.234  216.056   58.196
  406.750   23.374    0.389    0.233  215.133   57.929
  407.000   22.135    0.389    0.237  214.696   57.973
  407.250   20.193    0.373    0.248  214.275   57.716
  407.500   18.245    0.387    0.258  213.838   56.277
  407.750   15.888    0.402    0.263  211.935   55.714
  408.000   15.186    0.424    0.276  211.012   54.864
  408.250   15.781    0.414    0.285  210.089   53.722
  408.500   16.863    0.409    0.292  208.672   52.867
  408.750   19.590    0.415    0.284  207.247   51.720
  409.000   21.734    0.418    0.285  205.336   50.277
  409.250   22.373    0.422    0.275  204.421   48.250
  409.500   22.827    0.429    0.281  203.506   47.395
  409.750   22.640    0.432    0.293  203.555   47.133
  410.000   22.246    0.430    0.298  203.645   47.474
  410.250   20.486    0.421    0.306  203.694   47.537
  410.500   19.215    0.415    0.297  204.269   48.441
  410.750   17.693    0.402    0.301  204.327   49.671
  411.000   16.446    0.402    0.299  204.886   49.706
  411.250   15.715    0.423    0.296  205.437   49.157
  411.500   15.021    0.419    0.303  205.511   48.603
  411.750   14.356    0.422    0.312  205.568   48.637
  412.000   13.850    0.425    0.308  205.649   48.973
  412.250   13.358    0.415    0.311  206.703   49.309
  412.500   13.006    0.416    0.311  207.757   49.955
  412.750   12.546    0.424    0.309  208.308   49.955
  413.000   12.216    0.426    0.308  208.389   50.024
  413.250   11.896    0.430    0.307  208.447   50.364
  413.500   11.687    0.438    0.304  208.504   50.695
  413.750   11.487    0.437    0.311  208.585   50.734
  414.000   11.186    0.428    0.314  208.634   51.070
  414.250   10.990    0.418    0.306  210.182   51.114
  414.500   10.902    0.425    0.295  210.749   51.746
  414.750   10.917    0.422    0.301  212.297   52.971
  415.000   10.929    0.424    0.310  213.367   53.608
  415.250   11.047    0.424    0.309  213.416   53.657
  415.500   11.265    0.426    0.297  212.493   53.089
  415.750   11.386    0.417    0.294  212.072   52.535
  416.000   11.504    0.417    0.300  212.632   51.986
  416.250   11.626    0.415    0.306  213.183   52.020
  416.500   11.749    0.408    0.307  213.257   51.773
  416.750   11.984    0.411    0.301  213.314   52.099
  417.000   12.225    0.443    0.293  212.893   52.736
  417.250   12.128    0.443    0.284  212.950   53.363
  417.500   12.029    0.437    0.280  213.032   55.186
  417.750   11.934    0.442    0.278  212.595   57.004
  418.000   11.726    0.436    0.286  212.182   57.344
  418.250   11.633    0.425    0.282  211.737   56.489
  418.500   11.432    0.415    0.283  211.308   56.232
  418.750   11.338    0.414    0.284  210.896   57.457
  419.000   11.354    0.415    0.268  210.945   58.094
  419.250   11.579    0.415    0.259  211.018   57.842
  419.500   12.033    0.415    0.269  211.075   56.685
  419.750   12.506    0.408    0.271  210.655   54.654
  420.000   12.997    0.394    0.271  210.728   52.613
  420.250   13.255    0.377    0.278  212.762   50.577
  420.500   13.521    0.369    0.249  221.721   49.430
  420.750   13.791    0.429    0.270  224.265   49.178
  421.000   14.198    0.417    0.323  217.899   46.850
  421.250   14.895    0.430    0.334  210.560   44.809
  421.500   15.771    0.437    0.339  209.135   43.361
  421.750   16.694    0.424    0.322  208.723   41.918
  422.000   18.694    0.406    0.284  208.278   39.886
  422.250   20.345    0.366    0.259  207.906   37.845
  422.500   22.151    0.339    0.229  207.428   36.703
  422.750   22.174    0.349    0.196  207.485   35.557
