~VERSION INFORMATION
 VERS.                 2.0:   CWLS LOG ASCII STANDARD -VERSION 2.0
 WRAP.                  NO:   ONE LINE PER DEPTH STEP
~WELL INFORMATION BLOCK
#MNEM.UNIT           DATA                    DESCRIPTION OF MNEMONIC
#---------    -------------------            -------------------------------
# Generated from Intellog Unique Number	CC_88_90/WELL/3140
WELL.         ESSO RESOURCES                 : Well_name    - WELL
LOC .         AA/06-35-089-10W4/0            : Location     - LOCATION
UWI .         AA/06-35-089-10W400            : Uwi          - UNIQUE WELL ID
ENTR.         JOETTE                         : Entered      - ENTERED BY
SRVC.         SCHLUMBERGER                   : Scn          - SERVICE COMPANY
DATE.         03/02/92                       : Date         - LOG DATE
STRT.M        20                             : top_depth    - START DEPTH
STOP.M        120                            : bot_depth    - STOP DEPTH
STEP.M        0.25                           : increment    - STEP LENGTH
 NULL. -999.2500:NULL Value
~CURVE INFORMATION BLOCK
#MNEM UNIT       ERCB CURVE CODE    CURVE DESCRIPTION
#-----------   ------------------   ----------------------------------
DEPT.M        00 001 00 00         : DEPTH        - DEPTH
GR  .API      00 310 00 00         : GR           - GAMMA RAY
CALI.MM       00 280 01 00         : CAL          - CALIPER
NPHI.V/V      00 330 00 00         : PHIN         - NEUTRON POROSITY (SANDSTONE)
DPHI.V/V      00 890 00 00         : PHID         - DENSITY POROSITY (SANDSTONE)
ILD .OHMM     00 120 00 00         : RESD         - DEEP RESISTIVITY (DIL)
~PARAMETER INFORMATION
#MNEM.UNIT           DATA             DESCRIPTION OF MNEMONIC
#---------         -----------     ------------------------------
GL  .M        367.5                : gl           - GROUND LEVEL ELEVATION
EREF.M        367.5                : kb           - ELEVATION OF DEPTH REFERENCE
DATM.M        367.5                : datum        - DATUM ELEVATION
TDD .M        129.7                : tdd          - TOTAL DEPTH DRILLER
RUN .         ONE                  : Run          - RUN NUMBER
ENG .         JO                   : Engineer     - RECORDING ENGINEER
WIT .         TIM                  : Witness      - WITNESSED BY
MUD .         GEL                  : Mud_type     - MUD TYPE
MATR.         SANDSTONE            : Logunit      - NEUTRON MATRIX
TMAX.C        6.7                  : BHT          - MAXIMUM RECORDED TEMPERATURE
BHTD.M        129.7                : BHTDEP       - MAXIMUM RECORDED TEMPERATURE
RMT .C        16                   : MDTP         - TEMPERATURE OF MUD
MUDD.KG/M     1                    : MWT          - MUD DENSITY
NEUT.         1                    : NEUTRON      - NEUTRON TYPE
RESI.         0                    : RESIST       - RESISTIVITY TYPE
RM  .OHMM     36.5                 : RM           - RESISTIVITY OF MUD
RMC .OHMM     9.3                  : RMC          - RESISTIVITY OF MUD CAKE
RMF .OHMM     10                   : RMF          - RESISTIVITY OF MUD FILTRATE
SUFT.C        4                    : SUFT         - SURFACE TEMPERATURE
~A  DEPTH       GR      CAL     PHIN     PHID     RESD
# ...
   93.000   25.505  172.031    0.447    0.327 1727.130
   93.250   21.820  172.172    0.430    0.317  978.073
   93.500   31.042  172.228    0.431    0.308  319.519
   93.750   48.867  171.347    0.431    0.299  231.550
   94.000   44.568  171.459    0.438    0.291  290.880
   94.250   42.728  169.586    0.467    0.292  523.984
   94.500   45.190  165.755    0.427    0.299  100.638
   94.750   47.651  164.874    0.418    0.295  326.410
   95.000   71.622  165.015    0.447    0.296  100.733
   95.250   87.604  164.106    0.448    0.292   89.939
   95.500   92.523  162.232    0.456    0.280  110.861
   95.750   94.370  160.331    0.449    0.286   88.332
   96.000   77.780  157.521    0.419    0.285  129.151
   96.250   71.638  157.605    0.416    0.264   90.109
   96.500   86.391  156.724    0.424    0.267   76.002
   96.750   96.841  156.808    0.426    0.272   62.899
   97.000   96.230  156.977    0.416    0.263   61.754
   97.250   95.618  157.033    0.401    0.248   58.358
   97.500   82.716  157.201    0.412    0.243   48.297
   97.750   72.272  157.285    0.424    0.236   47.412
   98.000   64.285  156.377    0.424    0.217   61.864
   98.250   64.903  156.517    0.393    0.244   64.286
   98.500   82.728  156.601    0.399    0.255   74.866
   98.750   82.117  156.713    0.409    0.267   82.354
   99.000   75.360  156.826    0.428    0.273   88.888
   99.250   75.363  157.959    0.437    0.272   55.345
   99.500   77.210  160.085    0.406    0.267   57.513
   99.750   71.068  161.162    0.425    0.261   68.252
  100.000   69.227  161.274    0.505    0.286  201.339
  100.250   66.772  162.407    0.461    0.311   89.099
  100.500   63.702  162.519    0.415    0.300  109.825
  100.750   46.498  162.659    0.432    0.277  101.848
  101.000   45.886  162.744    0.431    0.274   65.867
  101.250   55.722  162.828    0.407    0.269   71.093
  101.500   73.548  161.947    0.404    0.270   51.520
  101.750   83.999  162.115    0.467    0.300  343.637
  102.000   79.700  161.179    0.482    0.323  431.687
  102.250   66.797  161.319    0.441    0.333  465.939
  102.500   48.978  161.431    0.458    0.334  448.805
  102.750   71.105  161.515    0.442    0.318  222.553
  103.000   95.691  161.684    0.470    0.319  337.978
  103.250  123.964  161.768    0.443    0.331  149.584
  103.500  115.978  161.852    0.400    0.328  264.361
  103.750  115.981  161.992    0.410    0.310  191.578
  104.000  124.588  162.076    0.433    0.297  110.568
  104.250  120.904  162.217    0.440    0.292  214.877
  104.500   92.637  162.301    0.435    0.298  181.237
  104.750   76.047  161.420    0.454    0.300  124.074
  105.000   47.780  160.568    0.430    0.300  434.198
  105.250   63.762  160.652    0.414    0.312  387.669
  105.500  106.785  160.792    0.430    0.301  223.715
  105.750  104.330  160.904    0.460    0.298  162.122
  106.000  106.176  161.017    0.490    0.306  131.651
  106.250   93.888  161.129    0.455    0.287  159.245
  106.500   61.934  161.269    0.455    0.293  601.143
  106.750   44.115  161.353    0.483    0.317  648.841
  107.000   65.014  161.521    0.444    0.330  271.247
  107.250   74.235  161.578    0.429    0.352 1104.670
  107.500   83.457  161.718    0.441    0.326  847.415
  107.750  113.573  161.802    0.429    0.337  558.536
  108.000   96.984  160.921    0.437    0.332  548.300
  108.250   55.196  161.090    0.425    0.329 1217.020
  108.500   39.221  161.146    0.444    0.334  702.398
  108.750   52.744  162.251    0.461    0.328  445.666
  109.000   66.882  163.356    0.469    0.335  499.688
  109.250   77.948  163.468    0.478    0.354  335.655
  109.500   87.169  164.601    0.414    0.322  252.620
  109.750   83.485  164.742    0.422    0.326  472.771
  110.000   75.499  165.790    0.437    0.331  398.710
  110.250   73.044  165.903    0.488    0.329  510.464
  110.500   77.349  166.043    0.447    0.340  551.032
  110.750   74.894  167.148    0.419    0.351  520.733
  111.000   76.126  167.232    0.431    0.344  330.479
  111.250   67.525  168.337    0.457    0.325  234.965
  111.500   63.841  169.442    0.447    0.313  187.217
  111.750   65.688  168.618    0.412    0.311  791.931
  112.000   59.545  167.709    0.418    0.316  483.825
  112.250   54.632  166.828    0.415    0.328  474.958
  112.500   60.781  164.983    0.423    0.346  631.672
  112.750   63.242  164.102    0.440    0.349  553.319
  113.000   58.944  164.215    0.447    0.350  290.447
  113.250   62.020  164.299    0.431    0.341  379.023
  113.500   70.627  164.467    0.420    0.335  441.347
  113.750   73.703  164.551    0.404    0.340  386.647
  114.000   74.935  165.656    0.404    0.326  450.278
  114.250   74.324  166.761    0.344    0.222  302.429
  114.500   71.869  167.866    0.360    0.175   13.736
  114.750   63.883  168.972    0.395    0.130   31.665
  115.000   63.885  166.105    0.383    0.065   47.185
  115.250   66.347  163.239    0.246    0.029   75.853
  115.500   67.579  161.394    0.217    0.033   86.666
  115.750   76.187  161.450    0.220    0.028   74.498
  116.000   71.887  161.562    0.219    0.030   69.095
  116.250   69.432  162.695    0.226    0.028   71.801
  116.500   66.362  163.800    0.218    0.034   66.586
  116.750   66.980  163.912    0.223    0.037   61.757
  117.000   68.213  163.996    0.219    0.033   55.132
  117.250   65.757  164.137    0.220    0.032   47.392
  117.500   67.605  163.228    0.224    0.042   49.254
  117.750   76.212  163.340    0.232    0.029   45.671
  118.000   74.371  163.480    0.237    0.034   40.010
  118.250   70.072  163.593    0.243    0.030   83.885
  118.500   72.534  163.733    0.159    0.038  140.066
  118.750   71.308  162.796    0.163    0.052  166.261
  119.000   67.623  162.937    0.170    0.034  160.109
  119.250   65.168  162.056    0.175    0.032  130.016
  119.500   74.390  162.196    0.178    0.020  107.613
  119.750   71.935  163.273    0.176    0.019  120.643
  120.000   59.032  163.413    0.170    0.017  111.881
