~VERSION INFORMATION
 VERS.                 2.0:   CWLS LOG ASCII STANDARD -VERSION 2.0
 WRAP.                  NO:   ONE LINE PER DEPTH STEP
~WELL INFORMATION BLOCK
#MNEM.UNIT           DATA                    DESCRIPTION OF MNEMONIC
#---------    -------------------            -------------------------------
# Generated from Intellog Unique Number	CN_94_101/WELL/3271
WELL.         CDC OIL & GAS LTD.             : Well_name    - WELL
LOC .         AA/01-01-095-07W4/0            : Location     - LOCATION
UWI .         AA/01-01-095-07W400            : Uwi          - UNIQUE WELL ID
ENTR.         TIM                            : Entered      - ENTERED BY
SRVC.         SCHLUMBERGER                   : Scn          - SERVICE COMPANY
DATE.         07/22/92                       : Date         - LOG DATE
STRT.M        90                             : top_depth    - START DEPTH
STOP.M        300                            : bot_depth    - STOP DEPTH
STEP.M        0.25                           : increment    - STEP LENGTH
 NULL. -999.2500:NULL Value
~CURVE INFORMATION BLOCK
#MNEM UNIT       ERCB CURVE CODE    CURVE DESCRIPTION
#-----------   ------------------   ----------------------------------
DEPT.M        00 001 00 00         : DEPTH        - DEPTH
GR  .API      00 310 00 00         : GR           - GAMMA RAY
ILD .OHMM     00 120 00 00         : RESD         - DEEP RESISTIVITY (DIL)
NPHI.V/V      00 330 00 00         : PHIN         - NEUTRON POROSITY (SANDSTONE)
DPHI.V/V      00 890 00 00         : PHID         - DENSITY POROSITY (SANDSTONE)
~PARAMETER INFORMATION
#MNEM.UNIT           DATA             DESCRIPTION OF MNEMONIC
#---------         -----------     ------------------------------
GL  .M        530.35               : gl           - GROUND LEVEL ELEVATION
EREF.M        531.35               : kb           - ELEVATION OF DEPTH REFERENCE
DATM.M        531.35               : datum        - DATUM ELEVATION
TDD .M        298                  : tdd          - TOTAL DEPTH DRILLER
RUN .         0.000000             : Run          - RUN NUMBER
MUD .         GEL                  : Mud_type     - MUD TYPE
MATR.         SANDSTONE            : Logunit      - NEUTRON MATRIX
TMAX.C        18                   : BHT          - MAXIMUM RECORDED TEMPERATURE
BHTD.M        298.5                : BHTDEP       - MAXIMUM RECORDED TEMPERATURE
RMT .C        18                   : MDTP         - TEMPERATURE OF MUD
MUDD.KG/M     1140                 : MWT          - MUD DENSITY
NEUT.         1                    : NEUTRON      - NEUTRON TYPE
RESI.         0                    : RESIST       - RESISTIVITY TYPE
RM  .OHMM     5.88                 : RM           - RESISTIVITY OF MUD
RMC .OHMM     5.88                 : RMC          - RESISTIVITY OF MUD CAKE
RMF .OHMM     6.6                  : RMF          - RESISTIVITY OF MUD FILTRATE
SUFT.C        4                    : SUFT         - SURFACE TEMPERATURE
BTZC.MM       0                    : BITZC        - BIT SIZE CONSTANT
MDW .KG/M     1120                 : MDW          - MUD WEIGHT
~A  DEPTH       GR     RESD     PHIN     PHID
   90.000   69.506   29.725    0.338    0.228
   90.250   70.100   28.666    0.336    0.233
   90.500   70.078   26.648    0.330    0.201
   90.750   69.446   26.186    0.323    0.201
   91.000   68.194   26.211    0.313    0.202
   91.250   67.551   26.231    0.305    0.200
   91.500   66.299   26.734    0.295    0.191
   91.750   65.047   28.275    0.286    0.176
   92.000   63.789   30.467    0.291    0.170
   92.250   62.548   32.218    0.297    0.185
   92.500   61.911   34.075    0.306    0.190
   92.750   62.504   38.804    0.315    0.196
   93.000   63.713   41.033    0.332    0.225
   93.250   66.152   45.046    0.359    0.252
   93.500   69.200   45.063    0.389    0.280
   93.750   71.644   45.097    0.412    0.301
   94.000   72.232   45.131    0.447    0.309
   94.250   72.210   45.173    0.422    0.327
   94.500   70.963   45.207    0.405    0.343
   94.750   69.096   46.074    0.420    0.330
   95.000   67.838   46.109    0.431    0.340
   95.250   66.586   46.153    0.416    0.330
   95.500   65.340   46.196    0.379    0.247
   95.750   62.236   46.222    0.345    0.218
   96.000   59.754   47.118    0.320    0.210
   96.250   56.656   49.843    0.310    0.193
   96.500   52.328   52.707    0.305    0.198
   96.750   49.846   60.022    0.303    0.209
   97.000   47.979   65.866    0.300    0.199
   97.250   47.951   69.677    0.296    0.188
   97.500   49.775   68.443    0.293    0.183
   97.750   52.214   66.003    0.286    0.180
   98.000   55.273   59.138    0.282    0.179
   98.250   58.327   50.136    0.303    0.182
   98.500   61.990   40.966    0.318    0.187
   98.750   63.204   34.096    0.323    0.217
   99.000   63.792   27.860    0.334    0.233
   99.250   63.770   26.386    0.372    0.259
   99.500   62.518   28.955    0.419    0.385
   99.750   60.041   30.624    0.449    0.418
  100.000   55.713   31.792    0.477    0.413
  100.250   56.922   31.822    0.429    0.371
  100.500   60.585   30.688    0.398    0.236
  100.750   63.024   28.018    0.318    0.179
  101.000   66.078   27.024    0.318    0.182
  101.250   67.281   26.546    0.317    0.203
  101.500   67.270   25.609    0.318    0.212
  101.750   67.248   25.156    0.318    0.189
  102.000   68.451   25.180    0.318    0.210
  102.250   69.049   25.189    0.317    0.210
  102.500   70.252   25.213    0.314    0.190
  102.750   70.220   25.701    0.314    0.215
  103.000   70.209   26.194    0.319    0.240
  103.250   68.940   27.203    0.322    0.242
  103.500   68.929   27.730    0.329    0.183
  103.750   67.671   28.267    0.334    0.182
  104.000   67.045   28.294    0.329    0.181
  104.250   67.018   28.310    0.325    0.192
  104.500   67.611   28.337    0.331    0.198
  104.750   68.210   27.840    0.341    0.209
  105.000   68.803   26.853    0.331    0.211
  105.250   68.781   25.896    0.323    0.193
  105.500   68.760   24.521    0.323    0.190
  105.750   68.738   23.656    0.325    0.182
  106.000   68.095   23.674    0.328    0.175
  106.250   68.073   23.692    0.334    0.173
  106.500   68.667   23.705    0.340    0.190
  106.750   69.260   24.164    0.327    0.191
  107.000   69.238   24.187    0.316    0.173
  107.250   68.596   23.763    0.341    0.171
  107.500   67.959   21.688    0.370    0.179
  107.750   67.942   20.533    0.378    0.204
  108.000   68.541   17.089    0.398    0.231
  108.250   69.134   14.488    0.414    0.259
  108.500   69.107   12.744    0.443    0.316
  108.750   69.079   12.521    0.474    0.363
  109.000   67.827   13.489    0.494    0.360
  109.250   65.339   14.532    0.490    0.342
  109.500   63.477   15.655    0.479    0.355
  109.750   60.380   17.828    0.467    0.365
  110.000   57.897   19.928    0.470    0.360
  110.250   55.415   23.116    0.476    0.357
  110.500   54.163   25.839    0.482    0.359
  110.750   54.756   27.328    0.490    0.362
  111.000   57.195   27.344    0.491    0.365
  111.250   59.633   26.870    0.486    0.359
  111.500   60.836   26.890    0.475    0.354
  111.750   60.825   26.910    0.455    0.357
  112.000   59.573   26.936    0.446    0.361
  112.250   56.476   26.454    0.448    0.363
  112.500   53.373   25.515    0.457    0.357
  112.750   54.581   21.241    0.467    0.342
  113.000   57.640   19.746    0.475    0.329
  113.250   59.464   19.400    0.470    0.332
  113.500   61.288   19.776    0.463    0.342
  113.750   62.490   20.155    0.464    0.344
  114.000   63.073   21.713    0.466    0.344
  114.250   63.062   22.965    0.463    0.344
  114.500   63.040   23.850    0.461    0.344
  114.750   62.398   23.863    0.462    0.344
  115.000   61.766   23.882    0.466    0.345
  115.250   59.278   23.468    0.462    0.345
  115.500   57.416   23.056    0.457    0.346
  115.750   54.928   22.239    0.456    0.344
  116.000   53.681   21.450    0.456    0.340
  116.250   53.039   21.070    0.457    0.340
  116.500   52.407   22.293    0.457    0.343
  116.750   52.995   23.143    0.459    0.348
  117.000   54.204   24.938    0.458    0.350
  117.250   54.802   24.957    0.456    0.350
  117.500   55.379   22.777    0.458    0.350
  117.750   55.374   20.035    0.461    0.350
  118.000   55.346   18.621    0.470    0.350
  118.250   55.330   20.434    0.480    0.358
  118.500   55.303   25.046    0.475    0.364
  118.750   55.281   30.699    0.485    0.374
  119.000   54.029   36.272    0.506    0.389
  119.250   52.161   39.797    0.512    0.389
  119.500   52.134   41.322    0.479    0.374
  119.750   52.118   42.123    0.435    0.356
  120.000   52.096   42.170    0.430    0.305
  120.250   52.689   42.194    0.427    0.306
  120.500   54.513   42.234    0.426    0.311
  120.750   56.336   42.266    0.424    0.319
  121.000   57.545   42.290    0.424    0.325
  121.250   58.127   42.322    0.427    0.330
  121.500   58.116   41.588    0.436    0.333
  121.750   58.704   40.859    0.447    0.339
  122.000   58.682   40.143    0.460    0.340
  122.250   59.275   38.720    0.460    0.345
  122.500   59.253   36.664    0.437    0.345
  122.750   59.846   34.091    0.439    0.341
  123.000   59.825   32.875    0.441    0.338
  123.250   60.413   31.703    0.444    0.339
  123.500   60.396   30.026    0.447    0.341
  123.750   61.599   28.962    0.449    0.345
  124.000   61.583   27.934    0.450    0.345
  124.250   60.946   26.457    0.450    0.340
  124.500   59.693   25.983    0.450    0.331
  124.750   58.436   26.003    0.443    0.308
  125.000   57.194   34.310    0.424    0.281
  125.250   54.086   51.505    0.226    0.066
  125.500   52.839   66.731    0.194    0.050
  125.750   50.961   80.298    0.196    0.057
  126.000   50.335   81.869    0.206    0.056
  126.250   50.313   73.339    0.233    0.065
  126.500   52.131   57.757    0.256    0.082
  126.750   53.955   48.071    0.264    0.120
  127.000   56.388   40.754    0.299    0.156
  127.250   59.447   35.193    0.431    0.197
  127.500   61.886   31.538    0.458    0.269
  127.750   63.710   29.324    0.470    0.330
  128.000   63.688   28.279    0.464    0.332
  128.250   61.205   27.794    0.457    0.332
  128.500   58.723   27.297    0.449    0.332
  128.750   56.246   27.317    0.442    0.332
  129.000   53.143   27.343    0.438    0.331
  129.250   53.126   27.358    0.440    0.329
  129.500   53.720   28.941    0.440    0.323
  129.750   53.083   29.491    0.440    0.294
  130.000   50.600   31.783    0.426    0.225
  130.250   48.118   32.995    0.378    0.193
  130.500   43.790   34.897    0.362    0.181
  130.750   41.911   36.228    0.430    0.249
  131.000   43.114   38.317    0.452    0.288
  131.250   43.719   40.534    0.454    0.328
  131.500   43.691   42.087    0.451    0.357
  131.750   43.060   42.903    0.446    0.345
  132.000   42.417   42.935    0.440    0.349
  132.250   42.395   42.968    0.450    0.346
  132.500   42.373   43.816    0.470    0.343
  132.750   42.967   44.657    0.477    0.355
  133.000   43.555   45.513    0.486    0.365
  133.250   42.928   47.258    0.487    0.365
