~VERSION INFORMATION
 VERS.                 2.0:   CWLS LOG ASCII STANDARD -VERSION 2.0
 WRAP.                  NO:   ONE LINE PER DEPTH STEP
~WELL INFORMATION BLOCK
#MNEM.UNIT           DATA                    DESCRIPTION OF MNEMONIC
#---------    -------------------            -------------------------------
# Generated from Intellog Unique Number	CX_WELLS/WELL/3021
WELL.         UNION OIL COMPANY OF CALIFORNI : Well_name    - WELL
LOC .         AA/03-36-090-11W4/0            : Location     - LOCATION
UWI .         AA/03-36-090-11W400            : Uwi          - UNIQUE WELL ID
ENTR.         JOETTE                         : Entered      - ENTERED BY
SRVC.         COMPUTALOG                     : Scn          - SERVICE COMPANY
DATE.         03/06/92                       : Date         - LOG DATE
STRT.M        30.480                         : top_depth    - START DEPTH
STOP.M        131.480                        : bot_depth    - STOP DEPTH
STEP.M        0.25                           : increment    - STEP LENGTH
 NULL. -999.2500:NULL Value
~CURVE INFORMATION BLOCK
#MNEM UNIT       ERCB CURVE CODE    CURVE DESCRIPTION
#-----------   ------------------   ----------------------------------
DEPT.M        00 001 00 00         : DEPTH        - DEPTH
GR  .API      00 310 00 00         : GR           - GAMMA RAY
NPHI.V/V      00 330 00 00         : PHIN         - NEUTRON POROSITY (SANDSTONE)
ILD .OHMM     00 120 00 00         : RESD         - DEEP RESISTIVITY (DIL)
~PARAMETER INFORMATION
#MNEM.UNIT           DATA             DESCRIPTION OF MNEMONIC
#---------         -----------     ------------------------------
GL  .M        403.25               : gl           - GROUND LEVEL ELEVATION
EREF.M        403.25               : kb           - ELEVATION OF DEPTH REFERENCE
DATM.M        403.25               : datum        - DATUM ELEVATION
TDD .M        153.924              : tdd          - TOTAL DEPTH DRILLER
RUN .         ONE                  : Run          - RUN NUMBER
ENG .         JO                   : Engineer     - RECORDING ENGINEER
WIT .         TIM                  : Witness      - WITNESSED BY
MUD .         GEL                  : Mud_type     - MUD TYPE
MATR.         SANDSTONE            : Logunit      - NEUTRON MATRIX
TMAX.C        22                   : BHT          - MAXIMUM RECORDED TEMPERATURE
BHTD.M        153.924              : BHTDEP       - MAXIMUM RECORDED TEMPERATURE
RMT .C        1.66667              : MDTP         - TEMPERATURE OF MUD
MUDD.KG/M     9083.33              : MWT          - MUD DENSITY
NEUT.         1                    : NEUTRON      - NEUTRON TYPE
RESI.         0                    : RESIST       - RESISTIVITY TYPE
RM  .OHMM     7.5                  : RM           - RESISTIVITY OF MUD
RMC .OHMM     7.5                  : RMC          - RESISTIVITY OF MUD CAKE
RMF .OHMM     4.78                 : RMF          - RESISTIVITY OF MUD FILTRATE
SUFT.C        4                    : SUFT         - SURFACE TEMPERATURE
~A  DEPTH       GR     PHIN     RESD
   30.480   85.425    0.569    6.954
   30.730   84.199    0.575    7.222
   30.980   87.275    0.583    6.273
   31.230   96.496    0.586    5.593
   31.480  112.478    0.588    5.862
   31.730  106.336    0.575    6.264
   31.980  105.725    0.575    6.192
   32.230  119.863    0.581    5.988
   32.480  127.241    0.584    5.580
   32.730  113.723    0.589    5.778
   32.980  111.268    0.592    5.777
   33.230  124.792    0.595    6.246
   33.480  121.108    0.589    6.040
   33.730  110.048    0.595    5.768
   33.980  109.437    0.599    5.360
   34.230  105.138    0.592    5.289
   34.480  102.683    0.562    5.218
   34.730  103.916    0.553    5.216
   34.980  112.523    0.535    5.347
   35.230  105.765    0.536    5.412
   35.480   93.477    0.531    5.611
   35.730  100.855    0.521    6.014
   35.980   95.942    0.511    7.362
   36.230  108.237    0.514    8.641
   36.480  115.614    0.500    9.044
   36.730  119.920    0.485    9.918
   36.980  127.297    0.469    9.713
   37.230  112.551    0.455    9.170
   37.480  104.565    0.444   10.652
   37.730  107.641    0.438   10.244
   37.980  118.706    0.464    9.701
   38.230  121.168    0.472   13.479
   38.480  121.171    0.505   15.367
   38.730  109.497    0.506   17.390
   38.980   90.449    0.512   24.747
   39.230   89.838    0.521   18.802
   39.480   93.528    0.532   16.165
   39.730   94.760    0.544   12.989
   39.980  108.899    0.553   11.230
   40.230  120.578    0.555    9.944
   40.480  126.727    0.548   10.414
   40.730  125.501    0.539    8.926
   40.980  106.453    0.538    5.817
   41.230   84.331    0.538    5.477
   41.480   97.856    0.537    6.959
   41.730   89.255    0.534    8.307
   41.980   91.102    0.535    9.249
   42.230   99.094    0.546    8.571
   42.480   99.712    0.550    7.893
   42.730  102.173    0.549    8.227
   42.980   96.030    0.542    7.752
   43.230  102.794    0.534    6.668
   43.480  124.307    0.529    6.327
   43.730  135.987    0.527    6.797
   43.980  129.230    0.521    7.200
   44.230  116.941    0.512    6.994
   44.480  102.195    0.485    6.721
   44.730  112.646    0.458    6.380
   44.980  114.493    0.429    6.445
   45.230  118.183    0.415    7.185
   45.480  121.874    0.451    8.668
   45.730  118.189    0.513   16.429
   45.980  115.734    0.521   10.215
   46.230  118.196    0.519    7.713
   46.480  120.043    0.506    6.833
   46.730  108.984    0.499    6.965
   46.980  100.998    0.513    9.325
   47.230  102.229    0.503   10.807
   47.480  113.295    0.508    9.318
   47.730  102.850    0.535   12.219
   47.980  101.625    0.557   12.351
   48.230  104.701    0.568   11.538
   48.480  110.849    0.573    5.864
   48.730  112.082    0.574    5.996
   48.980  105.325    0.572    4.710
   49.230  109.630    0.570    3.828
   49.480  109.633    0.566    3.894
   49.730  107.792    0.562    4.025
   49.980  108.410    0.558    4.495
   50.230   99.809    0.553    5.573
   50.480   99.812    0.537    5.907
   50.730   97.972    0.526    6.175
   50.980   83.225    0.525    6.644
   51.230   88.145    0.529    6.911
   51.480   94.909    0.527    6.909
   51.730   89.380    0.523    7.108
   51.980   91.842    0.517    7.577
   52.230  101.678    0.515    7.237
   52.480  102.296    0.507    7.235
   52.730   93.081    0.499    9.190
   52.980  105.375    0.500   11.077
   53.230  120.742    0.508   11.142
   53.480  120.131    0.523   11.814
   53.730  117.061    0.532   11.811
   53.980  120.137    0.535   10.998
   54.230  109.079    0.535    8.631
   54.480   99.249    0.527    7.548
   54.730   94.949    0.520    7.816
   54.980   98.640    0.521    8.555
   55.230   99.258    0.523    9.430
   55.480  100.490    0.511    9.224
   55.730   98.650    0.497    8.613
   55.980   91.892    0.488    9.015
   56.230   96.197    0.489    8.608
   56.480  108.492    0.491    7.795
   56.730   94.975    0.484    9.007
   56.980   95.593    0.473   10.557
   57.230  102.356    0.466    7.448
   57.480   92.526    0.472   12.104
   57.730  101.747    0.483   11.966
   57.980  100.522    0.502   15.542
   58.230   89.463    0.515   22.089
   58.480   88.852    0.514   18.034
   58.730   94.386    0.507    5.540
   58.980   98.691    0.493    9.723
   59.230   95.621    0.491   11.070
   59.480   88.864    0.498   12.891
   59.730   91.325    0.502   10.389
   59.980  118.369    0.509   12.007
   60.230  104.852    0.503   10.316
   60.480   93.178    0.493    8.760
   60.730   90.723    0.491    9.230
   60.980   89.498    0.487   11.793
   61.230  112.239    0.479   10.034
   61.480  123.919    0.466    9.153
   61.730  113.475    0.444    8.408
   61.980  114.708    0.391    8.202
   62.230  114.710    0.320   10.968
   62.480  104.266    0.266   17.109
   62.730   98.738    0.265   21.022
   62.980   97.512    0.293   23.585
   63.230  109.806    0.316   32.157
   63.480  120.258    0.442   16.084
   63.730  110.427    0.471   14.190
   63.980  107.357    0.481   13.040
   64.230  109.819    0.484   10.809
   64.480  108.593    0.479   11.346
   64.730  108.597    0.488   11.680
   64.980  116.589    0.507   14.311
   65.230  112.290    0.517   15.861
   65.480   93.241    0.532   12.752
   65.730   87.099    0.534    7.820
   65.980   82.800    0.530    6.467
   66.230   80.960    0.520    6.127
   66.480   72.974    0.518    6.529
   66.730   64.987    0.518    8.079
   66.980   74.823    0.519    7.671
   67.230   83.430    0.524    6.520
   67.480   88.350    0.522    6.178
   67.730   96.957    0.518    6.108
   67.980  116.012    0.517    6.511
   68.230  106.797    0.516    7.924
   68.480  117.862    0.514    9.138
   68.730  127.084    0.509    9.405
   68.980  120.327    0.508    9.335
   69.230  116.642    0.514    8.859
   69.480  120.948    0.518   10.544
   69.730  124.024    0.519    9.190
   69.980  128.329    0.515    8.716
   70.230  116.655    0.510    9.523
   70.480  110.512    0.511    9.317
   70.730   95.766    0.510    9.044
   70.980   90.239    0.505   10.323
   71.230   97.002    0.500    9.713
   71.480  102.536    0.488    9.103
   71.730  110.528    0.482    9.369
   71.980  106.844    0.487    9.637
   72.230  111.764    0.514   10.782
   72.480  106.850    0.532   16.991
   72.730  108.697    0.547   15.030
   72.980  105.627    0.553   13.609
   73.230   93.954    0.550    6.854
   73.480   93.957    0.546    6.513
   73.730  104.408    0.547    6.173
   73.980  102.567    0.549    5.494
   74.230  110.560    0.550    5.018
   74.480  116.708    0.549    4.881
   74.730  103.806    0.547    4.676
   74.980   81.685    0.543    4.470
   75.230   82.302    0.543    4.264
   75.480  101.972    0.548    4.127
   75.730  102.590    0.547    4.123
   75.980   88.457    0.540    5.336
   76.230   79.857    0.526    8.507
   76.480   83.548    0.528   10.123
   76.730   81.093    0.533    9.581
   76.980   77.408    0.526    7.011
   77.230   94.619    0.516    6.266
   77.480  107.528    0.514    5.925
   77.730  105.073    0.509    5.922
   77.980   96.472    0.499    6.460
   78.230  105.079    0.494    8.887
   78.480  108.770    0.487    9.357
   78.730   95.867    0.476    6.992
   78.980   91.568    0.453    5.165
   79.230   87.884    0.355    7.661
   79.480   89.116    0.313   14.612
   79.730   77.443    0.220   21.564
   79.980   80.519    0.208   33.039
   80.230  111.865    0.223   36.075
   80.480  114.941    0.288   31.616
   80.730  114.329    0.445   26.211
   80.980  111.260    0.450   15.945
   81.230   84.836    0.485   13.377
   81.480   81.767    0.504   11.415
   81.730   84.843    0.511    9.116
   81.980   89.148    0.504    9.249
   82.230  103.900    0.496    8.773
   82.480  130.330    0.497    8.027
   82.730  124.188    0.508    7.349
   82.980  111.899    0.524    7.346
   83.230  104.529    0.520    7.410
   83.480  105.146    0.512    6.327
   83.730   91.013    0.488    6.054
   83.980   85.486    0.483    6.727
   84.230   83.031    0.475    8.210
   84.480   82.420    0.479   15.499
