~VERSION INFORMATION
 VERS.                 2.0:   CWLS LOG ASCII STANDARD -VERSION 2.0
 WRAP.                  NO:   ONE LINE PER DEPTH STEP
~WELL INFORMATION BLOCK
#MNEM.UNIT           DATA                    DESCRIPTION OF MNEMONIC
#---------    -------------------            -------------------------------
# Generated from Intellog Unique Number	CN_94_101/WELL/3218
WELL.         01-03-096-07W4                 : Well_name    - WELL
LOC .         AA/01-03-096-07W4/0            : Location     - LOCATION
UWI .         AA/01-03-096-07W400            : Uwi          - UNIQUE WELL ID
ENTR.         JOETTE                         : Entered      - ENTERED BY
SRVC.         SCHLUMBERGER                   : Scn          - SERVICE COMPANY
DATE.         07/20/92                       : Date         - LOG DATE
STRT.M        25                             : top_depth    - START DEPTH
STOP.M        180                            : bot_depth    - STOP DEPTH
STEP.M        0.25                           : increment    - STEP LENGTH
 NULL. -999.2500:NULL Value
~CURVE INFORMATION BLOCK
#MNEM UNIT       ERCB CURVE CODE    CURVE DESCRIPTION
#-----------   ------------------   ----------------------------------
DEPT.M        00 001 00 00         : DEPTH        - DEPTH
ILD .OHMM     00 120 00 00         : RESD         - DEEP RESISTIVITY (DIL)
GR  .API      00 310 00 00         : GR           - GAMMA RAY
NPHI.V/V      00 330 00 00         : PHIN         - NEUTRON POROSITY (SANDSTONE)
DPHI.V/V      00 890 00 00         : PHID         - DENSITY POROSITY (SANDSTONE)
~PARAMETER INFORMATION
#MNEM.UNIT           DATA             DESCRIPTION OF MNEMONIC
#---------         -----------     ------------------------------
GL  .M        438.36               : gl           - GROUND LEVEL ELEVATION
EREF.M        439.66               : kb           - ELEVATION OF DEPTH REFERENCE
DATM.M        439.66               : datum        - DATUM ELEVATION
TDD .M        181                  : tdd          - TOTAL DEPTH DRILLER
RUN .         ONE                  : Run          - RUN NUMBER
ENG .         JO                   : Engineer     - RECORDING ENGINEER
WIT .         TIM                  : Witness      - WITNESSED BY
MUD .         GEL                  : Mud_type     - MUD TYPE
MATR.         SANDSTONE            : Logunit      - NEUTRON MATRIX
TMAX.C        16                   : BHT          - MAXIMUM RECORDED TEMPERATURE
BHTD.M        181                  : BHTDEP       - MAXIMUM RECORDED TEMPERATURE
RMT .C        27.8                 : MDTP         - TEMPERATURE OF MUD
MUDD.KG/M     1110                 : MWT          - MUD DENSITY
NEUT.         1                    : NEUTRON      - NEUTRON TYPE
RESI.         0                    : RESIST       - RESISTIVITY TYPE
RM  .OHMM     16.5                 : RM           - RESISTIVITY OF MUD
RMC .OHMM     16.5                 : RMC          - RESISTIVITY OF MUD CAKE
RMF .OHMM     16.5                 : RMF          - RESISTIVITY OF MUD FILTRATE
SUFT.C        4                    : SUFT         - SURFACE TEMPERATURE
~A  DEPTH     RESD       GR     PHIN     PHID
   25.000   48.864   57.272    0.370    0.337
   25.250   49.775   59.051    0.392    0.362
   25.500   46.963   62.639    0.351    0.316
   25.750   42.644   66.220    0.315    0.246
   26.000   37.273   64.390    0.280    0.216
   26.250   35.847   63.751    0.291    0.162
   26.500   37.222   64.927    0.317    0.192
   26.750   35.113   64.295    0.356    0.161
   27.000   33.134   62.458    0.375    0.194
   27.250   30.664   63.032    0.379    0.225
   27.500   28.382   64.811    0.343    0.200
   27.750   26.779   65.378    0.309    0.171
   28.000   29.451   65.349    0.294    0.159
   28.250   31.769   65.327    0.288    0.148
   28.500   31.747   65.291    0.277    0.146
   28.750   32.344   65.269    0.282    0.136
   29.000   32.311   65.836    0.288    0.134
   29.250   32.295   67.615    0.282    0.152
   29.500   32.273   68.182    0.274    0.152
   29.750   34.819   68.167    0.272    0.142
   30.000   37.566   66.933    0.267    0.142
   30.250   39.007   65.691    0.258    0.215
   30.500   38.980   65.662    0.258    0.212
   30.750   37.483   65.640    0.264    0.167
   31.000   36.759   66.214    0.275    0.158
   31.250   35.353   66.788    0.297    0.171
   31.500   33.355   68.567    0.320    0.175
   31.750   30.277   72.750    0.331    0.180
   32.000   28.576   73.934    0.339    0.191
   32.250   25.948   70.274    0.350    0.195
   32.500   24.018   68.437    0.339    0.151
   32.750   23.542   68.415    0.333    0.174
   33.000   23.522   68.981    0.329    0.174
   33.250   23.502   69.555    0.326    0.165
   33.500   23.489   68.321    0.337    0.199
   33.750   23.469   68.292    0.343    0.209
   34.000   23.911   68.866    0.346    0.204
   34.250   24.361   68.844    0.347    0.226
   34.500   25.784   64.595    0.356    0.329
   34.750   27.814   59.141    0.390    0.385
   35.000   30.594   54.283    0.424    0.399
   35.250   31.762   50.034    0.470    0.478
   35.500   29.968   46.977    0.579    0.598
   35.750   27.738   46.962    0.609    0.579
   36.000   26.171   49.345    0.595    0.553
   36.250   26.659   54.131    0.546    0.471
   36.500   39.086   57.726    0.388    0.275
   36.750   42.985   61.916    0.381    0.267
   37.000   41.341   64.901    0.353    0.254
   37.250   36.122   66.078    0.336    0.224
   37.500   29.243   63.638    0.304    0.212
   37.750   24.591   65.410    0.328    0.264
   38.000   25.534   67.792    0.335    0.258
   38.250   25.032   69.571    0.345    0.246
   38.500   24.540   68.939    0.355    0.243
   38.750   24.998   67.095    0.340    0.257
   39.000   25.956   64.655    0.316    0.237
   39.250   26.952   64.030    0.334    0.237
   39.500   26.422   64.597    0.329    0.247
   39.750   25.411   64.582    0.310    0.216
   40.000   25.881   63.348    0.316    0.167
   40.250   25.368   67.538    0.328    0.184
   40.500   25.355   66.892    0.318    0.185
   40.750   24.389   65.672    0.310    0.170
   41.000   23.910   63.217    0.317    0.149
   41.250   23.894   62.578    0.321    0.173
   41.500   22.108   62.564    0.328    0.180
   41.750   21.270   62.528    0.334    0.189
   42.000   20.065   63.102    0.342    0.185
   42.250   19.671   63.065    0.346    0.179
   42.500   20.034   63.051    0.343    0.174
   42.750   20.806   63.610    0.337    0.181
   43.000   20.791   66.007    0.341    0.207
   43.250   20.773   67.176    0.344    0.200
   43.500   20.759   67.147    0.339    0.203
   43.750   20.749   65.310    0.331    0.212
   44.000   20.734   65.884    0.325    0.209
   44.250   20.323   67.067    0.331    0.201
   44.500   21.515   66.428    0.345    0.191
   44.750   21.500   63.988    0.342    0.206
   45.000   20.678   62.158    0.338    0.210
   45.250   21.063   61.526    0.338    0.244
   45.500   23.609   62.681    0.343    0.258
   45.750   23.593   65.071    0.351    0.279
   46.000   22.694   66.843    0.347    0.243
   46.250   21.826   68.019    0.320    0.190
   46.500   20.991   66.792    0.313    0.179
   46.750   20.575   67.366    0.326    0.204
   47.000   19.788   67.947    0.359    0.189
   47.250   19.399   66.712    0.372    0.240
   47.500   20.147   63.059    0.370    0.335
   47.750   22.578   61.229    0.359    0.355
   48.000   21.710   60.598    0.353    0.335
   48.250   21.287   61.774    0.343    0.260
   48.500   21.684   62.944    0.340    0.220
   48.750   21.669   63.525    0.337    0.218
   49.000   20.844   62.290    0.333    0.189
   49.250   19.293   64.069    0.325    0.166
   49.500   19.277   65.849    0.318    0.158
   49.750   20.798   65.813    0.332    0.156
   50.000   22.439   65.784    0.348    0.200
   50.250   21.584   65.762    0.356    0.207
   50.500   20.365   65.733    0.345    0.216
   50.750   18.849   65.087    0.340    0.212
   51.000   21.540   62.647    0.343    0.184
   51.250   24.147   63.823    0.332    0.177
   51.500   23.215   63.794    0.310    0.185
   51.750   22.767   60.744    0.307    0.205
   52.000   21.073   59.524    0.331    0.197
   52.250   19.883   58.282    0.325    0.190
   52.500   20.253   59.459    0.335    0.202
   52.750   21.030   62.451    0.336    0.201
   53.000   20.218   67.847    0.327    0.175
   53.250   19.448   73.846    0.320    0.170
   53.500   20.194   78.036    0.324    0.226
   53.750   25.888   67.157    0.319    0.230
   54.000   38.689   59.895    0.319    0.227
   54.250   47.733   54.441    0.338    0.263
   54.500   53.511   48.369    0.362    0.313
   54.750   55.562   45.334    0.375    0.302
   55.000   55.524   42.894    0.381    0.286
   55.250   52.369   41.056    0.386    0.316
   55.500   53.355   39.814    0.384    0.288
   55.750   69.720   37.374    0.379    0.286
   56.000   71.008   34.934    0.369    0.286
   56.250   68.292   33.700    0.364    0.304
   56.500   68.245   32.465    0.361    0.303
   56.750   70.850   32.436    0.364    0.314
   57.000   73.592   34.208    0.364    0.313
   57.250   76.414   35.399    0.359    0.323
   57.500   74.900   37.782    0.360    0.335
   57.750   72.035   37.738    0.366    0.322
   58.000   69.279   37.106    0.368    0.305
   58.250   67.918   37.084    0.373    0.294
   58.500   65.320   37.658    0.372    0.294
   58.750   62.822   39.438    0.360    0.287
   59.000   61.577   44.224    0.360    0.296
   59.250   61.556   47.216    0.365    0.293
   59.500   59.201   52.605    0.374    0.300
   59.750   54.796   54.994    0.374    0.307
   60.000   46.954   55.568    0.366    0.316
   60.250   42.643   56.745    0.364    0.292
   60.500   38.721   58.524    0.370    0.287
   60.750   36.539   62.112    0.378    0.265
   61.000   33.821   68.713    0.370    0.212
   61.250   31.305   75.315    0.349    0.211
   61.500   27.352   75.882    0.344    0.215
   61.750   25.313   75.257    0.344    0.186
   62.000   23.887   73.405    0.335    0.179
   62.250   22.110   71.575    0.326    0.187
   62.500   21.264   69.745    0.331    0.207
   62.750   26.238   66.100    0.336    0.227
   63.000   32.371   62.454    0.348    0.234
   63.250   38.430   58.205    0.368    0.244
   63.500   39.911   58.176    0.366    0.280
   63.750   41.434   57.544    0.357    0.262
   64.000   41.406   55.097    0.361    0.248
   64.250   41.377   55.678    0.366    0.236
   64.500   39.046   60.471    0.361    0.251
   64.750   34.117   65.265    0.353    0.256
   65.000   30.391   68.243    0.358    0.234
   65.250   24.133   65.802    0.367    0.217
   65.500   20.297   63.958    0.359    0.179
   65.750   20.283   63.319    0.344    0.204
   66.000   20.661   63.304    0.340    0.210
   66.250   19.871   64.481    0.333    0.219
   66.500   18.745   66.253    0.329    0.213
   66.750   18.028   66.217    0.347    0.204
   67.000   17.677   65.600    0.370    0.217
   67.250   17.326   63.755    0.388    0.248
   67.500   17.994   63.123    0.397    0.278
   67.750   22.625   64.300    0.402    0.271
   68.000   21.760   66.079    0.411    0.241
   68.250   20.141   66.050    0.409    0.188
