~VERSION INFORMATION
 VERS.                 2.0:   CWLS LOG ASCII STANDARD -VERSION 2.0
 WRAP.                  NO:   ONE LINE PER DEPTH STEP
~WELL INFORMATION BLOCK
#MNEM.UNIT           DATA                    DESCRIPTION OF MNEMONIC
#---------    -------------------            -------------------------------
# Generated from Intellog Unique Number	CX_WELLS/WELL/2595
NULL.         -999.25                        : NULL_VALUE
WELL.         ARCO                           : Well_name    - WELL              
LOC .         AA/07-08-080-10W4/0            : Location     - LOCATION          
UWI .         AA/07-08-080-10W400            : Uwi          - UNIQUE WELL ID    
ENTR.         T                              : Entered      - ENTERED BY        
SRVC.         SCHLUMBERGER                   : Scn          - SERVICE COMPANY   
STRT.F        940                            : top_depth    - START DEPTH       
STOP.F        1569.92                        : bot_depth    - STOP DEPTH        
STEP.F        0.82                           : increment    - STEP LENGTH       
~CURVE INFORMATION BLOCK
#MNEM UNIT       ERCB CURVE CODE    CURVE DESCRIPTION
#-----------   ------------------   ----------------------------------
DEPT.F        00 001 00 00         : DEPTH        - DEPTH                       
GR  .API      00 310 00 00         : GR           - GAMMA RAY                   
NPHI.V/V      00 330 00 00         : PHIN         - NEUTRON POROSITY (SANDSTONE)
ILD .OHMM     00 120 00 00         : RESD         - DEEP RESISTIVITY (DIL)      
~PARAMETER INFORMATION       
#MNEM.UNIT           DATA             DESCRIPTION OF MNEMONIC
#---------         -----------     ------------------------------
GL  .F        2245                 : gl           - GROUND LEVEL ELEVATION      
EREF.F        2260                 : kb           - ELEVATION OF DEPTH REFERENCE
DATM.F        2260                 : datum        - DATUM ELEVATION             
TDD .F        1562                 : tdd          - TOTAL DEPTH DRILLER         
RUN .         ONE                  : Run          - RUN NUMBER                  
ENG .         BILL                 : Engineer     - RECORDING ENGINEER          
WIT .         JIM                  : Witness      - WITNESSED BY                
MUD .         GEL                  : Mud_type     - MUD TYPE                    
MATR.         SANDSTONE            : Logunit      - NEUTRON MATRIX              
TMAX.F        73                   : BHT          - MAXIMUM RECORDED TEMPERATURE
BHTD.F        1562                 : BHTDEP       - MAXIMUM RECORDED TEMPERATURE
MATR.         1                    : LOGUNIT      - NEUTRON MATRIX              
RMT .F        65                   : MDTP         - TEMPERATURE OF MUD          
NEUT.         1                    : NEUTRON      - NEUTRON TYPE                
RESI.         7.1                  : RESIST       - RESISTIVITY TYPE            
RMC .OHMM     6.5                  : RMC          - RESISTIVITY OF MUD CAKE     
RMF .OHMM     5                    : RMF          - RESISTIVITY OF MUD FILTRATE 
SUFT.F        35                   : SUFT         - SURFACE TEMPERATURE         
~A  DEPTH       GR     PHIN     RESD
# ...
 1473.960   62.577    0.312   10.626
 1474.780   61.294    0.313   11.900
 1475.600   61.332    0.312   13.585
 1476.420   61.357    0.309   14.649
 1477.240   60.722    0.307   15.219
 1478.060   60.093    0.307   16.735
 1478.880   58.797    0.305   17.383
 1479.700   58.168    0.305   16.764
 1480.520   57.539    0.306   16.161
 1481.340   56.262    0.310   16.179
 1482.160   55.614    0.311   16.498
 1482.980   54.991    0.315   16.822
 1483.800   55.023    0.316   17.484
 1484.620   55.054    0.317   18.165
 1485.440   55.073    0.316   19.600
 1486.260   54.450    0.311   19.615
 1487.080   53.815    0.307   18.218
 1487.900   52.532    0.307   17.897
 1488.720   51.896    0.306   18.256
 1489.540   51.928    0.304   18.612
 1490.360   51.953    0.306   19.337
 1491.180   51.997    0.307   20.477
 1492.000   52.022    0.308   20.881
 1492.820   52.054    0.308   20.901
 1493.640   53.400    0.307   18.355
 1494.460   56.067    0.305   17.363
 1495.280   60.068    0.304   15.831
 1496.100   63.402    0.304   15.549
 1496.920   68.057    0.304   15.858
 1497.740   72.045    0.304   16.173
 1498.560   74.719    0.305   16.492
 1499.380   70.787    0.306   17.140
 1500.200   66.189    0.308   17.481
 1501.020   60.936    0.310   18.162
 1501.840   53.702    0.311   18.523
 1502.660   48.443    0.312   18.887
 1503.480   48.474    0.313   18.909
 1504.300   50.500    0.314   18.927
 1505.120   52.494    0.314   18.946
 1505.940   55.168    0.313   18.964
 1506.770   59.169    0.310   18.979
 1507.590   58.533    0.310   18.641
 1508.410   54.602    0.311   18.313
 1509.230   52.652    0.313   18.338
 1510.050   52.683    0.314   18.349
 1510.870   53.375    0.314   18.713
 1511.690   49.443    0.314   19.442
 1512.510   48.148    0.315   20.589
 1513.330   48.173    0.315   21.390
 1514.150   50.186    0.315   22.232
 1514.970   54.187    0.316   21.440
 1515.790   51.576    0.317   20.660
 1516.610   49.620    0.316   18.484
 1517.430   51.626    0.308   17.491
 1518.250   56.942    0.305   16.868
 1519.070   60.937    0.303   16.878
 1519.890   53.702    0.306   16.898
 1520.710   49.104    0.309   16.911
 1521.530   45.172    0.310   17.573
 1522.350   45.204    0.312   18.609
 1523.170   47.217    0.312   19.703
 1523.990   49.230    0.311   20.090
 1524.810   50.582    0.311   19.733
 1525.630   49.953    0.311   18.674
 1526.450   48.657    0.311   17.675
 1527.270   45.393    0.311   17.357
 1528.090   44.770    0.311   17.377
 1528.910   44.789    0.311   17.394
 1529.730   43.505    0.310   17.736
 1530.550   43.524    0.309   17.757
 1531.370   44.223    0.309   17.441
 1532.190   46.236    0.310   17.131
 1533.010   47.575    0.314   15.911
 1533.830   48.274    0.316   14.780
 1534.650   48.305    0.315   13.730
 1535.470   46.355    0.317   13.233
 1536.290   45.714    0.318   12.520
 1537.110   44.424    0.319   11.203
 1537.930   43.795    0.319   10.210
 1538.750   45.814    0.320    9.133
 1539.570   44.525    0.322    7.581
 1540.390   41.901    0.322    6.293
 1541.210   37.316    0.323    5.322
 1542.030   38.001    0.323    4.586
 1542.850   43.323    0.323    4.028
 1543.670   49.293    0.323    3.740
 1544.490   49.985    0.317    3.473
 1545.310   44.066    0.309    3.108
 1546.140   39.474    0.301    3.053
 1546.960   36.209    0.303    2.889
 1547.780   36.228    0.305    2.838
 1548.600   36.926    0.307    2.787
 1549.420   38.272    0.308    2.739
 1550.240   39.637    0.308    2.741
 1551.060   38.335    0.307    2.795
 1551.880   37.045    0.307    2.798
 1552.700   36.410    0.307    2.854
 1553.520   36.442    0.307    2.965
 1554.340   40.442    0.308    3.024
 1555.160   46.412    0.309    3.142
 1555.980   59.654    0.310    3.328
 1556.800   77.519    0.313    3.523
 1557.620   83.495    0.314    3.660
 1558.440   69.650    0.312    4.098
 1559.260   63.737    0.241    5.331
 1560.080   53.860    0.240    6.435
 1560.900   47.947    0.237    6.942
 1561.720   44.016    0.234    6.950
 1562.540   42.720    0.234    6.577
 1563.360   42.097    0.237    5.884
 1564.180   42.783    0.241    5.362
 1565.000   43.468    0.244    4.707
 1565.820   46.809    0.244    4.290
 1566.640   45.513    0.245    3.697
 1567.460   41.581    0.247    3.309
 1568.280   37.643    0.249    3.131
 1569.100   28.428    0.254    2.963
 1569.920   25.163    0.258    2.965
