~VERSION INFORMATION
 VERS.                 2.0:   CWLS LOG ASCII STANDARD -VERSION 2.0
 WRAP.                  NO:   ONE LINE PER DEPTH STEP
~WELL INFORMATION BLOCK
#MNEM.UNIT           DATA                    DESCRIPTION OF MNEMONIC
#---------    -------------------            -------------------------------
# Generated from Intellog Unique Number	CN_94_101/WELL/3212
WELL.         SHELL CANADA LTD.              : Well_name    - WELL
LOC .         AA/01-23-095-17W4/0            : Location     - LOCATION
UWI .         AA/01-23-095-17W4/0            : Uwi          - UNIQUE WELL ID
ENTR.         JOETTE                         : Entered      - ENTERED BY
SRVC.         SCHLUMBERGER                   : Scn          - SERVICE COMPANY
DATE.         07/27/92                       : Date         - LOG DATE
STRT.F        350                            : top_depth    - START DEPTH
STOP.F        989.764                        : bot_depth    - STOP DEPTH
STEP.F        0.82                           : increment    - STEP LENGTH
 NULL. -999.2500:NULL Value
~CURVE INFORMATION BLOCK
#MNEM UNIT       ERCB CURVE CODE    CURVE DESCRIPTION
#-----------   ------------------   ----------------------------------
DEPT.F        00 001 00 00         : DEPTH        - DEPTH
ILD .OHMM     00 120 00 00         : RESD         - DEEP RESISTIVITY (DIL)
GR  .API      00 310 00 00         : GR           - GAMMA RAY
DPHI.V/V      00 890 00 00         : PHID         - DENSITY POROSITY (SANDSTONE)
~PARAMETER INFORMATION
#MNEM.UNIT           DATA             DESCRIPTION OF MNEMONIC
#---------         -----------     ------------------------------
GL  .M        582.778              : gl           - GROUND LEVEL ELEVATION
EREF.M        583.997              : kb           - ELEVATION OF DEPTH REFERENCE
DATM.M        583.997              : datum        - DATUM ELEVATION
TDD .M        275.844              : tdd          - TOTAL DEPTH DRILLER
RUN .         ONE                  : Run          - RUN NUMBER
ENG .         BILL                 : Engineer     - RECORDING ENGINEER
WIT .         JIM                  : Witness      - WITNESSED BY
MUD .         GEL                  : Mud_type     - MUD TYPE
MATR.         SANDSTONE            : Logunit      - NEUTRON MATRIX
TMAX.F        69                   : BHT          - MAXIMUM RECORDED TEMPERATURE
BHTD.F        1005                 : BHTDEP       - MAXIMUM RECORDED TEMPERATURE
RMT .F        69                   : MDTP         - TEMPERATURE OF MUD
MUDD.LB/G     9.8                  : MWT          - MUD DENSITY
NEUT.         1                    : NEUTRON      - NEUTRON TYPE
RESI.         0                    : RESIST       - RESISTIVITY TYPE
RM  .OHMM     0.95                 : RM           - RESISTIVITY OF MUD
RMC .OHMM     0.95                 : RMC          - RESISTIVITY OF MUD CAKE
RMF .OHMM     0.95                 : RMF          - RESISTIVITY OF MUD FILTRATE
SUFT.F        4                    : SUFT         - SURFACE TEMPERATURE
~A  DEPTH     RESD       GR     PHID
# ...
  527.986    5.263  123.601    0.306
  528.806    5.171  118.898    0.294
  529.626    5.085  115.981    0.298
  530.446    4.994  110.086    0.325
  531.266    5.004  110.741    0.333
  532.087    5.197  116.769    0.331
  532.907    5.823  122.187    0.327
  533.727    5.942  121.651    0.313
  534.547    5.946  112.184    0.292
  535.367    5.737  108.687    0.299
  536.188    5.638  116.500    0.299
  537.008    5.650  115.354    0.308
  537.828    5.657  111.842    0.313
  538.648    5.665  107.138    0.315
  539.469    5.671  109.579    0.317
  540.289    5.574  109.043    0.312
  541.109    5.478  104.935    0.311
  541.929    5.800  104.399    0.287
  542.749    6.146  107.435    0.283
  543.570    5.929  112.868    0.302
  544.390    5.513  118.285    0.317
  545.210    5.317  123.137    0.321
  546.030    5.226  119.610    0.318
  546.850    5.231  115.517    0.311
  547.671    5.439  117.362    0.308
  548.491    5.450  117.422    0.307
  549.311    5.556  115.100    0.309
  550.131    5.673  116.930    0.316
  550.951    5.786  118.195    0.311
  551.772    5.898  112.882    0.314
  552.592    6.132  101.629    0.324
  553.412    6.614   90.972    0.327
  554.232    7.544   91.627    0.337
  555.052    8.294  101.807    0.330
  555.873    8.305  115.575    0.327
  556.693    7.164  112.658    0.338
  557.513    5.958  111.526    0.334
  558.333    6.549  114.577    0.323
  559.154    6.681  112.255    0.312
  559.974    5.871  118.268    0.314
  560.794    5.260  123.091    0.320
  561.614    5.467  107.671    0.327
  562.434    5.899  104.158    0.323
  563.255    6.127  114.949    0.308
  564.075    6.024  121.557    0.304
  564.895    5.008  122.822    0.313
  565.715    4.569  120.485    0.314
  566.535    4.576  116.973    0.320
  567.356    4.669  111.078    0.323
  568.176    4.674  111.138    0.303
  568.996    4.682  110.602    0.286
  569.816    4.778  108.280    0.254
  570.636    4.356  100.600    0.194
  571.457    4.701  107.223    0.223
  572.277    5.166  107.282    0.238
  573.097    5.783  109.738    0.274
  573.917    5.477  108.592    0.307
  574.738    5.385  108.651    0.294
  575.558    6.616  119.442    0.300
  576.378    6.752  130.828    0.307
  577.198    4.245  130.292    0.299
  578.018    3.948  131.542    0.293
  578.839    4.180  133.388    0.285
  579.659    4.342  134.653    0.307
  580.479    4.348  134.132    0.300
  581.299    4.354  128.818    0.290
  582.119    4.443  123.504    0.298
  582.940    4.451  114.633    0.297
  583.760    4.626  103.976    0.257
  584.580    4.988   95.701    0.202
  585.400    5.907  108.263    0.157
  586.220    4.819  125.007    0.296
  587.041    3.088  127.448    0.329
  587.861    3.271  125.736    0.339
  588.681    3.529  124.010    0.347
  589.501    3.806  118.115    0.338
  590.322    4.105  112.802    0.333
  591.142    4.595  107.503    0.321
  591.962    5.442  101.609    0.298
  592.782    6.563   96.325    0.285
  593.602    7.772  114.245    0.248
  594.423    6.958  113.709    0.319
  595.243    6.232  123.904    0.326
  596.063    5.280  106.684    0.334
  596.883    4.906   81.723    0.374
  597.703    6.620   72.257    0.411
  598.524    7.010   71.736    0.377
  599.344    7.701   72.971    0.361
  600.164   10.582   90.311    0.344
  600.984   10.597  110.627    0.312
  601.804    8.178  123.799    0.288
  602.625    6.927  133.995    0.289
  603.445    5.759  128.696    0.298
  604.265    5.355  122.787    0.294
  605.085    5.776  110.939    0.271
  605.906    5.571  103.854    0.263
  606.726    5.376  108.676    0.261
  607.546    5.798  111.147    0.311
  608.366    7.396  103.437    0.339
  609.186    8.920   89.803    0.354
  610.007    9.270   94.626    0.362
  610.827    8.002  104.226    0.327
  611.647    7.032  119.184    0.302
  612.467    6.182  125.792    0.287
  613.287    5.334  134.202    0.274
  614.108    4.520  135.467    0.267
  614.928    3.899  136.121    0.277
  615.748    3.624  140.929    0.307
  616.568    3.840  138.622    0.312
  617.388    4.219  136.880    0.307
  618.209    4.306  144.694    0.306
  619.029    4.229  145.959    0.314
  619.849    4.005  141.241    0.308
  620.669    3.864  135.942    0.307
  621.490    4.017  130.048    0.308
  622.310    4.333  134.275    0.306
  623.130    4.341  133.143    0.305
  623.950    4.266  129.035    0.312
  624.770    4.192  133.873    0.321
  625.591    4.278  133.351    0.307
  626.411    4.364  132.220    0.312
  627.231    4.537  130.493    0.319
  628.051    4.715  132.920    0.327
  628.871    4.721  134.170    0.330
  629.692    4.726  139.617    0.324
  630.512    4.734  138.486    0.306
  631.332    4.742  136.759    0.301
  632.152    4.747  134.437    0.297
  632.972    4.753  130.909    0.293
  633.793    5.033  121.443    0.301
  634.613    5.636  122.693    0.305
  635.433    6.549  122.157    0.314
  636.253    7.065  119.255    0.316
  637.073    7.074  118.719    0.262
  637.894    6.338  118.168    0.176
  638.714    6.465  115.846    0.260
  639.534    6.121  131.400    0.269
  640.354    5.184  138.023    0.265
  641.175    4.732  141.669    0.272
  641.995    4.918  140.538    0.282
  642.815    5.505  139.392    0.279
  643.635    5.411  128.140    0.255
  644.455    4.846  124.031    0.252
  645.276    4.422  129.449    0.245
  646.096    4.346  134.882    0.246
  646.916    4.957  137.918    0.267
  647.736    4.524  139.763    0.290
  648.556    3.429  125.534    0.259
  649.377    3.307  130.952    0.256
  650.197    3.074  143.544    0.293
  651.017    2.966  141.802    0.322
  651.837    2.917  135.908    0.340
  652.657    2.866  135.372    0.344
  653.478    2.818  133.050    0.340
  654.298    2.822  131.933    0.330
  655.118    2.823  131.383    0.325
  655.938    2.936  129.061    0.337
  656.759    2.994  134.493    0.329
  657.579    3.354  135.148    0.323
  658.399    3.550  133.421    0.320
  659.219    4.364  129.313    0.310
  660.039    4.976  121.038    0.322
  660.860    5.782  109.770    0.355
  661.680    7.800   99.113    0.373
  662.500   12.205   87.265    0.389
  663.320   14.453   85.554    0.392
  664.140   13.187   86.804    0.385
  664.961   10.762   88.039    0.378
  665.781    8.785   88.694    0.342
  666.601    9.130   91.164    0.261
  667.421   10.219   88.828    0.263
  668.241   10.044   82.933    0.268
  669.062    8.045   84.779    0.263
  669.882    7.072   91.983    0.292
  670.702    7.082  100.987    0.321
  671.522    7.783  106.405    0.313
  672.343    8.558  105.274    0.309
  673.163    7.521  101.166    0.310
  673.983    6.253  110.766    0.293
  674.803    5.198  120.946    0.312
  675.623    5.403  130.546    0.334
  676.444    6.396  116.898    0.367
  677.264    7.714  105.645    0.364
  678.084   10.028   94.393    0.368
  678.904   10.614   83.140    0.386
  679.724   12.566   78.422    0.399
  680.545   17.268   77.901    0.400
  681.365   19.339   77.960    0.295
  682.185   17.970   75.043    0.244
  683.005   11.515   72.721    0.271
  683.825    4.301   93.633    0.302
  684.646    3.783  109.782    0.326
  685.466    3.857  115.199    0.326
  686.286    4.402  111.091    0.315
  687.106    4.489  112.342    0.313
  687.927    4.937  119.560    0.317
  688.747    5.127  120.810    0.313
  689.567    5.429  122.060    0.302
  690.387    5.858  120.929    0.302
  691.207    5.976  115.645    0.309
  692.028    5.765  119.872    0.309
  692.848    5.462  121.732    0.317
  693.668    5.674  124.158    0.310
  694.488    6.121  129.591    0.307
  695.308    6.729  127.849    0.317
  696.129    5.390  126.718    0.263
  696.949    4.238  129.189    0.215
  697.769    4.657  110.762    0.192
  698.589    8.148   81.039    0.166
  699.409    5.951   88.243    0.166
  700.230    5.632  108.559    0.249
  701.050    4.429  128.876    0.326
  701.870    5.649  120.600    0.327
  702.690    6.691  114.706    0.324
  703.510    6.822  110.598    0.321
  704.331    7.637  109.481    0.306
  705.151    9.047  106.564    0.273
