~VERSION INFORMATION
 VERS.                 2.0:   CWLS LOG ASCII STANDARD -VERSION 2.0
 WRAP.                  NO:   ONE LINE PER DEPTH STEP
~WELL INFORMATION BLOCK
#MNEM.UNIT           DATA                    DESCRIPTION OF MNEMONIC
#---------    -------------------            -------------------------------
# Generated from Intellog Unique Number	CN_91_93/WELL/2920
WELL.         01-30-092-11W4                 : Well_name    - WELL
LOC .         AA/01-30-092-11W4/0            : Location     - LOCATION
UWI .         AA/01-30-092-11W400            : Uwi          - UNIQUE WELL ID
ENTR.         JOETTE                         : Entered      - ENTERED BY
SRVC.         SCHLUMBERGER                   : Scn          - SERVICE COMPANY
DATE.         03/31/92                       : Date         - LOG DATE
STRT.F        40                             : top_depth    - START DEPTH
STOP.F        309.029                        : bot_depth    - STOP DEPTH
STEP.F        0.8202                         : increment    - STEP LENGTH
 NULL. -999.2500:NULL Value
~CURVE INFORMATION BLOCK
#MNEM UNIT       ERCB CURVE CODE    CURVE DESCRIPTION
#-----------   ------------------   ----------------------------------
DEPT.F        00 001 00 00         : DEPTH        - DEPTH
CALI.IN       00 280 01 00         : CAL          - CALIPER
GR  .API      00 310 00 00         : GR           - GAMMA RAY
NPHI.V/V      00 330 00 00         : PHIN         - NEUTRON POROSITY (SANDSTONE)
DPHI.V/V      00 890 00 00         : PHID         - DENSITY POROSITY (SANDSTONE)
ILD .OHMM     00 120 00 00         : RESD         - DEEP RESISTIVITY (DIL)
~PARAMETER INFORMATION
#MNEM.UNIT           DATA             DESCRIPTION OF MNEMONIC
#---------         -----------     ------------------------------
GL  .M        357.226              : gl           - GROUND LEVEL ELEVATION
EREF.M        357.226              : kb           - ELEVATION OF DEPTH REFERENCE
DATM.M        357.226              : datum        - DATUM ELEVATION
TDD .M        101.803              : tdd          - TOTAL DEPTH DRILLER
RUN .         ONE                  : Run          - RUN NUMBER
ENG .         JO                   : Engineer     - RECORDING ENGINEER
WIT .         TIM                  : Witness      - WITNESSED BY
MUD .         GEL                  : Mud_type     - MUD TYPE
MATR.         SANDSTONE            : Logunit      - NEUTRON MATRIX
TMAX.F        60                   : BHT          - MAXIMUM RECORDED TEMPERATURE
BHTD.F        334                  : BHTDEP       - MAXIMUM RECORDED TEMPERATURE
RMT .F        66                   : MDTP         - TEMPERATURE OF MUD
MUDD.LB/G     1                    : MWT          - MUD DENSITY
NEUT.         1                    : NEUTRON      - NEUTRON TYPE
RESI.         0                    : RESIST       - RESISTIVITY TYPE
RM  .OHMM     8.1                  : RM           - RESISTIVITY OF MUD
RMC .OHMM     8.1                  : RMC          - RESISTIVITY OF MUD CAKE
RMF .OHMM     8.1                  : RMF          - RESISTIVITY OF MUD FILTRATE
SUFT.F        39.2                 : SUFT         - SURFACE TEMPERATURE
~A  DEPTH      CAL       GR     PHIN     PHID     RESD
   40.000    3.990   69.412    0.488    0.251   30.645
   40.820    4.010   69.104    0.481    0.256   27.224
   41.640    4.010   69.098    0.447    0.263   29.251
   42.461    4.009   69.397    0.445    0.268   35.676
   43.281    4.009   70.604    0.481    0.246   54.069
   44.101    4.009   72.722    0.482    0.246    6.151
   44.921    4.008   76.354    0.558    0.245    1.552
   45.742    4.008   92.112    0.554    0.222    9.574
   46.562    4.008   93.319    0.501    0.252  357.849
   47.382    4.008   89.981    0.487    0.257   15.450
   48.202    4.007   84.823    0.474    0.266   24.502
   49.022    3.987   80.575    0.447    0.267   28.049
   49.843    3.986   75.719    0.438    0.275   27.035
   50.663    4.107   73.897    0.433    0.280   30.391
   51.483    4.309   76.924    0.448    0.253   26.998
   52.303    4.430   81.161    0.457    0.290   21.323
   53.123    4.490   81.459    0.451    0.267   19.641
   53.944    4.551   82.062    0.461    0.245   17.450
   54.764    4.591   78.419    0.460    0.253   20.524
   55.584    4.651   77.506    0.466    0.244   17.744
   56.404    4.691   78.713    0.446    0.223   22.646
   57.224    4.731   81.134    0.443    0.262   18.884
   58.045    4.751   85.978    0.456    0.293   15.602
   58.865    4.751   86.883    0.460    0.300   17.384
   59.685    4.750   91.122    0.454    0.282   11.247
   60.505    4.811   96.876    0.475    0.286   10.941
   61.325    4.871   98.993    0.493    0.287   11.235
   62.146    5.012  102.626    0.514    0.270    8.792
   62.966    5.133  104.137    0.511    0.242    9.111
   63.786    5.214  102.010    0.500    0.267    9.701
   64.606    5.294  105.945    0.516    0.275    8.619
   65.427    5.354  102.607    0.515    0.262    8.011
   66.247    5.374   96.237    0.518    0.259    7.313
   67.067    5.354   94.111    0.528    0.267    7.177
   67.887    5.313   89.862    0.533    0.239    9.411
   68.707    5.212   84.098    0.500    0.248   11.901
   69.528    5.171   88.034    0.505    0.255   11.367
   70.348    5.171   88.939    0.490    0.263   10.283
   71.168    5.170   89.540    0.479    0.243   10.948
   71.988    5.150   93.475    0.472    0.226   11.553
   72.808    5.089   92.562    0.488    0.235   11.035
   73.629    5.028   92.254    0.459    0.213   10.165
   74.449    4.927   97.706    0.479    0.253   14.859
   75.269    4.866   98.003    0.471    0.243   11.318
   76.089    4.926   99.515    0.476    0.239   10.908
   76.909    4.926  103.147    0.484    0.233   10.418
   77.730    4.865  104.657    0.467    0.198    9.597
   78.550    4.824  103.137    0.436    0.164    9.854
   79.370    4.824   97.373    0.412    0.145    9.760
   80.190    4.823  101.310    0.398    0.172   13.885
   81.010    4.823  108.277    0.442    0.215   18.707
   81.831    4.843  117.062    0.483    0.234   12.667
   82.651    4.883  122.512    0.524    0.251    8.271
   83.471    4.923  113.718    0.529    0.246    7.829
   84.291    4.963  110.985    0.519    0.252    8.112
   85.112    5.003  111.587    0.549    0.266    7.014
   85.932    5.023  105.822    0.584    0.282    6.461
   86.752    5.023  106.424    0.567    0.282    4.921
   87.572    5.002  110.663    0.565    0.286    5.145
   88.392    5.002  111.870    0.558    0.292    5.143
   89.213    4.982  111.260    0.556    0.296    4.610
   90.033    4.941  108.224    0.550    0.304    4.285
   90.853    4.900  108.219    0.569    0.312    4.994
   91.673    4.880  107.003    0.587    0.297    4.902
   92.493    4.879  105.784    0.584    0.274    4.435
   93.314    4.839  108.811    0.550    0.257    7.227
   94.134    4.818  109.716    0.515    0.237    8.654
   94.954    4.878  106.074    0.528    0.246    7.350
   95.774    4.918  105.767    0.519    0.244    6.894
   96.594    4.878  106.065    0.510    0.258    6.951
   97.415    4.918  105.454    0.514    0.267    9.034
   98.235    4.897  103.933    0.477    0.251   10.723
   99.055    4.836  103.323    0.479    0.251   11.521
   99.875    4.836  104.227    0.479    0.235    9.349
  100.696    4.836  111.497    0.475    0.245    8.457
  101.516    4.835  117.858    0.487    0.233    8.078
  102.336    4.815  119.975    0.470    0.218    8.917
  103.156    4.815  115.726    0.458    0.211   10.490
  103.976    4.794  111.478    0.456    0.225   11.271
  104.797    4.794  113.595    0.448    0.224   11.162
  105.617    4.773  116.318    0.443    0.211   12.212
  106.437    4.773  114.494    0.433    0.227   11.352
  107.257    4.752  110.852    0.445    0.225   11.447
  108.077    4.732  107.211    0.443    0.209   11.134
  108.898    4.671  103.569    0.436    0.189   10.927
  109.718    4.590   99.321    0.421    0.153   13.694
  110.538    4.448   99.316    0.389    0.115   12.277
  111.358    4.367  101.736    0.432    0.154    9.962
  112.178    4.286   92.638    0.461    0.174    7.727
  112.999    4.205   91.117    0.398    0.098    6.443
  113.819    4.144   99.903    0.327    0.112    9.765
  114.639    4.123  112.933    0.437    0.198   27.896
  115.459    4.123  120.202    0.490    0.223    5.981
  116.280    4.122  120.197    0.518    0.240    7.495
  117.100    4.163  118.374    0.491    0.217    7.095
  117.920    4.284  114.428    0.465    0.211    8.972
  118.740    4.445  113.211    0.448    0.209   11.245
  119.560    4.606  111.387    0.443    0.217   10.264
  120.381    4.727  109.565    0.451    0.218    9.202
  121.201    4.808  110.166    0.460    0.222    9.709
  122.021    4.868  113.799    0.476    0.210    9.358
  122.841    4.969  115.006    0.484    0.196    8.313
  123.661    5.130  114.093    0.464    0.221    8.384
  124.482    5.170  114.997    0.466    0.217    7.935
  125.302    5.170  113.780    0.461    0.213    8.075
  126.122    5.169  113.169    0.462    0.226    9.079
  126.942    5.169  112.255    0.475    0.220    9.755
  127.762    5.169  111.947    0.479    0.217    8.824
  128.583    5.209  112.246    0.468    0.224    8.055
  129.403    5.209  108.603    0.465    0.226    8.732
  130.223    5.107  108.902    0.471    0.232    8.416
  131.043    5.087  104.654    0.455    0.203    7.824
  131.864    5.147  100.405    0.434    0.203    8.108
  132.684    5.147  106.160    0.461    0.242   11.326
  133.504    5.066  111.611    0.522    0.253   12.171
  134.324    5.045  111.909    0.561    0.300    8.092
  135.144    5.045  110.995    0.561    0.293    5.143
  135.965    5.044  111.900    0.568    0.277    3.988
  136.785    5.064  112.501    0.540    0.260    4.022
  137.605    5.064  117.650    0.514    0.239    3.573
  138.425    5.064  118.252    0.488    0.229    7.922
  139.245    5.063  115.215    0.473    0.232    9.318
  140.066    5.063  116.422    0.470    0.220    8.740
  140.886    5.063  113.387    0.474    0.213    7.093
  141.706    5.062  106.714    0.453    0.188    5.354
  142.526    5.103   96.707    0.429    0.170    8.338
  143.346    5.143   91.853    0.414    0.165   12.637
  144.167    5.163   91.241    0.510    0.243   14.731
  144.987    5.182   88.206    0.558    0.290    4.662
  145.807    5.182   84.866    0.577    0.316    3.551
  146.627    5.162   83.346    0.587    0.323    3.183
  147.448    5.181   81.826    0.602    0.340    3.359
  148.268    5.181   81.822    0.600    0.337    3.675
  149.088    5.242   86.666    0.590    0.336    3.706
  149.908    5.322   89.390    0.570    0.310    3.445
  150.728    5.342   89.082    0.556    0.275    3.202
  151.549    5.321   91.805    0.517    0.240    5.171
  152.369    5.422   91.498    0.449    0.239    6.658
  153.189    5.422   88.157    0.437    0.226    7.026
  154.009    5.300   92.397    0.464    0.246    5.449
  154.829    5.239   92.695    0.450    0.226    6.126
  155.650    5.219   91.478    0.430    0.235    8.106
  156.470    5.178   92.080    0.437    0.213    7.883
  157.290    5.157   96.622    0.459    0.189    9.702
  158.110    5.137  101.770    0.514    0.196    7.062
  158.930    5.056  106.312    0.538    0.243    3.678
