~VERSION INFORMATION
 VERS.                 2.0:   CWLS LOG ASCII STANDARD -VERSION 2.0
 WRAP.                  NO:   ONE LINE PER DEPTH STEP
~WELL INFORMATION BLOCK
#MNEM.UNIT           DATA                    DESCRIPTION OF MNEMONIC
#---------    -------------------            -------------------------------
# Generated from Intellog Unique Number	CN_94_101/WELL/3595
WELL.         08-30-096-16W4                 : Well_name    - WELL
LOC .         AA/08-30-096-16W4/0            : Location     - LOCATION
UWI .         AA/08-30-096-16W400            : Uwi          - UNIQUE WELL ID
ENTR.         JOETTE                         : Entered      - ENTERED BY
SRVC.         SCHLUMBERGER                   : Scn          - SERVICE COMPANY
DATE.         08/03/92                       : Date         - LOG DATE
STRT.M        200                            : top_depth    - START DEPTH
STOP.M        410                            : bot_depth    - STOP DEPTH
STEP.M        0.25                           : increment    - STEP LENGTH
 NULL. -999.2500:NULL Value
~CURVE INFORMATION BLOCK
#MNEM UNIT       ERCB CURVE CODE    CURVE DESCRIPTION
#-----------   ------------------   ----------------------------------
DEPT.M        00 001 00 00         : DEPTH        - DEPTH
GR  .API      00 310 00 00         : GR           - GAMMA RAY
ILD .OHMM     00 120 00 00         : RESD         - DEEP RESISTIVITY (DIL)
NPHI.V/V      00 330 00 00         : PHIN         - NEUTRON POROSITY (SANDSTONE)
DPHI.V/V      00 890 00 00         : PHID         - DENSITY POROSITY (SANDSTONE)
~PARAMETER INFORMATION
#MNEM.UNIT           DATA             DESCRIPTION OF MNEMONIC
#---------         -----------     ------------------------------
GL  .M        661.6                : gl           - GROUND LEVEL ELEVATION
EREF.M        665                  : kb           - ELEVATION OF DEPTH REFERENCE
DATM.M        665                  : datum        - DATUM ELEVATION
TDD .M        415                  : tdd          - TOTAL DEPTH DRILLER
RUN .         ONE                  : Run          - RUN NUMBER
ENG .         JO                   : Engineer     - RECORDING ENGINEER
WIT .         TIM                  : Witness      - WITNESSED BY
MUD .         GEL                  : Mud_type     - MUD TYPE
MATR.         SANDSTONE            : Logunit      - NEUTRON MATRIX
TMAX.C        10                   : BHT          - MAXIMUM RECORDED TEMPERATURE
BHTD.M        415                  : BHTDEP       - MAXIMUM RECORDED TEMPERATURE
RMT .C        10.1                 : MDTP         - TEMPERATURE OF MUD
MUDD.KG/M     1115                 : MWT          - MUD DENSITY
NEUT.         1                    : NEUTRON      - NEUTRON TYPE
RESI.         0                    : RESIST       - RESISTIVITY TYPE
RM  .OHMM     0.49                 : RM           - RESISTIVITY OF MUD
RMC .OHMM     0.49                 : RMC          - RESISTIVITY OF MUD CAKE
RMF .OHMM     0.731                : RMF          - RESISTIVITY OF MUD FILTRATE
SUFT.C        4                    : SUFT         - SURFACE TEMPERATURE
~A  DEPTH       GR     RESD     PHIN     PHID
# ...
  330.500   90.843    6.999    0.363    0.211
  330.750   93.415    5.459    0.371    0.194
  331.000  100.349    4.010    0.436    0.224
  331.250  101.131    3.517    0.501    0.246
  331.500   98.246    3.535    0.521    0.255
  331.750   94.792    3.553    0.496    0.251
  332.000   93.655    3.571    0.466    0.242
  332.250   96.312    3.252    0.454    0.233
  332.500   99.537    2.796    0.463    0.239
  332.750  102.848    2.756    0.513    0.246
  333.000  101.142    3.238    0.538    0.265
  333.250   99.479    3.736    0.554    0.271
  333.500   97.248    4.564    0.524    0.271
  333.750   96.153    5.927    0.500    0.253
  334.000   95.059    7.384    0.470    0.236
  334.250   94.007    8.687    0.451    0.221
  334.500   92.955    8.915    0.416    0.213
  334.750   91.334    8.776    0.405    0.205
  335.000   90.282    8.484    0.392    0.197
  335.250   91.106    7.887    0.370    0.160
  335.500   92.456    7.468    0.356    0.121
  335.750   93.806    7.535    0.358    0.146
  336.000   95.894    7.554    0.383    0.177
  336.250   98.508    7.733    0.394    0.191
  336.500  101.123    8.092    0.409    0.199
  336.750  102.515    8.458    0.427    0.211
  337.000  103.339    8.851    0.439    0.225
  337.250  103.424    8.896    0.451    0.228
  337.500  103.679    9.106    0.437    0.219
  337.750  102.016    9.334    0.423    0.212
  338.000  100.311    9.579    0.406    0.209
  338.250   99.216    9.616    0.404    0.209
  338.500   97.553   10.063    0.402    0.207
  338.750   95.890   10.327    0.400    0.204
  339.000   96.103   10.585    0.395    0.204
  339.250   96.316   10.835    0.391    0.201
  339.500   95.832   11.133    0.385    0.201
  339.750   94.738   11.397    0.372    0.196
  340.000   93.728   11.681    0.361    0.175
  340.250   93.245   11.073    0.355    0.142
  340.500   94.069   10.484    0.344    0.145
  340.750   96.725    9.386    0.353    0.156
  341.000   98.686    8.898    0.369    0.173
  341.250  100.690    8.932    0.387    0.196
  341.500  102.736    9.001    0.394    0.206
  341.750  102.906    9.036    0.396    0.202
  342.000  103.687    9.083    0.399    0.199
  342.250  103.857    8.964    0.398    0.195
  342.500  103.985    8.814    0.398    0.193
  342.750  104.198    8.859    0.402    0.193
  343.000  104.368    8.916    0.408    0.192
  343.250  103.927    9.150    0.419    0.192
  343.500  102.264    9.174    0.430    0.188
  343.750  100.601    9.403    0.421    0.187
  344.000   98.369   10.034    0.401    0.192
  344.250   97.232   10.271    0.383    0.199
  344.500   94.958   10.974    0.373    0.190
  344.750   90.851   11.910    0.364    0.170
  345.000   86.701   13.215    0.348    0.132
  345.250   82.551   15.833    0.305    0.101
  345.500   76.000   15.325    0.288    0.079
  345.750   81.669   14.509    0.269    0.052
  346.000   88.646   13.472    0.223    0.079
  346.250   90.650   11.813    0.255    0.128
  346.500   91.431   11.873    0.281    0.155
  346.750   91.033   12.670    0.346    0.208
  347.000   90.592   14.599    0.371    0.255
  347.250   89.582   15.865    0.377    0.227
  347.500   88.488   17.241    0.373    0.221
  347.750   87.393   20.309    0.360    0.229
  348.000   86.299   22.042    0.351    0.247
  348.250   84.721   24.938    0.341    0.238
  348.500   83.584   27.136    0.339    0.202
  348.750   81.352   24.740    0.299    0.130
  349.000   79.078   22.528    0.280    0.075
  349.250   79.248   20.513    0.270    0.042
  349.500   81.252   14.779    0.260    0.036
  349.750   83.866   12.959    0.270    0.037
  350.000   90.758   10.496    0.298    0.066
  350.250   98.303    8.338    0.327    0.090
  350.500  104.016    6.503    0.397    0.172
  350.750  107.852    6.038    0.451    0.175
  351.000  110.467    5.952    0.474    0.241
  351.250  110.068    5.867    0.481    0.244
  351.500  110.239    5.897    0.466    0.246
  351.750  110.409    6.044    0.460    0.247
  352.000  110.579    6.091    0.459    0.242
  352.250  110.749    6.366    0.452    0.222
  352.500  109.740    6.390    0.447    0.209
  352.750  108.645    6.558    0.442    0.204
  353.000  105.760    6.584    0.446    0.199
  353.250  102.875    6.249    0.451    0.193
  353.500   99.990    6.152    0.443    0.184
  353.750  100.160    5.734    0.431    0.180
  354.000  103.343    5.638    0.417    0.173
  354.250  107.875    5.345    0.425    0.158
  354.500  109.268    5.167    0.452    0.226
  354.750  109.395    5.001    0.470    0.220
  355.000  108.954    4.917    0.482    0.203
  355.250  108.514    4.853    0.484    0.162
  355.500  107.462    4.878    0.479    0.180
  355.750  105.188    4.903    0.470    0.200
  356.000  105.358    4.928    0.468    0.201
  356.250  109.237    4.947    0.468    0.204
  356.500  111.851    4.973    0.471    0.206
  356.750  111.453    5.005    0.481    0.210
  357.000  110.401    5.037    0.487    0.201
  357.250  108.695    5.163    0.489    0.195
  357.500  107.643    5.291    0.475    0.191
  357.750  107.203    5.530    0.455    0.192
  358.000  107.373    5.668    0.437    0.192
  358.250  107.543    5.690    0.426    0.186
  358.500  107.102    5.847    0.425    0.185
  358.750  106.619    5.977    0.425    0.189
  359.000  105.609    6.127    0.414    0.189
  359.250  105.737    6.411    0.406    0.162
  359.500  105.907    6.580    0.413    0.145
  359.750  106.688    6.735    0.421    0.138
  360.000  105.679    6.519    0.416    0.145
  360.250  102.836    6.045    0.393    0.152
  360.500  101.699    5.307    0.392    0.159
  360.750  100.647    4.833    0.406    0.171
  361.000  102.651    4.327    0.416    0.177
  361.250  104.654    4.259    0.423    0.184
  361.500  107.353    4.292    0.442    0.188
  361.750  105.733    4.388    0.469    0.193
  362.000  104.596    4.592    0.469    0.195
  362.250  102.933    4.701    0.447    0.186
  362.500  100.616    4.913    0.431    0.178
  362.750   97.120    5.346    0.429    0.171
  363.000   94.235    6.531    0.431    0.163
  363.250   90.128    7.683    0.434    0.165
  363.500   85.367    9.027    0.443    0.168
  363.750   77.551   10.829    0.439    0.164
  364.000   70.346   14.321    0.434    0.159
  364.250   60.696   17.180    0.353    0.157
  364.500   53.491   21.401    0.321    0.162
  364.750   45.675   37.241    0.305    0.165
  365.000   39.123   48.301    0.302    0.170
  365.250   35.585   49.506    0.299    0.203
  365.500   35.186   46.025    0.294    0.331
  365.750   35.968   40.356    0.335    0.361
  366.000   37.360   36.037    0.367    0.337
  366.250   40.017   29.802    0.359    0.317
  366.500   42.063   27.137    0.333    0.307
  366.750   42.759   24.263    0.333    0.404
  367.000   46.638   22.557    0.337    0.378
  367.250   50.474   20.592    0.327    0.369
  367.500   51.256   20.246    0.333    0.369
  367.750   51.468   19.983    0.333    0.365
  368.000   51.028   18.968    0.337    0.365
  368.250   49.407   18.289    0.349    0.337
  368.500   48.881   16.696    0.383    0.330
  368.750   47.872   15.502    0.405    0.321
  369.000   46.820   14.152    0.423    0.303
  369.250   45.768   13.382    0.434    0.292
  369.500   44.716   11.996    0.441    0.285
  369.750   42.484   11.581    0.436    0.279
  370.000   41.347   11.401    0.427    0.275
  370.250   39.684   11.253    0.419    0.276
  370.500   39.243   11.534    0.411    0.278
  370.750   41.247   12.039    0.406    0.279
  371.000   45.083   13.621    0.393    0.281
  371.250   47.783   15.391    0.387    0.285
  371.500   46.731   20.381    0.382    0.286
  371.750   44.457   23.453    0.376    0.288
  372.000   41.486   30.418    0.376    0.291
  372.250   36.114   47.085    0.377    0.292
  372.500   30.785   64.749    0.374    0.294
  372.750   30.344   82.355    0.374    0.295
  373.000   30.557  113.250    0.373    0.297
  373.250   30.116  152.727    0.373    0.297
  373.500   27.842  175.976    0.373    0.298
  373.750   26.136  203.025    0.377    0.298
