~VERSION INFORMATION
 VERS.                 2.0:   CWLS LOG ASCII STANDARD -VERSION 2.0
 WRAP.                  NO:   ONE LINE PER DEPTH STEP
~WELL INFORMATION BLOCK
#MNEM.UNIT           DATA                    DESCRIPTION OF MNEMONIC
#---------    -------------------            -------------------------------
# Generated from Intellog Unique Number	CX_WELLS/WELL/3847
WELL.         HORSE CREEK                    : Well_name    - WELL
LOC .         AA/05-14-087-10W4/0            : Location     - LOCATION
UWI .         AA/05-14-087-10W400            : Uwi          - UNIQUE WELL ID
ENTR.         T                              : Entered      - ENTERED BY
SRVC.         SCHLUMBERGER                   : Scn          - SERVICE COMPANY
STRT.F        50                             : top_depth    - START DEPTH
STOP.F        579.856                        : bot_depth    - STOP DEPTH
STEP.F        0.8202                         : increment    - STEP LENGTH
 NULL. -999.2500:NULL Value
~CURVE INFORMATION BLOCK
#MNEM UNIT       ERCB CURVE CODE    CURVE DESCRIPTION
#-----------   ------------------   ----------------------------------
DEPT.F        00 001 00 00         : DEPTH        - DEPTH
GR  .API      00 310 00 00         : GR           - GAMMA RAY
NPHI.V/V      00 330 00 00         : PHIN         - NEUTRON POROSITY (SANDSTONE)
ILD .OHMM     00 120 00 00         : RESD         - DEEP RESISTIVITY (DIL)
~PARAMETER INFORMATION
#MNEM.UNIT           DATA             DESCRIPTION OF MNEMONIC
#---------         -----------     ------------------------------
GL  .F        1390                 : gl           - GROUND LEVEL ELEVATION
EREF.F        1398                 : kb           - ELEVATION OF DEPTH REFERENCE
DATM.F        1398                 : datum        - DATUM ELEVATION
TDD .F        583                  : tdd          - TOTAL DEPTH DRILLER
RUN .         ONE                  : Run          - RUN NUMBER
ENG .         BILL                 : Engineer     - RECORDING ENGINEER
WIT .         JIM                  : Witness      - WITNESSED BY
MUD .         GEL                  : Mud_type     - MUD TYPE
MATR.         SANDSTONE            : Logunit      - NEUTRON MATRIX
TMAX.F        52                   : BHT          - MAXIMUM RECORDED TEMPERATURE
BHTD.F        583                  : BHTDEP       - MAXIMUM RECORDED TEMPERATURE
MATR.         1                    : LOGUNIT      - NEUTRON MATRIX
RMT .F        52                   : MDTP         - TEMPERATURE OF MUD
NEUT.         1                    : NEUTRON      - NEUTRON TYPE
RESI.         8                    : RESIST       - RESISTIVITY TYPE
RMC .OHMM     8                    : RMC          - RESISTIVITY OF MUD CAKE
RMF .OHMM     8                    : RMF          - RESISTIVITY OF MUD FILTRATE
SUFT.F        32                   : SUFT         - SURFACE TEMPERATURE
~A  DEPTH       GR     PHIN     RESD
# ...
  405.971   83.922    0.322   11.548
  406.791   86.403    0.330   11.563
  407.612   86.948    0.350   11.410
  408.432   88.942    0.363   11.426
  409.252   93.859    0.358   11.267
  410.072   98.289    0.351   11.293
  410.892   97.373    0.346   11.130
  411.713   94.984    0.346   10.981
  412.533   93.557    0.349   10.992
  413.353   90.681    0.348   11.018
  414.173   87.816    0.346   10.854
  414.993   89.312    0.345   10.696
  415.814  100.584    0.345   10.363
  416.634  103.541    0.343   10.031
  417.454  109.919    0.344    9.867
  418.274  117.782    0.346    9.535
  419.094  118.802    0.350    9.377
  419.915  120.785    0.349    9.392
  420.735  116.935    0.341    9.229
  421.555  100.896    0.322    9.249
  422.375   80.484    0.266    9.091
  423.196   71.751    0.186    9.111
  424.016   60.595    0.193    9.311
  424.836   62.589    0.208    9.332
  425.656   66.045    0.209    9.711
  426.476   69.999    0.216   10.095
  427.297   71.507    0.220   10.836
  428.117   73.501    0.237   12.463
  428.937   75.496    0.242   33.453
  429.757   79.439    0.260   32.574
  430.577   86.315    0.278   29.377
  431.398   91.719    0.299   28.855
  432.218   91.279    0.318   27.801
  433.038   84.506    0.333   26.389
  433.858   84.563    0.334   25.510
  434.678   86.546    0.328   24.456
  435.499   89.526    0.324   23.587
  436.319   87.137    0.328   22.707
  437.139   85.722    0.325   20.937
  437.959   84.307    0.315   19.530
  438.780   80.468    0.309   18.835
  439.600   77.580    0.306   18.487
  440.420   73.243    0.311   17.618
  441.240   76.211    0.317   16.922
  442.060   81.128    0.323   16.042
  442.881   83.123    0.327   15.352
  443.701   85.129    0.327   15.378
  444.521   84.688    0.322   15.567
  445.341   84.734    0.312   15.777
  446.161   86.740    0.310   15.793
  446.982   88.248    0.315   15.629
  447.802   85.360    0.323   14.939
  448.622   78.587    0.323   13.711
  449.442   75.710    0.323   13.368
  450.262   74.295    0.322   13.026
  451.083   72.892    0.317   13.589
  451.903   72.462    0.314   14.689
  452.723   71.998    0.309   15.415
  453.543   70.595    0.306   17.058
  454.364   68.693    0.303   17.621
  455.184   63.856    0.306   17.810
  456.004   57.571    0.311   18.557
  456.824   58.602    0.311   19.105
  457.644   62.545    0.308   20.737
  458.465   65.502    0.307   23.627
  459.285   65.061    0.302   30.278
  460.105   59.263    0.307   36.929
  460.925   55.424    0.311   39.103
  461.745   66.696    0.317   37.865
  462.566   68.667    0.326   35.737
  463.386   72.622    0.324   34.505
  464.206   71.682    0.319   35.605
  465.026   69.293    0.319   36.341
  465.846   67.878    0.314   36.541
  466.667   65.001    0.313   35.666
  467.487   62.612    0.313   34.966
  468.307   61.684    0.320   32.659
  469.127   64.177    0.322   33.217
  469.948   67.633    0.322   36.102
  470.768   66.717    0.322   41.504
  471.588   67.725    0.325   51.020
  472.408   70.694    0.328   54.627
  473.228   74.161    0.330   48.728
  474.049   73.720    0.334   38.359
  474.869   71.331    0.336   35.510
  475.689   68.466    0.337   37.684
  476.509   66.077    0.337   40.928
  477.329   64.163    0.337   43.997
  478.150   61.287    0.333   43.481
  478.970   64.256    0.333   43.143
  479.790   71.608    0.333   43.701
  480.610   75.562    0.333   44.796
  481.430   81.941    0.334   46.433
  482.251   85.408    0.335   49.498
  483.071   82.532    0.325   50.593
  483.891   75.260    0.308   51.329
  484.711   66.075    0.261   50.281
  485.531   65.611    0.297   48.864
  486.352   62.746    0.322   46.915
  487.172   60.832    0.329   45.140
  487.992   57.956    0.327   33.154
  488.812   55.567    0.327   26.366
  489.633   56.111    0.327   19.398
  490.453   61.017    0.327   17.091
  491.273   72.278    0.330   16.043
  492.093   74.759    0.331   15.527
  492.913   75.292    0.333   14.831
  493.734   75.362    0.330   13.956
  494.554   74.898    0.327   12.724
  495.374   74.457    0.324   12.197
  496.194   73.529    0.320   11.322
  497.014   70.165    0.311    9.552
  497.835   67.788    0.284    7.424
  498.655   66.361    0.253    7.271
  499.475   54.717    0.231   10.873
  500.295   47.944    0.188   13.221
  501.115   45.555    0.171   21.483
  501.936   43.166    0.171   28.492
  502.756   43.711    0.175   50.019
  503.576   43.270    0.195   51.656
  504.396   42.330    0.246   51.672
  505.217   39.454    0.275   51.876
  506.037   39.500    0.282   52.250
  506.857   45.878    0.289   53.350
  507.677   55.190    0.294   54.271
  508.497   63.030    0.304   47.114
  509.318   71.855    0.311   41.226
  510.138   71.414    0.314   40.173
  510.958   64.641    0.318   41.089
  511.778   53.960    0.321   42.900
  512.598   51.084    0.329   40.414
  513.419   56.986    0.335   35.774
  514.239   61.416    0.331   28.448
  515.059   67.794    0.327   24.883
  515.879   73.697    0.322   32.966
  516.699   71.308    0.311   51.265
  517.520   61.612    0.311   45.193
  518.340   52.404    0.315   31.601
  519.160   48.055    0.323   27.498
  519.980   62.725    0.327   21.605
  520.801   69.590    0.329   19.114
  521.621   76.467    0.331   18.423
  522.441   77.975    0.330   18.439
  523.261   78.021    0.326   18.286
  524.081   65.878    0.318   18.311
  524.902   53.260    0.305   18.501
  525.722   56.229    0.314   18.521
  526.542   69.438    0.324   18.363
  527.362   73.381    0.323   18.210
  528.182   75.387    0.324   17.877
  529.003   76.407    0.326   17.530
  529.823   79.863    0.330   16.834
  530.643   85.267    0.332   29.398
  531.463   83.365    0.339   27.987
  532.283   65.389    0.336   17.797
  533.104   62.501    0.331   14.773
  533.924   51.831    0.325   14.620
  534.744   50.904    0.314   14.277
  535.564   54.359    0.301   13.935
  536.385   60.273    0.295   12.886
  537.205   65.179    0.296   12.186
  538.025   71.557    0.296   13.101
  538.845   71.626    0.296   19.752
  539.665   70.200    0.299   24.970
  540.486   64.389    0.302   28.577
  541.306   59.078    0.308   20.351
  542.126   59.611    0.310   16.075
  542.946   63.090    0.309   15.379
  543.766   60.689    0.309   16.305
  544.587   53.429    0.309   16.679
  545.407   46.644    0.308   16.694
  546.227   43.768    0.307   16.367
  547.047   45.287    0.304   16.019
  547.867   44.359    0.300   16.045
  548.688   44.892    0.301   15.892
  549.508   48.348    0.302   15.544
  550.328   49.879    0.302   15.028
  551.148   49.414    0.301   15.764
  551.969   52.870    0.301   16.860
  552.789   54.389    0.301   17.602
  553.609   54.435    0.300   17.259
  554.429   53.020    0.297   16.205
  555.249   50.167    0.296   15.152
  556.070   49.216    0.295   14.461
  556.890   47.314    0.293   13.592
  557.710   45.412    0.295   13.244
  558.530   42.535    0.296   12.559
  559.350   40.633    0.295   12.221
  560.171   39.705    0.290   11.889
  560.991   39.264    0.283   11.720
  561.811   38.336    0.277   11.562
  562.631   37.907    0.282   11.577
  563.451   37.477    0.290   11.066
  564.272   37.036    0.297   10.729
  565.092   37.071    0.302   10.565
  565.912   36.630    0.297   10.775
  566.732   36.189    0.293   11.149
  567.552   39.158    0.279   11.527
  568.373   46.510    0.279   11.364
  569.193   48.516    0.285   10.678
  570.013   49.525    0.293   10.515
  570.833   52.505    0.300   11.436
  571.654   52.551    0.302   11.804
  572.474   52.111    0.303   12.362
  573.294   51.194    0.302   12.567
  574.114   50.255    0.260   12.588
  574.934   48.352    0.264   11.887
  575.755   46.450    0.281   10.296
  576.575   44.560    0.285    9.601
  577.395   43.632    0.296    9.263
  578.215   42.704    0.303    9.284
  579.035   42.738    0.302    9.304
  579.856   43.283    0.295    9.514
