~VERSION INFORMATION
 VERS.                 2.0:   CWLS LOG ASCII STANDARD -VERSION 2.0
 WRAP.                  NO:   ONE LINE PER DEPTH STEP
~WELL INFORMATION BLOCK
#MNEM.UNIT           DATA                    DESCRIPTION OF MNEMONIC
#---------    -------------------            -------------------------------
# Generated from Intellog Unique Number	CC_84_87/WELL/1173
NULL.         -999.25                        : NULL_VALUE
LOC .         08-26-085-09W4                 : Location     - LOCATION          
UWI .         AA/08-26-085-09W400            : Uwi          - UNIQUE WELL ID    
ENTR.         DW                             : Entered      - ENTERED BY        
SRVC.         SCHLUMBERGER                   : Scn          - SERVICE COMPANY   
STRT.M        240                            : top_depth    - START DEPTH       
STOP.M        459.892                        : bot_depth    - STOP DEPTH        
STEP.M        0.3                            : increment    - STEP LENGTH       
~CURVE INFORMATION BLOCK
#MNEM UNIT       ERCB CURVE CODE    CURVE DESCRIPTION
#-----------   ------------------   ----------------------------------
DEPT.M        00 001 00 00         : DEPTH        - DEPTH                       
DPHI.V/V      00 890 00 00         : PHID         - DENSITY POROSITY (LIMESTONE)
NPHI.V/V      00 330 00 00         : PHIN         - NEUTRON POROSITY (LIMESTONE)
GR  .API      00 310 00 00         : GR           - GAMMA RAY                   
ILD .OHMM     00 120 00 00         : RESD         - DEEP RESISTIVITY (DIL)      
~PARAMETER INFORMATION       
#MNEM.UNIT           DATA             DESCRIPTION OF MNEMONIC
#---------         -----------     ------------------------------
GL  .M        700.2                : gl           - GROUND LEVEL ELEVATION      
EREF.M        703.4                : kb           - ELEVATION OF DEPTH REFERENCE
DATM.M        703.4                : datum        - DATUM ELEVATION             
TDD .M        470                  : tdd          - TOTAL DEPTH DRILLER         
RUN .         ONE                  : Run          - RUN NUMBER                  
ENG .         BILL                 : Engineer     - RECORDING ENGINEER          
WIT .         JIM                  : Witness      - WITNESSED BY                
MUD .         GEL                  : Mud_type     - MUD TYPE                    
MATR.         LIMESTONE            : Logunit      - NEUTRON MATRIX              
TMAX.C        20                   : BHT          - MAXIMUM RECORDED TEMPERATURE
BHTD.M        470                  : BHTDEP       - MAXIMUM RECORDED TEMPERATURE
MATR.         1                    : LOGUNIT      - NEUTRON MATRIX              
RMT .C        25                   : MDTP         - TEMPERATURE OF MUD          
NEUT.         1                    : NEUTRON      - NEUTRON TYPE                
RESI.         0                    : RESIST       - RESISTIVITY TYPE            
RMC .OHMM     0.25                 : RMC          - RESISTIVITY OF MUD CAKE     
RMF .OHMM     0.25                 : RMF          - RESISTIVITY OF MUD FILTRATE 
SUFT.C        15                   : SUFT         - SURFACE TEMPERATURE         
~A  DEPTH     PHID     PHIN       GR     RESD
# ...
  344.397    0.268    0.496   72.048   11.883
  344.697    0.252    0.383   69.059   15.129
  344.997    0.204    0.307   77.463   15.418
  345.297    0.140    0.342   88.266   15.712
  345.597    0.289    0.392   86.475   17.566
  345.897    0.288    0.413   75.690   23.207
  346.197    0.241    0.409   69.103   28.469
  346.496    0.197    0.343   78.107   26.938
  346.796    0.154    0.378   72.719   16.950
  347.096    0.173    0.344   58.935   13.573
  347.396    0.112    0.208   66.740   12.147
  347.696    0.230    0.355   74.545   10.872
  347.996    0.287    0.439   82.948   10.099
  348.296    0.297    0.484   89.554    9.916
  348.596    0.288    0.459   90.763    9.920
  348.896    0.287    0.458   93.772   10.491
  349.196    0.270    0.448   93.781   12.870
  349.496    0.224    0.430   90.189   14.932
  349.796    0.175    0.390   77.607   15.792
  350.096    0.119    0.344   75.216   15.799
  350.396    0.166    0.378   81.821   17.021
  350.696    0.174    0.395   72.235   16.713
  350.996    0.157    0.271   69.844   14.959
  351.296    0.135    0.254   75.850   12.901
  351.596    0.253    0.380   85.455   11.546
  351.896    0.293    0.464   86.062   10.925
  352.196    0.321    0.481   78.275   10.148
  352.496    0.323    0.438   80.086    9.964
  352.796    0.316    0.426   81.891    9.784
  353.096    0.307    0.454   80.704    9.609
  353.396    0.311    0.477   80.111    9.611
  353.696    0.330    0.443   83.717    9.795
  353.996    0.334    0.419   85.526    9.981
  354.296    0.327    0.413   83.135   10.172
  354.596    0.323    0.426   77.747    9.989
  354.896    0.302    0.465   74.757    9.628
  355.196    0.306    0.469   75.967    8.617
  355.496    0.307    0.460   83.770    7.857
  355.796    0.300    0.441   86.777    7.163
  356.096    0.281    0.420   88.585    6.653
  356.396    0.267    0.419   92.791    6.655
  356.696    0.268    0.483   86.205    7.305
  356.996    0.270    0.507   82.015    7.726
  357.296    0.247    0.467   83.224    7.729
  357.596    0.289    0.460   86.231    7.449
  357.896    0.342    0.510   88.639    6.919
  358.196    0.416    0.493   84.450    6.547
  358.496    0.450    0.539   86.857    6.311
  358.796    0.490    0.522   92.263    6.083
  359.096    0.444    0.496   83.876    5.547
  359.396    0.453    0.526   75.491    5.347
  359.696    0.519    0.587   76.100    5.348
  359.996    0.462    0.591   80.305    5.349
  360.296    0.442    0.594   88.709    5.872
  360.596    0.431    0.597   95.314    6.445
  360.896    0.383    0.460   92.926    7.341
  361.196    0.297    0.472   95.335    7.908
  361.496    0.305    0.512   95.940    8.842
  361.796    0.276    0.524   91.752    9.705
  362.096    0.251    0.463   80.368    9.355
  362.396    0.243    0.422   79.776    8.529
  362.696    0.248    0.407   83.984    7.921
  362.996    0.333    0.412   86.390    7.496
  363.296    0.348    0.480   87.600    7.225
  363.596    0.386    0.466   88.809    6.231
  363.896    0.413    0.452   88.217    5.787
  364.196    0.449    0.517   86.427    5.085
  364.496    0.457    0.532   88.835    4.811
  364.796    0.419    0.546   97.838    4.387
  365.096    0.359    0.526  105.042    4.151
  365.396    0.374    0.517   99.054    3.715
  365.696    0.405    0.554   86.470    3.325
  365.996    0.427    0.571   87.080    3.031
  366.296    0.450    0.576   78.693    2.922
  366.596    0.481    0.630   82.300    2.923
  366.896    0.495    0.642   88.906    3.149
  367.196    0.439    0.565   87.715    3.723
  367.496    0.424    0.489   87.124    4.400
  367.796    0.391    0.448   78.737    5.106
  368.096    0.343    0.472   84.743    5.501
  368.396    0.368    0.523   90.149    5.927
  368.696    0.358    0.543   91.956    6.152
  368.996    0.366    0.532   93.764    6.753
  369.296    0.375    0.456   97.370    7.412
  369.596    0.354    0.443  101.577    7.694
  369.896    0.318    0.460  105.184    7.841
  370.196    0.312    0.452  106.991    7.990
  370.496    0.335    0.451   86.612    8.452
  370.796    0.353    0.494   99.213    8.772
  371.095    0.293    0.537  108.819    9.808
  371.395    0.212    0.417  108.226   10.568
  371.695    0.186    0.386  101.040   10.971
  371.995    0.174    0.413   97.451   10.974
  372.295    0.161    0.410  101.657   10.580
  372.595    0.156    0.362  111.262   10.388
  372.895    0.193    0.398  113.669   10.200
  373.195    0.239    0.419  113.677    9.654
  373.495    0.254    0.406  113.086    9.304
  373.795    0.273    0.391   98.703    8.803
  374.095    0.305    0.433   90.917    7.734
  374.395    0.358    0.493   90.326    6.922
  374.695    0.388    0.501   96.332    6.924
  374.995    0.324    0.498  104.137    7.600
  375.295    0.297    0.483  105.344    8.983
  375.595    0.255    0.425  104.154    9.502
  375.895    0.250    0.377  104.761    9.504
  376.195    0.266    0.381  102.373    9.332
  376.495    0.249    0.386  102.382    9.165
  376.795    0.247    0.394  104.190    9.000
  377.095    0.284    0.392  104.798    9.002
  377.395    0.323    0.398  103.007    8.677
  377.695    0.363    0.502   95.820    8.059
  377.995    0.312    0.498   92.232    7.485
  378.295    0.264    0.410   89.841    6.953
  378.595    0.312    0.489   83.253    6.955
  378.895    0.360    0.506   93.457    6.959
  379.195    0.353    0.433   90.471    7.091
  379.495    0.384    0.504   88.678    7.499
  379.795    0.398    0.561   92.285    7.785
  380.095    0.274    0.590   92.894    8.232
  380.395    0.259    0.428   95.901    8.391
  380.695    0.268    0.438   98.307    8.238
  380.995    0.304    0.400   92.322    7.652
  381.295    0.354    0.387   90.530    6.976
  381.595    0.382    0.458   89.939    3.855
  381.895    0.388    0.540   86.950    3.515
  382.195    0.364    0.542   83.962    3.452
  382.495    0.345    0.564   85.168    3.719
  382.795    0.310    0.518   94.771    4.396
  383.095    0.289    0.486   97.778    5.293
  383.395    0.293    0.474  103.784    6.993
  383.695    0.238    0.452  101.994    7.535
  383.995    0.234    0.434   97.206    7.822
  384.295    0.235    0.422   96.617    8.122
  384.595    0.219    0.415   94.825    8.123
  384.895    0.195    0.439   87.638    8.590
  385.195    0.167    0.402   83.449    9.429
  385.495    0.164    0.385   93.652    9.972
  385.795    0.188    0.412   93.661   10.353
  386.095    0.184    0.371   91.272   10.551
  386.395    0.175    0.337   93.079   10.359
  386.695    0.233    0.401   94.890    9.445
  386.995    0.315    0.416   91.298    7.564
  387.295    0.360    0.429   90.107    6.645
  387.595    0.390    0.476   93.116    6.171
  387.895    0.389    0.463   91.325    5.840
  388.195    0.388    0.478   88.335    5.629
  388.495    0.394    0.530   88.944    4.343
  388.795    0.425    0.531   75.761    3.054
  389.095    0.445    0.578   74.571    3.113
  389.395    0.380    0.566   82.974    3.354
  389.695    0.361    0.544   88.382    4.514
  389.995    0.328    0.545   89.587    5.237
  390.295    0.312    0.538   87.798    5.437
  390.595    0.300    0.418   83.608    5.145
  390.895    0.321    0.409   78.821    4.778
  391.195    0.396    0.462   83.028    4.277
  391.495    0.430    0.506   86.633    4.200
  391.795    0.392    0.525   88.442    4.360
  392.095    0.423    0.576   86.653    5.153
  392.395    0.364    0.599   86.061    6.809
  392.695    0.283    0.449   86.070    7.613
  392.995    0.290    0.487   83.079    7.338
  393.295    0.274    0.408   83.090    5.768
  393.595    0.238    0.375   86.097    4.883
  393.895    0.373    0.442   90.903    4.371
  394.195    0.350    0.497   95.108    4.135
  394.495    0.319    0.518   99.317    3.841
  394.795    0.312    0.524   98.127    3.635
  395.095    0.312    0.533   96.335    3.569
  395.395    0.315    0.551   95.744    3.637
  395.694    0.311    0.557   96.352    3.706
  395.994    0.275    0.529   96.963    3.994
  396.294    0.284    0.510   95.771    4.069
