~VERSION INFORMATION
 VERS.                 2.0:   CWLS LOG ASCII STANDARD -VERSION 2.0
 WRAP.                  NO:   ONE LINE PER DEPTH STEP
~WELL INFORMATION BLOCK
#MNEM.UNIT           DATA                    DESCRIPTION OF MNEMONIC
#---------    -------------------            -------------------------------
# Generated from Intellog Unique Number	CN_91_93/WELL/1067
WELL.         03-33-091-13W4                 : Well_name    - WELL
LOC .         AA/03-33-091-13W4/0            : Location     - LOCATION
UWI .         AA/03-33-091-13W400            : Uwi          - UNIQUE WELL ID
ENTR.         JOETTE                         : Entered      - ENTERED BY
SRVC.         WESTERN ATLAS                  : Scn          - SERVICE COMPANY
DATE.         01/30/92                       : Date         - LOG DATE
STRT.F        278.871                        : top_depth    - START DEPTH
STOP.F        524.934                        : bot_depth    - STOP DEPTH
STEP.F        0.821                          : increment    - STEP LENGTH
 NULL. -999.2500:NULL Value
~CURVE INFORMATION BLOCK
#MNEM UNIT       ERCB CURVE CODE    CURVE DESCRIPTION
#-----------   ------------------   ----------------------------------
DEPT.F        00 001 00 00         : DEPTH        - DEPTH
GR  .API      00 310 00 00         : GR           - GAMMA RAY
ILD .OHMM     00 120 00 00         : RESD         - DEEP RESISTIVITY (DIL)
PHID.V/V      00 890 00 00         : PHID         - DENSITY POROSITY (SANDSTONE)
PHIN.V/V      00 330 00 00         : PHIN         - NEUTRON POROSITY (SANDSTONE)
CALI.IN       00 280 01 00         : CAL          - CALIPER
~PARAMETER INFORMATION
#MNEM.UNIT           DATA             DESCRIPTION OF MNEMONIC
#---------         -----------     ------------------------------
GL  .M        443.18               : gl           - GROUND LEVEL ELEVATION
EREF.M        446.55               : kb           - ELEVATION OF DEPTH REFERENCE
DATM.M        446.55               : datum        - DATUM ELEVATION
TDD .M        172                  : tdd          - TOTAL DEPTH DRILLER
RUN .         ONE                  : Run          - RUN NUMBER
ENG .         JO                   : Engineer     - RECORDING ENGINEER
WIT .         TIM                  : Witness      - WITNESSED BY
MUD .         GEL                  : Mud_type     - MUD TYPE
MATR.         SANDSTONE            : Logunit      - NEUTRON MATRIX
TMAX.F        71.6                 : BHT          - MAXIMUM RECORDED TEMPERATURE
BHTD.F        564.304              : BHTDEP       - MAXIMUM RECORDED TEMPERATURE
RMT .F        64.4                 : MDTP         - TEMPERATURE OF MUD
MUDD.LB/G     9.08333              : MWT          - MUD DENSITY
NEUT.         1                    : NEUTRON      - NEUTRON TYPE
RESI.         0                    : RESIST       - RESISTIVITY TYPE
RM  .OHMM     3.5                  : RM           - RESISTIVITY OF MUD
RMC .OHMM     3.2                  : RMC          - RESISTIVITY OF MUD CAKE
RMF .OHMM     4.8                  : RMF          - RESISTIVITY OF MUD FILTRATE
SUFT.F        39.2                 : SUFT         - SURFACE TEMPERATURE
~A   DEPT       GR      ILD     PHID     PHIN     CALI
  278.871   49.686   11.568    0.602    0.347    6.421
  279.692   48.217   18.235    0.242    0.311    6.646
  280.512   46.138   18.418    0.227    0.278    6.489
  281.332   38.887   16.190    0.144    0.247    6.493
  282.152   40.465   15.467    0.137    0.245    6.556
  282.972   38.075   17.624    0.216    0.293    6.560
  283.793   40.870   20.462    0.254    0.315    6.424
  284.613   43.978   21.249    0.230    0.302    6.507
  285.433   45.555   18.850    0.037    0.245    6.711
  286.253   41.655   15.965    0.024    0.222    6.874
  287.073   40.802   13.150    0.027    0.226    7.077
  287.894   39.929   10.935    0.049    0.264    7.002
  288.714   44.248   10.543    0.236    0.342    7.025
  289.534   48.269   10.551    0.254    0.369    7.029
  290.354   42.535   10.657    0.217    0.350    7.033
  291.175   41.979   10.278    0.177    0.337    6.976
  291.995   43.861    9.818    0.198    0.391    6.859
  292.815   45.141    9.123    0.289    0.387    6.923
  293.635   50.069    8.717    0.264    0.402    7.047
  294.455   50.733    8.485    0.266    0.399    7.211
  295.276   50.793    8.259    0.256    0.418    7.254
  296.096   53.278    8.113    0.266    0.403    7.358
  296.916   51.815    7.823    0.264    0.425    7.481
  297.736   47.293    7.686    0.239    0.414    7.585
  298.556   54.056    7.692    0.214    0.399    7.748
  299.377   56.242    7.769    0.171    0.407    7.852
  300.197   53.555    7.774    0.275    0.436    7.935
  301.017   59.709    7.360    0.250    0.424    7.919
  301.837   60.067    7.504    0.214    0.419    7.843
  302.657   55.247    7.510    0.187    0.399    7.867
  303.478   50.115    6.978    0.171    0.383    7.890
  304.298   51.699    6.248    0.227    0.425    7.894
  305.118   59.674    5.914    0.234    0.442    7.957
  305.938   63.391    6.258    0.242    0.450    7.981
  306.759   59.491    6.934    0.261    0.454    8.004
  307.579   58.015    7.474    0.257    0.446    8.048
  308.399   53.187    7.910    0.240    0.437    8.091
  309.219   52.646    8.445    0.227    0.405    8.095
  310.039   50.865    8.070    0.198    0.388    8.079
  310.860   51.528    7.853    0.159    0.390    8.122
  311.680   54.020    7.786    0.132    0.398    8.146
  312.500   57.743    7.793    0.171    0.398    8.150
  313.320   59.618    7.871    0.206    0.406    8.134
  314.140   64.553    7.521    0.242    0.433    8.137
  314.961   59.117    7.388    0.238    0.436    8.121
  315.781   58.257    7.602    0.246    0.418    8.124
  316.601   58.927    7.896    0.233    0.420    8.128
  317.421   60.206    8.051    0.226    0.417    8.132
  318.241   60.260    7.982    0.223    0.419    8.155
  319.062   60.314    7.842    0.230    0.417    8.179
  319.882   58.838    7.703    0.221    0.416    8.182
  320.702   61.330    7.926    0.217    0.400    8.166
  321.522   64.126    7.934    0.215    0.409    8.169
  322.343   61.438    7.720    0.205    0.405    8.153
  323.163   59.054    7.514    0.124    0.399    8.157
  323.983   55.757    7.382    0.122    0.423    8.141
  324.803   58.560    7.320    0.199    0.426    8.144
  325.623   62.581    6.866    0.239    0.426    8.148
  326.444   59.277    6.321    0.230    0.432    8.152
  327.264   63.596    5.712    0.232    0.427    8.175
  328.084   65.485    5.258    0.223    0.446    8.180
  328.904   64.625    4.796    0.210    0.450    8.182
  329.724   59.805    4.216    0.229    0.443    8.186
  330.545   58.335    4.104    0.250    0.454    8.169
  331.365   57.171    4.107    0.252    0.459    8.153
  332.185   60.576    4.148    0.240    0.459    8.157
  333.005   57.895    4.348    0.254    0.463    8.160
  333.825   57.339    4.600    0.261    0.449    8.064
  334.646   59.215    4.913    0.238    0.450    8.007
  335.466   58.964    5.009    0.196    0.449    8.011
  336.286   53.534    4.875    0.154    0.414    8.075
  337.106   60.297    5.352    0.205    0.428    8.098
  337.927   66.749    5.407    0.224    0.419    8.061
  338.747   58.273    5.262    0.238    0.431    8.025
  339.567   65.347    5.619    0.235    0.451    7.949
  340.387   71.183    6.057    0.228    0.438    7.912
  341.207   68.495    6.233    0.217    0.434    7.936
  342.028   63.065    6.355    0.204    0.431    7.960
  342.848   61.291    6.479    0.192    0.421    7.963
  343.668   56.782    6.729    0.133    0.409    7.967
  344.488   58.962    6.988    0.188    0.412    7.950
  345.308   59.016    7.257    0.236    0.424    7.954
  346.129   63.038    7.468    0.220    0.421    7.958
  346.949   72.841    7.756    0.223    0.419    7.941
  347.769   75.345    7.907    0.215    0.419    7.945
  348.589   71.737    8.212    0.214    0.410    7.949
  349.409   67.519    8.372    0.222    0.417    7.932
  350.230   59.042    8.150    0.225    0.389    7.936
  351.050   64.282    7.786    0.230    0.384    7.919
  351.870   62.508    7.508    0.228    0.386    7.902
  352.690   52.197    6.786    0.203    0.369    7.887
  353.510   53.470    6.423    0.101    0.342    7.830
  354.331   58.412    6.139    0.189    0.355    7.834
  355.151   64.857    6.029    0.221    0.425    7.898
  355.971   68.878    6.438    0.219    0.407    7.941
  356.791   65.276    6.875    0.216    0.409    7.944
  357.612   62.900    7.074    0.214    0.427    7.929
  358.432   60.199    7.212    0.200    0.418    7.932
  359.252   59.650    7.153    0.200    0.401    7.936
  360.072   56.657    7.025    0.207    0.407    7.919
  360.892   59.149    6.712    0.216    0.409    7.903
  361.713   59.507    6.844    0.197    0.415    7.906
  362.533   57.131    7.042    0.190    0.418    7.909
  363.353   58.092    7.247    0.204    0.407    7.913
  364.173   59.371    7.456    0.206    0.393    7.917
  364.993   63.081    7.672    0.202    0.394    7.921
  365.814   61.917    8.044    0.220    0.407    7.925
  366.634   62.885    8.048    0.228    0.422    7.928
  367.454   59.283    7.410    0.212    0.425    7.911
  368.274   54.774    7.015    0.096    0.395    7.856
  369.094   55.126    6.702    0.167    0.413    7.838
  369.915   60.054    6.000    0.223    0.432    7.943
  370.735   57.062    5.082    0.249    0.450    8.006
  371.555   53.764    4.344    0.256    0.470    7.989
  372.375   57.488    3.714    0.262    0.460    8.093
  373.196   60.284    3.387    0.272    0.459    8.177
  374.016   63.682    3.297    0.280    0.454    8.200
  374.836   63.445    3.520    0.283    0.449    8.204
  375.656   66.844    4.202    0.273    0.445    8.228
  376.476   61.109    5.015    0.261    0.410    8.232
  377.297   63.905    4.661    0.233    0.396    8.235
  378.117   66.403    4.096    0.243    0.404    8.258
  378.937   64.934    4.799    0.223    0.404    8.322
  379.757   54.623    6.462    0.229    0.398    8.406
  380.577   51.325    6.290    0.215    0.391    8.409
  381.398   55.347    4.635    0.209    0.386    8.413
  382.218   51.738    3.172    0.170    0.391    8.437
  383.038   50.574    2.403    0.116    0.406    8.480
  383.858   49.416    1.961    0.156    0.495    8.604
  384.678   51.291    1.724    0.328    0.519    8.707
  385.499   51.345    1.946    0.352    0.555    8.930
  386.319   46.829    2.796    0.349    0.540    9.594
  387.139   43.532    4.208    0.386    0.512   10.678
  387.959   44.195    5.562    0.389    0.489    8.522
  388.780   46.998    9.892    0.327    0.468    8.505
  389.600   41.873   12.367    0.318    0.452    8.649
  390.420   37.350   16.808    0.263    0.408    8.532
  391.240   28.264   18.800    0.273    0.394    8.296
  392.060   30.458   16.524    0.286    0.406    8.340
  392.881   33.551    9.658    0.309    0.433    8.363
  393.701   31.778    6.487    0.305    0.449    8.367
  394.521   35.190    3.620    0.309    0.449    8.350
  395.341   36.767    3.241    0.304    0.455    8.334
  396.161   45.967    3.012    0.275    0.470    8.357
  396.982   54.863    2.878    0.267    0.480    8.341
  397.802   58.573    2.775    0.277    0.473    8.065
