~VERSION INFORMATION
 VERS.                 2.0:   CWLS LOG ASCII STANDARD -VERSION 2.0
 WRAP.                  NO:   ONE LINE PER DEPTH STEP
~WELL INFORMATION BLOCK
#MNEM.UNIT           DATA                    DESCRIPTION OF MNEMONIC
#---------    -------------------            -------------------------------
# Generated from Intellog Unique Number	CX_WELLS/WELL/3751
WELL.         AMOCO GREGOIRE                 : Well_name    - WELL
LOC .         AA/01-18-086-08W4/0            : Location     - LOCATION
UWI .         AA/01-18-086-08W400            : Uwi          - UNIQUE WELL ID
ENTR.         T                              : Entered      - ENTERED BY
SRVC.         SCHLUMBERGER                   : Scn          - SERVICE COMPANY
STRT.F        200                            : top_depth    - START DEPTH
STOP.F        861.909                        : bot_depth    - STOP DEPTH
STEP.F        0.82                           : increment    - STEP LENGTH
 NULL. -999.2500:NULL Value
~CURVE INFORMATION BLOCK
#MNEM UNIT       ERCB CURVE CODE    CURVE DESCRIPTION
#-----------   ------------------   ----------------------------------
DEPT.F        00 001 00 00         : DEPTH        - DEPTH
GR  .API      00 310 00 00         : GR           - GAMMA RAY
DPHI.V/V      00 890 00 00         : PHID         - DENSITY POROSITY (SANDSTONE)
ILD .OHMM     00 120 00 00         : RESD         - DEEP RESISTIVITY (DIL)
~PARAMETER INFORMATION
#MNEM.UNIT           DATA             DESCRIPTION OF MNEMONIC
#---------         -----------     ------------------------------
GL  .F        1610                 : gl           - GROUND LEVEL ELEVATION
EREF.F        1615.5               : kb           - ELEVATION OF DEPTH REFERENCE
DATM.F        1615.5               : datum        - DATUM ELEVATION
TDD .F        870                  : tdd          - TOTAL DEPTH DRILLER
RUN .         ONE                  : Run          - RUN NUMBER
ENG .         BILL                 : Engineer     - RECORDING ENGINEER
WIT .         JIM                  : Witness      - WITNESSED BY
MUD .         GEL                  : Mud_type     - MUD TYPE
MATR.         SANDSTONE            : Logunit      - NEUTRON MATRIX
TMAX.F        70                   : BHT          - MAXIMUM RECORDED TEMPERATURE
BHTD.F        870                  : BHTDEP       - MAXIMUM RECORDED TEMPERATURE
MATR.         1                    : LOGUNIT      - NEUTRON MATRIX
RMT .F        68                   : MDTP         - TEMPERATURE OF MUD
NEUT.         1                    : NEUTRON      - NEUTRON TYPE
RESI.         3.5                  : RESIST       - RESISTIVITY TYPE
RMC .OHMM     2.3                  : RMC          - RESISTIVITY OF MUD CAKE
RMF .OHMM     4.5                  : RMF          - RESISTIVITY OF MUD FILTRATE
SUFT.F        39.2                 : SUFT         - SURFACE TEMPERATURE
~A  DEPTH       GR     PHID     RESD
  200.000   46.324    0.350   46.572
  200.820   46.372    0.348   46.182
  201.640   49.021    0.347   45.798
  202.461   52.203    0.346   45.821
  203.281   53.291    0.345   46.249
  204.101   53.848    0.343   46.283
  204.921   54.417    0.343   45.682
  205.741   54.465    0.341   45.087
  206.562   54.006    0.341   44.698
  207.382   54.042    0.339   43.902
  208.202   55.676    0.339   43.090
  209.022   58.833    0.339   40.436
  209.843   63.562    0.338   36.129
  210.663   64.663    0.338   33.886
  211.483   65.232    0.342   33.085
  212.303   65.800    0.347   32.089
  213.123   64.809    0.345   31.488
  213.944   65.898    0.345   31.093
  214.764   66.987    0.347   30.298
  215.584   67.047    0.348   29.914
  216.404   65.536    0.348   29.725
  217.224   64.036    0.348   29.536
  218.045   63.541    0.344   28.952
  218.865   62.549    0.343   28.557
  219.685   63.118    0.343   28.162
  220.505   63.699    0.343   26.955
  221.325   64.267    0.343   25.736
  222.146   65.356    0.344   24.729
  222.966   66.977    0.350   23.934
  223.786   69.094    0.353   23.544
  224.606   69.650    0.353   22.749
  225.427   69.191    0.351   22.148
  226.247   72.373    0.347   21.547
  227.067   75.022    0.344   20.546
  227.887   76.110    0.341   19.945
  228.707   76.679    0.342   19.149
  229.528   78.808    0.344   18.754
  230.348   80.405    0.346   17.753
  231.168   84.106    0.347   16.952
  231.988   87.795    0.347   16.151
  232.808   92.525    0.345   15.349
  233.629   98.294    0.342   15.160
  234.449   93.662    0.336   14.565
  235.269   85.909    0.327   14.382
  236.089   76.597    0.317   14.198
  236.909   69.352    0.286   15.662
  237.730   63.680    0.258   19.190
  238.550   59.580    0.278   24.154
  239.370   55.976    0.315   29.123
  240.190   51.864    0.294   32.034
  241.010   48.272    0.276   33.910
  241.831   45.720    0.274   34.756
  242.651   47.849    0.289   35.396
  243.471   51.018    0.311   34.389
  244.291   52.627    0.328   33.176
  245.112   53.740    0.337   31.762
  245.932   53.765    0.344   30.750
  246.752   54.358    0.346   27.066
  247.572   54.406    0.348   25.647
  248.392   54.975    0.349   22.175
  249.213   55.544    0.353   21.157
  250.033   56.633    0.353   18.709
  250.853   57.189    0.355   16.466
  251.673   57.758    0.358   14.836
  252.493   59.379    0.359   13.211
  253.314   61.508    0.356   11.598
  254.134   65.705    0.355   10.997
  254.954   74.087    0.355   10.602
  255.774   87.670    0.353    9.806
  256.594   92.399    0.351    9.417
  257.415   99.209    0.352    9.028
  258.235  101.858    0.355    8.432
  259.055  103.479    0.359    8.043
  259.875  105.608    0.359    7.453
  260.696  105.669    0.352    7.264
  261.516  105.705    0.345    6.869
  262.336  106.274    0.346    6.686
  263.156  108.403    0.349    6.502
  263.976  110.532    0.351    6.319
  264.797  113.193    0.354    6.141
  265.617  113.750    0.353    6.164
  266.437  114.863    0.350    6.186
  267.257  114.899    0.346    6.208
  268.077  112.868    0.344    6.231
  268.898  111.356    0.347    6.259
  269.718  107.776    0.350    6.287
  270.538  105.720    0.351    6.298
  271.358  105.261    0.351    6.326
  272.178  105.322    0.350    6.349
  272.999  105.370    0.348    6.371
  273.819  105.939    0.348    6.388
  274.639  106.496    0.348    6.410
  275.459  107.597    0.351    6.232
  276.280  108.165    0.354    6.055
  277.100  105.614    0.359    6.071
  277.920  100.969    0.361    5.894
  278.740   95.817    0.361    5.716
  279.560   96.386    0.359    5.727
  280.381  100.075    0.359    5.549
  281.201  103.764    0.360    5.572
  282.021  104.333    0.361    5.600
  282.841  102.821    0.362    5.611
  283.661  100.282    0.362    5.633
  284.482   98.770    0.361    5.656
  285.302   99.327    0.358    5.684
  286.122  100.936    0.357    5.712
  286.942  102.557    0.355    5.523
  287.762  103.645    0.355    5.551
  288.583  105.266    0.354    5.568
  289.403  104.795    0.354    5.596
  290.223  102.243    0.352    5.618
  291.043   98.639    0.350    5.646
  291.864   93.475    0.348    5.457
  292.684   86.242    0.344    5.279
  293.504   69.128    0.339    5.084
  294.324   71.777    0.335    5.107
  295.144   81.707    0.330    4.929
  295.965   86.957    0.335    4.963
  296.785   88.578    0.338    4.968
  297.605   90.199    0.341    4.785
  298.425   91.288    0.341    4.813
  299.245   89.244    0.339    4.835
  300.066   82.011    0.339    4.657
  300.886   77.367    0.339    4.886
  301.706   77.948    0.339    4.903
  302.526   79.037    0.337    5.137
  303.346   74.925    0.337    5.159
  304.167   72.373    0.337    5.382
  304.987   78.143    0.337    5.621
  305.807   82.352    0.336    5.633
  306.627   84.481    0.336    5.655
  307.448   83.502    0.337    5.683
  308.268   81.482    0.337    5.500
  309.088   80.478    0.336    5.522
  309.908   79.487    0.338    5.544
  310.728   79.015    0.345    5.572
  311.549   80.612    0.353    5.600
  312.369   83.261    0.351    5.617
  313.189   82.802    0.347    5.634
  314.009   79.198    0.344    5.657
  314.829   77.698    0.343    5.685
  315.650   81.388    0.341    5.701
  316.470   78.316    0.336    5.729
  317.290   68.471    0.332    5.752
  318.110   61.758    0.327    5.786
  318.930   54.526    0.323    5.802
  319.751   43.133    0.334    5.819
  320.571   39.529    0.340    5.842
  321.391   34.376    0.336    6.081
  322.211   33.397    0.334    6.098
  323.031   32.938    0.338    6.321
  323.852   32.962    0.340    6.349
  324.672   33.011    0.339    6.366
  325.492   35.660    0.337    6.394
  326.312   37.801    0.334    6.411
  327.133   37.862    0.335    6.650
  327.953   36.350    0.337    6.672
  328.773   34.839    0.341    6.689
  329.593   33.327    0.343    6.712
  330.413   32.335    0.344    6.734
  331.234   32.396    0.344    6.757
  332.054   33.461    0.342    6.573
  332.874   35.082    0.339    6.596
  333.694   35.650    0.342    6.618
  334.514   35.699    0.346    6.640
  335.335   36.268    0.347    6.674
  336.155   37.344    0.345    6.685
  336.975   39.486    0.340    6.719
  337.795   42.135    0.335    6.541
  338.615   46.356    0.333    6.558
  339.436   49.525    0.332    5.762
  340.256   52.162    0.330    5.362
  341.076   55.863    0.327    4.572
  341.896   58.525    0.329    4.177
  342.717   60.641    0.336    3.788
  343.537   66.411    0.340    3.604
  344.357   79.994    0.344    3.627
  345.177   87.844    0.351    3.443
  345.997   98.306    0.364    3.254
  346.818  100.447    0.372    3.076
  347.638  100.484    0.368    2.893
  348.458  101.052    0.364    2.715
  349.278  102.153    0.358    2.726
  350.098  103.774    0.361    2.749
  350.919  104.331    0.363    2.571
  351.739  104.900    0.368    2.593
  352.559  104.440    0.376    2.616
  353.379  103.945    0.375    2.644
  354.199  103.485    0.368    2.666
  355.020  102.494    0.365    2.688
  355.840  100.982    0.360    2.711
  356.660   99.471    0.360    2.939
  357.480   97.959    0.368    2.956
  358.301   96.967    0.369    2.984
  359.121   97.548    0.366    3.007
  359.941   98.637    0.366    3.023
  360.761   99.218    0.366    3.051
  361.581   99.242    0.365    3.074
  362.402   99.811    0.365    3.302
  363.222  100.380    0.366    3.330
  364.042   99.908    0.370    3.559
  364.862   99.957    0.372    3.581
  365.682   99.498    0.372    3.603
  366.503   99.014    0.365    3.626
  367.323   97.527    0.364    3.648
  368.143   97.563    0.365    3.665
  368.963   97.080    0.366    3.688
  369.783   96.632    0.368    3.710
  370.604   96.669    0.371    3.944
  371.424   95.169    0.373    3.966
  372.244   94.674    0.373    4.200
  373.064   93.682    0.367    4.217
  373.885   95.303    0.364    4.445
  374.705   97.952    0.364    4.685
  375.525   99.561    0.365    5.114
  376.345   96.489    0.364    5.336
  377.165   86.644    0.363    6.188
