~VERSION INFORMATION
 VERS.                 2.0:   CWLS LOG ASCII STANDARD -VERSION 2.0
 WRAP.                  NO:   ONE LINE PER DEPTH STEP
~WELL INFORMATION BLOCK
#MNEM.UNIT           DATA                    DESCRIPTION OF MNEMONIC
#---------    -------------------            -------------------------------
# Generated from Intellog Unique Number	CN_94_101/WELL/3212
WELL.         SHELL CANADA LTD.              : Well_name    - WELL
LOC .         AA/01-23-095-17W4/0            : Location     - LOCATION
UWI .         AA/01-23-095-17W4/0            : Uwi          - UNIQUE WELL ID
ENTR.         JOETTE                         : Entered      - ENTERED BY
SRVC.         SCHLUMBERGER                   : Scn          - SERVICE COMPANY
DATE.         07/27/92                       : Date         - LOG DATE
STRT.F        350                            : top_depth    - START DEPTH
STOP.F        989.764                        : bot_depth    - STOP DEPTH
STEP.F        0.82                           : increment    - STEP LENGTH
 NULL. -999.2500:NULL Value
~CURVE INFORMATION BLOCK
#MNEM UNIT       ERCB CURVE CODE    CURVE DESCRIPTION
#-----------   ------------------   ----------------------------------
DEPT.F        00 001 00 00         : DEPTH        - DEPTH
ILD .OHMM     00 120 00 00         : RESD         - DEEP RESISTIVITY (DIL)
GR  .API      00 310 00 00         : GR           - GAMMA RAY
DPHI.V/V      00 890 00 00         : PHID         - DENSITY POROSITY (SANDSTONE)
~PARAMETER INFORMATION
#MNEM.UNIT           DATA             DESCRIPTION OF MNEMONIC
#---------         -----------     ------------------------------
GL  .M        582.778              : gl           - GROUND LEVEL ELEVATION
EREF.M        583.997              : kb           - ELEVATION OF DEPTH REFERENCE
DATM.M        583.997              : datum        - DATUM ELEVATION
TDD .M        275.844              : tdd          - TOTAL DEPTH DRILLER
RUN .         ONE                  : Run          - RUN NUMBER
ENG .         BILL                 : Engineer     - RECORDING ENGINEER
WIT .         JIM                  : Witness      - WITNESSED BY
MUD .         GEL                  : Mud_type     - MUD TYPE
MATR.         SANDSTONE            : Logunit      - NEUTRON MATRIX
TMAX.F        69                   : BHT          - MAXIMUM RECORDED TEMPERATURE
BHTD.F        1005                 : BHTDEP       - MAXIMUM RECORDED TEMPERATURE
RMT .F        69                   : MDTP         - TEMPERATURE OF MUD
MUDD.LB/G     9.8                  : MWT          - MUD DENSITY
NEUT.         1                    : NEUTRON      - NEUTRON TYPE
RESI.         0                    : RESIST       - RESISTIVITY TYPE
RM  .OHMM     0.95                 : RM           - RESISTIVITY OF MUD
RMC .OHMM     0.95                 : RMC          - RESISTIVITY OF MUD CAKE
RMF .OHMM     0.95                 : RMF          - RESISTIVITY OF MUD FILTRATE
SUFT.F        4                    : SUFT         - SURFACE TEMPERATURE
~A  DEPTH     RESD       GR     PHID
# ...
  705.971    7.660  102.441    0.263
  706.791    7.673  113.827    0.226
  707.612    8.432  125.809    0.239
  708.432    9.263  121.701    0.277
  709.252    9.631  116.997    0.308
  710.072    8.310  116.461    0.306
  710.892    7.305  113.544    0.303
  711.713    6.791  108.245    0.308
  712.533    7.195  104.137    0.306
  713.353    7.473  105.982    0.299
  714.173    8.061  108.423    0.303
  714.993    8.380  106.101    0.312
  715.814    7.095  111.534    0.307
  716.634    7.379  107.411    0.303
  717.454    8.259  102.707    0.310
  718.274    8.583  119.467    0.314
  719.094    7.270  123.098    0.311
  719.915    6.158  121.386    0.313
  720.735    5.413  120.240    0.313
  721.555    4.585  114.941    0.314
  722.375    3.956  106.651    0.318
  723.196    3.817   95.398    0.328
  724.016    5.054   82.955    0.347
  724.836    7.908   77.656    0.355
  725.656   11.491   79.517    0.367
  726.476   12.171   82.538    0.344
  727.297   12.411   84.384    0.336
  728.117   12.661   87.435    0.305
  728.937   11.130   92.257    0.301
  729.757    8.916  102.453    0.304
  730.577    7.840  110.847    0.318
  731.398    7.022  113.883    0.316
  732.218    6.525  111.606    0.294
  733.038    6.065  111.635    0.298
  733.858    5.334  115.267    0.307
  734.678    4.518  119.494    0.314
  735.499    4.358  120.744    0.316
  736.319    5.256  123.810    0.309
  737.139    6.108  123.274    0.307
  737.959    6.350  118.556    0.314
  738.780    5.905  112.662    0.317
  739.600    5.802  117.484    0.307
  740.420    5.597  106.827    0.268
  741.240    6.877   96.765    0.234
  742.060    9.628   96.229    0.205
  742.881    9.118  114.760    0.161
  743.701    7.868  120.788    0.310
  744.521    7.314  120.252    0.319
  745.341    7.894  120.296    0.322
  746.161    7.611  120.951    0.311
  746.982    6.816  125.788    0.293
  747.802    5.164  129.435    0.296
  748.622    4.456  130.075    0.302
  749.442    4.299  130.149    0.303
  750.262    4.147  130.804    0.302
  751.083    4.001  132.664    0.299
  751.903    3.454  134.509    0.299
  752.723    3.272  136.340    0.304
  753.543    3.463  137.010    0.295
  754.364    4.100  132.902    0.220
  755.184    6.417  105.545    0.180
  756.004    4.428  101.437    0.231
  756.824    3.293  116.990    0.287
  757.644    3.757  136.712    0.263
  758.465    4.285  137.962    0.246
  759.285    4.537  140.432    0.254
  760.105    4.297  136.920    0.294
  760.925    4.145  134.583    0.298
  761.745    4.909  131.085    0.293
  762.566    6.145  132.320    0.295
  763.386    7.411  140.119    0.273
  764.206    9.283  137.812    0.268
  765.026    9.295  133.094    0.272
  765.846   10.026  126.604    0.278
  766.667   10.815  120.115    0.285
  767.487   11.455  114.220    0.289
  768.307   12.133  110.723    0.293
  769.127   12.141  114.935    0.282
  769.948   11.933  119.772    0.273
  770.768   11.096  119.846    0.282
  771.588    9.938  121.096    0.274
  772.408    9.067  123.522    0.280
  773.228    8.425  129.565    0.301
  774.049    7.832  129.624    0.295
  774.869    7.698  129.684    0.286
  775.689    8.312  124.966    0.301
  776.509    9.131  115.499    0.322
  777.329   10.031  106.628    0.313
  778.150   10.429  102.520    0.301
  778.970   10.439  110.915    0.293
  779.790    9.180  119.919    0.310
  780.610    8.536  116.407    0.309
  781.430    8.545  109.902    0.300
  782.251    8.883  112.358    0.295
  783.071    9.406  112.432    0.306
  783.891    9.592  113.072    0.314
  784.711    9.785  117.894    0.310
  785.531    9.805  114.977    0.302
  786.352    9.637  110.869    0.315
  787.172    9.469  112.729    0.322
  787.992    9.135  116.956    0.313
  788.812    8.651  124.160    0.293
  789.633    8.198  127.211    0.291
  790.453    8.055  121.912    0.289
  791.273    7.774  121.986    0.300
  792.093    7.784  124.413    0.306
  792.913    7.941  124.472    0.313
  793.734    8.250  117.387    0.322
  794.554    8.739  113.889    0.324
  795.374    9.426  115.139    0.322
  796.194    9.619  118.771    0.315
  797.014    9.277  125.379    0.301
  797.835    8.465  133.178    0.277
  798.655    7.040  124.903    0.280
  799.475    6.789  111.864    0.270
  800.295    9.155  100.612    0.242
  801.115   11.898   97.099    0.276
  801.936   12.839  106.684    0.327
  802.756    7.220  119.276    0.334
  803.576    5.781  115.748    0.324
  804.396    4.142  128.340    0.316
  805.217    3.641  124.217    0.314
  806.037    5.390  120.094    0.312
  806.857    7.135  121.359    0.309
  807.677    7.278  125.006    0.308
  808.497    4.171  127.432    0.310
  809.318    2.933  129.873    0.317
  810.138    2.307  135.305    0.318
  810.958    2.442  132.983    0.312
  811.778    2.891  126.493    0.309
  812.598    4.280  120.599    0.304
  813.419    5.458  115.300    0.295
  814.239    7.500  112.398    0.281
  815.059    9.215  114.229    0.277
  815.879   10.317  104.762    0.286
  816.699   10.331  107.203    0.280
  817.520    9.603  115.598    0.283
  818.340    7.983  124.617    0.283
  819.160    6.163  132.401    0.271
  819.980    5.946  130.079    0.280
  820.801    6.182  122.994    0.285
  821.621    6.666  115.314    0.275
  822.441    8.042  124.914    0.278
  823.261    8.675  124.974    0.276
  824.081    8.527  120.866    0.247
  824.902    8.862  116.162    0.200
  825.722   14.393  110.863    0.158
  826.542   26.634  115.686    0.179
  827.362   32.725  123.500    0.214
  828.182   20.969  118.201    0.222
  829.003   10.169  114.093    0.266
  829.823   10.186  115.938    0.279
  830.643   10.193  128.530    0.267
  831.463   10.405  130.390    0.281
  832.283   10.412  129.825    0.285
  833.104   10.629  125.717    0.277
  833.924   10.839  127.577    0.273
  834.744   10.864  129.422    0.272
  835.564   10.872  124.704    0.279
  836.385   10.886  125.954    0.281
  837.205   10.905  124.228    0.270
  838.025   10.711  115.952    0.273
  838.845   10.729  126.147    0.283
  839.665   10.545  131.580    0.286
  840.486   10.365  128.067    0.281
  841.306   10.187  123.349    0.271
  842.126   10.588  121.622    0.264
  842.946   11.635  123.468    0.257
  843.766   13.524  122.947    0.249
  844.587   13.543  118.838    0.241
  845.407   11.905  117.722    0.239
  846.227   10.866  116.591    0.269
  847.047   10.684  114.269    0.286
  847.867   10.691  111.336    0.283
  848.688   10.511  112.587    0.283
  849.508   10.921  116.828    0.283
  850.328   12.932  116.873    0.281
  851.148   15.597  111.574    0.266
  851.969   16.210  103.299    0.243
  852.789   13.987   98.000    0.233
  853.609   11.204   98.654    0.232
  854.429    8.488  104.087    0.255
  855.249    8.191   99.979    0.276
  856.070    8.202   98.848    0.294
  856.890    8.525  106.051    0.300
  857.710    9.196  115.071    0.259
  858.530   12.400  109.757    0.233
  859.350   26.628   94.933    0.206
  860.171   43.261   91.405    0.143
  860.991    8.743   90.274    0.234
  861.811    7.980   99.278    0.250
  862.631    8.608  104.696    0.269
  863.451   10.190  109.533    0.244
  864.272   13.239  105.425    0.237
  865.092   33.611   91.791    0.200
  865.912   82.217   88.859    0.132
  866.732   65.858   81.774    0.104
  867.552   20.423   75.880    0.098
  868.373   11.489   70.596    0.102
  869.193    9.203   78.380    0.111
  870.013    7.103   93.339    0.122
  870.833    6.361   99.352    0.217
  871.654    6.252  116.096    0.250
  872.474    6.500  128.673    0.275
  873.294    6.880  140.059    0.268
  874.114    8.300  136.546    0.245
  874.934    9.293  124.684    0.225
  875.755    8.169  138.451    0.222
  876.575    6.427  139.136    0.236
  877.395    6.552  135.608    0.252
  878.215    6.940  131.485    0.270
  879.035    7.213  128.568    0.264
  879.856    7.637  132.824    0.256
  880.676    8.550  132.274    0.262
  881.496   12.420  123.403    0.207
  882.316   30.380  109.159    0.146
  883.136   10.343  100.288    0.122
