~Version : LASO    vs 4.00
VERS.                2.00:   CWLS Log ASCII Standard -VERSION 2.0
WRAP.                  NO:
~Well Information Block
#MNEM.UNIT       Data                        Description of Mnemonic
#----.----      -------------------------- : -----------------------------
COMP.                                     : COMPANY
FLD .    WILDCAT                          : FIELD NAME
LOC .    02-32-090-08W4                   : WELL LOCATION
UWI .    AA/02-32-090-08W400              : UNIQUE WELL ID
STRT.M             0.0000:
STOP.M           201.3750:
STEP.M             0.1250:
NULL.           -999.2500:
COMP.  :COMPANY
WELL.  MOBIL CLARKE OV 2-32:WELL
FLD.   :FIELD
LOC.   :LOCATION
CTRY.  :COUNTRY
PROV.  ALBERTA:PROVINCE
SRVC.  DRESSER ATLAS:SERVICE COMPANY
DATE.  17-FEB-81:LOG DATE
UWI.   :UNIQUE WELL ID
~Parameter Information Block
#MNEM.UNIT       Data                        Description of Mnemonic
#----.----      -------------------------- : -----------------------------
RUN .                   1                 : Run Number
GL  .M           431.8000                 : Ground Level Elevation
DREF.                  KB                 : Depth Reference
EREF.M           431.8000                 : Elevation of Depth Reference
TDL .M           202.0000                 : Total Depth Logger
TDD .M           201.6000                 : Total Depth Driller
BHT .DEGC         20.0000                 : Bottom Hole Temperature
BS  .MM          159.0000                 : Bit Size
DFD .             10.3000                 : Mud Weight (Density)
DFV .             85.0000                 : Mud Viscosity
DFPH.             10.0000                 : Mud pH
RM  .OHMM          4.9000                 : Mud Resistivity
RMT .DEGC         20.0000                 : Mud Resistivity Temperature
RMF .OHMM          4.7000                 : Mud Filtrate Resistivity
RMFT.DEGC         10.0000                 : RMF Temperature
RMC .OHMM          9.5000                 : Mud Cake Resistivity
RMCT.DEGC         10.0000                 : RMC Temperature
~Curve Information Block
#MNEM.UNIT        API CODE    Curve Description
#---------    ------------    -------------------------------------------
DEPT.M                    :   DEPTH
CALI.MM       42 280  1  1:   3 DENSITY CALIPER
DPHI.V/V                  :   DPHI
DT  .US/M     60 520 42  1:   2 SONIC INTERVAL TRANSIT TIME (COMPENSATED)
GR  .GAPI     42 310  1  1:   4 GAMMA RAY
IL  .OHMM      5 120 45  1:   7 INDUCTION
NPHI.V/V      42 890  3  1:   5 NEUTRON POROSITY (SANDSTONE)
RHOB.K/M3     42 350  1  1:   6 BULK DENSITY
SFL .OHMM      5 220  6  1:   8 FOCUSSED RESISTIVITY
SP  .MV        5  10  1  1:   9 SPONTANEOUS POTENTIAL
~A  Depth           CALI        DPHI          DT          GR          IL        NPHI        RHOB         SFL          SP
# ...
192.6250        151.3500      0.0591    366.3600     78.1350     10.2500      0.2698   2532.8999     16.7000    -36.0400
192.7500        151.2000      0.0541    362.4400     81.5700     10.2500      0.2771   2540.8000     17.0650    -36.4200
192.8750        151.2000      0.0493    351.8800     86.7750     10.1250      0.2797   2548.7000     18.3500    -36.1700
193.0000        151.1750      0.0422    363.4400     86.5350     10.0650      0.2836   2563.6001     18.7200    -36.5400
193.1250        151.1750      0.0385    371.7600     82.2000     10.2500      0.2908   2576.3999     18.9650    -36.6700
193.2500        151.1750      0.0382    377.1600     79.6650     10.4950      0.2954   2580.0000     18.5950    -36.4200
193.3750        150.9750      0.0360    421.8400     78.2850     10.8000      0.2895   2602.0000     17.4950    -36.9200
193.5000        150.4500      0.0315    465.2800     80.3250     10.9850      0.2784   2613.7000     15.5350    -38.1600
193.6250        150.1500      0.0210    401.4400     79.3500     11.2900      0.2774   2624.0000     15.1050    -39.4100
193.7500        150.1250      0.0171    350.1600     77.9700     11.6000      0.2714   2631.5000     16.7600    -38.6600
193.8750        150.4500      0.0261    259.3600     77.5500     11.8450      0.2613   2593.5000     19.7600    -37.0400
194.0000        152.1250      0.0348    284.1600     70.9650     12.2100      0.2476   2577.5000     23.2550    -37.5400
194.1250        154.0500      0.0354    311.1600     67.2600     12.7650      0.2327   2579.5000     24.6000    -38.5300
194.2500        152.1000      0.0355    324.6400     63.9000     13.2550      0.2237   2581.1001     22.4600    -38.4100
194.3750        152.1000      0.0374    319.2400     61.9950     13.6250      0.2220   2575.8999     20.5600    -37.5400
194.5000        152.0750      0.0377    318.2800     65.7600     13.9300      0.2308   2573.3999     20.6800    -35.5500
194.6250        152.0750      0.0388    319.0000     67.5750     14.1150      0.2324   2574.1001     21.2300    -33.1800
194.7500        152.0750      0.0390    319.7200     64.9350     14.1750      0.2333   2572.7000     21.1100    -31.6800
194.8750        152.1500      0.0364    314.6000     62.2350     14.3000      0.2350   2569.6001     20.9250    -31.6800
195.0000        152.6500      0.0348    312.8800     60.8700     14.3600      0.2369   2579.0000     20.7400    -31.5600
195.1250        153.0250      0.0335    311.6400     60.1350     14.5450      0.2333   2587.3000     20.3750    -30.9400
195.2500        153.0250      0.0314    311.1600     57.9150     14.4800      0.2309   2593.7000     20.1300    -30.6900
195.3750        153.0250      0.0315    307.9600     56.4150     14.4200      0.2297   2600.2000     20.9250    -31.1900
195.5000        153.6750      0.0324    308.9600     55.6650     14.3600      0.2272   2595.1001     22.3950    -31.4300
195.6250        154.0000      0.0360    310.9200     53.5950     14.3000      0.2298   2590.0000     23.0700    -32.1800
195.7500        154.0000      0.0365    308.2000     52.3500     14.1150      0.2278   2590.1001     22.4600    -32.6800
195.8750        153.9750      0.0365    303.5600     55.0050     13.8050      0.2235   2593.3000     20.2500    -32.6800
196.0000        153.9750      0.0424    306.0000     56.2950     13.3150      0.2251   2591.8000     19.0900    -32.5600
196.1250        153.9750      0.0449    309.9200     57.1800     12.8250      0.2291   2565.6001     21.1700    -32.8000
196.2500        153.9500      0.0449    314.0800     59.8800     12.2750      0.2264   2559.0000     25.2750    -33.9300
196.3750        153.9500      0.0393    288.0800     58.1700     11.7800      0.2263   2557.3000     22.7050    -35.7900
196.5000        154.5000      0.0399    276.3200     56.9250     11.3550      0.2368   2577.3999     16.5750    -37.9100
196.6250        155.5000      0.0400    297.4000     55.8300     11.0450      0.2542   2594.1001     13.6950    -39.0300
196.7500        155.9250      0.0432    353.1200     57.7650     10.6800      0.2572   2575.1001     13.9400    -39.6600
196.8750        155.9250      0.0457    386.2400     60.0750     10.3700      0.2615   2571.2000     14.4300    -40.1500
197.0000        155.9000      0.0481    420.8400     59.7750     10.1250      0.2656   2571.1001     14.7350    -39.9000
197.1250        155.9000      0.0484    384.0400     60.5400      9.8800      0.2621   2569.5000     14.5550    -39.5300
197.2500        155.8750      0.0515    375.4400     61.9650      9.7600      0.2551   2557.3999     14.6750    -39.5300
197.3750        155.8750      0.0510    367.3600     62.0700      9.6350      0.2495   2546.8000     15.1050    -39.1600
197.5000        155.8750      0.0509    383.8000     61.4250      9.5100      0.2465   2549.8999     15.5950    -39.0300
197.6250        155.8500      0.0508    393.1200     63.2400      9.5100      0.2447   2557.7000     15.5950    -38.2900
197.7500        155.8500      0.0470    360.4800     64.1100      9.4500      0.2433   2560.1001     14.9200    -37.9100
197.8750        155.8500      0.0434    366.1200     62.5050      9.3300      0.2458   2562.6001     14.3100    -38.1600
198.0000        155.8250      0.0354    369.8000     60.8400      9.2650      0.2502   2564.3000     14.3100    -36.9200
198.1250        155.2250      0.0241    386.7200     61.4700      9.1450      0.2474   2597.7000     14.4300    -34.0500
198.2500        155.6750      0.0128    423.5600     60.0900      9.0850      0.2450   2607.8000     14.0650    -26.8300
198.3750        156.4500      0.0035    375.9200     57.6300      9.0850      0.2479   2647.8000     13.6950     -7.7700
198.5000        156.8000      0.0064    379.3600     58.0500      9.0200      0.2497   2648.7000     13.6950      1.4500
198.6250        156.8000      0.0196    379.3600     59.2650      9.0850      0.2493   2630.3000     14.1850      1.4500
198.7500        156.8250      0.0322    378.4000     59.9250      9.0850      0.2455   2612.0000     14.4300      1.4500
198.8750        157.7750      0.0322    377.8800     62.3850      9.1450      0.2509   2593.6001     13.5100      1.3200
199.0000        157.7750      0.0242    377.8800     62.2650      9.1450      0.2539   2581.8000     12.3450      1.4500
199.1250        154.8750      0.0193   -999.2500     63.0900      9.1450      0.2493   2595.7000     13.4500      1.3200
199.2500        152.4500      0.0156   -999.2500     63.6000      9.1450      0.2469   2609.5000     17.2500      1.4500
199.3750        151.7250      0.0120   -999.2500     63.1500      9.1450      0.2422   2623.3999     21.2950      1.4500
199.5000        151.6000      0.0114   -999.2500     61.1850      9.1450      0.2424   2629.7000     23.9300      1.4500
199.6250        150.9000      0.0238   -999.2500     57.5100      9.1450      0.2456   2611.3000     24.0500      1.4500
199.7500        150.7000      0.0375   -999.2500     57.8700      9.1450      0.2461   2592.3999     22.2750      1.4500
199.8750        150.7000      0.0503   -999.2500     59.1750      9.1450      0.2462   2585.6001     19.7000      1.4500
200.0000        150.7000      0.0593   -999.2500     57.0600      9.2050      0.2537   2568.8999     18.9050      1.4500
200.1250        150.6750      0.0646   -999.2500     56.2050      9.2050      0.2583   2538.3999     19.3950      1.4500
200.2500        150.6750      0.0683   -999.2500     56.4150      9.2050      0.2616   2518.8999     20.6800      1.4500
200.3750        150.6750      0.0789   -999.2500     56.3400      9.2050      0.2615   2505.5000     21.2950      1.4500
200.5000        150.3750      0.0952   -999.2500     55.8450      9.2050      0.2576   2492.0000     20.2500      1.4500
200.6250        149.6750      0.0943   -999.2500     56.4450      9.2050      0.2600   2478.6001     18.2900      1.4500
200.7500        149.6500      0.0855   -999.2500     57.1500      9.2050      0.2573   2465.1001     17.6150      1.4500
200.8750        149.6250   -999.2500   -999.2500     57.9750      9.2050      0.2576   2451.6001     18.5950      1.4500
