~VERSION INFORMATION
 VERS.                 2.0:   CWLS LOG ASCII STANDARD -VERSION 2.0
 WRAP.                  NO:   ONE LINE PER DEPTH STEP
~WELL INFORMATION BLOCK
#MNEM.UNIT           DATA                    DESCRIPTION OF MNEMONIC
#---------    -------------------            -------------------------------
# Generated from Intellog Unique Number	CN_94_101/WELL/2374
WELL.         01-22-100-13W4                 : Well_name    - WELL
LOC .         AA/01-22-100-13W4/0            : Location     - LOCATION
UWI .         AA/01-22-100-13W400            : Uwi          - UNIQUE WELL ID
ENTR.         TIM                            : Entered      - ENTERED BY
SRVC.         SCHLUMBERGER                   : Scn          - SERVICE COMPANY
DATE.         08/13/92                       : Date         - LOG DATE
STRT.M        320.04                         : top_depth    - START DEPTH
STOP.M        542.54                         : bot_depth    - STOP DEPTH
STEP.M        0.25                           : increment    - STEP LENGTH
 NULL. -999.2500:NULL Value
~CURVE INFORMATION BLOCK
#MNEM UNIT       ERCB CURVE CODE    CURVE DESCRIPTION
#-----------   ------------------   ----------------------------------
DEPT.M        00 001 00 00         : DEPTH        - DEPTH
NPHI.V/V      00 330 00 00         : PHIN         - NEUTRON POROSITY (SANDSTONE)
ILD .OHMM     00 120 00 00         : RESD         - DEEP RESISTIVITY (DIL)
GR  .API      00 310 00 00         : GR           - GAMMA RAY
~PARAMETER INFORMATION
#MNEM.UNIT           DATA             DESCRIPTION OF MNEMONIC
#---------         -----------     ------------------------------
GL  .M        768.706              : gl           - GROUND LEVEL ELEVATION
EREF.M        772.058              : kb           - ELEVATION OF DEPTH REFERENCE
DATM.M        772.058              : datum        - DATUM ELEVATION
TDD .M        544.068              : tdd          - TOTAL DEPTH DRILLER
RUN .         ONE                  : Run          - RUN NUMBER
ENG .         JO                   : Engineer     - RECORDING ENGINEER
WIT .         TIM                  : Witness      - WITNESSED BY
MUD .         GEL                  : Mud_type     - MUD TYPE
MATR.         SANDSTONE            : Logunit      - NEUTRON MATRIX
TMAX.C        21.1111              : BHT          - MAXIMUM RECORDED TEMPERATURE
BHTD.M        544.068              : BHTDEP       - MAXIMUM RECORDED TEMPERATURE
RMT .C        7.22222              : MDTP         - TEMPERATURE OF MUD
MUDD.KG/M     9400                 : MWT          - MUD DENSITY
NEUT.         1                    : NEUTRON      - NEUTRON TYPE
RESI.         0                    : RESIST       - RESISTIVITY TYPE
RM  .OHMM     11                   : RM           - RESISTIVITY OF MUD
RMC .OHMM     7.07                 : RMC          - RESISTIVITY OF MUD CAKE
RMF .OHMM     7.07                 : RMF          - RESISTIVITY OF MUD FILTRATE
SUFT.C        4                    : SUFT         - SURFACE TEMPERATURE
~A  DEPTH     PHIN     RESD       GR
# ...
  374.290    0.485    4.925   91.170
  374.540    0.487    4.287   91.954
  374.790    0.493    3.960   93.524
  375.040    0.497    3.380   95.094
  375.290    0.506    3.001   97.056
  375.540    0.509    2.718   95.874
  375.790    0.517    2.884   93.907
  376.040    0.528    3.312   87.616
  376.290    0.535    3.958   69.534
  376.540    0.548    4.824   69.532
  376.790    0.552    5.540   69.137
  377.040    0.541    6.363   66.777
  377.290    0.520    6.751   64.416
  377.540    0.432    6.489   74.632
  377.790    0.437    5.994   80.132
  378.040    0.445    5.429   88.776
  378.290    0.459    4.820   93.882
  378.540    0.472    4.033   97.417
  378.790    0.484    3.581   99.380
  379.040    0.487    3.056  100.949
  379.290    0.487    2.823  102.126
  379.540    0.493    2.608  102.517
  379.790    0.496    2.608  103.694
  380.040    0.506    2.608  104.870
  380.290    0.511    2.556  105.653
  380.540    0.518    2.506  106.043
  380.790    0.531    2.315  106.042
  381.040    0.539    2.225  106.039
  381.290    0.538    2.181  106.037
  381.540    0.537    2.138  106.427
  381.790    0.537    2.096  107.210
  382.040    0.538    2.054  105.637
  382.290    0.544    2.054  110.350
  382.540    0.552    2.054  113.492
  382.790    0.558    2.014  115.061
  383.040    0.559    1.897  116.237
  383.290    0.559    1.860  117.413
  383.540    0.559    1.753  117.805
  383.790    0.559    1.684  117.803
  384.040    0.561    1.684  116.621
  384.290    0.561    1.684  114.261
  384.540    0.559    1.717  111.507
  384.790    0.558    1.717  109.932
  385.040    0.556    1.786  109.930
  385.290    0.555    1.822  109.928
  385.540    0.552    1.895  109.925
  385.790    0.551    1.933  109.922
  386.040    0.549    1.971  109.920
  386.290    0.549    1.971  110.311
  386.540    0.549    1.971  111.094
  386.790    0.552    1.894  111.091
  387.040    0.552    1.857  110.696
  387.290    0.555    1.820  109.908
  387.540    0.558    1.820  109.119
  387.790    0.560    1.784  107.937
  388.040    0.562    1.749  107.543
  388.290    0.568    1.749  105.575
  388.540    0.569    1.784  103.607
  388.790    0.566    1.856  101.640
  389.040    0.558    1.930  100.458
  389.290    0.553    1.969  100.848
  389.540    0.552    1.969  101.633
  389.790    0.549    2.008  104.774
  390.040    0.546    2.048  106.737
  390.290    0.543    2.047  107.914
  390.540    0.538    2.088  107.518
  390.790    0.532    2.130  106.336
  391.040    0.527    2.172  107.906
  391.290    0.531    2.172  110.654
  391.540    0.538    2.087  111.831
  391.790    0.546    2.006  111.828
  392.040    0.553    1.890  111.433
  392.290    0.562    1.781  111.038
  392.540    0.569    1.746  109.855
  392.790    0.573    1.613  109.461
  393.040    0.576    1.520  109.066
  393.290    0.581    1.461  107.490
  393.540    0.587    1.404  107.095
  393.790    0.601    1.323  105.913
  394.040    0.607    1.297  105.519
  394.290    0.607    1.246  103.944
  394.540    0.604    1.246  102.763
  394.790    0.600    1.246  103.153
  395.040    0.593    1.246  105.509
  395.290    0.589    1.221  109.436
  395.540    0.581    1.221  109.827
  395.790    0.579    1.245  109.038
  396.040    0.574    1.321  105.892
  396.290    0.572    1.348  101.173
  396.540    0.569    1.430   97.240
  396.790    0.562    1.488   96.845
  397.040    0.557    1.642   94.485
  397.290    0.550    1.742   90.945
  397.540    0.546    2.082   85.833
  397.790    0.533    2.344   79.543
  398.040    0.526    2.692   73.645
  398.290    0.511    3.282   72.856
  398.540    0.440    3.695   74.426
  398.790    0.409    4.161   78.354
  399.040    0.415    4.874   84.247
  399.290    0.425    5.171   88.174
  399.540    0.437    4.970   92.495
  399.790    0.454    4.159   94.064
  400.040    0.487    3.480   94.848
  400.290    0.509    2.912   95.237
  400.540    0.522    2.342   94.450
  400.790    0.524    2.079   93.661
  401.040    0.528    2.163   92.872
  401.290    0.528    2.295   92.478
  401.540    0.522    2.435   92.475
  401.790    0.518    2.635   92.080
  402.040    0.515    2.688   90.505
  402.290    0.512    2.741   88.538
  402.540    0.509    2.687   83.819
  402.790    0.505    2.687   77.135
  403.040    0.491    2.908   70.059
  403.290    0.475    3.148   67.698
  403.540    0.452    3.913   65.337
  403.790    0.432    4.961   66.121
  404.040    0.423    5.928   68.476
  404.290    0.418    6.809   70.046
  404.540    0.411    7.516   72.009
  404.790    0.387    7.819   73.972
  405.040    0.351    7.974   76.327
  405.290    0.333    8.133   79.862
  405.540    0.344    8.295   81.432
  405.790    0.371    7.221   88.503
  406.040    0.402    5.260   90.466
  406.290    0.440    3.757   90.070
  406.540    0.494    2.736   89.282
  406.790    0.532    2.033   90.066
  407.040    0.570    1.701   90.849
  407.290    0.567    1.603   91.240
  407.540    0.561    1.735   90.452
  407.790    0.554    1.954   89.663
  408.040    0.554    2.244   90.839
  408.290    0.557    2.526   92.802
  408.540    0.556    2.526   94.765
  408.790    0.554    2.428   97.120
  409.040    0.553    2.380   97.510
  409.290    0.553    2.287   93.578
  409.540    0.556    2.198   90.432
  409.790    0.556    2.071   90.430
  410.040    0.554    2.030  100.253
  410.290    0.553    1.951  101.429
  410.540    0.556    1.875  101.033
  410.790    0.559    1.839  100.244
  411.040    0.561    1.838   99.456
  411.290    0.554    1.802   97.488
  411.540    0.546    1.802   95.914
  411.790    0.539    1.874   94.732
  412.040    0.530    1.989   93.158
  412.290    0.529    2.069   91.191
  412.540    0.526    2.196   90.401
  412.790    0.522    2.330   90.400
  413.040    0.518    2.521   89.611
  413.290    0.513    2.783   88.430
  413.540    0.505    2.839   86.855
  413.790    0.496    3.012   84.887
  414.040    0.491    3.072   84.492
  414.290    0.489    3.195   85.668
  414.540    0.487    3.195   87.238
  414.790    0.478    3.132   88.808
  415.040    0.470    2.894   89.198
  415.290    0.467    2.621   88.017
  415.540    0.475    2.519   85.657
  415.790    0.501    2.836   82.510
  416.040    0.505    3.069   80.542
  416.290    0.495    3.257   79.361
  416.540    0.485    3.321   79.358
  416.790    0.489    3.387   83.286
  417.040    0.494    3.321   85.249
  417.290    0.506    3.068   84.853
  417.540    0.527    2.948   84.851
  417.790    0.527    2.723   84.848
  418.040    0.527    2.670   84.846
  418.290    0.525    2.466   84.844
  418.540    0.525    2.418   85.234
  418.790    0.525    2.324   85.231
  419.040    0.527    2.278   86.014
  419.290    0.530    2.278   86.012
  419.540    0.534    2.277   86.010
  419.790    0.539    2.323   85.614
  420.040    0.536    2.369   84.826
  420.290    0.534    2.416   84.430
  420.540    0.533    2.416   84.429
  420.790    0.544    2.464   84.033
  421.040    0.557    2.513   84.030
  421.290    0.561    2.563   84.420
  421.540    0.553    2.562   87.956
  421.790    0.537    2.562   92.276
  422.040    0.523    2.512   93.060
  422.290    0.519    2.414   93.058
  422.540    0.527    2.230   93.841
  422.790    0.539    2.143   96.590
  423.040    0.554    2.060  101.696
  423.290    0.568    1.980  105.231
  423.540    0.565    1.903  105.621
  423.790    0.564    1.793  104.047
  424.040    0.572    1.757  104.045
  424.290    0.581    1.723  107.187
  424.540    0.581    1.689  110.329
  424.790    0.575    1.623  110.719
  425.040    0.571    1.623  109.144
  425.290    0.568    1.623  106.391
  425.540    0.565    1.655  100.100
  425.790    0.558    1.756   88.700
  426.040    0.550    1.939   85.553
  426.290    0.491    2.017  107.166
  426.540    0.512    1.977  107.557
  426.790    0.560    1.900  108.341
  427.040    0.571    1.863  109.125
  427.290    0.564    1.938  103.227
  427.540    0.554    2.270   99.687
  427.790    0.537    2.822  104.401
  428.040    0.512    3.439  105.577
  428.290    0.486    3.950  103.217
