~VERSION INFORMATION
 VERS.                 2.0:   CWLS LOG ASCII STANDARD -VERSION 2.0
 WRAP.                  NO:   ONE LINE PER DEPTH STEP
~WELL INFORMATION BLOCK
#MNEM.UNIT           DATA                    DESCRIPTION OF MNEMONIC
#---------    -------------------            -------------------------------
# Generated from Intellog Unique Number	CC_80_83/WELL/2318
NULL.         -999.25                        : NULL_VALUE
WELL.         DOME DIVIDE OV                 : Well_name    - WELL              
LOC .         09-11-082-13W4                 : Location     - LOCATION          
UWI .         AA/09-11-082-13W400            : Uwi          - UNIQUE WELL ID    
ENTR.         RJA                            : Entered      - ENTERED BY        
SRVC.         COMPUTALOG                     : Scn          - SERVICE COMPANY   
DATE.         26 FEB 81                      : Date         - LOG DATE
STRT.M        190                            : top_depth    - START DEPTH       
STOP.M        459.992                        : bot_depth    - STOP DEPTH        
STEP.M        0.3                            : increment    - STEP LENGTH       
~CURVE INFORMATION BLOCK
#MNEM UNIT       ERCB CURVE CODE    CURVE DESCRIPTION
#-----------   ------------------   ----------------------------------
DEPT.M        00 001 00 00         : DEPTH        - DEPTH                       
DPHI.V/V      00 890 00 00         : PHID         - DENSITY POROSITY (LIMESTONE)
NPHI.V/V      00 330 00 00         : PHIN         - NEUTRON POROSITY (LIMESTONE)
GR  .API      00 310 00 00         : GR           - GAMMA RAY                   
ILD .OHMM     00 120 00 00         : RESD         - DEEP RESISTIVITY (DIL)      
~PARAMETER INFORMATION       
#MNEM.UNIT           DATA             DESCRIPTION OF MNEMONIC
#---------         -----------     ------------------------------
GL  .M        659                  : gl           - GROUND LEVEL ELEVATION      
EREF.M        663.5                : kb           - ELEVATION OF DEPTH REFERENCE
DATM.M        663.5                : datum        - DATUM ELEVATION             
TDD .M        465                  : tdd          - TOTAL DEPTH DRILLER         
RUN .         ONE                  : Run          - RUN NUMBER                  
ENG .         BILL                 : Engineer     - RECORDING ENGINEER          
WIT .         JIM                  : Witness      - WITNESSED BY                
MUD .         GEL                  : Mud_type     - MUD TYPE                    
MATR.         LIMESTONE            : Logunit      - NEUTRON MATRIX              
TMAX.C        24                   : BHT          - MAXIMUM RECORDED TEMPERATURE
BHTD.M        465                  : BHTDEP       - MAXIMUM RECORDED TEMPERATURE
MATR.         1                    : LOGUNIT      - NEUTRON MATRIX              
RMT .C        25                   : MDTP         - TEMPERATURE OF MUD          
NEUT.         1                    : NEUTRON      - NEUTRON TYPE                
RESI.         0                    : RESIST       - RESISTIVITY TYPE            
RMC .OHMM     0.25                 : RMC          - RESISTIVITY OF MUD CAKE     
RMF .OHMM     0.25                 : RMF          - RESISTIVITY OF MUD FILTRATE 
SUFT.C        15                   : SUFT         - SURFACE TEMPERATURE         
~A  DEPTH     PHID     PHIN       GR     RESD
# ...
  242.201    0.294    0.349   82.529   17.961
  242.501    0.278    0.368   83.742   18.089
  242.801    0.275    0.385   89.734   18.201
  243.101    0.289    0.372   96.593   18.530
  243.401    0.294    0.375  100.060   18.547
  243.701    0.295    0.399  102.888   18.455
  244.001    0.300    0.398  102.094   18.118
  244.301    0.313    0.392   95.730   18.032
  244.601    0.319    0.382   98.300   18.113
  244.901    0.298    0.367  103.555   18.369
  245.201    0.282    0.366  104.933   17.959
  245.501    0.280    0.355  104.513   17.465
  245.801    0.271    0.410  106.510   17.253
  246.101    0.250    0.443  106.469   17.124
  246.401    0.240    0.429  103.803   17.247
  246.701    0.286    0.387   70.025   17.939
  247.001    0.308    0.332   40.303   19.015
  247.301    0.302    0.295   23.817   19.427
  247.601    0.282    0.303   27.957   18.322
  247.901    0.246    0.303   44.270   16.820
  248.201    0.234    0.345   76.009   15.378
  248.501    0.250    0.349   88.762   13.449
  248.801    0.240    0.332   92.272   11.764
  249.101    0.194    0.327  103.089   10.033
  249.401    0.136    0.365  111.652    8.776
  249.701    0.139    0.374  119.657    7.442
  250.001    0.146    0.368  121.357    6.661
  250.301    0.150    0.369  121.414    6.101
  250.601    0.182    0.365  126.619    5.687
  250.901    0.174    0.445  129.385    5.625
  251.201    0.161    0.425  125.954    5.862
  251.501    0.168    0.420  126.023    6.240
  251.801    0.160    0.397  123.034    6.600
  252.101    0.145    0.411  120.245    6.631
  252.401    0.158    0.386  127.425    5.901
  252.701    0.173    0.407  130.260    5.223
  253.001    0.177    0.404  133.260    4.567
  253.301    0.178    0.435  137.391    4.152
  253.601    0.197    0.446  139.214    4.068
  253.901    0.211    0.416  141.045    4.543
  254.201    0.222    0.441  135.685    7.148
  254.501    0.277    0.398  113.269    9.403
  254.801    0.312    0.367  101.723   11.496
  255.101    0.289    0.338   96.052   12.143
  255.401    0.250    0.324  102.373   12.058
  255.701    0.226    0.336  109.252   11.908
  256.001    0.241    0.356  104.455   12.095
  256.301    0.255    0.360  105.463   12.080
  256.601    0.259    0.356   98.982   11.798
  256.901    0.248    0.346  100.365    9.929
  257.201    0.207    0.437  120.052    8.665
  257.501    0.198    0.443  133.299    8.281
  257.801    0.216    0.417  135.375    8.531
  258.101    0.229    0.371  129.695   10.450
  258.401    0.238    0.345  123.964   11.650
  258.701    0.244    0.365  120.349   12.373
  259.001    0.241    0.372  117.860   12.819
  259.301    0.241    0.368  108.194   12.733
  259.601    0.238    0.359   98.213   12.671
  259.901    0.229    0.351   96.973   12.554
  260.201    0.249    0.359   91.731   12.442
  260.500    0.273    0.351   85.691   12.503
  260.800    0.253    0.350   80.954   12.587
  261.100    0.202    0.332   79.778   12.547
  261.400    0.217    0.350   82.835   12.485
  261.700    0.253    0.359   86.290   12.470
  262.000    0.275    0.373   88.923   12.482
  262.300    0.273    0.354   88.812   12.228
  262.600    0.285    0.339   85.513   11.937
  262.900    0.292    0.359   84.638   11.451
  263.200    0.289    0.349   85.715   10.920
  263.500    0.278    0.358   87.608   10.617
  263.800    0.272    0.341   89.238   10.444
  264.100    0.263    0.336   91.049   10.273
  264.400    0.245    0.341   93.510    9.949
  264.700    0.235    0.339   98.888    9.345
  265.000    0.232    0.352  107.516    8.495
  265.300    0.234    0.367  114.836    7.472
  265.600    0.221    0.374  123.462    6.360
  265.900    0.200    0.398  124.169    5.860
  266.200    0.217    0.390  131.042    5.743
  266.500    0.221    0.451  132.123    5.892
  266.800    0.246    0.433  130.260    6.971
  267.100    0.274    0.435  107.778    8.622
  267.400    0.284    0.386   90.801    9.779
  267.700    0.265    0.385   90.566   10.713
  268.000    0.244    0.386   97.136   11.183
  268.300    0.237    0.385  102.014   10.810
  268.600    0.230    0.398  100.777   10.414
  268.900    0.207    0.406   99.663   10.282
  269.200    0.174    0.407  100.550    9.897
  269.500    0.165    0.406   99.625    9.701
  269.800    0.187    0.402  104.443    9.414
  270.100    0.227    0.426  113.072    9.315
  270.400    0.262    0.425  116.393    9.481
  270.700    0.296    0.426  110.409   10.048
  271.000    0.291    0.412  104.551   10.179
  271.300    0.266    0.397  107.799   10.569
  271.600    0.266    0.422  109.877   11.183
  271.900    0.319    0.490  106.073   12.063
  272.200    0.398    0.494   88.976   13.266
  272.500    0.384    0.487   69.999   15.066
  272.800    0.319    0.405   57.447   15.499
  273.100    0.301    0.429   56.716   16.436
  273.400    0.319    0.423   57.595   17.590
  273.700    0.326    0.395   55.421   18.426
  274.000    0.323    0.367   53.501   18.595
  274.300    0.315    0.360   54.878   18.936
  274.600    0.310    0.381   55.765   19.064
  274.900    0.310    0.403   54.157   19.081
  275.200    0.310    0.399   52.668   19.200
  275.500    0.316    0.380   52.669   19.328
  275.800    0.315    0.369   53.498   19.382
  276.100    0.329    0.376   55.633   19.433
  276.400    0.340    0.371   57.751   19.523
  276.700    0.336    0.371   58.450   19.581
  277.000    0.330    0.385   57.978   19.558
  277.300    0.324    0.452   56.616   19.800
  277.600    0.326    0.457   53.494   19.771
  277.900    0.333    0.436   51.701   19.825
  278.200    0.333    0.419   53.826   19.838
  278.500    0.334    0.395   54.842   19.856
  278.800    0.334    0.405   51.855   19.645
  279.100    0.330    0.439   50.434   19.625
  279.400    0.328    0.457   52.567   19.485
  279.700    0.329    0.427   52.315   19.131
  280.000    0.327    0.394   50.463   18.746
  280.300    0.326    0.410   49.657   18.299
  280.600    0.301    0.401   52.099   17.621
  280.900    0.274    0.375   53.619   17.068
  281.200    0.318    0.400   52.001   16.217
  281.500    0.324    0.440   57.889   15.824
  281.800    0.320    0.479   61.889   15.928
  282.100    0.330    0.440   60.402   16.191
  282.400    0.331    0.416   57.850   16.518
  282.700    0.322    0.434   56.986   16.720
  283.000    0.321    0.456   57.049   17.054
  283.300    0.336    0.441   56.443   17.426
  283.600    0.345    0.418   55.524   17.552
  283.900    0.342    0.422   55.036   17.844
  284.200    0.334    0.418   55.415   17.517
  284.500    0.332    0.438   55.676   17.360
  284.799    0.321    0.440   55.253   17.779
  285.099    0.311    0.417   53.695   18.493
  285.399    0.315    0.400   53.391   19.380
  285.699    0.324    0.406   53.970   19.137
  285.999    0.329    0.387   55.906   18.821
  286.299    0.319    0.384   56.469   18.475
  286.599    0.311    0.391   55.691   18.522
  286.899    0.311    0.421   53.206   18.467
  287.199    0.321    0.449   49.781   18.448
  287.499    0.332    0.435   50.353   18.213
  287.799    0.338    0.419   52.240   17.713
  288.099    0.340    0.411   51.252   17.358
  288.399    0.332    0.425   51.072   17.236
  288.699    0.325    0.447   53.324   17.345
  288.999    0.328    0.465   55.270   17.562
  289.299    0.332    0.473   56.959   17.744
  289.599    0.331    0.458   56.668   17.550
  289.899    0.334    0.452   55.620   17.359
  290.199    0.334    0.430   54.691   17.316
  290.499    0.333    0.442   53.271   17.291
  290.799    0.330    0.445   53.406   17.532
  291.099    0.328    0.467   55.411   17.616
  291.399    0.317    0.444   54.960   17.605
  291.699    0.315    0.429   55.938   17.386
  291.999    0.326    0.402   62.063   17.200
  292.299    0.334    0.403   62.206   17.010
  292.599    0.320    0.392   61.206   16.795
  292.899    0.318    0.404   61.664   16.644
  293.199    0.330    0.397   61.862   16.880
  293.499    0.333    0.394   63.186   16.867
  293.799    0.325    0.383   61.942   16.659
  294.099    0.327    0.382   61.264   16.416
