~VERSION INFORMATION
 VERS.                 2.0:   CWLS LOG ASCII STANDARD -VERSION 2.0
 WRAP.                  NO:   ONE LINE PER DEPTH STEP
~WELL INFORMATION BLOCK
#MNEM.UNIT           DATA                    DESCRIPTION OF MNEMONIC
#---------    -------------------            -------------------------------
# Generated from Intellog Unique Number	CC_84_87/WELL/1164
NULL.         -999.25                        : NULL_VALUE
WELL.         SUN CHEECHAM CH 25             : Well_name    - WELL              
LOC .         07-23-086-07W4                 : Location     - LOCATION          
UWI .         AA/07-23-086-07W400            : Uwi          - UNIQUE WELL ID    
ENTR.         RJA                            : Entered      - ENTERED BY        
SRVC.         SCHLUMBERGER                   : Scn          - SERVICE COMPANY   
DATE.         18 MAR 80                      : Date         - LOG DATE
STRT.M        55                             : top_depth    - START DEPTH       
STOP.M        240.102                        : bot_depth    - STOP DEPTH        
STEP.M        0.3                            : increment    - STEP LENGTH       
~CURVE INFORMATION BLOCK
#MNEM UNIT       ERCB CURVE CODE    CURVE DESCRIPTION
#-----------   ------------------   ----------------------------------
DEPT.M        00 001 00 00         : DEPTH        - DEPTH                       
DPHI.V/V      00 890 00 00         : PHID         - DENSITY POROSITY (LIMESTONE)
NPHI.V/V      00 330 00 00         : PHIN         - NEUTRON POROSITY (LIMESTONE)
GR  .API      00 310 00 00         : GR           - GAMMA RAY                   
ILD .OHMM     00 120 00 00         : RESD         - DEEP RESISTIVITY (DIL)      
~PARAMETER INFORMATION       
#MNEM.UNIT           DATA             DESCRIPTION OF MNEMONIC
#---------         -----------     ------------------------------
GL  .M        481.7                : gl           - GROUND LEVEL ELEVATION      
EREF.M        483.76               : kb           - ELEVATION OF DEPTH REFERENCE
DATM.M        483.76               : datum        - DATUM ELEVATION             
TDD .M        245                  : tdd          - TOTAL DEPTH DRILLER         
RUN .         ONE                  : Run          - RUN NUMBER                  
ENG .         BILL                 : Engineer     - RECORDING ENGINEER          
WIT .         JIM                  : Witness      - WITNESSED BY                
MUD .         GEL                  : Mud_type     - MUD TYPE                    
MATR.         LIMESTONE            : Logunit      - NEUTRON MATRIX              
TMAX.C        18                   : BHT          - MAXIMUM RECORDED TEMPERATURE
BHTD.M        245                  : BHTDEP       - MAXIMUM RECORDED TEMPERATURE
MATR.         1                    : LOGUNIT      - NEUTRON MATRIX              
RMT .C        25                   : MDTP         - TEMPERATURE OF MUD          
NEUT.         1                    : NEUTRON      - NEUTRON TYPE                
RESI.         0                    : RESIST       - RESISTIVITY TYPE            
RMC .OHMM     0.25                 : RMC          - RESISTIVITY OF MUD CAKE     
RMF .OHMM     0.25                 : RMF          - RESISTIVITY OF MUD FILTRATE 
SUFT.C        15                   : SUFT         - SURFACE TEMPERATURE         
~A  DEPTH     PHID     PHIN       GR     RESD
# ...
  211.601    0.349    0.406   41.167   40.089
  211.901    0.324    0.404   39.050   39.190
  212.201    0.358    0.403   44.990   39.983
  212.501    0.331    0.398   46.233   44.493
  212.801    0.323    0.402   46.620   47.115
  213.101    0.307    0.396   44.008   58.171
  213.401    0.328    0.396   44.585   78.642
  213.701    0.325    0.399   47.108  102.062
  214.001    0.331    0.400   43.834  115.094
  214.301    0.318    0.387   45.867  137.951
  214.602    0.296    0.373   46.066  157.857
  214.902    0.307    0.382   44.442  172.153
  215.202    0.326    0.384   42.206  204.422
  215.502    0.307    0.357   41.316  228.802
  215.802    0.306    0.339   39.203  265.234
  216.102    0.278    0.340   40.991  304.093
  216.402    0.291    0.358   41.743  333.474
  216.702    0.320    0.388   38.037  320.012
  217.002    0.310    0.370   35.857  277.327
  217.302    0.314    0.390   35.274  251.335
  217.602    0.331    0.411   37.616  216.229
  217.902    0.337    0.409   45.698  193.406
  218.202    0.323    0.383   54.811  173.645
  218.502    0.246    0.343   55.384  153.322
  218.802    0.238    0.316   44.110  128.045
  219.102    0.245    0.299   43.150   99.308
  219.402    0.245    0.299   39.821   85.440
  219.702    0.232    0.318   42.218  104.909
  220.002    0.262    0.345   48.773  136.167
  220.302    0.275    0.364   44.269  158.731
  220.602    0.309    0.412   39.599  166.810
  220.902    0.316    0.399   35.096  175.945
  221.202    0.330    0.405   35.669  189.747
  221.502    0.349    0.437   37.644  217.134
  221.802    0.363    0.406   38.516  258.810
  222.102    0.350    0.405   41.898  286.457
  222.402    0.340    0.425   45.093  271.867
  222.702    0.331    0.415   48.351  224.151
  223.002    0.302    0.417   50.446  159.641
  223.302    0.322    0.438   48.755  103.064
  223.602    0.343    0.428   49.692   80.529
  223.902    0.312    0.424   58.873   75.725
  224.202    0.285    0.411   65.427   70.028
  224.502    0.263    0.407   64.097   61.945
  224.802    0.281    0.412   59.364   52.509
  225.102    0.289    0.395   76.717   44.018
  225.402    0.256    0.406   72.709   37.941
  225.702    0.333    0.423   55.334   31.925
  226.002    0.315    0.421   41.990   27.162
  226.302    0.330    0.408   40.421   28.229
  226.602    0.323    0.385   46.916   39.900
  226.902    0.306    0.368   57.557   63.963
  227.202    0.286    0.373   76.859  111.666
  227.502    0.284    0.400   75.903  166.847
  227.802    0.292    0.450   70.317  117.299
  228.102    0.284    0.431   81.264   63.629
  228.402    0.211    0.416  100.568   40.401
  228.702    0.222    0.443   87.838   22.615
  229.002    0.239    0.427   72.599   18.303
  229.302    0.288    0.448   61.383   14.868
  229.602    0.411    0.527   53.229   13.077
  229.902    0.370    0.580   48.359   12.575
  230.202    0.325    0.422   44.358   13.264
  230.502    0.334    0.408   35.226   18.608
  230.802    0.353    0.425   40.984   30.958
  231.102    0.365    0.476   42.103   51.789
  231.402    0.342    0.504   39.622   99.555
  231.702    0.334    0.432   46.355  139.670
  232.002    0.346    0.415   47.903  120.831
  232.302    0.338    0.433   49.940  108.079
  232.602    0.347    0.452   55.270  102.198
  232.902    0.331    0.422   64.498  124.320
  233.202    0.283    0.431   62.085  128.728
  233.502    0.276    0.451   48.986   87.207
  233.802    0.227    0.387   40.764   61.424
  234.102    0.266    0.372   34.071   53.727
  234.402    0.294    0.394   33.790   52.727
  234.702    0.302    0.392   35.697   55.716
  235.002    0.306    0.358   38.468   66.657
  235.302    0.314    0.379   45.204   72.965
  235.602    0.356    0.469   80.077   69.635
  235.902    0.389    0.539   99.083   53.505
  236.202    0.304    0.578  100.446   34.419
  236.502    0.221    0.479   94.607   20.519
  236.802    0.144    0.343   83.213   13.125
  237.102    0.111    0.324   81.222   10.030
  237.402    0.011    0.362   82.831    8.455
  237.702    0.026    0.430   81.439    8.099
  238.002    0.154    0.429   80.968    8.231
  238.302    0.176    0.432   80.940    8.475
  238.602    0.121    0.411   85.234    9.038
  238.902    0.074    0.377   84.761    9.223
  239.202    0.078    0.321   82.096    9.657
  239.502    0.032    0.291   80.229    9.267
  239.802    0.022    0.255   78.903    8.779
  240.102    0.006    0.238   80.086    9.107
