~VERSION INFORMATION
 VERS.                 2.0:   CWLS LOG ASCII STANDARD -VERSION 2.0
 WRAP.                  NO:   ONE LINE PER DEPTH STEP
~WELL INFORMATION BLOCK
#MNEM.UNIT           DATA                    DESCRIPTION OF MNEMONIC
#---------    -------------------            -------------------------------
# Generated from Intellog Unique Number	CN_94_101/WELL/2684
WELL.         IMPERIAL OIL LTD.              : Well_name    - WELL
LOC .         AA/06-06-094-16W4/0            : Location     - LOCATION
UWI .         AA/06-06-094-16W400            : Uwi          - UNIQUE WELL ID
ENTR.         JOETTE                         : Entered      - ENTERED BY
SRVC.         SCHLUMBERGER                   : Scn          - SERVICE COMPANY
DATE.         06/19/92                       : Date         - LOG DATE
STRT.F        300                            : top_depth    - START DEPTH
STOP.F        879.888                        : bot_depth    - STOP DEPTH
STEP.F        0.82                           : increment    - STEP LENGTH
 NULL. -999.2500:NULL Value
~CURVE INFORMATION BLOCK
#MNEM UNIT       ERCB CURVE CODE    CURVE DESCRIPTION
#-----------   ------------------   ----------------------------------
DEPT.F        00 001 00 00         : DEPTH        - DEPTH
GR  .API      00 310 00 00         : GR           - GAMMA RAY
NPHI.V/V      00 330 00 00         : PHIN         - NEUTRON POROSITY (SANDSTONE)
ILD .OHMM     00 120 00 00         : RESD         - DEEP RESISTIVITY (DIL)
~PARAMETER INFORMATION
#MNEM.UNIT           DATA             DESCRIPTION OF MNEMONIC
#---------         -----------     ------------------------------
GL  .F        1718                 : gl           - GROUND LEVEL ELEVATION
EREF.F        1720                 : kb           - ELEVATION OF DEPTH REFERENCE
DATM.F        1720                 : datum        - DATUM ELEVATION
TDD .F        876                  : tdd          - TOTAL DEPTH DRILLER
RUN .         ONE                  : Run          - RUN NUMBER
ENG .         JO                   : Engineer     - RECORDING ENGINEER
WIT .         TIM                  : Witness      - WITNESSED BY
MUD .         GEL                  : Mud_type     - MUD TYPE
MATR.         SANDSTONE            : Logunit      - NEUTRON MATRIX
TMAX.F        48                   : BHT          - MAXIMUM RECORDED TEMPERATURE
BHTD.F        876                  : BHTDEP       - MAXIMUM RECORDED TEMPERATURE
RMT .F        48                   : MDTP         - TEMPERATURE OF MUD
MUDD.LB/G     1                    : MWT          - MUD DENSITY
NEUT.         1                    : NEUTRON      - NEUTRON TYPE
RESI.         0                    : RESIST       - RESISTIVITY TYPE
RM  .OHMM     18.4                 : RM           - RESISTIVITY OF MUD
RMC .OHMM     18.4                 : RMC          - RESISTIVITY OF MUD CAKE
RMF .OHMM     18.4                 : RMF          - RESISTIVITY OF MUD FILTRATE
SUFT.F        39.2                 : SUFT         - SURFACE TEMPERATURE
~A  DEPTH       GR     PHIN     RESD
# ...
  477.986  104.887    0.531    9.051
  478.806  103.816    0.530    9.196
  479.626  103.832    0.532    8.624
  480.446  103.303    0.536    8.626
  481.266  100.605    0.543    9.057
  482.087   97.364    0.550    9.345
  482.907   97.916    0.538    9.418
  483.727  101.725    0.506    9.419
  484.547  107.704    0.485    9.492
  485.367  108.262    0.518    9.709
  486.188  110.441    0.553    8.708
  487.008  113.711    0.544    6.918
  487.828  119.693    0.520    9.785
  488.648  113.195    0.461   11.934
  489.469   99.651    0.497   13.440
  490.289   75.261    0.517    6.423
  491.109   98.050    0.533    6.639
  491.929  112.705    0.534    6.712
  492.749  118.145    0.538    6.857
  493.570  118.158    0.542    7.288
  494.390  118.171    0.524    8.006
  495.210  114.930    0.511    9.296
  496.030  110.063    0.478   11.303
  496.850  100.857    0.469   13.739
  497.671   98.159    0.455    9.516
  498.491  101.968    0.462    9.660
  499.311  101.438    0.475   10.020
  500.131   99.286    0.479   10.595
  500.951   97.126    0.489   10.595
  501.772   93.889    0.505   10.024
  502.592   94.987    0.518    8.521
  503.412   99.338    0.543    8.093
  504.232  105.320    0.536   10.315
  505.052  106.414    0.519   12.465
  505.873   95.039    0.506   13.541
  506.693   85.833    0.500   12.826
  507.513   83.135    0.483   10.822
  508.333   86.947    0.500    8.603
  509.154   95.095    0.531    7.172
  509.974  104.327    0.556    6.601
  510.794  109.763    0.550    7.318
  511.614  112.487    0.509   11.473
  512.434   99.485    0.501   14.412
  513.255   87.026    0.495   14.270
  514.075   76.735    0.484   13.197
  514.895   75.664    0.459   13.771
  515.715   80.561    0.462   12.555
  516.535   79.489    0.492   10.551
  517.356   83.299    0.525    8.906
  518.176   90.361    0.531    8.764
  518.996   91.462    0.533    8.765
  519.816   95.811    0.522    8.910
  520.636   99.620    0.499    8.983
  521.457   99.639    0.485    8.841
  522.277   98.568    0.480    8.270
  523.097   98.035    0.490    7.842
  523.917  101.848    0.505    8.487
  524.738  105.115    0.521    8.775
  525.558  105.128    0.524    7.559
  526.378  101.887    0.522    7.346
  527.198  102.985    0.530    8.637
  528.018  106.255    0.531    7.993
  528.839  101.926    0.540    8.997
  529.659  100.855    0.543   11.864
  530.479  100.871    0.528   13.369
  531.299   99.796    0.518   14.659
  532.119   97.098    0.486   14.948
  532.940   86.265    0.418   18.387
  533.760   84.655    0.456   28.128
  534.580   79.242    0.460   22.973
  535.400   83.593    0.444   15.669
  536.220   93.371    0.433   14.525
  537.041  102.603    0.451    7.437
  537.861  123.765    0.476    7.438
  538.681  134.627    0.506    7.010
  539.501  142.775    0.526    7.369
  540.322  126.519    0.549    9.734
  541.142  112.433    0.548   10.953
  541.962  110.822    0.538    8.519
  542.782  116.255    0.538    7.446
  543.602  122.776    0.548    7.591
  544.423  129.296    0.549    7.378
  545.243  127.682    0.539    7.522
  546.063  118.480    0.517    7.094
  546.883  112.528    0.497    7.095
  547.703  109.287    0.486    7.025
  548.524  115.808    0.511    6.812
  549.344  126.667    0.513    6.741
  550.164  122.341    0.452    8.963
  550.984  112.593    0.415   12.188
  551.804   97.964    0.463   23.218
  552.625   90.385    0.515   26.872
  553.445  111.548    0.508   26.659
  554.265  116.990    0.478   12.623
  555.085  119.169    0.456   12.625
  555.906  125.148    0.433   13.987
  556.726  119.738    0.440   14.489
  557.546  113.789    0.432   14.348
  558.366  108.918    0.426   14.993
  559.186  103.508    0.441   15.783
  560.007  101.898    0.468   16.429
  560.827  106.795    0.480   15.714
  561.647  110.059    0.491   13.710
  562.467  108.448    0.500   12.423
  563.287  106.834    0.489   11.780
  564.108  104.678    0.474   11.781
  564.928  101.434    0.449   11.926
  565.748  102.532    0.469   11.927
  566.568  105.260    0.471   11.785
  567.388  106.354    0.486   11.357
  568.209  112.336    0.466   11.358
  569.029  115.606    0.440   12.506
  569.849  107.481    0.429   14.011
  570.669   99.360    0.442   14.514
  571.490   97.746    0.454   13.871
  572.310   98.302    0.462   13.156
  573.130  103.738    0.471   12.441
  573.950  107.547    0.436   12.371
  574.770  100.513    0.422   16.956
  575.591   91.850    0.394   34.862
  576.411   84.813    0.462   23.333
  577.231   88.080    0.478   14.955
  578.051   89.720    0.452   16.461
  578.871   91.905    0.441   13.454
  579.692   95.169    0.418   12.668
  580.512  101.147    0.424   12.526
  581.332   99.540    0.447   12.384
  582.152   98.469    0.470   11.885
  582.972   99.024    0.480   12.030
  583.793  100.664    0.468   11.888
  584.613  102.846    0.455   12.104
  585.433  103.944    0.439   12.821
  586.253  105.581    0.436   13.109
  587.073  108.851    0.446   13.397
  587.894  106.695    0.457   13.399
  588.714  100.743    0.469   13.543
  589.534   95.333    0.458   13.974
  590.354   99.684    0.464   12.257
  591.175  108.916    0.499    9.752
  591.995  116.521    0.521   10.398
  592.815  116.534    0.521    9.540
  593.635  111.125    0.463   12.406
  594.455  104.091    0.437   18.209
  595.276  104.104    0.424   21.433
  596.096  110.625    0.458   22.866
  596.916  117.688    0.492   11.194
  597.736  117.159    0.500    8.044
  598.556   98.734    0.455   11.054
  599.377   91.697    0.447   11.771
  600.197   97.133    0.448   11.415
  601.017  102.027    0.491    8.838
  601.837  108.551    0.518    7.479
  602.657  114.532    0.531    6.621
  603.478  118.338    0.546    5.763
  604.298  116.724    0.551    5.764
  605.118  112.945    0.531    6.410
  605.938  109.701    0.481    8.775
  606.759  105.918    0.453   10.925
  607.579  101.050    0.419   11.929
  608.399   96.725    0.413   13.434
  609.219   99.453    0.443   14.582
  610.039  104.889    0.468   12.793
  610.860  109.240    0.495    8.067
  611.680  114.137    0.512    9.000
  612.500  112.523    0.473    9.432
  613.320  115.787    0.455    9.648
  614.140  119.599    0.445    9.864
  614.961  114.190    0.436   11.656
  615.781  106.611    0.381   13.232
  616.601   97.405    0.308   15.240
  617.421   87.114    0.375   18.965
  618.241   74.655    0.409   23.192
  619.062   86.598    0.423   24.340
  619.882   94.746    0.418   16.391
  620.702  102.893    0.419   17.968
  621.522  107.248    0.445   17.254
  622.343  106.180    0.440   16.969
  623.163  109.447    0.435   16.397
  623.983  112.710    0.433   15.038
  624.803  113.808    0.442   14.896
  625.623  109.483    0.457   14.969
  626.444  104.618    0.460   15.328
  627.264  106.255    0.448   15.402
  628.084  107.359    0.440   15.475
  628.904  107.372    0.471   16.049
  629.724  106.843    0.469   16.767
  630.545  104.684    0.487   17.126
  631.365  105.242    0.451   16.984
  632.185  104.710    0.427   15.482
  633.005  106.350    0.421   14.624
  633.825  106.905    0.429   15.198
  634.646  109.091    0.429   17.706
  635.466  104.766    0.444   16.920
  636.286  104.240    0.437   17.423
  637.106  103.707    0.419   19.716
  637.927  102.093    0.407   21.293
  638.747   97.771    0.409   19.647
  639.567   95.615    0.432   19.721
  640.387   98.340    0.426   19.220
  641.207  100.519    0.419   17.789
  642.028  103.789    0.419   16.573
  642.848  103.263    0.408   16.933
  643.668  101.110    0.398   16.792
  644.488   98.948    0.430   16.936
  645.308   93.538    0.423   17.725
  646.129   88.128    0.358   19.517
  646.949   83.803    0.306   20.378
  647.769   80.565    0.271   23.387
  648.589   82.744    0.237   32.412
  649.409   80.588    0.342   34.849
  650.230   80.062    0.422   31.127
  651.050   85.498    0.440   23.894
  651.870   90.392    0.465   17.092
  652.690   95.828    0.423   17.308
  653.510  103.976    0.361   16.235
  654.331   92.601    0.188   19.674
  655.151   67.126    0.146   26.337
