~VERSION INFORMATION
 VERS.                 2.0:   CWLS LOG ASCII STANDARD -VERSION 2.0
 WRAP.                  NO:   ONE LINE PER DEPTH STEP
~WELL INFORMATION BLOCK
#MNEM.UNIT           DATA                    DESCRIPTION OF MNEMONIC
#---------    -------------------            -------------------------------
# Generated from Intellog Unique Number	CN_94_101/WELL/2736
WELL.         09-30-094-11W4                 : Well_name    - WELL
LOC .         AA/09-30-094-11W4/0            : Location     - LOCATION
UWI .         AA/09-30-094-11W400            : Uwi          - UNIQUE WELL ID
ENTR.         JOETTE                         : Entered      - ENTERED BY
SRVC.         SCHLUMBERGER                   : Scn          - SERVICE COMPANY
DATE.         06/19/92                       : Date         - LOG DATE
STRT.F        30                             : top_depth    - START DEPTH
STOP.F        280.164                        : bot_depth    - STOP DEPTH
STEP.F        0.8202                         : increment    - STEP LENGTH
 NULL. -999.2500:NULL Value
~CURVE INFORMATION BLOCK
#MNEM UNIT       ERCB CURVE CODE    CURVE DESCRIPTION
#-----------   ------------------   ----------------------------------
DEPT.F        00 001 00 00         : DEPTH        - DEPTH
GR  .API      00 310 00 00         : GR           - GAMMA RAY
NPHI.V/V      00 330 00 00         : PHIN         - NEUTRON POROSITY (SANDSTONE)
DPHI.V/V      00 890 00 00         : PHID         - DENSITY POROSITY (SANDSTONE)
ILD .OHMM     00 120 00 00         : RESD         - DEEP RESISTIVITY (DIL)
~PARAMETER INFORMATION
#MNEM.UNIT           DATA             DESCRIPTION OF MNEMONIC
#---------         -----------     ------------------------------
GL  .M        313.578              : gl           - GROUND LEVEL ELEVATION
EREF.M        313.578              : kb           - ELEVATION OF DEPTH REFERENCE
DATM.M        313.578              : datum        - DATUM ELEVATION
TDD .M        80.1624              : tdd          - TOTAL DEPTH DRILLER
RUN .         ONE                  : Run          - RUN NUMBER
ENG .         BILL                 : Engineer     - RECORDING ENGINEER
WIT .         JIM                  : Witness      - WITNESSED BY
MUD .         GEL                  : Mud_type     - MUD TYPE
MATR.         SANDSTONE            : Logunit      - NEUTRON MATRIX
TMAX.F        50                   : BHT          - MAXIMUM RECORDED TEMPERATURE
BHTD.F        263                  : BHTDEP       - MAXIMUM RECORDED TEMPERATURE
RMT .F        50                   : MDTP         - TEMPERATURE OF MUD
MUDD.LB/G     1.1                  : MWT          - MUD DENSITY
NEUT.         1                    : NEUTRON      - NEUTRON TYPE
RESI.         0                    : RESIST       - RESISTIVITY TYPE
RM  .OHMM     6.5                  : RM           - RESISTIVITY OF MUD
RMC .OHMM     6.5                  : RMC          - RESISTIVITY OF MUD CAKE
RMF .OHMM     6.5                  : RMF          - RESISTIVITY OF MUD FILTRATE
SUFT.F        5                    : SUFT         - SURFACE TEMPERATURE
~A  DEPTH       GR     PHIN     PHID     RESD
   30.000   70.164    0.349    0.434  714.953
   30.820   73.406    0.370    0.398  756.741
   31.640   77.035    0.335    0.382 1266.040
   32.461   77.499    0.304    0.371 1116.010
   33.281   79.125    0.292    0.366 1020.910
   34.101   79.169    0.281    0.358 1474.760
   34.921   76.026    0.358    0.353 1505.600
   35.742   70.493    0.368    0.310 1351.690
   36.562   67.749    0.367    0.299  616.420
   37.382   72.185    0.359    0.272  132.718
   38.202   81.004    0.346    0.249  286.851
   39.022   91.814    0.320    0.224  392.431
   39.843   94.646    0.313    0.214 1137.690
   40.663   98.297    0.303    0.210  761.844
   41.483   99.138    0.288    0.312  263.928
   42.303   98.783    0.279    0.315 1231.150
   43.123   97.234    0.272    0.336  467.588
   43.944   94.489    0.270    0.354  532.491
   44.764   93.736    0.267    0.347 1434.120
   45.584   95.772    0.255    0.366  344.594
   46.404   97.829    0.232    0.351   99.469
   47.224   98.260    0.221    0.343  182.352
   48.045   97.109    0.216    0.339  169.812
   48.865   97.551    0.214    0.311  360.544
   49.685  100.804    0.217    0.302  232.761
   50.505  101.633    0.321    0.287  355.544
   51.325  103.282    0.443    0.302  383.089
   52.146  103.746    0.510    0.299 1285.020
   52.966  102.583    0.448    0.270 1112.210
   53.786  101.023    0.493    0.266  862.574
   54.606   98.688    0.571    0.295 1201.840
   55.426   97.138    0.566    0.337  133.869
   56.247   95.600    0.548    0.333   53.711
   57.067   93.641    0.503    0.335   35.332
   57.887   91.693    0.483    0.263    9.134
   58.707   88.948    0.470    0.235    3.598
   59.528   86.203    0.441    0.233    8.220
   60.348   81.865    0.432    0.257   10.640
   61.168   75.934    0.425    0.253    9.042
   61.988   70.401    0.421    0.225    9.402
   62.808   66.063    0.433    0.191   11.316
   63.629   67.700    0.446    0.176   10.543
   64.449   69.747    0.446    0.195   10.558
   65.269   65.807    0.431    0.290   17.990
   66.089   61.071    0.418    0.312   21.643
   66.909   57.928    0.416    0.316   23.343
   67.730   60.362    0.403    0.316   16.826
   68.550   64.400    0.390    0.306   20.997
   69.370   67.630    0.376    0.293   32.649
   70.190   73.262    0.377    0.284   24.423
   71.010   82.877    0.375    0.285   24.015
   71.831   90.501    0.374    0.295   22.363
   72.651   89.748    0.465    0.292   13.925
   73.471   79.822    0.483    0.302    8.208
   74.291   74.687    0.452    0.284    5.109
   75.112   84.701    0.422    0.292    8.392
   75.932   88.341    0.405    0.295    9.046
   76.752   92.390    0.394    0.294    8.904
   77.572   90.431    0.396    0.284   10.327
   78.392   90.088    0.405    0.274   17.596
   79.213   90.928    0.416    0.267   17.964
   80.033   90.574    0.416    0.266   11.603
   80.853   88.238    0.382    0.266    6.712
   81.673   85.892    0.387    0.258   10.826
   82.493   85.936    0.419    0.266    9.898
   83.314   87.961    0.418    0.275    8.567
   84.134   90.416    0.395    0.271    9.580
   84.954   88.867    0.396    0.271   10.144
   85.774   87.306    0.433    0.283   11.348
   86.594   88.545    0.454    0.294    7.603
   87.415   85.801    0.421    0.288    8.044
   88.235   77.081    0.398    0.277    9.334
   89.055   71.548    0.352    0.268   11.647
   89.875   68.814    0.338    0.267   39.069
   90.695   68.448    0.336    0.262   70.326
   91.516   65.305    0.349    0.234   56.574
   92.336   72.132    0.364    0.232   87.970
   93.156   72.574    0.372    0.284   77.583
   93.976   68.236    0.368    0.314   72.282
   94.797   65.104    0.360    0.317  114.416
   95.617   65.547    0.359    0.318  181.197
   96.437   67.184    0.367    0.327  276.781
   97.257   70.436    0.378    0.331  326.788
   98.077   70.491    0.379    0.325  372.148
   98.898   70.513    0.366    0.322  163.695
   99.718   70.966    0.356    0.318  176.461
  100.538   72.216    0.348    0.317  152.731
  101.358   73.046    0.348    0.311  150.251
  102.178   75.490    0.349    0.303  343.232
  102.999   78.721    0.355    0.297  217.568
  103.819   85.548    0.366    0.292   63.962
  104.639   88.380    0.363    0.289   65.268
  105.459   90.825    0.378    0.284   57.533
  106.280   87.682    0.388    0.279   59.821
  107.100   87.737    0.394    0.272   43.100
  107.920   90.978    0.394    0.271   40.155
  108.740   91.808    0.385    0.276   34.755
  109.560   87.868    0.372    0.271   36.786
  110.381   87.115    0.362    0.277   52.202
  111.201   85.168    0.361    0.284   47.753
  112.021   78.439    0.369    0.292   50.544
  112.841   70.118    0.376    0.294   53.499
  113.661   62.992    0.376    0.292   45.465
  114.482   57.060    0.383    0.292   40.077
  115.302   59.494    0.375    0.296   45.640
  116.122   63.521    0.352    0.301   96.903
  116.942   60.389    0.347    0.316  209.544
  117.762   54.049    0.352    0.314  209.846
  118.583   49.711    0.378    0.311  138.107
  119.403   45.373    0.392    0.312  138.306
  120.223   38.644    0.389    0.313  223.075
  121.043   37.095    0.378    0.310  227.741
  121.864   44.320    0.373    0.309  449.204
  122.684   47.562    0.361    0.309  290.137
  123.504   50.792    0.352    0.309  362.057
  124.324   55.627    0.350    0.309  412.511
  125.144   55.682    0.364    0.306  150.969
  125.965   56.910    0.356    0.306  257.236
  126.785   55.759    0.353    0.320  235.430
  127.605   53.833    0.365    0.320  517.994
  128.425   55.470    0.378    0.314  482.371
  129.245   51.519    0.375    0.309  750.069
  130.066   45.190    0.369    0.319  661.185
  130.886   47.236    0.359    0.323  522.247
  131.706   47.280    0.364    0.321  412.505
  132.526   46.925    0.358    0.316  344.205
  133.346   46.969    0.364    0.313  555.437
  134.167   48.208    0.368    0.307  802.743
  134.987   55.433    0.356    0.311  789.329
  135.807   61.065    0.354    0.315  623.464
  136.627   63.499    0.366    0.319  602.223
  137.448   58.364    0.378    0.314  467.052
  138.268   51.238    0.381    0.305  355.655
  139.088   46.501    0.371    0.309  664.044
  139.908   44.564    0.368    0.317  742.866
  140.728   52.575    0.359    0.316  800.802
  141.549   54.611    0.340    0.319  773.520
  142.369   58.262    0.355    0.325  547.464
  143.189   59.091    0.379    0.331  294.630
  144.009   57.951    0.390    0.332  289.846
  144.829   61.181    0.387    0.331  467.270
  145.650   65.607    0.357    0.327  616.290
  146.470   59.676    0.385    0.328  420.311
  147.290   54.541    0.397    0.331  156.739
  148.110   40.244    0.413    0.332  178.581
  148.930   34.302    0.406    0.331  175.682
  149.751   37.544    0.378    0.333  834.237
  150.571   39.590    0.351    0.334 1080.340
  151.391   39.634    0.343    0.336 1143.490
  152.211   36.491    0.354    0.331 1105.060
  153.031   31.356    0.379    0.309  324.870
  153.852   27.416    0.387    0.315  125.602
  154.672   25.092    0.380    0.341  716.503
  155.492   24.716    0.370    0.351 1093.940
  156.312   24.361    0.360    0.360  982.108
  157.133   25.202    0.358    0.353 1039.510
  157.953   26.850    0.360    0.352 1228.510
  158.773   28.111    0.371    0.361 1025.100
  159.593   28.564    0.388    0.370 1027.070
  160.413   28.187    0.394    0.370  939.101
  161.234   27.435    0.391    0.365  994.469
  162.054   26.682    0.385    0.354 1014.780
  162.874   26.726    0.380    0.333  962.901
  163.694   27.975    0.382    0.332  880.004
  164.514   29.214    0.399    0.334  416.269
  165.335   28.461    0.404    0.341  510.283
  166.155   24.942    0.391    0.354  660.820
  166.975   26.181    0.369    0.356  839.850
  167.795   27.818    0.380    0.350  974.551
  168.615   28.260    0.378    0.331  677.242
  169.436   27.109    0.369    0.331  515.464
  170.256   25.161    0.375    0.330  680.181
  171.076   25.614    0.349    0.314 1000.690
  171.896   28.457    0.346    0.319 1273.030
