~VERSION INFORMATION
 VERS.                 2.0:   CWLS LOG ASCII STANDARD -VERSION 2.0
 WRAP.                  NO:   ONE LINE PER DEPTH STEP
~WELL INFORMATION BLOCK
#MNEM.UNIT           DATA                    DESCRIPTION OF MNEMONIC
#---------    -------------------            -------------------------------
# Generated from Intellog Unique Number	CX_WELLS/WELL/3736
WELL.         AMOCO GREGOIRE                 : Well_name    - WELL
LOC .         AA/08-08-086-08W4/0            : Location     - LOCATION
UWI .         AA/08-08-086-08W400            : Uwi          - UNIQUE WELL ID
ENTR.         T                              : Entered      - ENTERED BY
SRVC.         SCHLUMBERGER                   : Scn          - SERVICE COMPANY
STRT.F        150                            : top_depth    - START DEPTH
STOP.F        860.302                        : bot_depth    - STOP DEPTH
STEP.F        0.82                           : increment    - STEP LENGTH
 NULL. -999.2500:NULL Value
~CURVE INFORMATION BLOCK
#MNEM UNIT       ERCB CURVE CODE    CURVE DESCRIPTION
#-----------   ------------------   ----------------------------------
DEPT.F        00 001 00 00         : DEPTH        - DEPTH
GR  .API      00 310 00 00         : GR           - GAMMA RAY
DPHI.V/V      00 890 00 00         : PHID         - DENSITY POROSITY (SANDSTONE)
ILD .OHMM     00 120 00 00         : RESD         - DEEP RESISTIVITY (DIL)
~PARAMETER INFORMATION
#MNEM.UNIT           DATA             DESCRIPTION OF MNEMONIC
#---------         -----------     ------------------------------
GL  .F        1621                 : gl           - GROUND LEVEL ELEVATION
EREF.F        1625                 : kb           - ELEVATION OF DEPTH REFERENCE
DATM.F        1625                 : datum        - DATUM ELEVATION
TDD .F        884                  : tdd          - TOTAL DEPTH DRILLER
RUN .         ONE                  : Run          - RUN NUMBER
ENG .         BILL                 : Engineer     - RECORDING ENGINEER
WIT .         JIM                  : Witness      - WITNESSED BY
MUD .         GEL                  : Mud_type     - MUD TYPE
MATR.         SANDSTONE            : Logunit      - NEUTRON MATRIX
TMAX.F        64.4                 : BHT          - MAXIMUM RECORDED TEMPERATURE
BHTD.F        882                  : BHTDEP       - MAXIMUM RECORDED TEMPERATURE
MATR.         1                    : LOGUNIT      - NEUTRON MATRIX
RMT .F        54.5                 : MDTP         - TEMPERATURE OF MUD
NEUT.         1                    : NEUTRON      - NEUTRON TYPE
RESI.         4.2                  : RESIST       - RESISTIVITY TYPE
RMC .OHMM     2                    : RMC          - RESISTIVITY OF MUD CAKE
RMF .OHMM     3.9                  : RMF          - RESISTIVITY OF MUD FILTRATE
SUFT.F        39.2                 : SUFT         - SURFACE TEMPERATURE
~A  DEPTH       GR     PHID     RESD
# ...
  505.971   92.954    0.246    7.265
  506.791   95.581    0.220    7.068
  507.612  100.821    0.200    8.887
  508.432  104.100    0.222    9.700
  509.252  109.993    0.257    9.099
  510.072  112.615    0.286    8.096
  510.892  114.594    0.291    7.496
  511.713  115.260    0.291    7.501
  512.533  115.931    0.292    7.709
  513.353  118.571    0.301    7.715
  514.173  119.889    0.313    7.920
  514.993  121.864    0.331    8.127
  515.814  119.921    0.349    8.132
  516.634  115.375    0.344    7.937
  517.454  109.524    0.338    7.740
  518.274  105.629    0.328    7.542
  519.094   99.783    0.318    7.346
  519.915   99.153    0.309    7.352
  520.735   99.167    0.290    7.357
  521.555   99.838    0.273    7.565
  522.375  101.817    0.260    8.980
  523.196  104.439    0.244   10.597
  524.016  110.327    0.226   11.207
  524.836  117.519    0.251   11.617
  525.656  124.711    0.255   10.413
  526.476  129.298    0.264    9.610
  527.297  132.578    0.271    8.408
  528.117  136.509    0.292    8.209
  528.937  137.831    0.297    8.013
  529.757  134.589    0.305    7.816
  530.577  128.738    0.317    7.620
  531.398  124.191    0.326    7.424
  532.218  131.388    0.329    7.430
  533.038  137.923    0.332    7.231
  533.858  140.563    0.333    7.237
  534.678  140.573    0.333    7.040
  535.499  141.248    0.333    7.045
  536.319  141.918    0.331    7.050
  537.139  139.328    0.328    7.055
  537.959  135.433    0.319    7.060
  538.780  131.539    0.312    7.067
  539.600  128.296    0.304    7.273
  540.420  125.711    0.297    7.684
  541.240  125.072    0.296    7.889
  542.060  124.438    0.296    8.094
  542.881  123.809    0.294    8.503
  543.701  124.480    0.292    8.709
  544.521  125.150    0.291    9.117
  545.341  123.869    0.291    9.324
  546.161  123.226    0.291    9.733
  546.982  125.200    0.289    9.940
  547.802  129.784    0.287   10.149
  548.622  134.376    0.287   10.353
  549.442  135.047    0.288   10.561
  550.262  132.461    0.286   10.767
  551.083  132.479    0.284   10.772
  551.903  133.141    0.273   10.777
  552.723  133.811    0.263   10.986
  553.543  133.839    0.245   11.192
  554.364  133.848    0.239   11.195
  555.184  134.518    0.255   11.403
  556.004  135.850    0.270   11.407
  556.824  135.221    0.280   11.615
  557.644  135.230    0.278   11.618
  558.465  136.552    0.277   11.423
  559.285  137.223    0.278   11.026
  560.105  137.241    0.278   10.829
  560.925  137.259    0.279   10.632
  561.745  137.278    0.281   10.436
  562.566  135.344    0.282   10.641
  563.386  132.111    0.283   10.646
  564.206  130.820    0.284   10.451
  565.026  128.230    0.285   10.457
  565.846  126.940    0.286   10.664
  566.667  123.697    0.285   11.678
  567.487  119.803    0.278   12.285
  568.307  116.560    0.265   13.298
  569.127  116.583    0.265   12.901
  569.948  117.906    0.270   12.300
  570.768  119.228    0.276   11.500
  571.588  121.855    0.281   10.900
  572.408  125.134    0.288   10.503
  573.228  128.422    0.298   10.305
  574.049  129.736    0.302   10.108
  574.869  131.715    0.306    9.710
  575.689  132.386    0.312    9.315
  576.509  133.052    0.317    9.317
  577.329  133.074    0.318    8.919
  578.150  133.749    0.318    8.925
  578.970  134.424    0.318    8.730
  579.790  134.434    0.319    8.936
  580.610  133.800    0.325    9.141
  581.430  129.905    0.332    9.550
  582.251  124.706    0.330    9.959
  583.071  122.116    0.328   10.166
  583.891  119.535    0.326   10.171
  584.711  119.544    0.321   10.178
  585.531  118.910    0.315   10.182
  586.352  118.281    0.316   10.187
  587.172  118.304    0.322   10.190
  587.992  118.970    0.329   11.808
  588.812  120.954    0.335   13.629
  589.633  121.620    0.345   13.433
  590.453  122.938    0.360   12.832
  591.273  124.265    0.358   12.032
  592.093  124.283    0.351   11.635
  592.913  123.649    0.337   11.436
  593.734  123.015    0.327   11.643
  594.554  122.382    0.315   11.850
  595.374  121.096    0.303   12.057
  596.194  118.510    0.294   12.064
  597.014  115.268    0.280   12.268
  597.835  113.325    0.261   12.677
  598.655  110.735    0.247   13.488
  599.475  108.797    0.222   14.904
  600.295  107.511    0.204   16.322
  601.115  106.881    0.214   16.124
  601.936  106.904    0.225   14.921
  602.756  107.570    0.219   14.323
  603.576  110.202    0.216   13.922
  604.396  112.828    0.215   13.322
  605.217  113.499    0.218   12.925
  606.037  116.126    0.220   12.327
  606.857  118.753    0.216   12.129
  607.677  117.467    0.216   11.729
  608.497  114.229    0.217   10.930
  609.318  112.286    0.221   10.129
  610.138  110.357    0.234    9.329
  610.958  109.714    0.250    8.928
  611.778  105.820    0.253    8.127
  612.598   99.969    0.250    7.528
  613.419   99.992    0.243    7.130
  614.239  101.310    0.236    7.133
  615.059  103.946    0.227    7.138
  615.879  106.572    0.223    7.346
  616.699  108.547    0.218    7.351
  617.520  108.566    0.214    7.356
  618.340  109.236    0.213    7.161
  619.160  110.554    0.211    6.965
  619.980  113.185    0.209    6.968
  620.801  112.552    0.210    7.377
  621.621  110.618    0.213    7.988
  622.441  109.328    0.209    9.204
  623.261  107.394    0.202    9.811
  624.081  105.456    0.197   10.421
  624.902  105.474    0.190   10.224
  625.722  109.401    0.193   10.028
  626.542  115.941    0.201    9.630
  627.362  122.480    0.210    9.433
  628.182  123.151    0.216    8.836
  629.003  122.521    0.223    8.234
  629.823  123.197    0.230    7.234
  630.643  123.862    0.236    6.633
  631.463  124.542    0.237    6.233
  632.283  124.556    0.237    5.835
  633.104  124.574    0.236    5.439
  633.924  123.288    0.230    5.442
  634.744  122.002    0.218    5.448
  635.564  123.977    0.212    5.859
  636.385  127.913    0.207    5.861
  637.205  129.883    0.202    6.069
  638.025  125.988    0.192    6.277
  638.845  122.094    0.187    6.279
  639.665  116.895    0.180    6.285
  640.486  113.000    0.174    6.493
  641.306  110.415    0.168    6.496
  642.126  112.389    0.164    6.502
  642.946  115.012    0.158    6.508
  643.766  118.291    0.153    6.713
  644.587  122.236    0.147    6.720
  645.407  122.906    0.148    6.723
  646.227  122.268    0.178    6.729
  647.047  120.977    0.192    6.936
  647.867  117.735    0.195    8.151
  648.688  113.845    0.199   10.172
  649.508  111.907    0.206   11.387
  650.328  109.312    0.210   11.190
  651.148  100.852    0.230   10.388
  651.969   98.262    0.247    8.982
  652.789   94.367    0.255    7.777
  653.609   89.825    0.257    7.581
  654.429   88.539    0.260    8.596
  655.249   89.862    0.262    9.407
  656.070   92.493    0.263   10.419
  656.890   96.429    0.263   12.038
  657.710   98.395    0.259   12.043
  658.530  102.983    0.253   11.845
  659.350  103.653    0.237   11.448
  660.171  104.323    0.233   10.848
  660.991  105.646    0.233   10.853
  661.811  106.973    0.233   11.263
  662.631  110.909    0.232   11.671
  663.451  114.188    0.229   11.677
  664.272  116.806    0.227   11.681
  665.092  120.085    0.222   11.686
  665.912  124.021    0.215   11.693
  666.732  128.604    0.205   11.899
  667.552  132.535    0.199   12.104
  668.373  137.775    0.187   12.715
  669.193  141.054    0.180   12.520
  670.013  141.072    0.178   12.120
  670.833  141.086    0.179   11.922
  671.654  141.114    0.180   11.727
  672.474  137.867    0.184   12.941
  673.294  121.586    0.186   15.366
  674.114  116.382    0.186   16.983
  674.934  109.884    0.207   16.386
  675.755  105.985    0.215   15.785
  676.575  102.090    0.219   15.185
  677.395   98.848    0.227   15.593
  678.215   93.649    0.245   17.211
  679.035   87.146    0.262   20.240
  679.856   76.730    0.290   23.471
  680.676   64.358    0.298   26.096
  681.496   57.207    0.303   41.424
  682.316   58.529    0.307   61.994
  683.136   60.504    0.298   64.217
