~VERSION INFORMATION
 VERS.                 2.0:   CWLS LOG ASCII STANDARD -VERSION 2.0
 WRAP.                  NO:   ONE LINE PER DEPTH STEP
~WELL INFORMATION BLOCK
#MNEM.UNIT           DATA                    DESCRIPTION OF MNEMONIC
#---------    -------------------            -------------------------------
# Generated from Intellog Unique Number	CN_94_101/WELL/3188
WELL.         02-29-099-14W4                 : Well_name    - WELL
LOC .         AA/02-29-099-14W4/0            : Location     - LOCATION
UWI .         AA/02-29-099-14W400            : Uwi          - UNIQUE WELL ID
ENTR.         TIM                            : Entered      - ENTERED BY
SRVC.         SCHLUMBERGER                   : Scn          - SERVICE COMPANY
DATE.         08/13/92                       : Date         - LOG DATE
STRT.M        360                            : top_depth    - START DEPTH
STOP.M        562                            : bot_depth    - STOP DEPTH
STEP.M        0.25                           : increment    - STEP LENGTH
 NULL. -999.2500:NULL Value
~CURVE INFORMATION BLOCK
#MNEM UNIT       ERCB CURVE CODE    CURVE DESCRIPTION
#-----------   ------------------   ----------------------------------
DEPT.M        00 001 00 00         : DEPTH        - DEPTH
DPHI.V/V      00 890 00 00         : PHID         - DENSITY POROSITY (SANDSTONE)
NPHI.V/V      00 330 00 00         : PHIN         - NEUTRON POROSITY (SANDSTONE)
ILD .OHMM     00 120 00 00         : RESD         - DEEP RESISTIVITY (DIL)
GR  .API      00 310 00 00         : GR           - GAMMA RAY
~PARAMETER INFORMATION
#MNEM.UNIT           DATA             DESCRIPTION OF MNEMONIC
#---------         -----------     ------------------------------
GL  .M        800.3                : gl           - GROUND LEVEL ELEVATION
EREF.M        803.3                : kb           - ELEVATION OF DEPTH REFERENCE
DATM.M        803.3                : datum        - DATUM ELEVATION
TDD .M        562                  : tdd          - TOTAL DEPTH DRILLER
RUN .         ONE                  : Run          - RUN NUMBER
ENG .         JO                   : Engineer     - RECORDING ENGINEER
WIT .         TIM                  : Witness      - WITNESSED BY
MUD .         GEL                  : Mud_type     - MUD TYPE
MATR.         SANDSTONE            : Logunit      - NEUTRON MATRIX
TMAX.C        25                   : BHT          - MAXIMUM RECORDED TEMPERATURE
BHTD.M        562                  : BHTDEP       - MAXIMUM RECORDED TEMPERATURE
RMT .C        24                   : MDTP         - TEMPERATURE OF MUD
MUDD.KG/M     1000                 : MWT          - MUD DENSITY
NEUT.         1                    : NEUTRON      - NEUTRON TYPE
RESI.         0                    : RESIST       - RESISTIVITY TYPE
RM  .OHMM     4.75                 : RM           - RESISTIVITY OF MUD
RMC .OHMM     6.3                  : RMC          - RESISTIVITY OF MUD CAKE
RMF .OHMM     6.3                  : RMF          - RESISTIVITY OF MUD FILTRATE
SUFT.C        4                    : SUFT         - SURFACE TEMPERATURE
~A  DEPTH     PHID     PHIN     RESD       GR
# ...
  490.500    0.251    0.398    5.010   87.434
  490.750    0.234    0.419    4.825   94.797
  491.000    0.239    0.425    4.735   96.046
  491.250    0.244    0.412    4.739   96.065
  491.500    0.252    0.398    4.741   96.085
  491.750    0.258    0.390    4.655   96.104
  492.000    0.266    0.399    4.657   96.119
  492.250    0.258    0.407    4.662   94.914
  492.500    0.257    0.417    4.664   91.878
  492.750    0.269    0.428    4.666   89.450
  493.000    0.280    0.434    4.671   87.633
  493.250    0.291    0.402    4.674   84.588
  493.500    0.293    0.395    4.587   80.940
  493.750    0.276    0.383    4.591   79.731
  494.000    0.270    0.387    4.594   81.596
  494.250    0.282    0.403    4.596   84.058
  494.500    0.287    0.408    4.512   88.362
  494.750    0.297    0.401    4.516   91.446
  495.000    0.275    0.396    4.519   87.799
  495.250    0.268    0.396    4.522   85.365
  495.500    0.282    0.406    4.525   82.932
  495.750    0.294    0.402    4.528   81.120
  496.000    0.294    0.399    4.531   81.139
  496.250    0.284    0.394    4.534   81.154
  496.500    0.276    0.399    4.537   80.561
  496.750    0.270    0.399    4.454   81.198
  497.000    0.266    0.397    4.372   83.053
  497.250    0.278    0.404    4.129   83.685
  497.500    0.279    0.409    3.826   85.545
  497.750    0.268    0.406    3.682   87.391
  498.000    0.257    0.414    3.346   90.475
  498.250    0.262    0.419    3.160   94.784
  498.500    0.273    0.423    3.102   97.246
  498.750    0.285    0.439    3.104   98.490
  499.000    0.277    0.454    3.106   97.907
  499.250    0.275    0.464    3.231   97.310
  499.500    0.272    0.452    3.295   96.100
  499.750    0.273    0.429    3.494   94.896
  500.000    0.283    0.426    3.497   93.079
  500.250    0.274    0.427    3.177   91.875
  500.500    0.259    0.465    3.001   94.954
  500.750    0.251    0.493    2.675   98.646
  501.000    0.258    0.497    2.477  102.342
  501.250    0.279    0.497    2.340  103.586
  501.500    0.287    0.494    2.210  102.381
  501.750    0.294    0.488    2.128  101.176
  502.000    0.303    0.479    2.437   99.365
  502.250    0.307    0.479    2.847   98.772
  502.500    0.309    0.501    3.018   98.792
  502.750    0.309    0.504    3.326   98.811
  503.000    0.305    0.491    3.595   97.606
  503.250    0.298    0.480    3.887   96.397
  503.500    0.287    0.479    4.043   93.969
  503.750    0.279    0.448    4.045   95.829
  504.000    0.271    0.439    4.049   97.684
  504.250    0.288    0.439    4.129   98.928
  504.500    0.287    0.428    4.295  101.395
  504.750    0.277    0.416    4.467  102.027
  505.000    0.285    0.426    4.647  100.822
  505.250    0.296    0.432    4.651   99.001
  505.500    0.289    0.404    4.653   96.572
  505.750    0.278    0.376    4.567   93.532
  506.000    0.274    0.358    4.397   88.660
  506.250    0.275    0.353    4.234   86.843
  506.500    0.269    0.382    4.077   86.863
  506.750    0.265    0.397    3.925   91.778
  507.000    0.265    0.411    3.853   96.694
  507.250    0.258    0.418    3.710   99.161
  507.500    0.252    0.424    3.641  102.858
  507.750    0.248    0.430    3.506  105.932
  508.000    0.240    0.423    3.441  107.186
  508.250    0.233    0.423    3.377  106.583
  508.500    0.260    0.430    3.253  102.936
  508.750    0.271    0.445    3.192  101.119
  509.000    0.272    0.458    3.015  100.522
  509.250    0.276    0.476    2.902  101.153
  509.500    0.276    0.473    2.795  102.397
  509.750    0.283    0.457    2.743  101.192
  510.000    0.293    0.471    2.641  100.600
  510.250    0.301    0.481    2.542  100.624
  510.500    0.303    0.470    2.544   98.812
  510.750    0.305    0.460    2.546   97.603
  511.000    0.303    0.453    2.548   95.174
  511.250    0.296    0.448    2.599   93.358
  511.500    0.295    0.441    2.601   92.153
  511.750    0.243    0.437    2.654   92.177
  512.000    0.229    0.438    2.655   92.809
  512.250    0.274    0.437    2.657   94.052
  512.500    0.288    0.435    2.711   95.291
  512.750    0.281    0.437    2.713   98.370
  513.000    0.275    0.438    2.715  101.450
  513.250    0.274    0.441    2.770  103.310
  513.500    0.274    0.444    2.772  102.106
  513.750    0.274    0.445    2.721  102.120
  514.000    0.275    0.447    2.671  103.374
  514.250    0.280    0.453    2.621  105.229
  514.500    0.286    0.461    2.574  108.309
  514.750    0.285    0.461    2.477  110.771
  515.000    0.281    0.461    2.251  112.015
  515.250    0.287    0.466    1.893  109.591
  515.500    0.319    0.472    1.754   94.917
  515.750    0.330    0.473    1.721   81.472
  516.000    0.355    0.458    1.897   70.476
  516.250    0.366    0.440    3.017   60.698
  516.500    0.348    0.419    7.775   50.313
  516.750    0.344    0.405    9.997   42.989
  517.000    0.352    0.410   16.522   41.789
  517.250    0.358    0.415   19.670   41.808
  517.500    0.358    0.406   18.576   41.823
  517.750    0.355    0.398   16.882   43.076
  518.000    0.355    0.400   15.639   44.320
  518.250    0.359    0.404   15.054   45.563
  518.500    0.360    0.410   14.494   46.195
  518.750    0.360    0.414   14.230   47.443
  519.000    0.360    0.412   13.700   48.677
  519.250    0.358    0.410   12.691   50.532
  519.500    0.355    0.407   11.309   52.388
  519.750    0.347    0.406    9.513   54.243
  520.000    0.341    0.408    7.849   56.711
  520.250    0.333    0.415    5.880   60.402
  520.500    0.324    0.421    4.759   63.482
  520.750    0.260    0.433    3.926   70.850
  521.000    0.265    0.478    3.432   81.274
  521.250    0.301    0.482    3.060   81.910
  521.500    0.321    0.480    2.945   81.930
  521.750    0.321    0.479    2.836   83.168
  522.000    0.319    0.477    2.731   86.860
  522.250    0.310    0.467    2.680   90.552
  522.500    0.300    0.447    2.631   91.795
  522.750    0.298    0.428    2.684   94.263
  523.000    0.293    0.425    2.738   91.227
  523.250    0.286    0.419    3.018   91.246
  523.500    0.290    0.413    3.391   90.042
  523.750    0.298    0.413    4.037   80.876
  524.000    0.300    0.409    5.191   73.551
  524.250    0.295    0.400    7.642   68.063
  524.500    0.312    0.388   10.019   63.186
  524.750    0.328    0.378   11.700   58.922
  525.000    0.294    0.359   11.936   55.269
  525.250    0.282    0.357   11.492   51.009
  525.500    0.300    0.362   10.646   51.029
  525.750    0.321    0.368    8.783   55.337
  526.000    0.318    0.374    6.331   58.412
  526.250    0.310    0.396    5.326   65.775
  526.500    0.307    0.419    5.030   74.975
  526.750    0.303    0.419    5.232   79.283
  527.000    0.308    0.416    5.765   74.402
  527.250    0.320    0.405    8.653   66.465
  527.500    0.339    0.400   11.566   60.364
  527.750    0.353    0.398   13.506   54.881
  528.000    0.365    0.390   16.082   52.447
  528.250    0.362    0.389   16.093   50.631
  528.500    0.356    0.393   16.107   53.103
  528.750    0.336    0.362   16.112   52.511
  529.000    0.310    0.336   16.123   47.017
  529.250    0.310    0.304   15.826   39.080
  529.500    0.314    0.318   14.949   31.143
  529.750    0.321    0.330   12.817   28.715
  530.000    0.328    0.330    9.418   34.855
  530.250    0.327    0.321    7.477   47.731
  530.500    0.322    0.328    5.935   59.379
  530.750    0.311    0.354    5.605   68.579
  531.000    0.298    0.371    5.503   74.106
  531.250    0.296    0.400    5.400   79.022
  531.500    0.299    0.403    5.301   82.101
  531.750    0.301    0.390    5.409   82.733
  532.000    0.301    0.381    5.309   82.757
  532.250    0.301    0.376    5.739   80.328
  532.500    0.301    0.368    6.324   74.840
  532.750    0.306    0.362    7.246   72.411
  533.000    0.303    0.352    7.391   73.043
  533.250    0.298    0.360    7.837   74.286
  533.500    0.294    0.372    7.995   74.922
  533.750    0.289    0.375    8.318   74.335
