~Version : LASO    vs 4.00 - DATA COPYRIGHT - RILEYS DATASHARE INTERNATIONAL
 VERS.                2.0 :   CWLS Log ASCII Standard -VERSION 2.0
 WRAP.                 NO :   One line per depth step
~Well Information Block
#MNEM.UNIT       Data                        Description of Mnemonic
#----.----      -------------------------- : -----------------------------
 STRT.M             0.0000                 : Start Depth
 STOP.M           204.7500                 : End Depth
 STEP.M             0.1250                 : Depth Increment
 NULL.           -999.25                   : NULL Value
 COMP.                                     : COMPANY
 WELL.    MOBIL CLARKE OV 7-25             : WELL NAME
 FLD .    WILDCAT                          : FIELD NAME
 LOC .    07-25-090-08W4                   : WELL LOCATION
 PROV.    ALBERTA                          : PROVINCE
 SRVC.    DRESSER ATLAS                    : LOGGING SERVICE COMPANY
 DATE.    19-FEB-81                        : DATE LOGGED
 UWI .    AA/07-25-090-08W400              : UNIQUE WELL ID
~Curve Information Block
#MNEM.UNIT        API CODE                   Curve Description
#----.----      LG--CV-CL--M               : -----------------
 DEPT.M          0   1  0  0               : 1 DEPTH
 DT  .US/M      60 520 42  1               : 2 SONIC INTERVAL TRANSIT TIME (COMPENSATED)
 CALI.MM        42 280  1  1               : 3 DENSITY CALIPER
 GR  .GAPI      42 310  1  1               : 4 GAMMA RAY
 NPHI.V/V       42 890  3  1               : 5 NEUTRON POROSITY (SANDSTONE)
 RHOB.K/M3      42 350  1  1               : 6 BULK DENSITY
 IL  .OHMM       5 120 45  1               : 7 INDUCTION
 SFL .OHMM       5 220  6  1               : 8 FOCUSSED RESISTIVITY
 SP  .MV         5  10  1  1               : 9 SPONTANEOUS POTENTIAL
~Parameter Information Block
#MNEM.UNIT       Data                        Description of Mnemonic
#----.----      -------------------------- : -----------------------------
 RUN .                   1                 : Run Number
 GL  .M           449.0000                 : Ground Level Elevation
 DREF.                  KB                 : Depth Reference
 EREF.M           449.0000                 : Elevation of Depth Reference
 TDL .M           202.0000                 : Total Depth Logger
 TDD .M           205.0000                 : Total Depth Driller
 BHT .DEGC         20.0000                 : Bottom Hole Temperature
 BS  .MM          159.0000                 : Bit Size
 DFD .           9999.0000                 : Mud Weight (Density)
 DFV .            150.0000                 : Mud Viscosity
 RM  .OHMM          4.1000                 : Mud Resistivity
 RMT .DEGC         20.0000                 : Mud Resistivity Temperature
 RMF .OHMM          3.9000                 : Mud Filtrate Resistivity
 RMFT.DEGC          8.0000                 : RMF Temperature
 RMC .OHMM          7.8000                 : Mud Cake Resistivity
 RMCT.DEGC          8.0000                 : RMC Temperature
~Asc DEPTH      DT         CALI       GR         NPHI       RHOB       IL         SFL        SP   
# ...
  192.3750   483.5600   164.7000    34.0500     0.3004  2128.8999    20.9900    72.9999  -189.1950
  192.5000   431.9600   165.0000    35.5200     0.3004  2131.8999    17.6800    66.3500  -184.0050
  192.6250   367.0800   164.0750    37.9200     0.3062  2130.7000    15.7150    55.9000  -176.5950
  192.7500   386.0000   164.0750    42.1500     0.3070  2129.5000    14.4900    35.8450  -166.9650
  192.8750   391.4400   163.1500    47.3100     0.3007  2138.1001    13.5650    23.4650  -158.6250
  193.0000   384.2800   162.2500    52.1100     0.2923  2165.0000    12.9550    14.2750  -149.7450
  193.1250   383.0800   161.9250    57.6300     0.2886  2228.1001    12.2800    11.0900  -136.9650
  193.2500   390.2000   162.2500    64.4550     0.2923  2322.5000    11.9100    10.9050  -124.7250
  193.3750   405.6800   161.3250    70.7250     0.2915  2420.5000    11.6650    13.4150  -118.4400
  193.5000   434.1600   161.9250    76.0650     0.2820  2483.6001    11.6650    16.7850  -115.4700
  193.6250   443.0000   161.9250    76.4250     0.2721  2511.8000    12.0950    19.6050  -113.4300
  193.7500   421.6400   162.8500    72.9300     0.2625  2571.3000    12.8300    20.0950  -112.3200
  193.8750   373.9600   164.7000    72.3750     0.2398  2614.2000    13.8150    19.1150  -112.6950
  194.0000   311.3200   163.1500    71.6400     0.2342  2606.8000    14.9150    17.7050  -113.2500
  194.1250   286.5200   161.3250    69.4350     0.2236  2584.1001    16.1450    16.6050  -114.5400
  194.2500   300.0000   159.8000    67.7700     0.2141  2578.0000    17.4300    16.7250  -116.5800
  194.3750   334.9200   160.1000    65.9250     0.1883  2594.6001    18.7800    20.3400  -119.9100
  194.5000   345.7200   160.4000    64.8150     0.1755  2617.8000    19.7000    22.3650  -123.8100
  194.6250   345.7200   160.1000    58.9200     0.1648  2635.6001    20.6850    25.9800  -126.0300
  194.7500   349.8800   159.8000    53.2050     0.1586  2654.6001    22.2200    27.9400  -124.3650
  194.8750   355.5600   159.8000    49.3350     0.1641  2657.7000    23.8750    33.8800  -119.7300
  195.0000   351.6000   159.1750    49.8900     0.1693  2637.5000    25.3450    33.4550  -116.5800
  195.1250   346.4400   159.4750    50.6250     0.1722  2630.1001    26.5100    32.8400  -114.9150
  195.2500   358.7600   158.8750    53.0250     0.1744  2634.3999    27.4300    32.3500  -114.5400
  195.3750   370.0400   158.5750    54.1350     0.1777  2641.7000    27.6150    31.9850  -113.9850
  195.5000   369.0800   158.8750    54.4950     0.1803  2641.7000    27.2500    31.8600  -113.6250
  195.6250   345.0000   158.5750    54.6900     0.1832  2632.5000    26.6950    32.1650  -113.6250
  195.7500   310.8400   158.5750    56.7150     0.1869  2624.6001    26.1450    31.8000  -113.8050
  195.8750   293.1600   158.2500    57.8250     0.1939  2621.5000    25.5300    31.1850  -113.8050
  196.0000   291.1600   158.2500    55.4250     0.1953  2625.2000    24.9150    28.7350  -113.8050
  196.1250   290.9200   158.2500    54.1350     0.2005  2622.7000    24.4850    28.0600  -113.8050
  196.2500   292.6400   157.9500    53.9550     0.2027  2612.3000    24.2400    27.7550  -113.2500
  196.3750   293.8800   157.9500    56.3400     0.2071  2609.3000    23.9950    27.4500  -113.2500
  196.5000   295.6000   158.2500    56.3400     0.2100  2608.0000    23.7500    26.4700  -113.4300
  196.6250   292.1600   158.2500    56.3400     0.2071  2609.3000    23.7500    28.5500  -112.3200
  196.7500   289.4400   158.5750    56.1600     0.2041  2610.5000    23.7500    31.3700  -109.7250
  196.8750   287.0000   158.5750    58.9200     0.2041  2613.6001    23.7500    31.4950  -109.1700
  197.0000   284.5600   158.2500    59.4750     0.2020  2615.3999    23.9350    30.0200  -109.3500
  197.1250   291.4400   158.5750    58.1850     0.2027  2622.1001    24.0600    28.3700  -109.7250
  197.2500   295.3600   158.8750    56.5350     0.2027  2625.8000    24.1800    28.3050  -109.9200
  197.3750   303.4400   158.8750    54.8700     0.2060  2625.2000    24.1200    28.3700  -108.9900
  197.5000   314.0400   158.8750    54.6900     0.2060  2622.7000    24.2400    29.2850  -108.4350
  197.6250   357.2800   158.8750    54.8700     0.2067  2622.1001    24.3050    29.7150  -108.4350
  197.7500   340.8000   158.8750    53.4000     0.2082  2620.3000    24.3650    29.2250  -108.6150
  197.8750   310.6000   158.8750    53.4000     0.2053  2619.1001    24.3050    28.0000  -108.7950
  198.0000   302.4800   158.8750    53.5800     0.2041  2620.8999    24.3050    28.3050  -109.5450
  198.1250   309.8400   158.8750    54.3150     0.2049  2625.2000    24.3650    29.9000  -109.7250
  198.2500   318.4400   159.1750    56.3400     0.2060  2622.7000    24.1800    30.5100  -108.9900
  198.3750   328.2800   158.8750    57.2700     0.2071  2619.7000    23.9350    27.7550  -108.6150
  198.5000   325.3200   159.1750    58.5600     0.2078  2618.5000    23.6300    27.2650  -108.0600
  198.6250   318.6800   159.4750    57.8250     0.2107  2611.7000    23.4450    27.9400  -107.6850
  198.7500   317.9600   159.4750    56.5350     0.2133  2603.7000    23.1400    28.5500  -107.6850
  198.8750   316.7200   158.8750    56.1600     0.2159  2592.1001    22.9550    27.0800  -107.8800
  199.0000   313.2800   158.8750    55.0500     0.2170  2581.1001    22.8300    25.7950  -108.2400
  199.1250  -999.2500   158.5750    53.5800     0.2170  2575.0000    22.7700    25.7350  -108.2400
  199.2500  -999.2500   158.2500    54.8700     0.2181  2589.0000    22.7100    25.4900  -108.6150
  199.3750  -999.2500   158.2500    56.3400     0.2170  2614.2000    22.6450    24.0150  -109.5450
  199.5000  -999.2500   158.2500    58.0050     0.2162  2636.8000    22.6450    23.7100  -110.8350
  199.6250  -999.2500   159.1750    57.4500     0.2144  2633.8000    22.6450    24.9350  -109.7250
  199.7500  -999.2500   159.4750    58.5600     0.2122  2622.1001    22.6450    28.4900  -107.1300
  199.8750  -999.2500   161.3250    59.2950     0.2122  2617.8000    22.7700    30.0200  -105.4650
  200.0000  -999.2500   161.0250    58.3650     0.2122  2611.7000    23.0150    28.7350  -104.5350
  200.1250  -999.2500   161.0250    58.1850     0.2155  2602.5000    23.3200    26.9600  -103.8000
  200.2500  -999.2500   160.7000    57.8250     0.2174  2599.5000    23.6300    25.7950  -103.6200
  200.3750  -999.2500   160.7000    56.5350     0.2129  2605.0000    23.7500    26.2250  -103.2450
  200.5000  -999.2500   161.6250    55.7850     0.2111  2622.1001    23.6900    26.1600  -103.0650
  200.6250  -999.2500   161.9250    56.7150     0.2119  2636.2000    23.6300    27.0200  -102.6900
  200.7500  -999.2500   161.9250    56.8950     0.2133  2646.0000    23.6300    27.3850  -102.1350
  200.8750  -999.2500   162.2500    56.7150     0.2177  2646.0000    23.5050    27.6950  -101.9550
  201.0000  -999.2500   162.5500    55.7850     0.2195  2640.5000    23.3850    27.5100  -101.7600
  201.1250  -999.2500   161.3250    55.2450     0.2199  2635.0000    23.2000    28.0600  -101.3850
  201.2500  -999.2500   160.4000    54.4950     0.2195  2630.1001    23.2600    28.2450  -100.8300
  201.3750  -999.2500   159.8000    54.3150     0.2155  2631.3000    23.2600    28.0000   -99.7200
  201.5000  -999.2500   159.8000    55.2450     0.2141  2636.8000    23.2600    25.4250   -95.4600
  201.6250  -999.2500   159.8000    55.6050     0.2133  2636.8000    23.2000    23.9550   -82.6800
  201.7500  -999.2500   159.8000    54.8700     0.2104  2631.8999    23.0750    24.9350   -72.6750
  201.8750  -999.2500   159.4750    55.2450     0.2096  2628.3000    23.1400    26.7750   -72.6750
  202.0000  -999.2500   159.1750    55.7850     0.2129  2631.3000    23.0750    27.6950   -72.6750
  202.1250  -999.2500   159.4750    55.2450     0.2159  2636.2000    23.1400    26.8950   -72.6750
  202.2500  -999.2500   159.1750    54.8700     0.2174  2641.7000    23.2000    26.9600   -72.6750
  202.3750  -999.2500   158.8750    56.8950     0.2137  2639.3000    23.1400    27.0200   -72.6750
