~VERSION INFORMATION
 VERS.                 2.0:   CWLS LOG ASCII STANDARD -VERSION 2.0
 WRAP.                  NO:   ONE LINE PER DEPTH STEP
~WELL INFORMATION BLOCK
#MNEM.UNIT           DATA                    DESCRIPTION OF MNEMONIC
#---------    -------------------            -------------------------------
# Generated from Intellog Unique Number	CC_80_83/WELL/2318
NULL.         -999.25                        : NULL_VALUE
WELL.         DOME DIVIDE OV                 : Well_name    - WELL              
LOC .         09-11-082-13W4                 : Location     - LOCATION          
UWI .         AA/09-11-082-13W400            : Uwi          - UNIQUE WELL ID    
ENTR.         RJA                            : Entered      - ENTERED BY        
SRVC.         COMPUTALOG                     : Scn          - SERVICE COMPANY   
DATE.         26 FEB 81                      : Date         - LOG DATE
STRT.M        190                            : top_depth    - START DEPTH       
STOP.M        459.992                        : bot_depth    - STOP DEPTH        
STEP.M        0.3                            : increment    - STEP LENGTH       
~CURVE INFORMATION BLOCK
#MNEM UNIT       ERCB CURVE CODE    CURVE DESCRIPTION
#-----------   ------------------   ----------------------------------
DEPT.M        00 001 00 00         : DEPTH        - DEPTH                       
DPHI.V/V      00 890 00 00         : PHID         - DENSITY POROSITY (LIMESTONE)
NPHI.V/V      00 330 00 00         : PHIN         - NEUTRON POROSITY (LIMESTONE)
GR  .API      00 310 00 00         : GR           - GAMMA RAY                   
ILD .OHMM     00 120 00 00         : RESD         - DEEP RESISTIVITY (DIL)      
~PARAMETER INFORMATION       
#MNEM.UNIT           DATA             DESCRIPTION OF MNEMONIC
#---------         -----------     ------------------------------
GL  .M        659                  : gl           - GROUND LEVEL ELEVATION      
EREF.M        663.5                : kb           - ELEVATION OF DEPTH REFERENCE
DATM.M        663.5                : datum        - DATUM ELEVATION             
TDD .M        465                  : tdd          - TOTAL DEPTH DRILLER         
RUN .         ONE                  : Run          - RUN NUMBER                  
ENG .         BILL                 : Engineer     - RECORDING ENGINEER          
WIT .         JIM                  : Witness      - WITNESSED BY                
MUD .         GEL                  : Mud_type     - MUD TYPE                    
MATR.         LIMESTONE            : Logunit      - NEUTRON MATRIX              
TMAX.C        24                   : BHT          - MAXIMUM RECORDED TEMPERATURE
BHTD.M        465                  : BHTDEP       - MAXIMUM RECORDED TEMPERATURE
MATR.         1                    : LOGUNIT      - NEUTRON MATRIX              
RMT .C        25                   : MDTP         - TEMPERATURE OF MUD          
NEUT.         1                    : NEUTRON      - NEUTRON TYPE                
RESI.         0                    : RESIST       - RESISTIVITY TYPE            
RMC .OHMM     0.25                 : RMC          - RESISTIVITY OF MUD CAKE     
RMF .OHMM     0.25                 : RMF          - RESISTIVITY OF MUD FILTRATE 
SUFT.C        15                   : SUFT         - SURFACE TEMPERATURE         
~A  DEPTH     PHID     PHIN       GR     RESD
# ...
  346.597    0.204    0.371  100.196    7.087
  346.897    0.203    0.418  103.589    6.975
  347.197    0.217    0.461  103.845    6.906
  347.497    0.244    0.478  100.985    6.863
  347.797    0.239    0.449  100.030    6.795
  348.097    0.238    0.414   97.733    6.599
  348.397    0.250    0.396   96.380    6.262
  348.697    0.256    0.387   98.209    5.619
  348.997    0.238    0.411   97.905    4.937
  349.297    0.252    0.404   96.429    4.527
  349.597    0.269    0.400   96.148    4.165
  349.897    0.272    0.418  100.282    4.188
  350.197    0.271    0.433  105.971    4.844
  350.497    0.268    0.465  105.800    5.291
  350.797    0.253    0.461  103.331    5.981
  351.097    0.278    0.450   97.489    6.201
  351.397    0.280    0.411   91.585    6.104
  351.697    0.251    0.396   90.855    5.916
  351.997    0.232    0.386   95.549    5.701
  352.297    0.239    0.380  100.489    5.514
  352.597    0.243    0.402  105.733    5.366
  352.897    0.246    0.429  108.745    5.342
  353.197    0.250    0.420  108.337    5.362
  353.497    0.240    0.411  106.544    5.602
  353.797    0.232    0.415  105.252    6.456
  354.097    0.257    0.444  110.871    7.747
  354.397    0.284    0.438  112.708    9.278
  354.697    0.244    0.407  110.298   10.408
  354.997    0.210    0.370  105.956   10.896
  355.297    0.205    0.329  106.403   11.038
  355.597    0.117    0.309  104.681   10.598
  355.897    0.112    0.355  101.772    9.258
  356.197    0.159    0.367  110.137    8.041
  356.497    0.210    0.357  109.658    7.217
  356.797    0.197    0.351  105.881    6.590
  357.097    0.206    0.361  100.909    6.242
  357.397    0.237    0.376  100.369    6.015
  357.697    0.253    0.382  104.373    6.001
  357.997    0.260    0.386  106.631    6.379
  358.297    0.255    0.412  109.021    7.143
  358.596    0.233    0.410  109.906    7.983
  358.896    0.211    0.377  106.873    8.651
  359.196    0.215    0.357   99.653    8.865
  359.496    0.234    0.346   96.253    8.844
  359.796    0.256    0.334   93.348    8.639
  360.096    0.269    0.351   94.425    8.259
  360.396    0.249    0.360   96.737    8.179
  360.696    0.224    0.376   98.822    7.776
  360.996    0.231    0.380  101.585    7.596
  361.296    0.277    0.393  102.663    7.607
  361.596    0.268    0.392  103.995    7.736
  361.896    0.246    0.392  103.199    7.928
  362.196    0.247    0.404   93.742    8.187
  362.496    0.241    0.410   88.144    8.329
  362.796    0.228    0.407   87.979    8.519
  363.096    0.214    0.397   95.794    8.450
  363.396    0.204    0.371   99.244    8.577
  363.696    0.212    0.353   98.697    8.892
  363.996    0.221    0.355   97.346    9.219
  364.296    0.220    0.364   95.118    9.269
  364.596    0.227    0.362   94.576    9.087
  364.896    0.210    0.352   98.706    8.875
  365.196    0.199    0.340  102.778    8.755
  365.496    0.214    0.366  101.734    8.404
  365.796    0.225    0.382   99.078    8.385
  366.096    0.221    0.391   97.843    8.964
  366.396    0.223    0.413   98.299    9.620
  366.696    0.224    0.302   97.636   10.130
  366.996    0.200    0.248   89.554   10.402
  367.296    0.112    0.218   78.351    9.682
  367.596    0.041    0.225   74.821    8.927
  367.896    0.027    0.291   79.699    8.151
  368.196    0.235    0.419   85.951    7.373
  368.496    0.255    0.412   85.960    7.050
  368.796    0.243    0.405   85.242    6.887
  369.096    0.261    0.412   87.558    6.688
  369.396    0.259    0.417   88.453    6.445
  369.696    0.244    0.439   87.790    6.035
  369.996    0.240    0.426   89.282    5.323
  370.296    0.279    0.419   91.682    4.518
  370.596    0.306    0.410   92.512    3.886
  370.896    0.304    0.381   94.219    3.688
  371.196    0.283    0.368   99.222    4.202
  371.496    0.276    0.384  109.879    5.210
  371.796    0.237    0.401  114.900    6.287
  372.096    0.251    0.414  112.052    7.329
  372.396    0.266    0.408   99.609    7.614
  372.696    0.254    0.382   92.331    7.510
  372.996    0.243    0.387   90.485    7.321
  373.296    0.224    0.371   92.805    7.109
  373.596    0.207    0.388   99.430    6.957
  373.896    0.219    0.388   99.130    6.887
  374.196    0.224    0.379   96.767    6.804
  374.496    0.218    0.405   96.169    6.816
  374.796    0.218    0.435   94.855    6.866
  375.096    0.208    0.421   94.397    6.982
  375.396    0.187    0.384   93.740    7.006
  375.696    0.205    0.358   93.265    6.882
  375.996    0.222    0.387   98.513    6.920
  376.296    0.221    0.395  100.286    7.011
  376.596    0.206    0.394   96.872    7.144
  376.896    0.200    0.379   96.329    7.113
  377.196    0.199    0.367  100.279    6.961
  377.496    0.214    0.342  101.728    6.493
  377.796    0.215    0.341  105.610    5.575
  378.096    0.222    0.369  111.301    4.208
  378.396    0.218    0.401  114.307    3.384
  378.696    0.217    0.405  113.330    2.660
  378.996    0.243    0.455  108.108    2.700
  379.296    0.283    0.480  102.511    3.209
  379.596    0.287    0.474   96.869    4.087
  379.896    0.265    0.413   89.974    4.866
  380.196    0.236    0.382   83.258    5.631
  380.496    0.234    0.363   78.482    6.377
  380.796    0.253    0.374   85.840    6.302
  381.096    0.264    0.370   88.672    5.463
  381.396    0.257    0.373   86.453    4.664
  381.696    0.249    0.365   83.976    3.966
  381.996    0.256    0.397   89.291    3.580
  382.296    0.262    0.408   98.782    3.511
  382.596    0.262    0.441  101.728    3.768
  382.896    0.244    0.457   98.191    4.275
  383.195    0.231    0.459   95.458    4.751
  383.495    0.228    0.425   95.300    5.188
  383.795    0.211    0.421   92.829    4.674
  384.095    0.203    0.405   89.920    4.123
  384.395    0.240    0.396   94.924    3.883
  384.695    0.252    0.405  100.604    3.844
  384.995    0.238    0.404  104.297    3.820
  385.295    0.235    0.406  104.076    3.804
  385.595    0.240    0.401  105.279    3.751
  385.895    0.233    0.405  108.226    3.721
  386.195    0.211    0.391  108.809    3.641
  386.495    0.194    0.394  107.826    3.675
  386.795    0.197    0.401  109.282    3.680
  387.095    0.223    0.413  113.784    3.671
  387.395    0.244    0.428  116.919    3.727
  387.695    0.254    0.454  116.869    4.070
  387.995    0.228    0.416  118.577    4.988
  388.295    0.200    0.380  119.472    5.895
  388.595    0.193    0.350  108.832    7.309
  388.895    0.224    0.354   82.549    8.636
  389.195    0.242    0.374   84.437    8.869
  389.495    0.264    0.382   88.505    7.959
  389.795    0.283    0.390   87.155    8.141
  390.095    0.276    0.436   91.337    8.891
  390.395    0.270    0.443   90.676   10.148
  390.695    0.267    0.400   84.905   10.747
  390.995    0.256    0.358   71.272   10.417
  391.295    0.247    0.348   72.097    9.187
  391.595    0.250    0.355   82.461    8.922
  391.895    0.239    0.400   89.093    9.485
  392.195    0.237    0.363   81.248   10.723
  392.495    0.228    0.333   77.032   11.620
  392.795    0.188    0.311   78.735   11.819
  393.095    0.162    0.310   83.868   11.259
  393.395    0.222    0.343   88.803   10.438
  393.695    0.241    0.343   94.499    9.812
  393.995    0.249    0.358  101.249    9.117
  394.295    0.232    0.346  100.143    9.379
  394.595    0.221    0.327  100.408   10.686
  394.895    0.222    0.307  103.731   13.046
  395.195    0.201    0.295  107.743   14.057
  395.495    0.186    0.332  110.062   14.828
  395.795    0.215    0.374  115.752   16.668
  396.095    0.251    0.370  118.393   21.518
  396.395    0.245    0.359  105.759   32.968
  396.695    0.245    0.361   92.683   45.525
  396.995    0.255    0.369   79.617   48.300
  397.295    0.261    0.382   72.030   47.269
  397.595    0.264    0.353   72.302   43.497
  397.895    0.264    0.349   70.825   38.665
  398.195    0.256    0.333   70.647   31.761
  398.495    0.226    0.306   71.612   24.625
