~VERSION INFORMATION
 VERS.                 2.0:   CWLS LOG ASCII STANDARD -VERSION 2.0
 WRAP.                  NO:   ONE LINE PER DEPTH STEP
~WELL INFORMATION BLOCK
#MNEM.UNIT           DATA                    DESCRIPTION OF MNEMONIC
#---------    -------------------            -------------------------------
# Generated from Intellog Unique Number	CW_76_78/WELL/2778
WELL.         AMOCO MCULLEN                  : Well_name    - WELL
LOC .         AA/06-23-077-25W4/0            : Location     - LOCATION
UWI .         AA/06-23-077-25W4/0            : Uwi          - UNIQUE WELL ID
ENTR.         JOE                            : Entered      - ENTERED BY
SRVC.         WESTERN ATLAS                  : Scn          - SERVICE COMPANY
STRT.M        435                            : top_depth    - START DEPTH
STOP.M        686                            : bot_depth    - STOP DEPTH
STEP.M        0.25                           : increment    - STEP LENGTH
 NULL. -999.2500:NULL Value
~CURVE INFORMATION BLOCK
#MNEM UNIT       ERCB CURVE CODE    CURVE DESCRIPTION
#-----------   ------------------   ----------------------------------
DEPT.M        00 001 00 00         : DEPTH        - DEPTH
CALI.MM       00 280 01 00         : CAL          - CALIPER
ILD .OHMM     00 120 00 00         : RESD         - DEEP RESISTIVITY (DIL)
DPHI.V/V      00 890 00 00         : PHID         - DENSITY POROSITY (SANDSTONE)
NPHI.V/V      00 330 00 00         : PHIN         - NEUTRON POROSITY (SANDSTONE)
GR  .API      00 310 00 00         : GR           - GAMMA RAY
~PARAMETER INFORMATION
#MNEM.UNIT           DATA             DESCRIPTION OF MNEMONIC
#---------         -----------     ------------------------------
GL  .M        737.31               : gl           - GROUND LEVEL ELEVATION
EREF.M        741                  : kb           - ELEVATION OF DEPTH REFERENCE
DATM.M        741                  : datum        - DATUM ELEVATION
TDD .M        690                  : tdd          - TOTAL DEPTH DRILLER
RUN .         ONE                  : Run          - RUN NUMBER
ENG .         KAWOLSKI             : Engineer     - RECORDING ENGINEER
WIT .         BROWN                : Witness      - WITNESSED BY
MUD .         GEL                  : Mud_type     - MUD TYPE
MATR.         SANDSTONE            : Logunit      - NEUTRON MATRIX
TMAX.C        32                   : BHT          - MAXIMUM RECORDED TEMPERATURE
BHTD.M        687.5                : BHTDEP       - MAXIMUM RECORDED TEMPERATURE
RMT .C        24                   : MDTP         - TEMPERATURE OF MUD
MUDD.KG/M     1130                 : MWT          - MUD DENSITY
NEUT.         1                    : NEUTRON      - NEUTRON TYPE
RESI.         0                    : RESIST       - RESISTIVITY TYPE
RM  .OHMM     3                    : RM           - RESISTIVITY OF MUD
RMC .OHMM     3.2                  : RMC          - RESISTIVITY OF MUD CAKE
RMF .OHMM     2.8                  : RMF          - RESISTIVITY OF MUD FILTRATE
SUFT.C        0                    : SUFT         - SURFACE TEMPERATURE
~A  DEPTH      CAL     RESD     PHID     PHIN       GR
# ...
  581.000  163.361   12.538    0.060    0.302   90.130
  581.250  162.860   11.997    0.082    0.305   91.328
  581.500  162.359   11.578    0.136    0.293   93.125
  581.750  162.358   11.179    0.139    0.287   95.820
  582.000  162.357   10.796    0.116    0.294   96.719
  582.250  163.354   10.521    0.118    0.297   97.317
  582.500  163.852   10.252    0.127    0.307   97.616
  582.750  164.350    9.991    0.139    0.319   97.615
  583.000  165.347    9.920    0.154    0.319   97.614
  583.250  165.845    9.845    0.168    0.317   97.913
  583.500  167.342    9.775    0.169    0.313   99.410
  583.750  168.838    9.792    0.163    0.315   99.709
  584.000  170.335    9.813    0.139    0.319   97.910
  584.250  171.332    9.923    0.125    0.325   95.512
  584.500  172.330    9.939    0.116    0.318   94.313
  584.750  173.327   10.050    0.098    0.309   94.912
  585.000  174.324   10.165    0.099    0.302   94.012
  585.250  174.822   10.377    0.105    0.310   93.112
  585.500  174.821   10.591    0.113    0.321   94.010
  585.750  175.319   10.609    0.124    0.316   97.005
  586.000  174.818   10.534    0.135    0.305   99.102
  586.250  174.816   10.360    0.135    0.302  101.198
  586.500  174.815   10.190    0.125    0.312  102.097
  586.750  174.814   10.113    0.111    0.305  101.197
  587.000  174.813    9.949    0.085    0.279  100.896
  587.250  174.312    9.876    0.068    0.270  102.394
  587.500  174.310    9.801    0.069    0.280  102.692
  587.750  173.809    9.820    0.077    0.301  102.092
  588.000  173.808    9.932    0.088    0.312  100.893
  588.250  173.806   10.231    0.100    0.304   99.394
  588.500  173.805   10.539    0.111    0.300   98.494
  588.750  173.804   10.756    0.113    0.295  100.591
  589.000  173.803   10.879    0.101    0.287  102.687
  589.250  173.801   10.998    0.082    0.278  100.290
  589.500  173.800   11.337    0.054    0.270  100.588
  589.750  174.297   11.570    0.042    0.269  102.984
  590.000  174.296   11.806    0.047    0.276  100.287
  590.250  174.794   11.935    0.058    0.298   95.792
  590.500  175.292   11.958    0.083    0.307   99.686
  590.750  175.291   11.442    0.119    0.313  107.475
  591.000  175.789   10.843    0.134    0.323  110.770
  591.250  175.787   10.089    0.136    0.323  111.668
  591.500  175.786    9.388    0.133    0.324  111.068
  591.750  175.784    8.735    0.125    0.323  108.071
  592.000  175.783    8.279    0.116    0.315  103.576
  592.250  175.282    8.299    0.108    0.301   99.680
  592.500  174.282    8.466    0.098    0.281   95.485
  592.750  173.782    9.218    0.082    0.262   91.889
  593.000  173.281   10.326    0.064    0.255   86.195
  593.250  173.279   10.931    0.075    0.264   85.895
  593.500  172.779   11.684    0.070    0.264   89.789
  593.750  172.777   12.843    0.025    0.238   83.496
  594.000  172.776   13.984   -0.004    0.190   71.211
  594.250  172.774   15.799    0.002    0.189   65.817
  594.500  172.773   19.226    0.015    0.195   68.213
  594.750  172.772   26.627    0.039    0.200   72.107
  595.000  172.770   33.007    0.059    0.216   76.900
  595.250  173.767   30.429    0.083    0.236   84.689
  595.500  173.766   22.885    0.111    0.261   86.786
  595.750  173.265   19.594    0.127    0.295   84.388
  596.000  173.264   17.408    0.130    0.324   88.582
  596.250  172.763   16.194    0.122    0.312   94.573
  596.500  173.261   15.075    0.093    0.287  103.261
  596.750  173.260   14.021    0.090    0.293  106.257
  597.000  173.258   12.813    0.095    0.303  104.158
  597.250  173.257   12.252    0.099    0.297  102.060
  597.500  173.255   11.723    0.098    0.286  100.262
  597.750  173.254   11.427    0.090    0.277   98.463
  598.000  173.253   11.338    0.083    0.270   96.964
  598.250  173.251   11.362    0.075    0.263   94.267
  598.500  173.250   11.489    0.078    0.267   89.472
  598.750  173.248   11.618    0.093    0.275   89.472
  599.000  173.247   11.745    0.108    0.280   99.058
  599.250  173.246   11.771    0.098    0.276  100.256
  599.500  173.244   11.799    0.077    0.263   98.158
  599.750  172.744   11.821    0.055    0.260   96.659
  600.000  172.243   11.841    0.059    0.267   97.557
  600.250  171.742   11.860    0.072    0.292   99.953
  600.500  171.740   11.883    0.091    0.317  101.150
  600.750  171.240   11.908    0.097    0.311  101.449
  601.000  170.739   11.821    0.093    0.304  101.149
  601.250  168.241   11.627    0.098    0.293   99.650
  601.500  166.741   11.333    0.095    0.295  101.147
  601.750  166.241   10.841    0.082    0.293  101.146
  602.000  166.738   10.562    0.062    0.283   96.352
  602.250  167.236   10.389    0.045    0.288   87.962
  602.500  169.732   10.313    0.053    0.298   89.159
  602.750  171.728   10.431    0.072    0.295   95.750
  603.000  171.727   10.545    0.087    0.297   94.850
  603.250  170.227   10.762    0.095    0.294   91.254
  603.500  168.228   11.189    0.078    0.283   87.957
  603.750  168.227   11.743    0.018    0.267   86.159
  604.000  168.725   12.094    0.025    0.266   86.158
  604.250  169.722   12.232    0.044    0.273   88.854
  604.500  170.220   12.255    0.072    0.283   92.748
  604.750  171.217   12.393    0.106    0.296   97.241
  605.000  172.714   12.419    0.130    0.312  102.634
  605.250  173.711   12.105    0.115    0.308  102.633
  605.500  173.710   11.682    0.092    0.296  100.235
  605.750  173.709   11.176    0.092    0.297  100.833
  606.000  174.207   10.694    0.084    0.306  104.128
  606.250  174.705   10.418    0.066    0.307  102.929
  606.500  174.703   10.247    0.044    0.298   94.239
  606.750  175.201   10.175    0.049    0.287   91.242
  607.000  175.699   10.382    0.059    0.284   92.140
  607.250  176.197   10.793    0.071    0.278   96.034
  607.500  176.695   11.018    0.087    0.271  100.228
  607.750  176.694   11.245    0.097    0.274  101.725
  608.000  176.692   11.060    0.090    0.292   99.328
  608.250  176.691   10.778    0.076    0.294   94.833
  608.500  176.190   10.411    0.070    0.298   94.233
  608.750  176.188   10.235    0.075    0.308   99.625
  609.000  175.688   10.235    0.085    0.318  104.418
  609.250  175.687   10.182    0.095    0.311  103.818
  609.500  174.686   10.014    0.086    0.285   98.723
  609.750  174.186    9.847    0.052    0.241   94.828
  610.000  173.185    9.778    0.050    0.229   88.535
  610.250  172.684    9.885    0.061    0.238   83.740
  610.500  171.685   11.379    0.076    0.257   81.642
  610.750  170.185   12.505    0.108    0.275   84.637
  611.000  169.185   14.006    0.103    0.275   85.235
  611.250  169.184   15.250    0.081    0.261   83.138
  611.500  170.181   15.998    0.066    0.261   79.541
  611.750  169.680   17.267    0.073    0.257   69.653
  612.000  168.180   18.451    0.050    0.246   60.364
  612.250  167.180   20.282    0.012    0.229   56.768
  612.500  167.179   23.349   -0.005    0.233   57.666
  612.750  168.176   27.622    0.013    0.241   60.361
  613.000  168.175   32.700    0.039    0.249   63.357
  613.250  169.172   33.381    0.079    0.266   65.154
  613.500  169.670   29.371    0.142    0.293   69.048
  613.750  170.668   21.287    0.143    0.312   76.238
  614.000  173.163   17.407    0.113    0.321   86.424
  614.250  174.659   14.623    0.077    0.315   97.509
  614.500  175.657   12.405    0.069    0.306   99.605
  614.750  176.155   11.230    0.075    0.300   95.110
  615.000  176.653   10.353    0.088    0.301   94.810
  615.250  177.151    9.810    0.107    0.304  101.101
  615.500  177.149    9.741    0.103    0.309  101.999
  615.750  176.649   10.034    0.091    0.316  102.597
  616.000  175.648   10.723    0.070    0.315  108.289
  616.250  175.148   11.893    0.026    0.309  115.479
  616.500  174.647   13.440    0.002    0.287  115.478
  616.750  173.647   14.770   -0.007    0.264  110.384
  617.000  173.146   16.847    0.002    0.232   90.009
  617.250  172.645   19.211    0.027    0.207   77.425
