~VERSION INFORMATION
 VERS.                 2.0:   CWLS LOG ASCII STANDARD -VERSION 2.0
 WRAP.                  NO:   ONE LINE PER DEPTH STEP
~WELL INFORMATION BLOCK
#MNEM.UNIT           DATA                    DESCRIPTION OF MNEMONIC
#---------    -------------------            -------------------------------
# Generated from Intellog Unique Number	CC_88_90/WELL/1068
WELL.         07-11-090-15W4                 : Well_name    - WELL
LOC .         AA/07-11-090-15W4/0            : Location     - LOCATION
UWI .         AA/07-11-090-15W400            : Uwi          - UNIQUE WELL ID
ENTR.         DW                             : Entered      - ENTERED BY
SRVC.         SCHLUMBERGER                   : Scn          - SERVICE COMPANY
STRT.M        75                             : top_depth    - START DEPTH
STOP.M        199.75                         : bot_depth    - STOP DEPTH
STEP.M        0.25                           : increment    - STEP LENGTH
 NULL. -999.2500:NULL Value
~CURVE INFORMATION BLOCK
#MNEM UNIT       ERCB CURVE CODE    CURVE DESCRIPTION
#-----------   ------------------   ----------------------------------
DEPT.M        00 001 00 00         : DEPTH        - DEPTH
GR  .API      00 310 00 00         : GR           - GAMMA RAY
DPHI.V/V      00 890 00 00         : PHID         - DENSITY POROSITY (SANDSTONE)
NPHI.V/V      00 330 00 00         : PHIN         - NEUTRON POROSITY (SANDSTONE)
ILD .OHMM     00 120 00 00         : RESD         - DEEP RESISTIVITY (DIL)
~PARAMETER INFORMATION
#MNEM.UNIT           DATA             DESCRIPTION OF MNEMONIC
#---------         -----------     ------------------------------
GL  .M        468.52               : gl           - GROUND LEVEL ELEVATION
EREF.M        471.72               : kb           - ELEVATION OF DEPTH REFERENCE
DATM.M        471.72               : datum        - DATUM ELEVATION
TDD .M        206                  : tdd          - TOTAL DEPTH DRILLER
RUN .         ONE                  : Run          - RUN NUMBER
ENG .         BILL                 : Engineer     - RECORDING ENGINEER
WIT .         JIM                  : Witness      - WITNESSED BY
MUD .         GEL                  : Mud_type     - MUD TYPE
MATR.         SANDSTONE            : Logunit      - NEUTRON MATRIX
TMAX.C        25                   : BHT          - MAXIMUM RECORDED TEMPERATURE
BHTD.M        206                  : BHTDEP       - MAXIMUM RECORDED TEMPERATURE
MATR.         1                    : LOGUNIT      - NEUTRON MATRIX
RMT .C        25                   : MDTP         - TEMPERATURE OF MUD
NEUT.         1                    : NEUTRON      - NEUTRON TYPE
RESI.         0                    : RESIST       - RESISTIVITY TYPE
RMC .OHMM     0.25                 : RMC          - RESISTIVITY OF MUD CAKE
RMF .OHMM     0.25                 : RMF          - RESISTIVITY OF MUD FILTRATE
SUFT.C        15                   : SUFT         - SURFACE TEMPERATURE
~A  DEPTH       GR     PHID     PHIN     RESD
   75.000   90.736    0.204    0.351   18.896
   75.250   89.059    0.222    0.357   18.686
   75.500   88.034    0.240    0.368   18.029
   75.750   84.469    0.239    0.361   17.981
   76.000   79.892    0.211    0.343   18.394
   76.250   79.518    0.169    0.333   18.644
   76.500   85.827    0.147    0.332   18.621
   76.750   94.925    0.181    0.344   18.063
   77.000   99.152    0.195    0.386   17.552
   77.250   99.209    0.209    0.401   16.712
   77.500   98.679    0.216    0.387   15.667
   77.750   98.919    0.197    0.377   15.140
   78.000  100.053    0.201    0.376   15.192
   78.250  102.182    0.233    0.406   15.377
   78.500  102.804    0.273    0.493   16.395
   78.750   99.036    0.249    0.530   18.202
   79.000   92.413    0.189    0.422   21.261
   79.250   83.832    0.173    0.286   25.133
   79.500   76.628    0.196    0.288   27.881
   79.750   82.673    0.196    0.285   28.989
   80.000   86.693    0.196    0.303   28.141
   80.250   93.461    0.191    0.330   26.021
   80.500  100.970    0.190    0.352   22.264
   80.750  102.837    0.202    0.361   18.238
   81.000  103.200    0.211    0.343   16.516
   81.250  100.250    0.219    0.344   14.983
   81.500   97.242    0.226    0.373   14.370
   81.750   98.261    0.213    0.379   13.823
   82.000  101.049    0.205    0.359   13.401
   82.250  102.092    0.214    0.349   13.460
   82.500  100.762    0.210    0.357   13.227
   82.750   96.572    0.217    0.375   13.027
   83.000   99.658    0.219    0.390   12.819
   83.250  101.521    0.220    0.395   12.750
   83.500   97.784    0.237    0.392   12.772
   83.750   94.082    0.271    0.402   12.790
   84.000   91.532    0.298    0.434   13.278
   84.250   85.963    0.303    0.458   15.000
   84.500   80.509    0.331    0.477   17.274
   84.750   75.945    0.368    0.504   18.588
   85.000   75.610    0.388    0.533   19.470
   85.250   77.168    0.399    0.567   20.805
   85.500   73.663    0.418    0.600   22.168
   85.750   71.963    0.420    0.568   23.989
   86.000   71.477    0.364    0.487   25.794
   86.250   73.268    0.339    0.461   26.716
   86.500   75.619    0.354    0.478   26.795
   86.750   77.201    0.348    0.476   25.313
   87.000   80.478    0.326    0.477   20.645
   87.250   84.641    0.314    0.500   14.384
   87.500   88.055    0.300    0.525   11.102
   87.750   90.519    0.306    0.544    9.615
   88.000   92.222    0.327    0.570    8.076
   88.250   95.866    0.339    0.599    6.715
   88.500  103.344    0.342    0.608    5.867
   88.750  107.649    0.345    0.616    5.444
   89.000  104.942    0.339    0.620    5.785
   89.250   99.402    0.327    0.621    6.729
   89.500   91.997    0.316    0.568    8.876
   89.750   88.323    0.287    0.488   11.955
   90.000   95.347    0.250    0.476   14.820
   90.250   99.059    0.264    0.473   18.340
   90.500   96.765    0.263    0.460   20.645
   90.750   88.914    0.240    0.448   22.036
   91.000   85.888    0.235    0.442   22.498
   91.250   90.605    0.247    0.442   21.980
   91.500   92.912    0.244    0.445   21.700
   91.750   95.673    0.230    0.450   21.756
   92.000   95.318    0.224    0.456   21.213
   92.250   89.406    0.236    0.470   20.629
   92.500   85.860    0.255    0.487   19.588
   92.750   89.573    0.270    0.495   17.069
   93.000   94.790    0.278    0.499   13.347
   93.250   99.035    0.266    0.513    9.677
   93.500   96.436    0.246    0.539    8.175
   93.750   93.980    0.235    0.529    7.903
   94.000   95.941    0.249    0.510    7.605
   94.250   99.054    0.251    0.522    7.280
   94.500   99.763    0.224    0.541    7.198
   94.750   96.706    0.268    0.568    7.299
   95.000   94.553    0.292    0.591    7.530
   95.250   93.991    0.288    0.569    7.735
   95.500   94.736    0.261    0.534    7.763
   95.750   97.388    0.216    0.544    7.590
   96.000  101.641    0.190    0.575    7.225
   96.250  107.712    0.192    0.560    6.671
   96.500  119.877    0.237    0.547    6.347
   96.750  128.323    0.258    0.563    5.944
   97.000  127.778    0.247    0.590    5.561
   97.250  123.820    0.242    0.609    5.445
   97.500  122.659    0.233    0.622    5.366
   97.750  125.200    0.211    0.635    5.365
   98.000  127.137    0.235    0.655    5.423
   98.250  128.273    0.249    0.669    5.612
   98.500  127.435    0.237    0.676    5.946
   98.750  122.692    0.225    0.678    6.337
   99.000  117.137    0.204    0.662    6.630
   99.250  116.848    0.192    0.629    6.719
   99.500  118.300    0.224    0.598    7.086
   99.750  119.823    0.241    0.599    7.605
  100.000  113.578    0.233    0.608    8.413
  100.250   99.900    0.228    0.568    9.847
  100.500   91.856    0.202    0.504   11.931
  100.750   90.010    0.177    0.528   14.340
  101.000   95.737    0.221    0.552   15.299
  101.250   99.103    0.253    0.491   14.994
  101.500   98.477    0.243    0.435   13.920
  101.750   98.791    0.239    0.448   12.745
  102.000   99.910    0.237    0.451   12.440
  102.250  101.632    0.221    0.445   12.600
  102.500  100.976    0.227    0.449   13.264
  102.750   97.676    0.253    0.446   14.547
  103.000   91.525    0.251    0.448   17.224
  103.250   85.593    0.206    0.460   19.949
  103.500   85.126    0.153    0.439   20.385
  103.750   87.973    0.126    0.393   20.749
  104.000   93.659    0.123    0.378   20.497
  104.250  105.078    0.182    0.420   18.921
  104.500  113.771    0.238    0.461   16.701
  104.750  112.009    0.240    0.467   15.245
  105.000  106.760    0.245    0.473   14.856
  105.250  105.022    0.244    0.480   14.345
  105.500  104.244    0.253    0.493   14.649
  105.750  102.308    0.258    0.487   15.068
  106.000   96.183    0.258    0.506   15.280
  106.250   88.337    0.264    0.540   15.493
  106.500   85.186    0.279    0.509   15.198
  106.750   84.375    0.319    0.494   14.109
  107.000   92.190    0.317    0.503   12.877
  107.250   98.184    0.291    0.516   12.611
  107.500   97.424    0.264    0.527   13.033
  107.750   93.406    0.274    0.526   13.879
  108.000   87.067    0.334    0.503   15.553
  108.250   80.889    0.324    0.486   17.085
  108.500   75.796    0.340    0.476   19.047
  108.750   80.065    0.355    0.460   21.051
  109.000   87.249    0.352    0.447   22.189
  109.250   88.317    0.349    0.442   22.272
  109.500   86.480    0.332    0.446   21.922
  109.750   81.508    0.310    0.466   21.603
  110.000   81.769    0.282    0.481   20.939
  110.250   86.380    0.288    0.460   18.983
  110.500   91.629    0.305    0.430   15.928
  110.750   93.828    0.285    0.436   13.767
  111.000   92.683    0.251    0.464   13.480
  111.250   95.995    0.258    0.480   13.073
  111.500   94.569    0.288    0.480   15.175
  111.750   87.559    0.299    0.464   17.425
  112.000   84.902    0.294    0.440   18.009
  112.250   89.309    0.276    0.420   17.382
  112.500   93.328    0.235    0.414   16.036
  112.750   97.147    0.216    0.439   15.101
  113.000   98.372    0.242    0.466   13.772
  113.250   98.113    0.252    0.463   12.971
  113.500   98.759    0.246    0.448   12.671
  113.750  101.487    0.244    0.452   12.314
  114.000  105.088    0.232    0.472   12.368
  114.250  106.241    0.256    0.486   12.466
  114.500  106.594    0.266    0.501   11.551
  114.750  105.006    0.273    0.481   10.509
  115.000  100.691    0.234    0.439    9.806
  115.250   99.506    0.159    0.413    9.568
  115.500  106.351    0.165    0.409    9.906
  115.750  111.217    0.228    0.434    9.270
  116.000  109.219    0.251    0.440    7.781
  116.250  111.269    0.239    0.435    5.967
  116.500  116.802    0.228    0.452    4.364
  116.750  120.041    0.248    0.486    3.391
  117.000  122.428    0.294    0.517    3.035
  117.250  119.483    0.296    0.582    3.014
  117.500  116.962    0.291    0.630    3.761
  117.750  117.743    0.292    0.599    4.844
  118.000  120.522    0.257    0.545    6.674
  118.250  119.717    0.201    0.507    9.489
