~VERSION INFORMATION
 VERS.                 2.0:   CWLS LOG ASCII STANDARD -VERSION 2.0
 WRAP.                  NO:   ONE LINE PER DEPTH STEP
~WELL INFORMATION BLOCK
#MNEM.UNIT           DATA                    DESCRIPTION OF MNEMONIC
#---------    -------------------            -------------------------------
# Generated from Intellog Unique Number	CN_94_101/WELL/3629
WELL.         03-28-096-15W4                 : Well_name    - WELL
LOC .         AA/03-28-096-15W4/0            : Location     - LOCATION
UWI .         AA/03-28-096-15W400            : Uwi          - UNIQUE WELL ID
ENTR.         J                              : Entered      - ENTERED BY
SRVC.         SCHLUMBERGER                   : Scn          - SERVICE COMPANY
DATE.         08/05/92                       : Date         - LOG DATE
STRT.M        175                            : top_depth    - START DEPTH
STOP.M        370                            : bot_depth    - STOP DEPTH
STEP.M        0.25                           : increment    - STEP LENGTH
 NULL. -999.2500:NULL Value
~CURVE INFORMATION BLOCK
#MNEM UNIT       ERCB CURVE CODE    CURVE DESCRIPTION
#-----------   ------------------   ----------------------------------
DEPT.M        00 001 00 00         : DEPTH        - DEPTH
ILD .OHMM     00 120 00 00         : RESD         - DEEP RESISTIVITY (DIL)
GR  .API      00 310 00 00         : GR           - GAMMA RAY
NPHI.V/V      00 330 00 00         : PHIN         - NEUTRON POROSITY (SANDSTONE)
DPHI.V/V      00 890 00 00         : PHID         - DENSITY POROSITY (SANDSTONE)
~PARAMETER INFORMATION
#MNEM.UNIT           DATA             DESCRIPTION OF MNEMONIC
#---------         -----------     ------------------------------
GL  .M        625.64               : gl           - GROUND LEVEL ELEVATION
EREF.M        628.99               : kb           - ELEVATION OF DEPTH REFERENCE
DATM.M        628.99               : datum        - DATUM ELEVATION
TDD .M        381                  : tdd          - TOTAL DEPTH DRILLER
RUN .         ONE                  : Run          - RUN NUMBER
ENG .         JO                   : Engineer     - RECORDING ENGINEER
WIT .         TIM                  : Witness      - WITNESSED BY
MUD .         GEL                  : Mud_type     - MUD TYPE
MATR.         SANDSTONE            : Logunit      - NEUTRON MATRIX
TMAX.C        19                   : BHT          - MAXIMUM RECORDED TEMPERATURE
BHTD.M        381                  : BHTDEP       - MAXIMUM RECORDED TEMPERATURE
RMT .C        15                   : MDTP         - TEMPERATURE OF MUD
MUDD.KG/M     1090                 : MWT          - MUD DENSITY
NEUT.         1                    : NEUTRON      - NEUTRON TYPE
RESI.         0                    : RESIST       - RESISTIVITY TYPE
RM  .OHMM     0.366                : RM           - RESISTIVITY OF MUD
RMC .OHMM     0.366                : RMC          - RESISTIVITY OF MUD CAKE
RMF .OHMM     0.488                : RMF          - RESISTIVITY OF MUD FILTRATE
SUFT.C        4                    : SUFT         - SURFACE TEMPERATURE
~A  DEPTH     RESD       GR     PHIN     PHID
# ...
  218.500    5.224   82.664    0.511    0.297
  218.750    5.230   80.257    0.508    0.283
  219.000    5.338   78.239    0.507    0.289
  219.250    5.447   75.811    0.517    0.294
  219.500    5.669   73.814    0.530    0.293
  219.750    5.898   73.855    0.538    0.299
  220.000    5.581   78.414    0.545    0.304
  220.250    5.178   79.684    0.546    0.307
  220.500    4.626   77.256    0.536    0.312
  220.750    4.291   74.030    0.525    0.318
  221.000    4.298   71.602    0.514    0.314
  221.250    4.825   69.185    0.501    0.292
  221.500    6.077   65.938    0.492    0.244
  221.750    6.565   62.701    0.470    0.219
  222.000    6.961   59.464    0.445    0.204
  222.250    7.381   56.227    0.425    0.217
  222.500    7.679   58.317    0.420    0.253
  222.750    7.266   61.236    0.430    0.300
  223.000    6.616   64.146    0.426    0.311
  223.250    6.141   66.635    0.454    0.303
  223.500    5.920   68.325    0.485    0.292
  223.750    5.929   63.449    0.502    0.285
  224.000    6.784   58.973    0.511    0.298
  224.250    7.470   52.458    0.492    0.321
  224.500    8.714   47.582    0.450    0.346
  224.750   10.163   46.384    0.435    0.376
  225.000   11.852   48.894    0.411    0.372
  225.250   12.809   53.032    0.406    0.362
  225.500   12.832   52.254    0.409    0.350
  225.750   12.139   51.475    0.423    0.337
  226.000   11.698   55.614    0.443    0.330
  226.250   10.455   58.933    0.433    0.336
  226.500    9.700   58.974    0.435    0.322
  226.750    8.669   61.074    0.449    0.305
  227.000    8.200   63.983    0.457    0.292
  227.250    7.760   66.084    0.446    0.301
  227.500    7.475   64.076    0.447    0.301
  227.750    7.207   62.058    0.456    0.292
  228.000    7.082   60.460    0.448    0.281
  228.250    7.092   56.824    0.438    0.272
  228.500    7.103   55.226    0.434    0.271
  228.750    7.392   54.038    0.444    0.296
  229.000    7.543   53.239    0.450    0.292
  229.250    7.847   52.460    0.459    0.298
  229.500    8.321   51.272    0.455    0.309
  229.750    9.165   50.084    0.439    0.286
  230.000   10.099   48.896    0.430    0.263
  230.250   10.708   54.274    0.430    0.283
  230.500   11.577   57.183    0.418    0.284
  230.750   12.040   60.502    0.406    0.246
  231.000   11.174   64.231    0.390    0.239
  231.250    9.983   72.067    0.399    0.283
  231.500    8.586   79.074    0.427    0.302
  231.750    7.382   86.501    0.440    0.269
  232.000    6.231   88.181    0.475    0.262
  232.250    5.565   87.403    0.461    0.238
  232.500    4.974   85.805    0.469    0.248
  232.750    4.616   85.457    0.483    0.269
  233.000    4.366   86.307    0.496    0.266
  233.250    4.373   86.348    0.499    0.260
  233.500    4.381   88.018    0.477    0.255
  233.750    4.470   87.249    0.501    0.247
  234.000    4.475   86.461    0.524    0.248
  234.250    4.568   88.561    0.539    0.256
  234.500    4.575   89.841    0.531    0.263
  234.750    4.495   88.653    0.523    0.269
  235.000    4.420   88.274    0.516    0.274
  235.250    4.424   87.486    0.505    0.278
  235.500    4.352   85.888    0.502    0.285
  235.750    4.353   84.700    0.499    0.283
  236.000    4.278   83.512    0.498    0.277
  236.250    4.286   81.914    0.505    0.268
  236.500    4.213   79.916    0.507    0.264
  236.750    4.218   81.996    0.503    0.268
  237.000    4.225   83.266    0.503    0.278
  237.250    4.313   83.328    0.508    0.293
  237.500    4.401   82.529    0.522    0.289
  237.750    4.666   80.931    0.521    0.281
  238.000    4.855   78.934    0.493    0.276
  238.250    4.957   78.565    0.497    0.277
  238.500    5.060   77.377    0.515    0.288
  238.750    5.068   76.598    0.527    0.296
  239.000    5.073   75.410    0.537    0.288
  239.250    4.987   74.642    0.535    0.283
  239.500    4.994   74.253    0.528    0.280
  239.750    4.909   73.075    0.519    0.271
  240.000    4.821   73.936    0.514    0.263
  240.250    4.308   73.977    0.522    0.247
  240.500    3.998   77.296    0.526    0.235
  240.750    3.710   80.615    0.531    0.225
  241.000    3.315   83.524    0.540    0.249
  241.250    3.198   82.746    0.555    0.281
  241.500    3.201   84.436    0.540    0.289
  241.750    3.145   85.296    0.530    0.301
  242.000    3.151   84.518    0.520    0.310
  242.250    3.155   83.729    0.526    0.318
  242.500    3.158   83.361    0.537    0.317
  242.750    3.105   82.992    0.548    0.311
  243.000    3.109   83.453    0.560    0.316
  243.250    3.115   83.494    0.570    0.323
  243.500    3.177   81.886    0.564    0.319
  243.750    3.182   82.747    0.551    0.314
  244.000    3.311   83.198    0.544    0.314
  244.250    3.316   82.419    0.554    0.320
  244.500    3.320   82.050    0.561    0.323
  244.750    3.391   84.150    0.572    0.318
  245.000    3.396   83.372    0.557    0.301
  245.250    3.401   82.184    0.528    0.303
  245.500    3.405   81.406    0.528    0.300
  245.750    3.412   80.217    0.534    0.291
  246.000    3.484   79.439    0.543    0.292
  246.250    3.554   76.612    0.549    0.292
  246.500    3.842   74.184    0.555    0.284
  246.750    4.151   69.308    0.520    0.282
  247.000    4.572   64.842    0.493    0.281
  247.250    5.133   62.025    0.483    0.278
  247.500    5.654   60.827    0.465    0.265
  247.750    6.347   60.049    0.434    0.255
  248.000    7.553   59.280    0.428    0.276
  248.250    8.159   59.322    0.418    0.302
  248.500    8.815   58.953    0.412    0.304
  248.750   10.090   58.574    0.412    0.295
  249.000   11.109   60.664    0.411    0.282
  249.250   10.508   63.163    0.415    0.260
  249.500    9.389   64.843    0.424    0.239
  249.750    8.233   65.704    0.433    0.247
  250.000    7.494   66.974    0.446    0.272
  250.250    6.826   70.303    0.449    0.277
  250.500    6.457   73.223    0.440    0.267
  250.750    6.225   74.084    0.437    0.260
  251.000    6.002   73.715    0.446    0.267
  251.250    6.011   71.287    0.449    0.284
  251.500    6.017   68.050    0.451    0.294
  251.750    6.260   65.223    0.446    0.299
  252.000    6.896   62.806    0.448    0.299
  252.250    7.747   61.208    0.452    0.307
  252.500    8.530   59.610    0.444    0.312
  252.750    9.041   58.832    0.424    0.317
  253.000    9.967   58.053    0.414    0.306
  253.250   10.365   57.265    0.416    0.289
  253.500    9.086   57.306    0.420    0.294
  253.750    7.239   62.274    0.426    0.299
  254.000    6.108   66.423    0.422    0.300
  254.250    5.253   69.322    0.420    0.295
  254.500    4.784   72.641    0.414    0.291
  254.750    4.357   74.321    0.417    0.292
  255.000    4.044   76.011    0.427    0.293
  255.250    3.975   76.872    0.450    0.290
  255.500    4.055   77.323    0.498    0.282
  255.750    4.384   75.315    0.492    0.279
  256.000    4.648   77.005    0.476    0.274
  256.250    4.927   77.856    0.462    0.285
  256.500    5.224   79.956    0.460    0.288
  256.750    5.541   81.646    0.471    0.289
  257.000    5.769   82.486    0.461    0.290
  257.250    5.774   78.030    0.448    0.290
  257.500    5.896   77.662    0.437    0.287
  257.750    5.902   74.824    0.437    0.283
  258.000    5.915   69.948    0.454    0.278
  258.250    5.920   65.493    0.464    0.256
  258.500    5.709   63.464    0.428    0.219
  258.750    5.504   64.735    0.381    0.151
  259.000    5.109   71.752    0.406    0.201
  259.250    4.741   76.300    0.447    0.275
  259.500    4.569   80.029    0.478    0.299
  259.750    4.322   84.177    0.495    0.293
  260.000    4.330   83.399    0.504    0.287
  260.250    4.505   81.811    0.507    0.292
  260.500    4.870   82.672    0.496    0.296
  260.750    5.065   83.522    0.488    0.290
  261.000    5.267   82.744    0.498    0.287
  261.250    5.482   80.326    0.498    0.288
  261.500    5.703   76.270    0.452    0.288
  261.750    5.821   75.082    0.436    0.283
