~VERSION INFORMATION
 VERS.                 2.0:   CWLS LOG ASCII STANDARD -VERSION 2.0
 WRAP.                  NO:   ONE LINE PER DEPTH STEP
~WELL INFORMATION BLOCK
#MNEM.UNIT           DATA                    DESCRIPTION OF MNEMONIC
#---------    -------------------            -------------------------------
# Generated from Intellog Unique Number	CW_79_81/WELL/637
WELL.         07-33-079-25W4                 : Well_name    - WELL
LOC .         AA/07-33-079-25W4/0            : Location     - LOCATION
UWI .         AA/07-33-079-25W4/0            : Uwi          - UNIQUE WELL ID
ENTR.         MAX                            : Entered      - ENTERED BY
SRVC.         SCHLUMBERGER                   : Scn          - SERVICE COMPANY
STRT.M        200                            : top_depth    - START DEPTH
STOP.M        475                            : bot_depth    - STOP DEPTH
STEP.M        0.25                           : increment    - STEP LENGTH
 NULL. -999.2500:NULL Value
~CURVE INFORMATION BLOCK
#MNEM UNIT       ERCB CURVE CODE    CURVE DESCRIPTION
#-----------   ------------------   ----------------------------------
DEPT.M        00 001 00 00         : DEPTH        - DEPTH
ILD .OHMM     00 120 00 00         : RESD         - DEEP RESISTIVITY (DIL)
NPHI.V/V      00 330 00 00         : PHIN         - NEUTRON POROSITY (SANDSTONE)
DPHI.V/V      00 890 00 00         : PHID         - DENSITY POROSITY (SANDSTONE)
CALI.MM       00 280 01 00         : CAL          - CALIPER
GR  .API      00 310 00 00         : GR           - GAMMA RAY
~PARAMETER INFORMATION
#MNEM.UNIT           DATA             DESCRIPTION OF MNEMONIC
#---------         -----------     ------------------------------
GL  .M        557.85               : gl           - GROUND LEVEL ELEVATION
EREF.M        562.3                : kb           - ELEVATION OF DEPTH REFERENCE
DATM.M        557.85               : datum        - DATUM ELEVATION
TDD .M        485.5                : tdd          - TOTAL DEPTH DRILLER
RUN .         ONE                  : Run          - RUN NUMBER
ENG .         BILL                 : Engineer     - RECORDING ENGINEER
WIT .         JIM                  : Witness      - WITNESSED BY
MUD .         GEL                  : Mud_type     - MUD TYPE
MATR.         SANDSTONE            : Logunit      - NEUTRON MATRIX
TMAX.C        17.7                 : BHT          - MAXIMUM RECORDED TEMPERATURE
BHTD.M        485                  : BHTDEP       - MAXIMUM RECORDED TEMPERATURE
RMT .C        20                   : MDTP         - TEMPERATURE OF MUD
MUDD.KG/M     1110                 : MWT          - MUD DENSITY
NEUT.         1                    : NEUTRON      - NEUTRON TYPE
RESI.         0                    : RESIST       - RESISTIVITY TYPE
RM  .OHMM     11.3                 : RM           - RESISTIVITY OF MUD
RMC .OHMM     0.25                 : RMC          - RESISTIVITY OF MUD CAKE
RMF .OHMM     4.93                 : RMF          - RESISTIVITY OF MUD FILTRATE
SUFT.C        -15                  : SUFT         - SURFACE TEMPERATURE
~A  DEPTH     RESD     PHIN     PHID      CAL       GR
# ...
  346.000    7.786    0.475    0.252  249.211   71.235
  346.250    8.226    0.488    0.249  249.224   66.755
  346.500    9.697    0.491    0.238  249.235   58.386
  346.750   13.104    0.478    0.218  248.751   54.206
  347.000   19.223    0.441    0.214  248.264   57.205
  347.250   20.126    0.404    0.219  247.280   57.514
  347.500   19.591    0.471    0.216  246.794   52.433
  347.750   16.184    0.421    0.178  247.307   52.741
  348.000   13.368    0.288    0.122  248.813   59.629
  348.250   11.044    0.324    0.137  255.311   67.416
  348.500    9.635    0.417    0.213  256.818   71.911
  348.750    7.400    0.432    0.222  257.329   74.013
  349.000    6.575    0.442    0.230  257.342   74.020
  349.250    6.459    0.438    0.238  256.857   75.224
  349.500    6.580    0.450    0.236  256.370   76.129
  349.750    6.703    0.453    0.227  255.387   76.138
  350.000    6.891    0.438    0.222  253.905   78.540
  350.250    7.150    0.449    0.222  252.920   80.043
  350.500    7.284    0.463    0.227  252.933   81.546
  350.750    7.697    0.461    0.233  253.442   81.553
  351.000    8.057    0.458    0.240  253.955   77.671
  351.250    8.670    0.478    0.242  251.975   71.996
  351.500    9.415    0.496    0.238  250.490   69.311
  351.750   10.130    0.506    0.234  249.505   69.916
  352.000   11.305    0.486    0.239  249.019   73.514
  352.250   12.848    0.455    0.250  248.533   77.710
  352.500   15.145    0.416    0.254  248.546   76.821
  352.750   15.429    0.462    0.247  248.558   78.024
  353.000   13.835    0.456    0.239  248.573   78.632
  353.250   11.429    0.460    0.250  248.587   76.245
  353.500   11.226    0.469    0.252  248.599   71.765
  353.750   11.027    0.455    0.236  248.112   69.979
  354.000   10.931    0.439    0.220  248.126   69.686
  354.250   10.737    0.425    0.220  248.138   69.397
  354.500   10.452    0.410    0.242  248.149   69.701
  354.750   10.360    0.405    0.252  248.163   70.009
  355.000   10.458    0.402    0.259  248.179   67.025
  355.250   11.151    0.398    0.248  248.190   62.546
  355.500   16.209    0.397    0.233  248.201   58.066
  355.750   20.000    0.384    0.187  248.716   53.585
  356.000   18.598    0.392    0.185  250.723   55.090
  356.250   12.687    0.408    0.216  252.231   63.472
  356.500   10.869    0.417    0.232  252.744   67.370
  356.750   10.389    0.424    0.261  252.256   67.678
  357.000   10.392    0.420    0.257  251.273   70.079
  357.250   10.392    0.411    0.232  251.283   73.078
  357.500   10.401    0.394    0.214  251.295   74.880
  357.750   10.216    0.397    0.207  251.309   78.480
  358.000   10.035    0.402    0.207  251.825   79.983
  358.250   10.223    0.393    0.208  251.835   79.690
  358.500   10.414    0.399    0.203  251.846   77.306
  358.750   10.610    0.410    0.190  252.859   77.912
  359.000   10.614    0.418    0.184  253.370   78.517
  359.250   10.144    0.417    0.205  253.382   79.422
  359.500    9.521    0.412    0.226  253.393   80.628
  359.750    8.935    0.421    0.232  253.906   80.634
  360.000    8.697    0.433    0.228  254.416   79.145
  360.250    8.621    0.436    0.229  254.428   76.163
  360.500    8.624    0.437    0.230  254.442   75.272
  360.750    8.706    0.425    0.226  254.455   77.973
  361.000    8.870    0.413    0.219  254.469   80.673
  361.250    8.953    0.401    0.213  254.482   81.279
  361.500    9.039    0.430    0.219  254.496   80.389
  361.750    9.042    0.455    0.223  254.507   79.199
  362.000    9.045    0.460    0.224  254.021   77.412
  362.250    8.966    0.431    0.222  253.538   77.720
  362.500    8.807    0.425    0.221  253.052   80.720
  362.750    8.495    0.424    0.221  253.061   81.026
  363.000    8.194    0.421    0.215  253.074   79.838
  363.250    8.048    0.421    0.214  253.086   77.154
  363.500    8.051    0.425    0.219  253.099   75.365
  363.750    8.353    0.453    0.226  253.112   75.671
  364.000    8.745    0.463    0.229  253.126   76.278
  364.250   10.030    0.459    0.230  253.140   75.987
  364.500   11.931    0.440    0.236  252.654   75.096
  364.750   13.560    0.446    0.250  252.665   72.411
  365.000   13.319    0.445    0.258  252.180   72.419
  365.250   12.964    0.451    0.241  251.694   75.118
  365.500   13.207    0.451    0.224  251.708   79.913
  365.750   14.211    0.431    0.210  251.721   78.725
  366.000   15.859    0.424    0.233  251.734   68.860
  366.250   18.694    0.425    0.273  251.246   68.867
  366.500   20.299    0.464    0.273  250.761   67.677
  366.750   21.646    0.482    0.253  250.274   61.702
  367.000   22.869    0.465    0.219  250.290   56.025
  367.250   25.289    0.443    0.167  250.301   52.743
  367.500   31.772    0.394    0.141  250.315   52.750
  367.750   36.110    0.360    0.143  250.327   54.253
  368.000   35.796    0.374    0.156  250.340   56.655
  368.250   34.843    0.386    0.186  249.854   58.458
  368.500   34.538    0.394    0.209  249.369   58.764
  368.750   36.825    0.348    0.162  249.382   56.679
  369.000   44.609    0.213    0.037  249.393   51.899
  369.250   56.047    0.195    0.026  249.406   50.411
  369.500   63.119    0.200    0.022  248.921   50.418
  369.750   64.305    0.216    0.027  248.932   52.221
  370.000   60.901    0.245    0.041  249.448   53.725
  370.250   55.114    0.272    0.065  250.953   56.126
  370.500   46.786    0.295    0.140  253.459   60.023
  370.750   42.725    0.332    0.170  256.962   64.518
  371.000   33.112    0.412    0.205  258.475   69.911
  371.250   28.369    0.423    0.237  258.983   71.115
  371.500   26.627    0.421    0.243  258.996   70.225
  371.750   26.635    0.421    0.254  257.015   72.329
  372.000   26.403    0.417    0.249  256.029   74.429
  372.250   25.235    0.406    0.239  254.546   77.729
  372.500   23.044    0.423    0.230  254.560   77.138
  372.750   20.477    0.442    0.224  254.074   75.050
  373.000   19.393    0.457    0.225  253.089   73.562
  373.250   19.054    0.451    0.232  251.607   73.271
  373.500   18.712    0.427    0.243  250.123   72.680
  373.750   18.380    0.408    0.255  249.638   76.876
  374.000   19.244    0.408    0.256  249.154   80.175
  374.250   20.149    0.442    0.253  249.165   78.088
  374.500   20.340    0.463    0.253  250.174   74.505
  374.750   19.620    0.448    0.241  250.686   72.719
  375.000   18.581    0.418    0.233  250.701   72.130
  375.250   17.439    0.446    0.234  250.711   73.033
  375.500   16.974    0.459    0.243  250.725   76.931
  375.750   16.522    0.448    0.243  250.738   75.442
  376.000   15.937    0.411    0.234  250.750   74.254
  376.250   15.370    0.399    0.215  250.264   77.554
  376.500   14.294    0.402    0.221  250.277   79.055
  376.750   12.818    0.412    0.228  250.789   78.464
  377.000   12.252    0.423    0.226  251.299   75.480
  377.250   11.926    0.422    0.222  251.812   74.291
  377.500   11.930    0.418    0.214  251.823   75.794
  377.750   12.152    0.415    0.231  251.837   78.496
  378.000   12.381    0.405    0.240  251.851   79.101
  378.250   12.499    0.440    0.237  252.362   80.306
  378.500   12.390    0.436    0.220  252.373   78.219
  378.750   12.171    0.411    0.217  252.389   80.321
  379.000   11.954    0.410    0.208  252.398   84.817
  379.250   11.636    0.439    0.206  252.414   81.833
  379.500   11.223    0.449    0.208  252.428   78.550
  379.750   11.024    0.451    0.208  252.936   77.360
  380.000   10.928    0.441    0.205  252.949   78.565
  380.250   10.931    0.437    0.206  252.963   78.871
  380.500   11.136    0.418    0.217  252.974   78.580
  380.750   11.449    0.416    0.217  252.490   79.786
  381.000   11.558    0.437    0.210  253.004   79.493
  381.250   11.562    0.419    0.207  253.013   78.305
  381.500   11.357    0.400    0.210  252.527   77.714
  381.750   11.258    0.407    0.214  252.043   77.122
  382.000   11.160    0.419    0.211  251.555   73.840
  382.250   11.063    0.416    0.204  251.572   72.950
