~VERSION INFORMATION
 VERS.                 2.0:   CWLS LOG ASCII STANDARD -VERSION 2.0
 WRAP.                  NO:   ONE LINE PER DEPTH STEP
~WELL INFORMATION BLOCK
#MNEM.UNIT           DATA                    DESCRIPTION OF MNEMONIC
#---------    -------------------            -------------------------------
# Generated from Intellog Unique Number	CN_94_101/WELL/4998
WELL.         09-35-100-14W4                 : Well_name    - WELL
LOC .         AA/09-35-100-14W4/0            : Location     - LOCATION
UWI .         AA/09-35-100-14W400            : Uwi          - UNIQUE WELL ID
ENTR.         TIM                            : Entered      - ENTERED BY
SRVC.         WESTERN ATLAS                  : Scn          - SERVICE COMPANY
DATE.         08/28/92                       : Date         - LOG DATE
STRT.M        289.56                         : top_depth    - START DEPTH
STOP.M        502.81                         : bot_depth    - STOP DEPTH
STEP.M        0.25                           : increment    - STEP LENGTH
 NULL. -999.2500:NULL Value
~CURVE INFORMATION BLOCK
#MNEM UNIT       ERCB CURVE CODE    CURVE DESCRIPTION
#-----------   ------------------   ----------------------------------
DEPT.M        00 001 00 00         : DEPTH        - DEPTH
GR  .API      00 310 00 00         : GR           - GAMMA RAY
ILD .OHMM     00 120 00 00         : RESD         - DEEP RESISTIVITY (DIL)
NPHI.V/V      00 330 00 00         : PHIN         - NEUTRON POROSITY (SANDSTONE)
~PARAMETER INFORMATION
#MNEM.UNIT           DATA             DESCRIPTION OF MNEMONIC
#---------         -----------     ------------------------------
GL  .M        723.29               : gl           - GROUND LEVEL ELEVATION
EREF.M        726.643              : kb           - ELEVATION OF DEPTH REFERENCE
DATM.M        726.643              : datum        - DATUM ELEVATION
TDD .M        506.578              : tdd          - TOTAL DEPTH DRILLER
RUN .         ONE                  : Run          - RUN NUMBER
ENG .         JO                   : Engineer     - RECORDING ENGINEER
WIT .         TIM                  : Witness      - WITNESSED BY
MUD .         GEL                  : Mud_type     - MUD TYPE
MATR.         SANDSTONE            : Logunit      - NEUTRON MATRIX
TMAX.C        32.2222              : BHT          - MAXIMUM RECORDED TEMPERATURE
BHTD.M        506.578              : BHTDEP       - MAXIMUM RECORDED TEMPERATURE
RMT .C        32.2222              : MDTP         - TEMPERATURE OF MUD
MUDD.KG/M     9000                 : MWT          - MUD DENSITY
NEUT.         1                    : NEUTRON      - NEUTRON TYPE
RESI.         0                    : RESIST       - RESISTIVITY TYPE
RM  .OHMM     10.5                 : RM           - RESISTIVITY OF MUD
RMC .OHMM     10.5                 : RMC          - RESISTIVITY OF MUD CAKE
RMF .OHMM     10.5                 : RMF          - RESISTIVITY OF MUD FILTRATE
SUFT.C        4                    : SUFT         - SURFACE TEMPERATURE
~A  DEPTH       GR     RESD     PHIN
# ...
  398.060  110.647    3.130    0.553
  398.310  110.265    3.381    0.548
  398.560  109.891    3.583    0.539
  398.810  109.900    3.798    0.517
  399.060  108.341    3.948    0.502
  399.310  105.980    4.026    0.494
  399.560  104.407    4.027    0.484
  399.810  102.839    4.028    0.480
  400.060  100.879    3.952    0.478
  400.310   99.306    3.879    0.477
  400.560   96.954    3.806    0.487
  400.810   95.773    3.807    0.498
  401.060   94.205    3.735    0.504
  401.310   93.836    3.737    0.494
  401.560   93.859    3.738    0.482
  401.810   93.873    3.739    0.471
  402.060   93.886    3.740    0.457
  402.310   93.905    3.741    0.460
  402.560   94.320    3.742    0.476
  402.810   95.141    3.743    0.499
  403.060   95.948    3.674    0.499
  403.310   97.557    3.675    0.491
  403.560   98.765    3.606    0.480
  403.810   99.969    3.607    0.451
  404.060  101.578    3.678    0.404
  404.310  101.606    3.750    0.383
  404.560  101.223    3.751    0.381
  404.810  100.840    3.753    0.414
  405.060   99.673    3.682    0.460
  405.310   98.894    3.613    0.475
  405.560   96.541    3.545    0.497
  405.810   94.973    3.479    0.522
  406.060   93.013    3.414    0.525
  406.310   92.229    3.481    0.527
  406.560   91.851    3.619    0.529
  406.810   93.456    3.690    0.534
  407.060   95.457    3.691    0.535
  407.310   97.463    3.692    0.535
  407.560   95.111    3.694    0.530
  407.810   93.930    3.624    0.524
  408.060   92.362    3.556    0.518
  408.310   90.402    3.358    0.510
  408.560   90.416    3.232    0.504
  408.810   91.232    3.111    0.496
  409.060   92.048    3.053    0.484
  409.310   93.257    3.054    0.467
  409.560   94.861    3.055    0.446
  409.810   95.668    3.237    0.439
  410.060   97.679    3.497    0.428
  410.310   98.883    3.707    0.434
  410.560  100.884    3.708    0.463
  410.810  102.489    3.709    0.483
  411.060  104.495    3.435    0.508
  411.310  105.311    3.243    0.533
  411.560  105.329    2.947    0.538
  411.810  105.343    2.782    0.541
  412.060  105.362    2.386    0.542
  412.310  106.178    2.210    0.546
  412.560  106.588    2.086    0.547
  412.810  107.012    1.933    0.549
  413.060  107.828    1.825    0.551
  413.310  107.842    1.825    0.553
  413.560  108.658    1.757    0.553
  413.810  109.064    1.724    0.553
  414.060  109.885    1.628    0.551
  414.310  109.899    1.660    0.550
  414.560  109.931    1.725    0.549
  414.810  109.945    1.900    0.545
  415.060  109.958    2.053    0.540
  415.310  110.369    2.176    0.529
  415.560  111.582    2.396    0.513
  415.810  111.997    2.743    0.504
  416.060  113.209    3.079    0.498
  416.310  113.223    3.457    0.492
  416.560  113.242    3.957    0.483
  416.810  112.476    4.035    0.478
  417.060  112.093    3.959    0.470
  417.310  110.529    3.960    0.465
  417.560  109.755    3.886    0.462
  417.810  110.174    3.813    0.462
  418.060  110.584    3.814    0.462
  418.310  111.391    3.816    0.466
  418.560  112.208    3.816    0.469
  418.810  112.226    3.818    0.472
  419.060  112.249    3.893    0.469
  419.310  112.267    3.894    0.466
  419.560  112.286    3.971    0.464
  419.810  112.304    3.972    0.463
  420.060  112.322    4.051    0.463
  420.310  111.944    4.052    0.466
  420.560  111.962    4.053    0.475
  420.810  111.584    4.133    0.482
  421.060  111.211    4.135    0.488
  421.310  110.828    4.136    0.493
  421.560  110.454    4.137    0.499
  421.810  110.080    4.060    0.504
  422.060  108.512    4.061    0.510
  422.310  106.543    4.062    0.514
  422.560  105.381    4.063    0.507
  422.810  105.002    4.065    0.474
  423.060  104.218    3.988    0.425
  423.310  101.857    3.989    0.405
  423.560   93.150    3.991    0.400
  423.810   89.202    4.069    0.392
  424.060   84.862    4.150    0.374
  424.310   82.099    4.232    0.315
  424.560   80.937    4.399    0.268
  424.810   83.340    4.662    0.208
  425.060   84.935    4.847    0.183
  425.310   92.886    4.942    0.179
  425.560   97.673    4.667    0.228
  425.810  101.256    4.322    0.408
  426.060  104.844    4.081    0.419
  426.310  106.454    3.928    0.425
  426.560  106.472    3.781    0.435
  426.810  106.495    3.435    0.448
  427.060  107.307    3.182    0.463
  427.310  107.722    3.004    0.479
  427.560  108.137    2.948    0.502
  427.810  108.159    2.892    0.509
  428.060  107.777    2.893    0.515
  428.310  107.398    2.839    0.517
  428.560  107.020    2.786    0.520
  428.810  107.048    2.681    0.522
  429.060  107.061    2.581    0.523
  429.310  107.080    2.391    0.526
  429.560  107.499    2.257    0.527
  429.810  107.919    2.012    0.529
  430.060  107.928    1.863    0.532
  430.310  107.946    1.726    0.534
  430.560  105.193    1.629    0.539
  430.810  103.620    1.630    0.541
  431.060  101.259    1.727    0.542
  431.310  100.489    1.866    0.539
  431.560  103.680    2.016    0.534
  431.810  106.475    2.352    0.529
  432.060  110.464    2.493    0.521
  432.310  113.660    2.642    0.508
  432.560  114.075    2.854    0.490
  432.810  112.502    2.910    0.463
  433.060  110.141    3.025    0.461
  433.310  103.416    3.145    0.460
  433.560  101.456    3.333    0.456
  433.810   95.124    3.399    0.450
  434.060   92.767    3.400    0.423
  434.310   90.401    3.401    0.416
  434.560   92.006    3.402    0.364
  434.810  102.341    3.275    0.417
  435.060  108.706    3.152    0.492
  435.310  117.058    3.093    0.488
  435.560  119.059    2.920    0.486
  435.810  119.087    2.811    0.486
  436.060  119.501    2.705    0.488
  436.310  119.511    2.706    0.490
  436.560  118.740    2.707    0.493
  436.810  117.177    2.708    0.494
  437.060  115.604    2.657    0.495
  437.310  114.036    2.558    0.499
  437.560  111.679    2.462    0.502
  437.810  110.106    2.370    0.509
  438.060  107.745    2.281    0.514
  438.310  106.578    2.195    0.515
  438.560  105.808    2.154    0.514
  438.810  105.430    2.114    0.509
  439.060  104.655    2.114    0.507
  439.310  104.281    2.075    0.504
  439.560  104.290    2.076    0.504
  439.810  104.309    2.076    0.504
  440.060  103.538    2.077    0.505
  440.310  104.747    2.118    0.510
  440.560  105.955    2.160    0.517
  440.810  107.956    2.202    0.523
  441.060  110.354    2.203    0.524
  441.310  116.331    2.204    0.524
  441.560  117.535    2.162    0.524
  441.810  119.536    2.163    0.523
  442.060  121.934    2.122    0.523
  442.310  124.734    2.123    0.520
  442.560  127.925    2.083    0.518
  442.810  125.960    2.044    0.516
  443.060  121.616    1.967    0.514
  443.310  112.115    1.858    0.510
  443.560  110.150    1.788    0.504
  443.810  105.409    1.721    0.499
  444.060   99.478    1.625    0.494
  444.310   89.978    1.505    0.490
  444.560   82.857    1.449    0.485
  444.810   76.133    1.422    0.480
  445.060   68.615    1.368    0.470
  445.310   65.461    1.395    0.462
  445.560   50.804    1.936    0.423
  445.810   44.869    2.845    0.335
  446.060   34.575    4.878    0.318
  446.310   22.695   10.741    0.310
  446.560   17.557   27.059    0.310
  446.810   14.407   34.760    0.309
  447.060   13.632   36.135    0.311
  447.310   12.857   39.043    0.313
  447.560   12.876   42.176    0.314
  447.810   12.899   39.822    0.316
  448.060   14.111   34.819    0.318
  448.310   14.918   33.512    0.318
  448.560   15.725   32.254    0.319
  448.810   16.938   31.651    0.320
  449.060   18.151   31.658    0.322
  449.310   19.359   31.672    0.332
  449.560   20.567   29.904    0.340
  449.810   23.759   27.695    0.351
  450.060   27.743   25.162    0.360
  450.310   30.939   21.580    0.368
  450.560   33.729   19.231    0.377
  450.810   35.731   16.492    0.382
  451.060   39.720   13.610    0.379
  451.310   42.916   11.672    0.374
  451.560   45.309   10.204    0.362
  451.810   48.902    9.094    0.356
  452.060   52.490    7.799    0.356
