~VERSION INFORMATION
 VERS.                 2.0:   CWLS LOG ASCII STANDARD -VERSION 2.0
 WRAP.                  NO:   ONE LINE PER DEPTH STEP
~WELL INFORMATION BLOCK
#MNEM.UNIT           DATA                    DESCRIPTION OF MNEMONIC
#---------    -------------------            -------------------------------
# Generated from Intellog Unique Number	CN_94_101/WELL/4989
WELL.         07-09-099-14W4                 : Well_name    - WELL
LOC .         AA/07-09-099-14W4/0            : Location     - LOCATION
UWI .         AA/07-09-099-14W400            : Uwi          - UNIQUE WELL ID
ENTR.         TIM                            : Entered      - ENTERED BY
SRVC.         SCHLUMBERGER                   : Scn          - SERVICE COMPANY
DATE.         08/11/92                       : Date         - LOG DATE
STRT.M        350                            : top_depth    - START DEPTH
STOP.M        550                            : bot_depth    - STOP DEPTH
STEP.M        0.25                           : increment    - STEP LENGTH
 NULL. -999.2500:NULL Value
~CURVE INFORMATION BLOCK
#MNEM UNIT       ERCB CURVE CODE    CURVE DESCRIPTION
#-----------   ------------------   ----------------------------------
DEPT.M        00 001 00 00         : DEPTH        - DEPTH
GR  .API      00 310 00 00         : GR           - GAMMA RAY
ILD .OHMM     00 120 00 00         : RESD         - DEEP RESISTIVITY (DIL)
NPHI.V/V      00 330 00 00         : PHIN         - NEUTRON POROSITY (SANDSTONE)
DPHI.V/V      00 890 00 00         : PHID         - DENSITY POROSITY (SANDSTONE)
~PARAMETER INFORMATION
#MNEM.UNIT           DATA             DESCRIPTION OF MNEMONIC
#---------         -----------     ------------------------------
GL  .M        792                  : gl           - GROUND LEVEL ELEVATION
EREF.M        795.6                : kb           - ELEVATION OF DEPTH REFERENCE
DATM.M        795.6                : datum        - DATUM ELEVATION
TDD .M        551                  : tdd          - TOTAL DEPTH DRILLER
RUN .         ONE                  : Run          - RUN NUMBER
ENG .         JO                   : Engineer     - RECORDING ENGINEER
WIT .         TIM                  : Witness      - WITNESSED BY
MUD .         GEL                  : Mud_type     - MUD TYPE
MATR.         SANDSTONE            : Logunit      - NEUTRON MATRIX
TMAX.C        30                   : BHT          - MAXIMUM RECORDED TEMPERATURE
BHTD.M        551                  : BHTDEP       - MAXIMUM RECORDED TEMPERATURE
RMT .C        27                   : MDTP         - TEMPERATURE OF MUD
MUDD.KG/M     1050                 : MWT          - MUD DENSITY
NEUT.         1                    : NEUTRON      - NEUTRON TYPE
RESI.         0                    : RESIST       - RESISTIVITY TYPE
RM  .OHMM     3.5                  : RM           - RESISTIVITY OF MUD
RMC .OHMM     3.5                  : RMC          - RESISTIVITY OF MUD CAKE
RMF .OHMM     3.5                  : RMF          - RESISTIVITY OF MUD FILTRATE
SUFT.C        4                    : SUFT         - SURFACE TEMPERATURE
~A  DEPTH       GR     RESD     PHIN     PHID
# ...
  393.500   82.318    1.726    0.422    0.295
  393.750   81.754    1.757    0.416    0.300
  394.000   81.203    1.853    0.409    0.307
  394.250   80.049    2.024    0.391    0.313
  394.500   76.481    2.132    0.366    0.318
  394.750   71.104    2.328    0.357    0.319
  395.000   66.920    2.868    0.350    0.318
  395.250   60.939    3.532    0.351    0.318
  395.500   59.181    3.923    0.351    0.316
  395.750   58.027    4.210    0.344    0.319
  396.000   58.696    4.364    0.342    0.323
  396.250   59.339    4.370    0.336    0.325
  396.500   61.240    4.299    0.328    0.327
  396.750   61.883    4.161    0.326    0.323
  397.000   62.526    3.957    0.328    0.318
  397.250   63.785    3.892    0.339    0.308
  397.500   64.454    3.639    0.350    0.306
  397.750   65.713    3.580    0.359    0.318
  398.000   65.765    3.404    0.367    0.321
  398.250   64.611    3.293    0.376    0.321
  398.500   64.047    3.186    0.383    0.315
  398.750   62.892    3.137    0.393    0.305
  399.000   63.561    3.141    0.410    0.315
  399.250   64.820    3.145    0.414    0.325
  399.500   64.269    3.150    0.389    0.316
  399.750   61.305    3.210    0.378    0.308
  400.000   61.358    3.271    0.377    0.314
  400.250   63.823    3.330    0.377    0.323
  400.500   66.289    3.395    0.375    0.323
  400.750   67.548    3.398    0.369    0.317
  401.000   67.010    3.461    0.361    0.308
  401.250   65.253    3.528    0.360    0.316
  401.500   62.275    3.594    0.360    0.324
  401.750   58.105    3.726    0.359    0.330
  402.000   53.330    3.795    0.358    0.336
  402.250   49.750    3.865    0.357    0.336
  402.500   45.579    3.939    0.356    0.336
  402.750   40.818    3.944    0.350    0.338
  403.000   41.473    3.950    0.348    0.340
  403.250   43.926    3.822    0.351    0.340
  403.500   47.638    3.761    0.358    0.337
  403.750   49.474    3.703    0.362    0.333
  404.000   52.556    3.644    0.367    0.323
  404.250   55.612    3.648    0.375    0.325
  404.500   59.284    3.593    0.371    0.333
  404.750   59.953    3.596    0.363    0.342
  405.000   56.976    3.600    0.357    0.335
  405.250   52.805    3.606    0.353    0.333
  405.500   52.254    3.675    0.354    0.342
  405.750   55.336    3.680    0.359    0.333
  406.000   56.005    3.748    0.367    0.325
  406.250   58.458    3.818    0.375    0.334
  406.500   56.700    3.824    0.365    0.342
  406.750   54.339    3.895    0.369    0.339
  407.000   54.392    3.899    0.371    0.341
  407.250   53.237    3.906    0.371    0.343
  407.500   52.096    3.910    0.364    0.342
  407.750   50.942    3.915    0.356    0.337
  408.000   50.981    3.922    0.357    0.331
  408.250   49.250    3.926    0.363    0.319
  408.500   49.276    3.865    0.364    0.295
  408.750   48.725    3.739    0.351    0.259
  409.000   49.394    3.744    0.337    0.233
  409.250   51.256    3.881    0.343    0.260
  409.500   53.119    3.954    0.348    0.312
  409.750   56.175    3.961    0.359    0.326
  410.000   62.877    3.899    0.374    0.311
  410.250   66.549    3.708    0.374    0.322
  410.500   67.808    3.647    0.372    0.340
  410.750   67.257    3.409    0.375    0.309
  411.000   68.516    3.473    0.376    0.266
  411.250   71.585    3.540    0.376    0.249
  411.500   75.271    3.542    0.378    0.258
  411.750   74.143    3.549    0.383    0.275
  412.000   69.959    3.553    0.385    0.293
  412.250   66.378    3.557    0.381    0.311
  412.500   60.988    3.502    0.375    0.310
  412.750   57.433    3.445    0.375    0.300
  413.000   61.092    3.450    0.375    0.303
  413.250   66.601    3.457    0.377    0.309
  413.500   66.653    3.459    0.377    0.321
  413.750   63.086    3.464    0.376    0.323
  414.000   60.108    3.529    0.375    0.326
  414.250   55.321    3.535    0.368    0.329
  414.500   52.357    3.602    0.363    0.339
  414.750   53.013    3.606    0.355    0.351
  415.000   53.091    3.613    0.343    0.352
  415.250   53.157    3.556    0.345    0.348
  415.500   53.183    3.499    0.351    0.344
  415.750   56.855    3.444    0.359    0.307
  416.000   62.941    3.391    0.366    0.270
  416.250   70.233    3.224    0.375    0.270
  416.500   77.539    3.064    0.386    0.285
  416.750   81.224    2.864    0.413    0.297
  417.000   80.070    2.770    0.419    0.318
  417.250   78.299    3.026    0.401    0.339
  417.500   73.525    3.082    0.382    0.342
  417.750   65.734    3.193    0.389    0.340
  418.000   59.740    3.311    0.398    0.347
  418.250   56.186    3.433    0.408    0.352
  418.500   52.618    3.495    0.391    0.354
  418.750   48.434    3.560    0.365    0.348
  419.000   50.913    3.627    0.357    0.339
  419.250   53.982    3.695    0.354    0.327
  419.500   57.668    3.765    0.354    0.318
  419.750   58.310    3.580    0.355    0.321
  420.000   60.776    3.463    0.359    0.325
  420.250   63.242    3.351    0.366    0.340
  420.500   66.927    3.297    0.377    0.350
  420.750   64.553    3.362    0.391    0.357
  421.000   60.986    3.424    0.407    0.360
  421.250   56.225    3.549    0.404    0.357
  421.500   52.644    3.743    0.397    0.355
  421.750   50.900    3.881    0.387    0.349
  422.000   51.555    3.952    0.374    0.346
  422.250   54.624    3.693    0.370    0.343
  422.500   58.283    3.060    0.380    0.343
  422.750   67.399    2.623    0.433    0.345
  423.000   74.088    2.209    0.476    0.347
  423.250   84.410    1.738    0.470    0.349
  423.500   90.496    1.439    0.449    0.353
  423.750   93.565    1.278    0.448    0.354
  424.000   94.221    1.280    0.460    0.352
  424.250   93.066    1.303    0.471    0.349
  424.500   90.705    1.422    0.452    0.346
  424.750   86.534    1.663    0.431    0.342
  425.000   84.777    1.946    0.424    0.340
  425.250   82.429    2.238    0.415    0.341
  425.500   77.655    2.484    0.394    0.349
  425.750   73.471    2.807    0.373    0.359
  426.000   69.300    3.399    0.350    0.357
  426.250   65.142    3.648    0.355    0.349
  426.500   63.371    3.655    0.379    0.343
  426.750   66.454    3.595    0.386    0.335
  427.000   69.510    3.479    0.399    0.331
  427.250   71.975    3.251    0.418    0.326
  427.500   73.248    3.091    0.431    0.326
  427.750   73.903    2.889    0.425    0.325
  428.000   74.546    2.654    0.422    0.325
  428.250   77.025    2.567    0.422    0.317
  428.500   78.887    2.484    0.416    0.309
  428.750   78.939    2.403    0.404    0.311
  429.000   77.785    2.405    0.395    0.321
  429.250   79.648    2.410    0.402    0.326
  429.500   82.717    2.412    0.410    0.324
  429.750   87.609    2.374    0.407    0.321
  430.000   85.851    2.419    0.407    0.318
  430.250   82.874    2.641    0.408    0.313
  430.500   78.729    2.832    0.404    0.315
  430.750   76.959    3.145    0.393    0.319
  431.000   75.188    3.555    0.386    0.320
  431.250   71.633    3.948    0.379    0.316
  431.500   68.669    4.387    0.373    0.314
  431.750   66.308    4.468    0.352    0.319
  432.000   65.154    4.631    0.330    0.325
  432.250   65.797    4.404    0.320    0.323
  432.500   67.056    4.186    0.328    0.318
  432.750   68.918    3.845    0.365    0.313
  433.000   71.397    3.297    0.407    0.308
  433.250   75.096    2.778    0.414    0.293
  433.500   76.328    2.222    0.419    0.292
  433.750   81.221    1.873    0.429    0.296
  434.000   85.496    1.578    0.461    0.299
  434.250   89.156    1.475    0.460    0.303
  434.500   94.061    1.452    0.448    0.305
  434.750   93.510    1.506    0.446    0.306
  435.000   92.369    1.559    0.443    0.301
  435.250   91.805    1.703    0.441    0.298
  435.500   90.637    1.859    0.428    0.290
  435.750   88.880    1.960    0.412    0.287
  436.000   88.329    2.032    0.403    0.291
  436.250   89.011    2.035    0.407    0.292
  436.500   89.653    2.002    0.409    0.293
  436.750   90.296    1.905    0.413    0.298
