~VERSION INFORMATION
 VERS.                 2.0:   CWLS LOG ASCII STANDARD -VERSION 2.0
 WRAP.                  NO:   ONE LINE PER DEPTH STEP
~WELL INFORMATION BLOCK
#MNEM.UNIT           DATA                    DESCRIPTION OF MNEMONIC
#---------    -------------------            -------------------------------
# Generated from Intellog Unique Number	CW_82_90/WELL/3432
WELL.         UNION MCLEAN OV                : Well_name    - WELL
LOC .         AA/07-28-088-19W4/0            : Location     - LOCATION
UWI .         AA/07-28-088-19W400            : Uwi          - UNIQUE WELL ID
ENTR.         MAX                            : Entered      - ENTERED BY
SRVC.         SCHLUMBERGER                   : Scn          - SERVICE COMPANY
STRT.M        200                            : top_depth    - START DEPTH
STOP.M        258                            : bot_depth    - STOP DEPTH
STEP.M        0.25                           : increment    - STEP LENGTH
 NULL. -999.2500:NULL Value
~CURVE INFORMATION BLOCK
#MNEM UNIT       ERCB CURVE CODE    CURVE DESCRIPTION
#-----------   ------------------   ----------------------------------
DEPT.M        00 001 00 00         : DEPTH        - DEPTH
ILD .OHMM     00 120 00 00         : RESD         - DEEP RESISTIVITY (DIL)
NPHI.V/V      00 330 00 00         : PHIN         - NEUTRON POROSITY (SANDSTONE)
DPHI.V/V      00 890 00 00         : PHID         - DENSITY POROSITY (SANDSTONE)
CALI.MM       00 280 01 00         : CAL          - CALIPER
GR  .API      00 310 00 00         : GR           - GAMMA RAY
~PARAMETER INFORMATION
#MNEM.UNIT           DATA             DESCRIPTION OF MNEMONIC
#---------         -----------     ------------------------------
GL  .M        517.1                : gl           - GROUND LEVEL ELEVATION
EREF.M        521.7                : kb           - ELEVATION OF DEPTH REFERENCE
DATM.M        517.1                : datum        - DATUM ELEVATION
TDD .M        352                  : tdd          - TOTAL DEPTH DRILLER
RUN .         ONE                  : Run          - RUN NUMBER
ENG .         BILL                 : Engineer     - RECORDING ENGINEER
WIT .         JIM                  : Witness      - WITNESSED BY
MUD .         GEL                  : Mud_type     - MUD TYPE
MATR.         SANDSTONE            : Logunit      - NEUTRON MATRIX
TMAX.C        23.3                 : BHT          - MAXIMUM RECORDED TEMPERATURE
BHTD.M        352                  : BHTDEP       - MAXIMUM RECORDED TEMPERATURE
MATR.         1                    : LOGUNIT      - NEUTRON MATRIX
RMT .C        14                   : MDTP         - TEMPERATURE OF MUD
NEUT.         1                    : NEUTRON      - NEUTRON TYPE
RESI.         0                    : RESIST       - RESISTIVITY TYPE
RMC .OHMM     3                    : RMC          - RESISTIVITY OF MUD CAKE
RMF .OHMM     3                    : RMF          - RESISTIVITY OF MUD FILTRATE
SUFT.C        -5                   : SUFT         - SURFACE TEMPERATURE
~A  DEPTH     RESD     PHIN     PHID      CAL       GR
# ...
  236.500   33.234    0.449    0.409  243.890   76.688
  236.750   59.106    0.409    0.325  257.296   68.962
  237.000   73.838    0.417    0.330  268.232   66.592
  237.250   68.504    0.424    0.299  269.736   66.010
  237.500   74.447    0.442    0.283  271.241   65.425
  237.750   94.742    0.446    0.265  273.740   65.737
  238.000   88.730    0.454    0.245  276.239   66.344
  238.250   50.306    0.459    0.323  280.727   66.650
  238.500   47.117    0.467    0.348  284.220   66.067
  238.750   59.414    0.471    0.354  284.731   64.589
  239.000  117.032    0.455    0.341  285.246   63.410
  239.250   63.931    0.449    0.354  288.739   62.529
  239.500   30.665    0.466    0.400  301.156   61.652
  239.750   20.174    0.506    0.455  312.087   61.066
  240.000   16.434    0.556    0.516  342.860   58.994
  240.250   13.640    0.611    0.555  352.801   51.268
  240.500   12.894    0.630    0.581  338.935   45.030
  240.750   15.959    0.615    0.588  328.040   44.447
  241.000   12.644    0.615    0.589  320.123   46.542
  241.250   10.690    0.638    0.594  309.724   49.827
  241.500   12.867    0.642    0.602  297.343   48.648
  241.750   15.633    0.647    0.570  297.858   47.768
  242.000   21.233    0.648    0.546  365.831   47.182
  242.250   27.276    0.626    0.536  353.450   46.895
  242.500   42.986    0.603    0.491  313.789   48.695
  242.750   39.517    0.591    0.467  291.982   51.384
  243.000   35.659    0.595    0.534  302.417   55.562
  243.250   64.001    0.586    0.545  287.063   57.954
  243.500  103.723    0.580    0.521  275.674   57.074
  243.750   72.152    0.586    0.503  268.747   54.109
  244.000   23.641    0.600    0.528  278.688   53.227
  244.250   19.622    0.603    0.571  304.499   54.430
  244.500   20.354    0.596    0.559  335.768   55.929
  244.750   24.498    0.595    0.558  364.059   58.323
  245.000   31.178    0.596    0.563  350.193   60.416
  245.250   39.313    0.593    0.563  302.592   63.703
  245.500   40.033    0.580    0.541  263.427   67.284
  245.750   29.443    0.570    0.498  256.507   73.247
  246.000   23.545    0.546    0.403  256.521   80.401
  246.250   24.652    0.521    0.269  261.996   89.043
  246.500   26.788    0.474    0.263  262.514   98.281
  246.750   22.861    0.416    0.269  260.053   99.486
  247.000   21.814    0.406    0.266  257.094   97.709
  247.250   23.050    0.402    0.250  253.646  101.886
  247.500   24.363    0.415    0.220  251.681  105.767
  247.750   23.243    0.427    0.212  249.222  107.568
  248.000   21.567    0.434    0.214  246.265  108.766
  248.250   19.460    0.414    0.214  243.800  114.431
  248.500   21.346    0.409    0.210  240.349  118.908
  248.750   22.349    0.403    0.204  238.384  118.027
  249.000   20.738    0.392    0.203  236.913  115.062
  249.250   19.062    0.391    0.199  234.951  112.991
  249.500   20.146    0.407    0.192  233.482  114.788
  249.750   24.477    0.428    0.201  232.509  118.370
  250.000   43.936    0.442    0.219  230.544  116.001
  250.250  110.197    0.454    0.238  228.579   96.966
  250.500   92.313    0.450    0.265  226.614   86.562
  250.750   73.133    0.429    0.305  225.641   87.766
  251.000   51.831    0.423    0.280  224.673   91.049
  251.250   34.099    0.419    0.259  223.204   98.202
  251.500   33.453    0.400    0.236  222.231  102.679
  251.750   44.190    0.387    0.183  221.258  103.286
  252.000   46.700    0.382    0.121  220.779   99.726
  252.250   23.464    0.348    0.063  220.302   94.978
  252.500   20.024    0.361    0.119  220.321  109.272
  252.750   23.880    0.375    0.148  220.836  117.914
  253.000   20.956    0.383    0.205  221.349  118.223
  253.250   16.601    0.429    0.261  224.840  118.234
  253.500   16.903    0.448    0.290  232.800  112.889
  253.750   17.866    0.467    0.308  243.233  114.091
  254.000   19.777    0.507    0.322  234.820  114.102
  254.250   21.294    0.493    0.307  237.817  107.864
  254.500   22.294    0.469    0.284  227.916   99.246
  254.750   19.932    0.456    0.274  224.461   93.305
  255.000   20.109    0.451    0.394  222.496   90.341
  255.250   20.285    0.507    0.437  223.014   89.164
  255.500   18.649    0.561    0.465  214.103   88.282
  255.750   15.477    0.582    0.463  212.138   85.914
  256.000   14.905    0.557    0.446  215.133   83.543
  256.250   18.794    0.512    0.434  222.592   79.983
  256.500   26.990    0.471    0.345  235.514   72.853
  256.750   77.106    0.398    0.002  230.568   59.472
  257.000  647.412    0.334    0.024  220.171   43.114
  257.250  696.984    0.376    0.070  214.737   42.830
  257.500  646.718    0.409    0.119  212.774   44.033
  257.750  259.993    0.417    0.154  212.789   45.532
  258.000  192.977    0.403    0.183  212.808   45.840
