~VERSION INFORMATION
 VERS.                 2.0:   CWLS LOG ASCII STANDARD -VERSION 2.0
 WRAP.                  NO:   ONE LINE PER DEPTH STEP
~WELL INFORMATION BLOCK
#MNEM.UNIT           DATA                    DESCRIPTION OF MNEMONIC
#---------    -------------------            -------------------------------
# Generated from Intellog Unique Number	CN_94_101/WELL/3332
WELL.         08-01-095-09W4                 : Well_name    - WELL
LOC .         AA/08-01-095-09W4/0            : Location     - LOCATION
UWI .         AA/08-01-095-09W400            : Uwi          - UNIQUE WELL ID
ENTR.         T                              : Entered      - ENTERED BY
SRVC.         SCHLUMBERGER                   : Scn          - SERVICE COMPANY
DATE.         07/08/92                       : Date         - LOG DATE
STRT.M        15                             : top_depth    - START DEPTH
STOP.M        140                            : bot_depth    - STOP DEPTH
STEP.M        0.25                           : increment    - STEP LENGTH
 NULL. -999.2500:NULL Value
~CURVE INFORMATION BLOCK
#MNEM UNIT       ERCB CURVE CODE    CURVE DESCRIPTION
#-----------   ------------------   ----------------------------------
DEPT.M        00 001 00 00         : DEPTH        - DEPTH
GR  .API      00 310 00 00         : GR           - GAMMA RAY
NPHI.V/V      00 330 00 00         : PHIN         - NEUTRON POROSITY (SANDSTONE)
RHOB.KG/M3    00 350 00 00         : DENS         - BULK DENSITY
ILD .OHMM     00 120 00 00         : RESD         - DEEP RESISTIVITY (DIL)
~PARAMETER INFORMATION
#MNEM.UNIT           DATA             DESCRIPTION OF MNEMONIC
#---------         -----------     ------------------------------
GL  .M        325.7                : gl           - GROUND LEVEL ELEVATION
EREF.M        325.7                : kb           - ELEVATION OF DEPTH REFERENCE
DATM.M        325.7                : datum        - DATUM ELEVATION
TDD .M        147                  : tdd          - TOTAL DEPTH DRILLER
RUN .         ONE                  : Run          - RUN NUMBER
ENG .         JO                   : Engineer     - RECORDING ENGINEER
WIT .         TIM                  : Witness      - WITNESSED BY
MUD .         GEL                  : Mud_type     - MUD TYPE
MATR.         SANDSTONE            : Logunit      - NEUTRON MATRIX
TMAX.C        7                    : BHT          - MAXIMUM RECORDED TEMPERATURE
BHTD.M        147                  : BHTDEP       - MAXIMUM RECORDED TEMPERATURE
RMT .C        6                    : MDTP         - TEMPERATURE OF MUD
MUDD.KG/M     1060                 : MWT          - MUD DENSITY
NEUT.         1                    : NEUTRON      - NEUTRON TYPE
RESI.         0                    : RESIST       - RESISTIVITY TYPE
RM  .OHMM     9.8                  : RM           - RESISTIVITY OF MUD
RMC .OHMM     9.3                  : RMC          - RESISTIVITY OF MUD CAKE
RMF .OHMM     6.8                  : RMF          - RESISTIVITY OF MUD FILTRATE
SUFT.C        4                    : SUFT         - SURFACE TEMPERATURE
~A  DEPTH       GR     PHIN     DENS     RESD
# ...
   58.500  109.756    0.452 2182.970   29.680
   58.750  104.175    0.462 2177.090   27.130
   59.000   94.268    0.434 2161.170   32.063
   59.250  102.410    0.413 2139.220   45.577
   59.500  109.929    0.419 2119.270   33.386
   59.750  114.957    0.464 2135.510   27.820
   60.000  111.267    0.441 2167.840   25.429
   60.250   90.762    0.433 2182.150   25.463
   60.500   79.587    0.458 2176.270   26.958
   60.750   61.574    0.475 2158.300   29.071
   61.000   49.788    0.495 2118.210   33.145
   61.250   41.127    0.513 2100.280   41.416
   61.500   38.682    0.450 2146.710   88.319
   61.750   36.237    0.441 2164.960  159.574
   62.000   34.415    0.433 2106.860  239.822
   62.250   32.604    0.424 2100.950  294.200
   62.500   32.005    0.407 2147.350  812.269
   62.750   31.451    0.397 2191.770 1092.560
   63.000   30.863    0.398 2199.970 1178.710
   63.250   31.532    0.400 2151.840  597.120
   63.500   34.680    0.409 2073.600  488.712
   63.750   40.953    0.423 2053.690  471.460
   64.000   53.466    0.441 2049.830  415.364
   64.250   64.722    0.451 2054.010  282.521
   64.500   77.857    0.459 2074.230   93.702
   64.750   83.508    0.452 2144.790   33.439
   65.000   89.781    0.447 2171.090   28.382
   65.250   99.203    0.453 2193.360   27.417
   65.500   96.112    0.463 2179.440   28.496
   65.750   88.674    0.475 2143.420   31.883
   66.000   76.265    0.412 2125.520   39.839
   66.250   60.754    0.411 2125.640   62.120
   66.500   55.806    0.422 2129.860   68.263
   66.750   49.625    0.399 2126.000   49.981
   67.000   50.917    0.396 2101.990   42.441
   67.250   56.568    0.404 2074.010   46.618
   67.500   55.368    0.393 2084.220  101.217
   67.750   48.564    0.382 2106.490  163.746
   68.000   39.903    0.390 2120.760  264.905
   68.250   36.201    0.407 2116.900  124.667
   68.500   28.152    0.414 2098.960   92.975
   68.750   23.204    0.407 2080.990   64.472
   69.000   17.646    0.411 2079.180   59.974
   69.250   15.835    0.417 2087.420   55.815
   69.500   15.258    0.417 2091.550   51.019
   69.750   15.939    0.407 2097.740   53.027
   70.000   17.864    0.407 2097.940   61.555
   70.250   19.133    0.410 2094.080   67.643
   70.500   21.047    0.412 2092.230   55.313
   70.750   21.093    0.417 2094.400   47.821
   71.000   18.660    0.403 2102.600   48.797
   71.250   15.592    0.394 2106.820   56.644
   71.500   13.759    0.404 2100.980   68.219
   71.750   11.314    0.410 2097.040   88.481
   72.000   10.749    0.413 2091.170  106.563
   72.250   10.806    0.420 2083.330  135.691
   72.500   10.829    0.418 2085.490  143.719
   72.750   11.521    0.415 2093.660  155.052
   73.000   12.190    0.410 2093.810  161.013
   73.250   13.482    0.410 2085.970  170.540
   73.500   14.762    0.411 2082.110  174.098
   73.750   17.310    0.417 2086.330  174.409
   74.000   17.356    0.424 2092.480  178.048
   74.250   18.025    0.429 2096.620  178.208
   74.500   18.694    0.431 2092.790  178.526
   74.750   18.740    0.432 2088.890  185.639
   75.000   18.152    0.426 2081.050  200.187
   75.250   17.598    0.422 2081.250  215.876
   75.500   17.010    0.427 2091.460  232.795
   75.750   16.433    0.429 2099.620  246.458
   76.000   17.725    0.434 2103.800  158.696
   76.250   18.394    0.425 2101.940  104.038
   76.500   18.451    0.420 2096.110   82.071
   76.750   18.486    0.418 2092.290   98.799
   77.000   17.309    0.413 2092.370  123.619
   77.250   17.333    0.407 2092.570  126.029
   77.500   16.756    0.400 2094.780  138.432
   77.750   17.436    0.416 2100.960  154.952
   78.000   18.105    0.434 2101.120  160.981
   78.250   17.540    0.460 2093.240  204.984
   78.500   16.952    0.431 2087.330  246.874
   78.750   21.357    0.423 2079.490  191.108
   79.000   28.253    0.428 2073.610  184.527
   79.250   35.150    0.425 2071.760  168.595
   79.500   48.285    0.443 2071.880   75.078
   79.750   53.313    0.423 2084.100   40.941
   80.000   51.491    0.405 2134.560   27.860
   80.250   46.555    0.402 2154.900   24.990
   80.500   43.487    0.401 2153.010   36.199
   80.750   41.677    0.397 2151.190   42.801
   81.000   38.620    0.382 2149.260   48.799
   81.250   37.410    0.379 2147.410   48.886
   81.500   40.569    0.381 2143.550   46.341
   81.750   48.088    0.377 2137.720   44.725
   82.000   60.590    0.372 2168.030   37.269
   82.250   63.761    0.368 2198.340   28.324
   82.500   56.945    0.370 2210.600   27.361
   82.750   49.530    0.376 2208.750   27.434
   83.000   49.576    0.389 2204.850   28.502
   83.250   47.131    0.401 2188.930   29.070
   83.500   40.315    0.415 2166.970   31.349
   83.750   40.984    0.413 2145.020   34.434
   84.000   46.012    0.408 2123.060   41.489
   84.250   26.753    0.408 2111.160   49.056
   84.500   20.583    0.396 2109.300   56.945
   84.750   23.732    0.388 2101.460  114.908
   85.000   29.382    0.398 2087.510  130.952
   85.250   36.279    0.380 2085.660   78.333
   85.500   49.414    0.364 2136.070   58.419
   85.750   58.801    0.359 2158.390   39.753
   86.000   53.243    0.370 2188.700   32.522
   86.250   27.768    0.373 2194.890   26.120
   86.500   29.693    0.365 2168.910   21.775
   86.750   30.339    0.365 2152.990   23.907
   87.000   29.140    0.367 2133.080   43.999
   87.250   26.084    0.379 2129.180   67.324
   87.500   24.873    0.387 2125.320   45.813
   87.750   23.051    0.391 2129.540   37.479
   88.000   22.485    0.382 2135.690   33.633
   88.250   23.154    0.366 2155.990   32.460
   88.500   24.446    0.343 2178.260   32.518
   88.750   28.228    0.361 2206.560   32.011
   89.000   36.370    0.367 2236.960   32.039
   89.250   28.321    0.370 2235.070   30.371
   89.500   24.007    0.371 2191.000   25.790
   89.750   40.256    0.369 2181.060   23.553
   90.000   54.014    0.360 2185.240   20.750
   90.250   58.408    0.362 2221.630   18.950
   90.500   70.287    0.384 2241.890   17.636
   90.750   76.572    0.376 2284.300   17.029
   91.000   69.133    0.363 2270.390   16.748
   91.250   62.329    0.366 2234.400   16.785
   91.500   54.902    0.372 2230.460   17.128
   91.750   47.475    0.388 2212.530   17.810
   92.000   41.294    0.393 2194.590   18.174
   92.250   34.490    0.387 2170.670   18.545
   92.500   29.554    0.379 2156.710   18.915
   92.750   25.252    0.373 2146.820   19.318
   93.000   22.185    0.369 2139.020   19.335
   93.250   20.363    0.370 2137.090   19.387
   93.500   19.774    0.378 2129.200   19.059
   93.750   18.598    0.381 2123.330   18.075
   94.000   18.621    0.388 2119.470   17.460
   94.250   19.924    0.393 2107.560   17.476
   94.500   21.204    0.395 2093.650   17.188
   94.750   25.609    0.396 2097.870   17.234
   95.000   39.367    0.395 2112.060   17.249
   95.250   53.737    0.377 2138.390   17.280
   95.500   71.854    0.359 2170.720   15.500
   95.750  116.749    0.395 2199.020   13.156
   96.000  129.885    0.450 2205.290   10.378
   96.250  129.931    0.533 2189.330    9.478
   96.500  122.515    0.597 2173.360    8.663
   96.750  122.561    0.631 2115.220    8.365
   97.000  121.362    0.620 2103.320    8.077
   97.250  122.642    0.584 2133.630    8.242
   97.500  130.161    0.572 2135.800    9.388
   97.750  134.578    0.541 2140.020   12.177
   98.000  116.553    0.469 2172.340   14.665
   98.250   86.695    0.381 2190.630   17.348
   98.500   72.418    0.390 2194.810   18.366
   98.750   66.860    0.397 2201.040   18.741
   99.000   87.468    0.386 2209.320   18.774
   99.250   96.855    0.378 2213.380   18.128
   99.500  107.488    0.383 2221.620   17.503
   99.750  114.396    0.391 2227.770   17.215
  100.000  100.107    0.392 2238.020   18.572
  100.250   86.453    0.375 2244.170   20.028
  100.500   76.535    0.372 2188.080   20.816
  100.750   69.108    0.380 2170.100   20.854
  101.000   62.304    0.387 2140.110   20.510
  101.250   54.877    0.411 2118.150   19.803
  101.500   50.553    0.396 2108.260   19.121
  101.750   42.503    0.385 2094.350   18.134
