~VERSION INFORMATION
 VERS.                 2.0:   CWLS LOG ASCII STANDARD -VERSION 2.0
 WRAP.                  NO:   ONE LINE PER DEPTH STEP
~WELL INFORMATION BLOCK
#MNEM.UNIT           DATA                    DESCRIPTION OF MNEMONIC
#---------    -------------------            -------------------------------
# Generated from Intellog Unique Number	CS_77_79/WELL/908
LOC .         AA/07-26-077-08W4/0            : Location     - LOCATION
UWI .         AA/07-26-077-08W4/0            : Uwi          - UNIQUE WELL ID
ENTR.         SP                             : Entered      - ENTERED BY
SRVC.         SCHLUMBERGER                   : Scn          - SERVICE COMPANY
STRT.M        120                            : top_depth    - START DEPTH
STOP.M        355                            : bot_depth    - STOP DEPTH
STEP.M        0.25                           : increment    - STEP LENGTH
 NULL. -999.2500:NULL Value
~CURVE INFORMATION BLOCK
#MNEM UNIT       ERCB CURVE CODE    CURVE DESCRIPTION
#-----------   ------------------   ----------------------------------
DEPT.M        00 001 00 00         : DEPTH        - DEPTH
ILD .OHMM     00 120 00 00         : RESD         - DEEP RESISTIVITY (DIL)
DPHI.V/V      00 890 00 00         : PHID         - DENSITY POROSITY (LIMESTONE)
NPHI.V/V      00 330 00 00         : PHIN         - NEUTRON POROSITY (LIMESTONE)
GR  .API      00 310 00 00         : GR           - GAMMA RAY
~PARAMETER INFORMATION
#MNEM.UNIT           DATA             DESCRIPTION OF MNEMONIC
#---------         -----------     ------------------------------
GL  .M        551.7                : gl           - GROUND LEVEL ELEVATION
EREF.M        555.2                : kb           - ELEVATION OF DEPTH REFERENCE
DATM.M        551.7                : datum        - DATUM ELEVATION
TDD .M        360                  : tdd          - TOTAL DEPTH DRILLER
RUN .         ONE                  : Run          - RUN NUMBER
ENG .         BILL                 : Engineer     - RECORDING ENGINEER
WIT .         JIM                  : Witness      - WITNESSED BY
MUD .         GEL                  : Mud_type     - MUD TYPE
MATR.         LIMESTONE            : Logunit      - NEUTRON MATRIX
TMAX.C        13                   : BHT          - MAXIMUM RECORDED TEMPERATURE
BHTD.M        360                  : BHTDEP       - MAXIMUM RECORDED TEMPERATURE
MATR.         1                    : LOGUNIT      - NEUTRON MATRIX
RMT .C        25                   : MDTP         - TEMPERATURE OF MUD
NEUT.         1                    : NEUTRON      - NEUTRON TYPE
RESI.         0                    : RESIST       - RESISTIVITY TYPE
RMC .OHMM     0.25                 : RMC          - RESISTIVITY OF MUD CAKE
RMF .OHMM     0.25                 : RMF          - RESISTIVITY OF MUD FILTRATE
SUFT.C        15                   : SUFT         - SURFACE TEMPERATURE
~A  DEPTH     RESD     PHID     PHIN       GR
# ...
  250.500   24.111    0.367    0.179   66.041
  250.750   23.219    0.366    0.180   66.658
  251.000   20.352    0.354    0.217   57.355
  251.250   16.236    0.338    0.251   60.449
  251.500   13.449    0.317    0.279   59.203
  251.750   11.788    0.287    0.324   57.959
  252.000   10.729    0.284    0.356   49.896
  252.250    9.950    0.287    0.372   56.707
  252.500    9.228    0.290    0.380   59.803
  252.750    8.720    0.289    0.371   56.698
  253.000    8.557    0.287    0.364   57.312
  253.250    8.556    0.287    0.372   59.167
  253.500    8.719    0.288    0.378   57.922
  253.750    8.884    0.288    0.362   57.916
  254.000    8.883    0.285    0.376   56.671
  254.250    9.051    0.294    0.377   58.525
  254.500    9.050    0.300    0.369   55.421
  254.750    8.881    0.297    0.362   53.556
  255.000    8.881    0.290    0.358   57.890
  255.250    8.880    0.289    0.358   56.645
  255.500    8.879    0.290    0.353   57.880
  255.750    8.879    0.293    0.345   62.833
  256.000    8.878    0.293    0.342   60.349
  256.250    9.046    0.293    0.341   60.963
  256.500    9.045    0.297    0.334   59.718
  256.750    9.045    0.300    0.324   55.993
  257.000    9.044    0.299    0.316   52.270
  257.250    9.044    0.298    0.309   54.744
  257.500    9.043    0.297    0.297   54.738
  257.750    9.389    0.296    0.275   52.254
  258.000    9.567    0.271    0.235   55.966
  258.250   10.315    0.229    0.197   59.680
  258.500   12.218    0.113    0.128   54.096
  258.750   14.202    0.007    0.113   50.993
  259.000   17.142    0.010    0.125   48.508
  259.250   19.927    0.013    0.122   44.164
  259.500   22.308    0.036    0.143   44.159
  259.750   21.890    0.062    0.196   47.253
  260.000   17.795    0.112    0.235   47.868
  260.250   12.680    0.254    0.266   55.299
  260.500   11.541    0.287    0.338   61.493
  260.750   10.503    0.292    0.343   59.007
  261.000    9.381    0.294    0.354   56.524
  261.250    9.034    0.297    0.360   57.758
  261.500    8.700    0.302    0.361   61.472
  261.750    8.537    0.303    0.357   62.086
  262.000    8.536    0.304    0.367   62.081
  262.250    8.698    0.303    0.372   57.117
  262.500    8.697    0.301    0.366   55.872
  262.750    8.696    0.298    0.376   60.204
  263.000    8.696    0.297    0.374   62.059
  263.250    8.695    0.295    0.371   62.675
  263.500    8.695    0.293    0.374   57.711
  263.750    8.694    0.292    0.376   55.845
  264.000    8.693    0.288    0.380   57.700
  264.250    8.693    0.286    0.388   62.653
  264.500    8.692    0.285    0.398   63.268
  264.750    8.857    0.282    0.390   54.585
  265.000    9.025    0.281    0.376   57.677
  265.250    9.195    0.279    0.364   59.533
  265.500    9.195    0.279    0.354   62.007
  265.750    9.194    0.280    0.353   62.001
  266.000    9.194    0.280    0.344   57.657
  266.250    9.193    0.277    0.360   61.371
  266.500    9.021    0.276    0.366   66.325
  266.750    9.020    0.277    0.366   61.980
  267.000    8.851    0.279    0.364   60.116
  267.250    8.851    0.280    0.361   55.151
  267.500    8.850    0.282    0.358   52.667
  267.750    8.850    0.285    0.363   53.902
  268.000    8.684    0.289    0.365   59.474
  268.250    8.683    0.291    0.371   60.709
  268.500    8.683    0.294    0.357   61.323
  268.750    8.682    0.296    0.374   58.839
  269.000    8.682    0.297    0.378   56.975
  269.250    8.519    0.299    0.363   55.110
  269.500    8.518    0.299    0.365   55.104
  269.750    8.359    0.299    0.373   55.719
  270.000    8.359    0.297    0.375   56.953
  270.250    8.358    0.287    0.364   55.709
  270.500    8.201    0.274    0.370   60.661
  270.750    8.201    0.250    0.385   69.334
  271.000    8.047    0.231    0.381   81.726
  271.250    7.897    0.226    0.371   79.860
  271.500    7.749    0.227    0.374   82.333
  271.750    7.749    0.230    0.360   80.469
  272.000    7.604    0.230    0.352   77.365
  272.250    7.603    0.230    0.360   77.359
  272.500    7.461    0.230    0.367   79.214
  272.750    7.460    0.232    0.379   77.350
  273.000    7.460    0.236    0.384   79.201
  273.250    7.459    0.239    0.386   80.438
  273.500    7.459    0.241    0.380   77.333
  273.750    7.319    0.241    0.375   75.468
  274.000    7.319    0.238    0.383   72.983
  274.250    7.457    0.226    0.373   71.120
  274.500    8.040    0.205    0.375   66.775
  274.750    8.192    0.199    0.370   64.911
  275.000    8.347    0.198    0.364   66.765
  275.250    8.667    0.214    0.354   71.718
  275.500    8.666    0.216    0.354   75.431
  275.750    8.190    0.206    0.359   77.905
  276.000    7.887    0.203    0.359   81.618
  276.250    6.292    0.204    0.383   85.331
  276.500    5.019    0.233    0.385   85.328
  276.750    4.568    0.263    0.410   85.943
  277.000    4.317    0.273    0.419   85.318
  277.250    4.157    0.273    0.432   80.973
  277.500    4.080    0.283    0.425   79.729
  277.750    4.157    0.296    0.422   77.244
  278.000    4.398    0.335    0.422   75.999
  278.250    4.923    0.346    0.424   80.332
  278.500    5.409    0.327    0.426   79.707
  278.750    5.831    0.313    0.440   81.559
  279.000    6.287    0.267    0.439   82.796
  279.250    6.778    0.225    0.420   86.509
  279.500    7.038    0.220    0.374   86.505
  279.750    7.307    0.218    0.374   83.399
  280.000    7.170    0.219    0.377   82.155
  280.250    6.776    0.221    0.377   87.106
  280.500    6.404    0.227    0.383   90.822
  280.750    5.613    0.250    0.397   92.057
  281.000    5.108    0.323    0.418   83.374
  281.250    4.477    0.371    0.426   77.170
  281.500    3.999    0.425    0.434   76.545
  281.750    3.505    0.404    0.398   80.879
  282.000    3.190    0.353    0.430   76.534
  282.250    2.903    0.372    0.452   70.951
  282.500    2.693    0.274    0.466   75.283
  282.750    2.593    0.256    0.484   70.940
  283.000    2.544    0.255    0.482   78.372
  283.250    2.497    0.260    0.460   77.748
  283.500    2.497    0.304    0.482   70.924
  283.750    2.496    0.351    0.515   66.580
  284.000    2.544    0.373    0.508   65.954
  284.250    2.592    0.370    0.525   67.190
  284.500    2.641    0.351    0.501   71.522
  284.750    2.847    0.294    0.492   75.856
  285.000    3.012    0.286    0.496   77.090
  285.250    3.248    0.286    0.461   75.226
  285.500    3.636    0.297    0.441   73.361
  285.750    4.226    0.338    0.419   74.595
  286.000    4.472    0.376    0.425   75.210
  286.250    4.913    0.370    0.413   76.444
  286.500    5.500    0.259    0.409   80.776
  286.750    6.042    0.245    0.397   82.632
  287.000    6.392    0.245    0.376   86.346
  287.250    6.513    0.275    0.390   82.621
  287.500    6.391    0.344    0.401   78.897
  287.750    6.272    0.401    0.429   80.749
  288.000    6.155    0.407    0.435   83.226
  288.250    5.497    0.375    0.454   80.741
  288.500    5.098    0.341    0.472   77.016
  288.750    4.728    0.332    0.475   79.491
  289.000    4.639    0.317    0.458   77.626
  289.250    4.552    0.329    0.469   78.859
  289.500    4.467    0.345    0.448   80.095
  289.750    4.467    0.355    0.453   82.567
  290.000    4.383    0.345    0.437   83.803
  290.250    4.383    0.344    0.432   84.418
  290.500    4.301    0.342    0.425   83.793
  290.750    4.301    0.360    0.424   81.308
  291.000    4.220    0.349    0.414   82.542
  291.250    4.220    0.335    0.421   85.636
  291.500    4.220    0.329    0.450   82.532
  291.750    4.219    0.337    0.430   78.807
  292.000    4.219    0.358    0.434   80.660
  292.250    4.299    0.370    0.450   81.896
  292.500    4.299    0.366    0.448   80.651
  292.750    4.635    0.363    0.428   83.126
  293.000    5.594    0.353    0.392   83.740
  293.250    6.880    0.311    0.364   86.833
  293.500    7.559    0.248    0.313   80.629
  293.750    9.124    0.166    0.289   74.425
