~VERSION INFORMATION
 VERS.                 2.0:   CWLS LOG ASCII STANDARD -VERSION 2.0
 WRAP.                  NO:   ONE LINE PER DEPTH STEP
~WELL INFORMATION BLOCK
#MNEM.UNIT           DATA                    DESCRIPTION OF MNEMONIC
#---------    -------------------            -------------------------------
# Generated from Intellog Unique Number	CS_77_79/WELL/908
LOC .         AA/07-26-077-08W4/0            : Location     - LOCATION
UWI .         AA/07-26-077-08W4/0            : Uwi          - UNIQUE WELL ID
ENTR.         SP                             : Entered      - ENTERED BY
SRVC.         SCHLUMBERGER                   : Scn          - SERVICE COMPANY
STRT.M        120                            : top_depth    - START DEPTH
STOP.M        355                            : bot_depth    - STOP DEPTH
STEP.M        0.25                           : increment    - STEP LENGTH
 NULL. -999.2500:NULL Value
~CURVE INFORMATION BLOCK
#MNEM UNIT       ERCB CURVE CODE    CURVE DESCRIPTION
#-----------   ------------------   ----------------------------------
DEPT.M        00 001 00 00         : DEPTH        - DEPTH
ILD .OHMM     00 120 00 00         : RESD         - DEEP RESISTIVITY (DIL)
DPHI.V/V      00 890 00 00         : PHID         - DENSITY POROSITY (LIMESTONE)
NPHI.V/V      00 330 00 00         : PHIN         - NEUTRON POROSITY (LIMESTONE)
GR  .API      00 310 00 00         : GR           - GAMMA RAY
~PARAMETER INFORMATION
#MNEM.UNIT           DATA             DESCRIPTION OF MNEMONIC
#---------         -----------     ------------------------------
GL  .M        551.7                : gl           - GROUND LEVEL ELEVATION
EREF.M        555.2                : kb           - ELEVATION OF DEPTH REFERENCE
DATM.M        551.7                : datum        - DATUM ELEVATION
TDD .M        360                  : tdd          - TOTAL DEPTH DRILLER
RUN .         ONE                  : Run          - RUN NUMBER
ENG .         BILL                 : Engineer     - RECORDING ENGINEER
WIT .         JIM                  : Witness      - WITNESSED BY
MUD .         GEL                  : Mud_type     - MUD TYPE
MATR.         LIMESTONE            : Logunit      - NEUTRON MATRIX
TMAX.C        13                   : BHT          - MAXIMUM RECORDED TEMPERATURE
BHTD.M        360                  : BHTDEP       - MAXIMUM RECORDED TEMPERATURE
MATR.         1                    : LOGUNIT      - NEUTRON MATRIX
RMT .C        25                   : MDTP         - TEMPERATURE OF MUD
NEUT.         1                    : NEUTRON      - NEUTRON TYPE
RESI.         0                    : RESIST       - RESISTIVITY TYPE
RMC .OHMM     0.25                 : RMC          - RESISTIVITY OF MUD CAKE
RMF .OHMM     0.25                 : RMF          - RESISTIVITY OF MUD FILTRATE
SUFT.C        15                   : SUFT         - SURFACE TEMPERATURE
~A  DEPTH     RESD     PHID     PHIN       GR
# ...
  207.000    9.887    0.270    0.419   89.276
  207.250    8.190    0.268    0.430   95.468
  207.500    7.178    0.268    0.435   88.026
  207.750    6.411    0.267    0.445   86.160
  208.000    6.174    0.267    0.457   86.773
  208.250    5.835    0.267    0.467   86.770
  208.500    5.619    0.273    0.450   86.763
  208.750    5.514    0.277    0.459   88.617
  209.000    5.410    0.282    0.451   90.472
  209.250    5.309    0.285    0.445   93.565
  209.500    5.210    0.282    0.449   89.842
  209.750    5.112    0.273    0.454   86.119
  210.000    5.017    0.265    0.456   88.593
  210.250    5.016    0.257    0.462   88.587
  210.500    5.016    0.292    0.459   87.342
  210.750    5.015    0.308    0.466   86.718
  211.000    5.015    0.332    0.467   87.331
  211.250    5.015    0.353    0.457   91.665
  211.500    5.207    0.362    0.440   87.321
  211.750    5.406    0.364    0.437   81.116
  212.000    5.829    0.369    0.446   78.014
  212.250    5.939    0.300    0.427   78.007
  212.500    6.166    0.279    0.435   80.482
  212.750    6.166    0.269    0.434   85.434
  213.000    5.938    0.281    0.461   89.147
  213.250    5.611    0.270    0.450   90.384
  213.500    5.107    0.256    0.449   89.758
  213.750    4.918    0.244    0.442   92.233
  214.000    4.648    0.249    0.435   90.368
  214.250    4.561    0.250    0.434   90.982
  214.500    4.475    0.254    0.443   90.356
  214.750    4.392    0.259    0.451   94.690
  215.000    4.391    0.263    0.443   90.346
  215.250    4.391    0.269    0.443   87.242
  215.500    4.391    0.284    0.444   87.856
  215.750    4.390    0.310    0.459   90.329
  216.000    4.390    0.349    0.453   94.044
  216.250    4.645    0.370    0.417   94.659
  216.500    4.823    0.343    0.397   92.174
  216.750    5.199    0.305    0.376   89.690
  217.000    5.399    0.344    0.375   82.247
  217.250    5.931    0.375    0.387   78.522
  217.500    6.275    0.333    0.408   80.997
  217.750    6.515    0.333    0.403   79.751
  218.000    6.515    0.353    0.408   84.085
  218.250    6.638    0.375    0.408   80.980
  218.500    6.892    0.383    0.390   82.835
  218.750    7.292    0.370    0.415   79.730
  219.000    7.715    0.329    0.426   77.865
  219.250    7.861    0.334    0.406   76.001
  219.500    7.861    0.326    0.425   79.714
  219.750    7.714    0.321    0.458   80.948
  220.000    7.428    0.292    0.458   75.985
  220.250    7.153    0.312    0.455   85.896
  220.500    6.038    0.317    0.468   84.032
  220.750    5.393    0.336    0.475   79.068
  221.000    4.817    0.374    0.465   86.500
  221.250    4.552    0.386    0.457   85.256
  221.500    4.467    0.309    0.448   89.588
  221.750    4.551    0.293    0.431   82.766
  222.000    4.815    0.281    0.415   78.421
  222.250    5.391    0.273    0.405   72.837
  222.500    6.035    0.281    0.385   66.015
  222.750    7.284    0.277    0.378   66.009
  223.000    8.467    0.275    0.359   63.525
  223.250    9.479    0.277    0.363   63.519
  223.500   11.228    0.279    0.353   65.374
  223.750   11.880    0.274    0.349   65.369
  224.000   12.104    0.269    0.349   66.601
  224.250   11.656    0.257    0.347   65.978
  224.500   11.655    0.249    0.353   59.775
  224.750   11.655    0.242    0.370   61.008
  225.000   11.653    0.252    0.379   65.340
  225.250   11.653    0.277    0.390   65.337
  225.500   11.652    0.278    0.390   68.429
  225.750   11.651    0.271    0.375   66.566
  226.000   11.650    0.269    0.377   64.081
  226.250   11.650    0.273    0.384   57.878
  226.500   11.649    0.277    0.362   62.211
  226.750   11.648    0.277    0.359   65.305
  227.000   11.430    0.273    0.359   64.680
  227.250   11.430    0.269    0.363   68.394
  227.500   11.216    0.267    0.371   68.388
  227.750   11.005    0.263    0.388   64.044
  228.000   11.005    0.246    0.394   68.997
  228.250   10.799    0.230    0.384   72.711
  228.500   10.399    0.223    0.371   76.425
  228.750   10.205    0.218    0.368   81.379
  229.000   10.014    0.211    0.397   81.373
  229.250    9.826    0.211    0.404   78.888
  229.500    9.642    0.215    0.394   80.122
  229.750    9.462    0.216    0.395   84.456
  230.000    9.285    0.216    0.398   88.790
  230.250    9.284    0.214    0.386   85.686
  230.500    9.284    0.211    0.377   90.639
  230.750    9.283    0.210    0.372   80.096
  231.000    9.282    0.213    0.386   80.711
  231.250    9.109    0.215    0.398   85.664
  231.500    9.108    0.219    0.400   86.897
  231.750    9.280    0.219    0.397   89.991
  232.000    9.280    0.219    0.389   87.508
  232.250    9.279    0.213    0.386   80.684
  232.500    9.278    0.197    0.379   75.721
  232.750    9.105    0.189    0.383   81.294
  233.000    9.104    0.189    0.387   88.106
  233.250    8.934    0.188    0.389   94.300
  233.500    8.603    0.189    0.401   91.195
  233.750    8.285    0.202    0.391   93.050
  234.000    7.830    0.233    0.391   91.184
  234.250    7.399    0.250    0.409   93.657
  234.500    6.734    0.270    0.430   97.371
  234.750    5.474    0.328    0.438   89.929
  235.000    4.367    0.382    0.477   87.444
  235.250    3.828    0.338    0.496   96.737
  235.500    3.550    0.325    0.488  101.690
  235.750    3.231    0.320    0.478   96.726
  236.000    3.111    0.324    0.487   90.523
  236.250    2.996    0.329    0.475   87.417
  236.500    3.170    0.320    0.455   88.652
  236.750    3.483    0.307    0.409   92.366
  237.000    3.685    0.280    0.407   86.782
  237.250    4.365    0.261    0.392   84.918
  237.500    5.788    0.243    0.375   82.433
  237.750    6.480    0.234    0.353   84.287
  238.000    7.675    0.239    0.328   85.522
  238.250    8.922    0.248    0.311   79.318
  238.500    9.802    0.258    0.286   79.931
  238.750   11.610    0.285    0.253   79.927
  239.000   13.244    0.295    0.238   80.542
  239.250   15.395    0.284    0.239   82.396
  239.500   17.235    0.265    0.258   78.051
  239.750   18.934    0.256    0.258   74.328
  240.000   17.232    0.253    0.237   80.519
  240.250   18.578    0.264    0.229   80.515
  240.500   22.006    0.281    0.221   79.890
  240.750   25.581    0.287    0.228   78.645
  241.000   29.736    0.287    0.235   73.061
  241.250   32.058    0.289    0.229   73.056
  241.500   33.286    0.290    0.223   69.952
  241.750   33.916    0.280    0.217   68.707
  242.000   35.215    0.239    0.206   65.603
  242.250   37.966    0.173    0.201   67.457
  242.500   40.169    0.181    0.164   64.972
  242.750   41.707    0.321    0.153   68.065
  243.000   42.496    0.355    0.134   66.821
  243.250   43.300    0.359    0.148   64.335
  243.500   43.298    0.355    0.159   64.331
  243.750   44.118    0.354    0.168   61.847
  244.000   43.292    0.355    0.170   56.882
  244.250   41.689    0.357    0.169   57.497
  244.500   40.147    0.360    0.170   59.971
  244.750   37.940    0.366    0.170   58.727
  245.000   35.855    0.364    0.183   61.819
  245.250   32.023    0.363    0.197   63.055
  245.500   29.699    0.365    0.204   61.190
  245.750   28.600    0.367    0.207   63.043
  246.000   27.028    0.368    0.199   63.659
  246.250   26.522    0.364    0.186   63.654
  246.500   27.024    0.359    0.180   62.408
  246.750   28.059    0.351    0.176   57.445
  247.000   29.133    0.344    0.170   58.058
  247.250   30.248    0.315    0.162   58.672
  247.500   30.247    0.259    0.153   60.527
  247.750   30.819    0.101    0.132   54.324
  248.000   31.999    0.022    0.110   40.683
  248.250   31.997    0.000    0.104   39.438
  248.500   32.602    0.016    0.104   41.293
  248.750   32.600    0.053    0.109   43.765
  249.000   31.990    0.109    0.128   49.958
  249.250   30.232    0.221    0.168   53.673
  249.500   28.037    0.327    0.184   62.344
  249.750   26.496    0.345    0.174   66.678
  250.000   25.515    0.358    0.170   61.095
  250.250   25.038    0.363    0.182   63.569
