~VERSION INFORMATION
 VERS.                 2.0:   CWLS LOG ASCII STANDARD -VERSION 2.0
 WRAP.                  NO:   ONE LINE PER DEPTH STEP
~WELL INFORMATION BLOCK
#MNEM.UNIT           DATA                    DESCRIPTION OF MNEMONIC
#---------    -------------------            -------------------------------
# Generated from Intellog Unique Number	CN_94_101/WELL/3191
WELL.         03-23-097-12W4                 : Well_name    - WELL
LOC .         AA/03-23-097-12W4/0            : Location     - LOCATION
UWI .         AA/03-23-097-12W400            : Uwi          - UNIQUE WELL ID
ENTR.         JOETTE                         : Entered      - ENTERED BY
SRVC.         SCHLUMBERGER                   : Scn          - SERVICE COMPANY
DATE.         08/17/92                       : Date         - LOG DATE
STRT.M        0                              : top_depth    - START DEPTH
STOP.M        130                            : bot_depth    - STOP DEPTH
STEP.M        0.25                           : increment    - STEP LENGTH
 NULL. -999.2500:NULL Value
~CURVE INFORMATION BLOCK
#MNEM UNIT       ERCB CURVE CODE    CURVE DESCRIPTION
#-----------   ------------------   ----------------------------------
DEPT.M        00 001 00 00         : DEPTH        - DEPTH
DPHI.V/V      00 890 00 00         : PHID         - DENSITY POROSITY (SANDSTONE)
NPHI.V/V      00 330 00 00         : PHIN         - NEUTRON POROSITY (SANDSTONE)
GR  .API      00 310 00 00         : GR           - GAMMA RAY
ILD .OHMM     00 120 00 00         : RESD         - DEEP RESISTIVITY (DIL)
~PARAMETER INFORMATION
#MNEM.UNIT           DATA             DESCRIPTION OF MNEMONIC
#---------         -----------     ------------------------------
GL  .M        338.9                : gl           - GROUND LEVEL ELEVATION
EREF.M        338.9                : kb           - ELEVATION OF DEPTH REFERENCE
DATM.M        338.9                : datum        - DATUM ELEVATION
TDD .M        131                  : tdd          - TOTAL DEPTH DRILLER
RUN .         ONE                  : Run          - RUN NUMBER
ENG .         JO                   : Engineer     - RECORDING ENGINEER
WIT .         TIM                  : Witness      - WITNESSED BY
MUD .         GEL                  : Mud_type     - MUD TYPE
MATR.         SANDSTONE            : Logunit      - NEUTRON MATRIX
TMAX.C        18                   : BHT          - MAXIMUM RECORDED TEMPERATURE
BHTD.M        131                  : BHTDEP       - MAXIMUM RECORDED TEMPERATURE
RMT .C        18                   : MDTP         - TEMPERATURE OF MUD
MUDD.KG/M     800                  : MWT          - MUD DENSITY
NEUT.         1                    : NEUTRON      - NEUTRON TYPE
RESI.         0                    : RESIST       - RESISTIVITY TYPE
RM  .OHMM     12.5                 : RM           - RESISTIVITY OF MUD
RMC .OHMM     12.5                 : RMC          - RESISTIVITY OF MUD CAKE
RMF .OHMM     12.5                 : RMF          - RESISTIVITY OF MUD FILTRATE
SUFT.C        4                    : SUFT         - SURFACE TEMPERATURE
~A  DEPTH     PHID     PHIN       GR     RESD
    0.000    0.020    0.539   53.653    8.539
    0.250    0.019    0.537   53.148    8.323
    0.500    0.019    0.537   53.285    8.219
    0.750    0.017    0.536   52.780    8.016
    1.000    0.008    0.529   52.275    7.805
    1.250    0.001    0.508   53.028    7.817
    1.500   -0.013    0.514   51.908    7.724
    1.750   -0.020    0.539   56.914    7.740
    2.000   -0.028    0.555   57.639    8.098
    2.250   -0.032    0.549   55.903    8.579
    2.500   -0.035    0.540   56.014    9.222
    2.750   -0.038    0.543   51.816    9.785
    3.000   -0.043    0.563   51.311    9.795
    3.250   -0.051    0.520   55.729    9.825
    3.500   -0.058    0.536   59.532    9.835
    3.750   -0.059    0.527   57.180    9.587
    4.000   -0.060    0.526   52.983    9.345
    4.250   -0.062    0.572   53.708    9.224
    4.500   -0.062    0.596   53.819    8.991
    4.750   -0.062    0.522   48.418    8.764
    5.000   -0.061    0.547   49.116    8.650
    5.250   -0.060    0.550   54.177    8.551
    5.500   -0.058    0.598   49.979    8.564
    5.750   -0.054    0.611   51.320    8.466
    6.000   -0.047    0.585   52.634    8.488
    6.250   -0.019    0.538   50.898    8.378
    6.500   -0.006    0.568   59.652    8.399
    6.750   -0.005    0.597   57.943    8.412
    7.000   -0.037    0.589   54.361    8.433
    7.250   -0.048    0.574   54.471    8.446
    7.500   -0.054    0.596   53.323    8.472
    7.750   -0.056    0.552   52.818    8.480
    8.000   -0.059    0.577   52.313    8.379
    8.250   -0.060    0.554   54.885    8.400
    8.500   -0.060    0.551   59.303    8.541
    8.750   -0.059    0.557   54.517    8.549
    9.000   -0.057    0.563   49.061    8.697
    9.250   -0.054    0.537   47.968    8.710
    9.500   -0.051    0.514   49.309    8.728
    9.750   -0.048    0.553   49.419    8.741
   10.000   -0.038    0.544   49.530    8.641
   10.250   -0.031    0.542   50.228    8.533
   10.500   -0.025    0.509   50.954    8.318
   10.750   -0.031    0.483   50.448    8.100
   11.000   -0.039    0.474   43.201    7.781
   11.250   -0.045    0.496   44.542    7.479
   11.500   -0.051    0.405   40.932    7.282
   11.750   -0.057    0.373   36.092    6.905
   12.000   -0.056    0.401   43.615    6.724
   12.250   -0.051    0.428   59.138    6.640
   12.500   -0.021    0.482   66.661    6.296
   12.750    0.172    0.540   64.925    6.131
   13.000    0.263    0.508   65.651    5.887
   13.250    0.285    0.466   65.761    5.658
   13.500    0.289    0.453   67.718    5.513
   13.750    0.265    0.426   77.087    5.444
   14.000    0.261    0.453   90.764    5.382
   14.250    0.266    0.467   96.441    5.546
   14.500    0.289    0.468   91.600   11.712
   14.750    0.306    0.453   86.199   12.769
   15.000    0.328    0.442   89.414   13.166
   15.250    0.330    0.449   93.189   13.186
   15.500    0.276    0.461  102.531   13.213
   15.750    0.268    0.448  103.257   12.873
   16.000    0.280    0.431   96.570   12.719
   16.250    0.322    0.441   93.630   12.573
   16.500    0.306    0.451  102.357   12.417
   16.750    0.302    0.462   93.208   12.448
   17.000    0.324    0.435   90.856   12.467
   17.250    0.334    0.427   93.428   12.493
   17.500    0.351    0.458   97.259   12.524
   17.750    0.342    0.465  102.936   12.543
   18.000    0.344    0.421   99.941   12.760
   18.250    0.280    0.417   92.666   12.960
   18.500    0.297    0.428   92.161   13.745
   18.750    0.321    0.442   95.376   14.562
   19.000    0.347    0.457   88.073   15.875
   19.250    0.356    0.432   82.645   16.369
   19.500    0.362    0.427   83.343   15.940
   19.750    0.331    0.425   77.915   15.537
   20.000    0.284    0.428   78.025   15.352
   20.250    0.272    0.403   82.443   15.176
   20.500    0.261    0.388   85.043   15.199
   20.750    0.263    0.416   87.027   15.017
   21.000    0.271    0.445   87.725   15.048
   21.250    0.281    0.467   84.758   15.950
   21.500    0.304    0.475   79.302   18.138
   21.750    0.282    0.443   80.027   23.104
   22.000    0.277    0.394   81.396   26.260
   22.250    0.277    0.350   78.402   29.034
   22.500    0.273    0.319   69.896   32.134
   22.750    0.177    0.250   67.544   29.983
   23.000    0.102    0.279   77.502   12.037
   23.250    0.152    0.353   86.255   10.628
   23.500    0.238    0.526   92.547    9.522
   23.750    0.321    0.561   95.735    8.765
   24.000    0.385    0.561   99.538    8.303
   24.250    0.369    0.534  102.110    8.320
   24.500    0.339    0.525  100.374    8.819
   24.750    0.340    0.527   92.483    8.713
   25.000    0.343    0.526   91.978    8.489
   25.250    0.334    0.494   93.319    8.506
   25.500    0.289    0.417   98.353    8.900
   25.750    0.278    0.382  104.057    9.293
   26.000    0.266    0.370   98.574    9.995
   26.250    0.273    0.425   95.634    9.467
   26.500    0.297    0.468   97.618    8.473
   26.750    0.319    0.496  100.806    7.377
   27.000    0.337    0.546  105.839    6.791
   27.250    0.353    0.574  104.076    6.167
   27.500    0.374    0.605   98.647    5.760
   27.750    0.407    0.613   93.862    5.533
   28.000    0.449    0.613   93.301    5.473
   28.250    0.457    0.594   97.747    5.405
   28.500    0.435    0.593  104.012    5.418
   28.750    0.389    0.592  104.793    5.504
   29.000    0.367    0.582  103.001    5.752
   29.250    0.363    0.570   98.216    6.357
   29.500    0.356    0.569   98.326    7.759
   29.750    0.318    0.508   92.254    8.823
   30.000    0.313    0.491   92.980    8.971
   30.250    0.336    0.540  101.706    8.375
   30.500    0.334    0.526   99.355    7.093
   30.750    0.280    0.471  102.598    7.306
   31.000    0.232    0.427  101.477    8.308
   31.250    0.223    0.414   99.070    9.062
   31.500    0.226    0.414   97.334    9.209
   31.750    0.233    0.425  100.577    9.233
   32.000    0.232    0.431   98.841    9.382
   32.250    0.230    0.429   95.846    9.401
   32.500    0.241    0.427   91.621    9.549
   32.750    0.245    0.434   92.347    9.568
   33.000    0.266    0.427  106.667    8.937
   33.250    0.270    0.422  103.057    9.087
   33.500    0.292    0.433   97.629    9.627
   33.750    0.264    0.446  100.201   11.265
   34.000    0.242    0.455   98.465   10.671
   34.250    0.239    0.450   89.959    9.550
   34.500    0.257    0.453   88.811    8.673
   34.750    0.271    0.476   94.487    7.992
   35.000    0.280    0.478   94.598    7.566
   35.250    0.290    0.479   95.939    7.171
   35.500    0.303    0.485  103.462    7.189
   35.750    0.315    0.491  104.187    7.402
   36.000    0.341    0.492  103.682    7.846
   36.250    0.366    0.481   97.611    7.870
   36.500    0.395    0.505  100.826    7.343
   36.750    0.373    0.517  104.013    6.858
   37.000    0.350    0.510  104.739    7.168
   37.250    0.377    0.508  108.542    6.699
   37.500    0.417    0.537  104.344    6.257
   37.750    0.421    0.542  106.916    6.358
   38.000    0.348    0.509  100.872    6.932
   38.250    0.300    0.455  101.597    6.570
   38.500    0.247    0.424   97.400    6.394
   38.750    0.227    0.434   95.664    7.173
   39.000    0.251    0.469   92.669    7.927
   39.250    0.288    0.503   97.115    7.832
   39.500    0.312    0.518  105.869    6.356
   39.750    0.402    0.486  101.056    5.615
   40.000    0.379    0.478  103.628    5.468
   40.250    0.335    0.504  105.612    6.134
   40.500    0.316    0.519  102.002    6.502
   40.750    0.295    0.522   97.161    6.607
   41.000    0.272    0.506   94.810    6.347
   41.250    0.289    0.521   95.563    6.187
   41.500    0.342    0.551   92.596    6.107
   41.750    0.316    0.563   96.371    6.126
   42.000    0.307    0.558   96.482    6.132
   42.250    0.296    0.532  102.774    6.151
   42.500    0.260    0.502  104.115    6.244
   42.750    0.246    0.478  103.637    6.263
   43.000    0.234    0.468  116.699    6.273
   43.250    0.272    0.446  121.705    6.288
