~Version : LASO    vs 4.00
VERS.                2.00:   CWLS Log ASCII Standard -VERSION 2.0
WRAP.                  NO:
~Well Information Block
#MNEM.UNIT       Data                        Description of Mnemonic
#----.----      -------------------------- : -----------------------------
STRT.M            30.0000:
STOP.M           204.0000:
STEP.M             0.2000:
NULL.           -999.2500:
COMP.  MOBIL OIL OF CANADA                    :COMPANY
WELL.  MOBIL CLARKE OV PROGRAM 2-81 4-3       :WELL
FLD.                                          :FIELD
LOC.   04-03-090-07W4                         :LOCATION
CTRY.  CANADA                                 :COUNTRY
PROV.  ALBERTA                                :PROVINCE
SRVC.  SCHLUMBERGER                           :SERVICE COMPANY
DATE.  26-JAN-81                              :LOG DATE
UWI.   AA/04-03-090-07W400                    :UNIQUE WELL ID
~Parameter Information Block
#MNEM.UNIT       Data                        Description of Mnemonic
#----.----      -------------------------- : -----------------------------
RUN .                   1                 : Run Number
GL  .M           466.8000                 : Ground Level Elevation
DREF.                  GD                 : Depth Reference
EREF.M           466.8000                 : Elevation of Depth Reference
TDL .M           205.0000                 : Total Depth Logger
TDD .M           205.0000                 : Total Depth Driller
BHT .DEGC         19.0000                 : Bottom Hole Temperature
BS  .MM          159.0000                 : Bit Size
DFD .            980.0000                 : Mud Weight (Density)
DFV .             38.0000                 : Mud Viscosity
DFPH.             10.0000                 : Mud pH
~Curve Information Block
#MNEM.UNIT        API CODE    Curve Description
#---------    ------------    -------------------------------------------
DEPT.M                    :   DEPTH
CALI.MM       42 280  1  1:   3 DENSITY CALIPER
DPHI.V/V                  :   DPHI
DT  .US/M     60 520  0  1:   2 SONIC INTERVAL TRANSIT TIME (COMPENSATED)
GR  .GAPI     42 310  1  1:   4 GAMMA RAY
ILD .OHMM      5 120 46  1:   7 DEEP INDUCTION
ILM .OHMM      5 120 44  1:   8 MEDIUM INDUCTION
NPHI.V/V      42 890  3  1:   5 NEUTRON POROSITY (SANDSTONE)
RHOB.K/M3     42 350  1  1:   6 BULK DENSITY
SFLU.OHMM      5 220  1  1:   9 FOCUSSED RESISTIVITY
SP  .MV        5  10  1  1:   10 SPONTANEOUS POTENTIAL
~A  Depth           CALI        DPHI          DT          GR         ILD         ILM        NPHI        RHOB        SFLU          SP
# ...
42.2000         181.1250      0.1932    399.4800     51.4800     65.4380     39.0688      0.2328   2324.3000     66.6546    -27.2400
42.4000         179.8750      0.1847    436.0800     51.6750     66.6546     39.7951      0.2352   2351.3000     70.4417    -27.7500
42.6000         176.0500      0.1770    498.5600     51.4800     68.5220     40.1634      0.2428   2361.3000     74.4440    -27.7500
42.8000         177.3250      0.1773    457.8400     52.2750     69.1560     41.2886      0.2382   2384.3999     77.2378    -27.7500
43.0000         177.3250      0.1832    438.5600     52.1700     68.5220     40.9100      0.2318   2370.3999     79.4017    -26.9850
43.2000         178.6000      0.1900    446.5600     51.0750     66.6546     40.5350      0.2192   2356.3000     75.1329    -26.4750
43.4000         181.1250      0.2086    414.7200     51.1800     63.0710     38.3557      0.2162   2350.3000     68.5220    -26.2200
43.6000         182.4000      0.2282    414.7200     51.8700     59.6802     37.6556      0.2164   2334.3000     65.4380    -26.4750
43.8000         184.9500      0.2355    367.0400     52.8750     56.4716     36.9683      0.2152   2273.2000     60.7897    -27.2400
44.0000         179.8750      0.2318    387.5600     57.0750     51.0305     34.0275      0.2232   2192.1001     54.9326    -28.2600
44.2000         182.4000      0.2246    420.4400     57.7800     49.6398     32.7967      0.2386   2276.2000     46.9710    -28.5150
44.4000         183.6750      0.2229    416.1600     57.4800     48.7338     31.9029      0.2742   2290.2000     41.6706    -29.0250
44.6000         183.6750      0.2275    428.4800     55.4700     48.2870     31.9029      0.2804   2297.3000     38.7106    -29.7900
44.8000         190.0250      0.2316    459.9200     53.4750     47.8443     33.7155      0.2838   2282.2000     40.5350    -31.8300
45.0000         190.0250      0.2406    434.4400     51.8700     47.4056     34.3423      0.2894   2261.2000     45.6909    -33.3600
45.2000         186.2250      0.2350    435.6800     50.8800     46.5404     33.7155      0.2920   2252.2000     54.4289    -34.6350
45.4000         202.7250      0.2268    444.7200     53.2800     44.4457     31.0334      0.2958   2269.2000     51.5027    -34.3800
45.6000         191.3000      0.2160    457.4400     56.6700     43.6345     29.9109      0.2902   2268.2000     42.0562    -33.3600
45.8000         191.3000      0.2080    487.0400     60.2700     42.0562     29.3650      0.2742   2293.2000     37.6556    -32.3400
46.0000         190.0250      0.2069    490.3200     63.7800     38.7106     28.0434      0.2726   2322.3000     35.9608    -32.5950
46.2000         188.7500      0.2046    478.4000     62.0700     37.6556     28.0434      0.2738   2320.3000     35.9608    -32.5950
46.4000         190.0250      0.2008    440.8000     61.1700     36.9683     27.7863      0.2784   2310.3000     36.2936    -32.8500
46.6000         190.0250      0.1995    430.7200     58.4700     36.2936     27.5315      0.2812   2328.3000     39.7951    -34.1250
46.8000         190.0250      0.2051    426.8400     58.8750     36.2936     27.0290      0.2776   2332.3000     41.2886    -33.8700
47.0000         188.7500      0.2114    428.2800     61.1700     35.9608     26.7812      0.2580   2324.3000     38.3557    -34.1250
47.2000         191.3000      0.2189    438.1200     65.8800     34.6601     26.2924      0.2654   2297.3000     34.3423    -34.3800
47.4000         195.1000      0.2234    465.6800     66.6750     34.3423     25.8125      0.2708   2296.2000     34.6601    -33.8700
47.6000         200.1750      0.2273    452.5200     66.4800     32.7967     25.1090      0.2902   2302.3000     33.1001    -34.6350
47.8000         195.1000      0.2277    456.2000     64.3800     32.7967     25.1090      0.2976   2290.2000     31.9029    -34.6350
48.0000         192.5750      0.2242    446.3600     64.1700     32.7967     25.1090      0.2980   2273.2000     32.1981    -34.8900
48.2000         195.1000      0.2181    443.8800     64.0800     32.7967     25.3414      0.2976   2287.2000     32.4960    -35.6550
48.4000         192.5750      0.2142    464.0400     64.0800     33.1001     25.3414      0.3092   2292.2000     33.1001    -35.6550
48.6000         190.0250      0.2142    461.1600     64.5750     34.3423     26.0513      0.3120   2310.3000     34.0275    -36.6750
48.8000         190.0250      0.2103    458.6800     64.7700     34.3423     26.2924      0.3112   2298.3000     34.9808    -36.4200
49.0000         190.0250      0.2075    463.2000     64.8750     34.6601     26.2924      0.3072   2304.3000     36.2936    -36.4200
49.2000         191.3000      0.2111    471.8400     65.6700     34.6601     26.5357      0.3000   2315.3000     36.9683    -37.4400
49.4000         192.5750      0.2127    461.3600     68.0700     34.3423     26.2924      0.2892   2306.3000     36.2936    -37.1850
49.6000         193.8250      0.2129    469.3600     69.3750     34.3423     25.8125      0.2844   2307.3000     35.6312    -36.6750
49.8000         197.6500      0.2152    453.7600     68.1750     33.1001     25.3414      0.2848   2294.2000     33.4064    -36.1650
50.0000         197.6500      0.2202    444.7200     67.3800     32.4960     25.1090      0.2816   2293.2000     32.7967    -36.6750
50.2000         196.3750      0.2288    439.1600     67.5750     31.9029     24.6507      0.2800   2289.2000     32.4960    -36.9300
50.4000         197.6500      0.2289    440.0000     68.5800     30.7489     24.2008      0.2832   2280.2000     31.0334    -36.9300
50.6000         197.6500      0.2280    445.9600     69.0750     30.4670     23.7591      0.2896   2288.2000     30.1877    -37.1850
50.8000         201.4500      0.2298    461.9600     67.8750     30.1877     23.7591      0.3040   2277.2000     29.6367    -37.1850
51.0000         201.4500      0.2323    480.2400     68.2800     30.1877     23.7591      0.3084   2270.2000     29.9109    -36.9300
51.2000         181.1250      0.2348    466.9200     70.5750     29.9109     23.7591      0.3144   2264.2000     30.4670    -36.6750
51.4000         181.1250      0.2449    460.5200     69.8850     29.6367     23.7591      0.3142   2258.2000     30.7489    -37.1850
51.6000         181.1250      0.2462    480.6800     69.2850     29.6367     23.7591      0.3232   2237.2000     30.4670    -37.1850
51.8000         182.4000      0.2413    469.7600     67.3800     29.6367     23.7591      0.3352   2268.2000     30.1877    -37.6950
52.0000         190.0250      0.2347    465.8800     67.9800     29.6367     23.5413      0.3352   2276.2000     30.1877    -38.2050
52.2000         195.1000      0.2292    475.3200     68.0700     29.6367     23.5413      0.3294   2272.2000     30.4670    -38.2050
52.4000         200.1750      0.2300    465.2400     66.6750     29.9109     23.5413      0.3304   2276.2000     30.1877    -38.2050
52.6000         204.0000      0.2271    463.0000     66.9750     29.9109     23.7591      0.3316   2286.2000     29.6367    -38.2050
52.8000         191.3000      0.2297    461.5600     66.9750     29.9109     23.7591      0.3248   2278.2000     30.1877    -38.2050
53.0000         182.4000      0.2401    460.7200     68.4750     29.9109     23.7591      0.3224   2259.2000     31.3206    -38.2050
53.2000         187.5000      0.2366    461.5600     68.0700     29.9109     23.7591      0.3204   2256.2000     31.3206    -37.9500
53.4000         191.3000      0.2329    470.0000     68.0700     29.6367     23.7591      0.3200   2265.2000     31.0334    -37.9500
53.6000         191.3000      0.2375    469.1600     66.3750     29.6367     23.5413      0.3200   2275.2000     30.4670    -38.4600
53.8000         191.3000      0.2433    468.7600     65.0700     29.6367     23.5413      0.3216   2262.2000     29.9109    -38.2050
54.0000         192.5750      0.2456    470.6000     64.6800     29.3650     23.5413      0.3188   2256.2000     29.6367    -38.2050
54.2000         192.5750      0.2441    471.8400     65.3700     29.3650     23.3254      0.3188   2246.2000     29.6367    -38.2050
