~VERSION INFORMATION
 VERS.                 2.0:   CWLS LOG ASCII STANDARD -VERSION 2.0
 WRAP.                  NO:   ONE LINE PER DEPTH STEP
~WELL INFORMATION BLOCK
#MNEM.UNIT           DATA                    DESCRIPTION OF MNEMONIC
#---------    -------------------            -------------------------------
# Generated from Intellog Unique Number	CN_94_101/WELL/2377
WELL.         02-06-099-12W4                 : Well_name    - WELL
LOC .         AA/02-06-099-12W4/0            : Location     - LOCATION
UWI .         AA/02-06-099-12W400            : Uwi          - UNIQUE WELL ID
ENTR.         TOP                            : Entered      - ENTERED BY
SRVC.         SCHLUMBERGER                   : Scn          - SERVICE COMPANY
DATE.         08/11/92                       : Date         - LOG DATE
STRT.M        360                            : top_depth    - START DEPTH
STOP.M        585                            : bot_depth    - STOP DEPTH
STEP.M        0.25                           : increment    - STEP LENGTH
 NULL. -999.2500:NULL Value
~CURVE INFORMATION BLOCK
#MNEM UNIT       ERCB CURVE CODE    CURVE DESCRIPTION
#-----------   ------------------   ----------------------------------
DEPT.M        00 001 00 00         : DEPTH        - DEPTH
DPHI.V/V      00 890 00 00         : PHID         - DENSITY POROSITY (SANDSTONE)
NPHI.V/V      00 330 00 00         : PHIN         - NEUTRON POROSITY (SANDSTONE)
ILD .OHMM     00 120 00 00         : RESD         - DEEP RESISTIVITY (DIL)
GR  .API      00 310 00 00         : GR           - GAMMA RAY
~PARAMETER INFORMATION
#MNEM.UNIT           DATA             DESCRIPTION OF MNEMONIC
#---------         -----------     ------------------------------
GL  .M        823.03               : gl           - GROUND LEVEL ELEVATION
EREF.M        826.26               : kb           - ELEVATION OF DEPTH REFERENCE
DATM.M        826.26               : datum        - DATUM ELEVATION
TDD .M        590                  : tdd          - TOTAL DEPTH DRILLER
RUN .         ONE                  : Run          - RUN NUMBER
ENG .         JO                   : Engineer     - RECORDING ENGINEER
WIT .         TIM                  : Witness      - WITNESSED BY
MUD .         GEL                  : Mud_type     - MUD TYPE
MATR.         SANDSTONE            : Logunit      - NEUTRON MATRIX
TMAX.C        25                   : BHT          - MAXIMUM RECORDED TEMPERATURE
BHTD.M        590                  : BHTDEP       - MAXIMUM RECORDED TEMPERATURE
RMT .C        25                   : MDTP         - TEMPERATURE OF MUD
MUDD.KG/M     1050                 : MWT          - MUD DENSITY
NEUT.         1                    : NEUTRON      - NEUTRON TYPE
RESI.         0                    : RESIST       - RESISTIVITY TYPE
RM  .OHMM     9                    : RM           - RESISTIVITY OF MUD
RMC .OHMM     9                    : RMC          - RESISTIVITY OF MUD CAKE
RMF .OHMM     9                    : RMF          - RESISTIVITY OF MUD FILTRATE
SUFT.C        4                    : SUFT         - SURFACE TEMPERATURE
~A  DEPTH     PHID     PHIN     RESD       GR
# ...
  490.500    0.317    0.501    6.317   94.117
  490.750    0.292    0.483    6.570   95.383
  491.000    0.283    0.452    6.703   96.641
  491.250    0.289    0.431    6.840   97.898
  491.500    0.273    0.415    6.850   97.934
  491.750    0.231    0.420    6.854   98.581
  492.000    0.234    0.428    6.994   99.218
  492.250    0.248    0.439    7.136   98.653
  492.500    0.257    0.450    7.421   98.079
  492.750    0.252    0.453    7.865   96.894
  493.000    0.247    0.451    8.827   95.098
  493.250    0.241    0.448    9.177   92.701
  493.500    0.221    0.423    9.726   92.719
  493.750    0.184    0.378    9.924   93.977
  494.000    0.207    0.363    9.752   96.464
  494.250    0.232    0.389    9.397   97.730
  494.500    0.240    0.395    9.063   98.359
  494.750    0.268    0.402    8.898   99.006
  495.000    0.285    0.409    8.579   99.042
  495.250    0.291    0.414    8.426   99.087
  495.500    0.290    0.420    8.126   99.123
  495.750    0.300    0.430    7.978   99.150
  496.000    0.310    0.454    7.837   97.355
  496.250    0.335    0.479    7.554   94.958
  496.500    0.343    0.507    7.286   93.162
  496.750    0.369    0.517    7.153   95.650
  497.000    0.384    0.494    7.164   97.509
  497.250    0.378    0.491    7.174   99.385
  497.500    0.374    0.456    7.181  100.634
  497.750    0.369    0.445    7.331  100.661
  498.000    0.359    0.419    7.338  100.105
  498.250    0.284    0.413    7.633   98.901
  498.500    0.271    0.408    7.640   97.717
  498.750    0.270    0.401    7.945   96.541
  499.000    0.262    0.407    8.262   96.568
  499.250    0.249    0.412    8.756   95.392
  499.500    0.235    0.415    9.640   94.198
  499.750    0.217    0.375   10.214   91.801
  500.000    0.192    0.345   11.247   89.386
  500.250    0.158    0.317   11.920   86.378
  500.500    0.124    0.298   12.159   83.361
  500.750    0.105    0.280   12.174   80.354
  501.000    0.095    0.260   11.297   77.328
  501.250    0.227    0.293    9.534   76.744
  501.500    0.252    0.347    8.358   81.665
  501.750    0.266    0.408    6.791   87.197
  502.000    0.266    0.432    5.312   93.958
  502.250    0.270    0.457    4.571   98.277
  502.500    0.276    0.494    4.241  100.756
  502.750    0.284    0.509    4.246  102.013
  503.000    0.300    0.528    4.332  102.651
  503.250    0.314    0.511    4.679  103.297
  503.500    0.316    0.488    4.960  102.723
  503.750    0.317    0.487    4.873  102.149
  504.000    0.324    0.495    4.353  103.415
  504.250    0.346    0.520    4.039  104.053
  504.500    0.359    0.535    3.608  105.310
  504.750    0.382    0.546    3.225  105.957
  505.000    0.466    0.563    2.992  106.002
  505.250    0.483    0.564    2.776  106.029
  505.500    0.494    0.558    2.528  105.455
  505.750    0.497    0.551    2.437  103.668
  506.000    0.500    0.537    2.632  102.483
  506.250    0.501    0.530    2.843  101.289
  506.500    0.496    0.504    3.441  100.715
  506.750    0.496    0.495    4.165  100.751
  507.000    0.498    0.490    4.950  100.787
  507.250    0.498    0.495    5.246  100.832
  507.500    0.497    0.505    5.560  100.859
  507.750    0.501    0.512    5.782  100.294
  508.000    0.492    0.510    6.015   98.508
  508.250    0.486    0.497    6.251   97.915
  508.500    0.469    0.479    6.503   96.739
  508.750    0.444    0.482    6.890   94.333
  509.000    0.434    0.477    7.165   92.537
  509.250    0.418    0.423    7.311   91.353
  509.500    0.440    0.409    7.051   93.211
  509.750    0.458    0.444    6.793   96.920
  510.000    0.456    0.478    6.305   98.168
  510.250    0.432    0.481    5.963   98.815
  510.500    0.402    0.463    5.746   99.471
  510.750    0.374    0.454    5.539  101.339
  511.000    0.362    0.460    5.140  103.817
  511.250    0.353    0.467    4.862  106.906
  511.500    0.290    0.467    4.687  103.279
  511.750    0.242    0.457    4.692  102.705
  512.000    0.148    0.441    4.788  102.750
  512.250    0.239    0.440    4.704  103.396
  512.500    0.257    0.464    4.534  105.264
  512.750    0.257    0.474    4.370  105.902
  513.000    0.252    0.482    4.133  107.159
  513.250    0.251    0.488    3.909  107.196
  513.500    0.248    0.494    3.698  107.232
  513.750    0.247    0.488    3.632  107.277
  514.000    0.244    0.480    3.569  106.693
  514.250    0.239    0.478    3.504  106.119
  514.500    0.233    0.483    3.509  104.934
  514.750    0.230    0.490    3.513  103.749
  515.000    0.225    0.495    3.516  102.564
  515.250    0.270    0.532    3.454  103.220
  515.500    0.283    0.540    3.329  103.858
  515.750    0.277    0.535    3.149  104.522
  516.000    0.268    0.527    3.093  104.550
  516.250    0.259    0.517    3.157  104.586
  516.500    0.251    0.509    3.160  105.233
  516.750    0.243    0.497    3.350  105.260
  517.000    0.262    0.486    3.483  107.756
  517.250    0.265    0.475    3.763  108.385
  517.500    0.250    0.474    3.840  109.642
  517.750    0.237    0.483    3.994  109.687
  518.000    0.234    0.488    4.074  109.724
  518.250    0.227    0.489    4.320  109.149
  518.500    0.220    0.488    4.492  108.575
  518.750    0.245    0.477    4.248  107.399
  519.000    0.254    0.454    3.723  106.196
  519.250    0.289    0.452    3.142  102.578
  519.500    0.321    0.515    2.651  101.384
  519.750    0.343    0.553    2.237   98.987
  520.000    0.370    0.569    1.924   98.403
  520.250    0.396    0.575    1.786   96.617
  520.500    0.362    0.570    1.788   96.033
  520.750    0.351    0.560    1.756   94.848
  521.000    0.348    0.552    1.758   93.663
  521.250    0.333    0.540    1.936   91.868
  521.500    0.306    0.520    2.344   90.072
  521.750    0.266    0.493    2.732   85.834
  522.000    0.249    0.465    3.183   77.322
  522.250    0.236    0.445    3.640   71.253
  522.500    0.262    0.432    4.242   68.236
  522.750    0.284    0.441    5.235   69.511
  523.000    0.295    0.427    5.875   68.919
  523.250    0.303    0.400    5.556   66.513
  523.500    0.283    0.400    4.962   68.991
  523.750    0.280    0.488    4.031   76.354
  524.000    0.284    0.504    3.275   84.939
  524.250    0.282    0.518    3.039   94.753
  524.500    0.275    0.525    2.821   98.453
  524.750    0.272    0.519    2.772   98.489
  525.000    0.272    0.509    2.776  100.357
  525.250    0.265    0.500    2.777  102.835
  525.500    0.258    0.486    2.889  105.313
  525.750    0.250    0.477    2.892  107.792
  526.000    0.247    0.469    2.951  107.828
  526.250    0.239    0.465    2.955  104.820
  526.500    0.229    0.466    3.074  101.795
  526.750    0.226    0.476    3.135   96.946
  527.000    0.219    0.484    3.325   90.266
  527.250    0.213    0.452    3.456   84.807
  527.500    0.211    0.433    3.733   75.065
  527.750    0.246    0.396    3.882   70.837
  528.000    0.293    0.391    4.038   73.306
  528.250    0.310    0.383    4.445   70.900
  528.500    0.295    0.376    4.986   64.220
  528.750    0.278    0.370    5.922   55.708
  529.000    0.280    0.362    8.506   44.754
  529.250    0.310    0.355   10.493   36.852
  529.500    0.317    0.346   12.463   33.845
  529.750    0.331    0.355   15.086   33.270
  530.000    0.341    0.367   18.611   32.086
  530.250    0.341    0.388   24.313   30.901
  530.500    0.337    0.397   30.569   30.937
  530.750    0.331    0.402   40.686   30.973
  531.000    0.319    0.406   43.947   31.610
  531.250    0.306    0.400   46.578   31.647
  531.500    0.300    0.387   50.312   30.462
  531.750    0.300    0.371   59.773   27.445
  532.000    0.311    0.352   79.557   25.039
  532.250    0.306    0.343  118.662   25.075
  532.500    0.302    0.349  143.636   26.341
  532.750    0.308    0.358  161.201   27.590
  533.000    0.326    0.376  158.358   29.467
  533.250    0.341    0.384  141.479   31.945
  533.500    0.359    0.401  126.361   34.424
  533.750    0.372    0.396  104.638   36.902
