~VERSION INFORMATION
 VERS.                 2.0:   CWLS LOG ASCII STANDARD -VERSION 2.0
 WRAP.                  NO:   ONE LINE PER DEPTH STEP
~WELL INFORMATION BLOCK
#MNEM.UNIT           DATA                    DESCRIPTION OF MNEMONIC
#---------    -------------------            -------------------------------
# Generated from Intellog Unique Number	CN_91_93/WELL/3494
WELL.         07-35-093-12W4                 : Well_name    - WELL
LOC .         AA/07-35-093-12W4/0            : Location     - LOCATION
UWI .         AA/07-35-093-12W400            : Uwi          - UNIQUE WELL ID
ENTR.         JOETTE                         : Entered      - ENTERED BY
SRVC.         SCHLUMBERGER                   : Scn          - SERVICE COMPANY
DATE.         03/12/92                       : Date         - LOG DATE
STRT.M        24                             : top_depth    - START DEPTH
STOP.M        110                            : bot_depth    - STOP DEPTH
STEP.M        0.25                           : increment    - STEP LENGTH
 NULL. -999.2500:NULL Value
~CURVE INFORMATION BLOCK
#MNEM UNIT       ERCB CURVE CODE    CURVE DESCRIPTION
#-----------   ------------------   ----------------------------------
DEPT.M        00 001 00 00         : DEPTH        - DEPTH
GR  .API      00 310 00 00         : GR           - GAMMA RAY
NPHI.V/V      00 330 00 00         : PHIN         - NEUTRON POROSITY (SANDSTONE)
DPHI.V/V      00 890 00 00         : PHID         - DENSITY POROSITY (SANDSTONE)
ILD .OHMM     00 120 00 00         : RESD         - DEEP RESISTIVITY (DIL)
~PARAMETER INFORMATION
#MNEM.UNIT           DATA             DESCRIPTION OF MNEMONIC
#---------         -----------     ------------------------------
GL  .M        337.8                : gl           - GROUND LEVEL ELEVATION
EREF.M        337.8                : kb           - ELEVATION OF DEPTH REFERENCE
DATM.M        337.8                : datum        - DATUM ELEVATION
TDD .M        114.9                : tdd          - TOTAL DEPTH DRILLER
RUN .         ONE                  : Run          - RUN NUMBER
ENG .         BILL                 : Engineer     - RECORDING ENGINEER
WIT .         JIM                  : Witness      - WITNESSED BY
MUD .         GEL                  : Mud_type     - MUD TYPE
MATR.         SANDSTONE            : Logunit      - NEUTRON MATRIX
TMAX.C        6.5                  : BHT          - MAXIMUM RECORDED TEMPERATURE
BHTD.M        114.9                : BHTDEP       - MAXIMUM RECORDED TEMPERATURE
RMT .C        2                    : MDTP         - TEMPERATURE OF MUD
MUDD.KG/M     1.02                 : MWT          - MUD DENSITY
NEUT.         1                    : NEUTRON      - NEUTRON TYPE
RESI.         0                    : RESIST       - RESISTIVITY TYPE
RM  .OHMM     5.68                 : RM           - RESISTIVITY OF MUD
RMC .OHMM     5.68                 : RMC          - RESISTIVITY OF MUD CAKE
RMF .OHMM     5.68                 : RMF          - RESISTIVITY OF MUD FILTRATE
SUFT.C        4                    : SUFT         - SURFACE TEMPERATURE
~A  DEPTH       GR     PHIN     PHID     RESD
   24.000  108.482    0.542    0.209    7.966
   24.250  105.477    0.514    0.222   10.087
   24.500   96.776    0.517    0.220    9.409
   24.750   88.077    0.483    0.222    9.807
   25.000   99.156    0.429    0.203    9.875
   25.250  104.242    0.481    0.216    8.473
   25.500  109.028    0.455    0.207    9.208
   25.750  102.725    0.444    0.147   11.661
   26.000  111.406    0.423    0.048   17.208
   26.250  120.688    0.460    0.273    8.235
   26.500  120.079    0.489    0.251    6.969
   26.750  126.962    0.550    0.264    6.148
   27.000  141.938    0.615    0.251    5.577
   27.250  120.651    0.690    0.243    4.955
   27.500  118.844    0.602    0.244    4.402
   27.750  118.235    0.617    0.250    4.280
   28.000  126.917    0.674    0.240    4.076
   28.250  115.520    0.599    0.241    3.882
   28.500  124.801    0.600    0.246    3.697
   28.750  122.994    0.620    0.271    3.497
   29.000  121.486    0.652    0.282    3.545
   29.250  116.982    0.559    0.239    3.520
   29.500  121.469    0.575    0.219    3.746
   29.750  122.059    0.463    0.217    5.302
   30.000  134.935    0.502    0.233    5.050
   30.250  116.646    0.535    0.217    5.228
   30.500  105.847    0.484    0.216    5.227
   30.750  111.833    0.537    0.202    7.245
   31.000  114.821    0.489    0.119    7.045
   31.250  104.323    0.472    0.094    8.799
   31.500  103.414    0.511    0.211   11.142
   31.750  124.083    0.514    0.202    5.960
   32.000  124.973    0.513    0.193    5.917
   32.250  133.055    0.479    0.195    6.521
   32.500  123.456    0.433    0.190    7.389
   32.750  121.050    0.428    0.187    7.439
   33.000  120.142    0.425    0.155    7.595
   33.250  130.322    0.453    0.164    7.593
   33.500  107.537    0.461    0.187    7.033
   33.750   97.339    0.451    0.171    7.032
   34.000   76.652    0.316    0.069    7.080
   34.250   75.744    0.323   -0.012   17.596
   34.500   92.517    0.404    0.194   30.467
   34.750  120.677    0.486    0.223    5.785
   35.000  134.153    0.510    0.205    5.704
   35.250  128.451    0.514    0.202    5.547
   35.500  126.644    0.511    0.207    5.173
   35.750  140.119    0.508    0.194    5.430
   36.000  128.123    0.531    0.181    6.371
   36.250  135.008    0.499    0.170    6.370
   36.500  144.288    0.517    0.162    5.941
   36.750  117.308    0.479    0.154    5.817
   37.000  121.494    0.506    0.180    6.192
   37.250  122.083    0.540    0.153    5.539
   37.500  119.378    0.556    0.169    5.349
   37.750  133.155    0.564    0.175    5.130
   38.000  124.155    0.520    0.169    5.274
   38.250  139.429    0.470    0.156    5.652
   38.500  127.733    0.442    0.183    5.892
   38.750  134.317    0.462    0.185    5.650
   39.000  142.099    0.515    0.162    5.418
   39.250  145.986    0.473    0.161    5.532
   39.500  117.208    0.477    0.173    5.570
   39.750  109.706    0.471    0.180    5.195
   40.000  110.897    0.527    0.081    6.010
   40.250   93.207    0.460   -0.003   13.742
   40.500   88.403    0.497    0.062    5.192
   40.750  104.276    0.513    0.220    4.042
   41.000  111.758    0.565    0.221    3.258
   41.250  114.447    0.573    0.231    3.235
   41.500  103.350    0.642    0.233    3.540
   41.750  117.425    0.620    0.187    4.452
   42.000  117.416    0.507    0.193    4.839
   42.250  134.789    0.514    0.188    5.150
   42.500  138.375    0.565    0.206    4.298
   42.750  122.184    0.554    0.200    4.065
   43.000  124.572    0.514    0.187    4.237
   43.250  107.181    0.495    0.151    5.006
   43.500  108.071    0.488    0.123    6.563
   43.750  109.561    0.571    0.182    3.609
   44.000  100.262    0.574    0.252    3.343
   44.250   96.057    0.616    0.302    2.790
   44.500  100.243    0.590    0.310    2.496
   44.750   99.635    0.621    0.317    2.377
   45.000   95.431    0.683    0.316    2.393
   45.250   98.718    0.741    0.308    2.460
   45.500  101.705    0.659    0.304    2.460
   45.750   95.103    0.614    0.289    2.618
   46.000   90.898    0.597    0.257    3.115
   46.250  107.971    0.534    0.245    3.783
   46.500  107.063    0.511    0.213    4.257
   46.750   94.467    0.441    0.195    4.757
   47.000  107.345    0.525    0.205    4.375
   47.250   97.447    0.544    0.118    3.626
   47.500   76.160    0.406    0.115    4.314
   47.750   82.144    0.485    0.138    5.938
   48.000   92.324    0.491    0.138    5.500
   48.250  106.700    0.458    0.152    3.831
   48.500  120.775    0.577    0.223    3.175
   48.750  115.072    0.605    0.228    2.880
   49.000  112.066    0.559    0.218    3.023
   49.250  121.048    0.683    0.205    3.129
   49.500  120.739    0.591    0.214    3.043
   49.750  109.043    0.538    0.199    3.043
   50.000  117.424    0.601    0.198    3.128
   50.250  105.128    0.541    0.202    3.399
   50.500  104.820    0.538    0.204    3.799
   50.750  115.000    0.531    0.183    3.328
   51.000   96.111    0.513    0.186    3.305
   51.250  119.176    0.545    0.208    3.667
   51.500  121.265    0.503    0.198    3.718
   51.750  135.042    0.516    0.214    3.190
   52.000  122.446    0.566    0.205    3.124
   52.250  121.538    0.508    0.210    3.348
   52.500  122.128    0.481    0.184    3.256
   52.750  117.624    0.480    0.140    3.417
   53.000  102.032    0.461   -0.013    3.819
   53.250   82.244    0.378   -0.012    6.942
   53.500   96.319    0.418    0.136    7.811
   53.750   80.727    0.465    0.192    5.111
   54.000   53.148    0.396    0.214    6.165
   54.250   54.037    0.443    0.203    4.799
   54.500   61.820    0.433    0.205    5.326
   54.750   77.694    0.402    0.176    5.513
   55.000   73.489    0.358    0.220    5.868
   55.250   69.884    0.373    0.234    5.908
   55.500   57.887    0.334    0.252    6.741
   55.750   46.490    0.346    0.253    8.020
   56.000   53.074    0.376    0.264    7.637
   56.250   46.173    0.405    0.250    7.906
   56.500   53.655    0.426    0.233    7.529
   56.750   50.650    0.406    0.248    8.014
   57.000   53.338    0.394    0.249    8.013
   57.250   48.234    0.401    0.246    8.124
   57.500   47.326    0.406    0.259    7.737
   57.750   37.727    0.393    0.258    7.266
   58.000   32.324    0.437    0.272   32.605
   58.250   34.712    0.430    0.266   40.721
   58.500   36.801    0.431    0.264   34.941
   58.750   35.893    0.387    0.255   18.559
   59.000   25.994    0.428    0.265   95.036
   59.250   26.884    0.388    0.269   25.366
   59.500   31.070    0.393    0.262   24.496
   59.750   25.368    0.407    0.276   19.070
   60.000   26.258    0.398    0.272   32.789
   60.250   25.948    0.407    0.280   16.360
   60.500   24.140    0.384    0.267   35.383
   60.750   26.230    0.397    0.276   37.141
   61.000   34.612    0.404    0.274   25.337
   61.250   35.502    0.385    0.276   31.423
   61.500   31.296    0.373    0.281   42.364
   61.750   28.890    0.384    0.281   20.558
   62.000   34.875    0.380    0.279   19.990
   62.250   36.964    0.396    0.267   24.621
   62.500   33.358    0.382    0.265   22.647
   62.750   32.150    0.400    0.270   35.085
   63.000   31.543    0.385    0.273   12.715
   63.250   36.927    0.377    0.259   12.713
   63.500   32.423    0.383    0.265   12.622
   63.750   35.709    0.411    0.261   15.121
   64.000   29.408    0.418    0.271   13.248
   64.250   37.490    0.389    0.261   12.271
   64.500   43.774    0.412    0.258   10.676
   64.750   41.967    0.415    0.263   13.058
   65.000   47.651    0.394    0.271   17.975
   65.250   47.643    0.396    0.264   12.785
   65.500   33.249    0.396    0.268    9.747
   65.750   31.142    0.425    0.250    9.028
   66.000   39.824    0.440    0.269   11.838
   66.250   41.611    0.435    0.258   10.300
   66.500   41.903    0.410    0.257    9.606
   66.750   44.292    0.429    0.257    9.149
   67.000   39.787    0.415    0.261    8.652
   67.250   41.876    0.395    0.261    9.274
