~Version : LASO    vs 4.00 
VERS.                2.00:   CWLS Log ASCII Standard -VERSION 2.0
WRAP.                  NO:
~Well Information Block
#MNEM.UNIT       Data                        Description of Mnemonic
#----.----      -------------------------- : -----------------------------
STRT.M            15.0000:
STOP.M           207.0000:
STEP.M             0.2000:
NULL.           -999.2500:
COMP.  MOBIL OIL CANADA                   :COMPANY
WELL.  MOBIL CLARKE OV 1-2                :WELL
FLD.                                      :FIELD
LOC.   01-02-090-08W4                     :LOCATION
CTRY.  CANADA                             :COUNTRY
PROV.  ALBERTA                            :PROVINCE
SRVC.  SCHLUMBERGER                       :SERVICE COMPANY
DATE.  05-MAR-81                          :LOG DATE
UWI.   AA/01-02-090-08W400                :UNIQUE WELL ID
~Parameter Information Block
#MNEM.UNIT       Data                        Description of Mnemonic
#----.----      -------------------------- : -----------------------------
RUN .                   1                 : Run Number
GL  .M           444.4000                 : Ground Level Elevation
DREF.                  KB                 : Depth Reference
EREF.M           444.4000                 : Elevation of Depth Reference
TDL .M           207.0000                 : Total Depth Logger
TDD .M           206.0000                 : Total Depth Driller
CSGL.M            27.0000                 : Casing Bottom Logger
CSGD.M            26.4000                 : Casing Bottom Driller
CSGS.MM          219.0000                 : Casing Size
CSGW.KG/M          0.0000                 : Casing Weight
BS  .MM          159.0000                 : Bit Size
DFD .           9999.0000                 : Mud Weight (Density)
~Curve Information Block
#MNEM.UNIT        API CODE    Curve Description
#---------    ------------    -------------------------------------------
DEPT.M                    :   DEPTH
CALI.MM       42 280  1  1:   3 DENSITY CALIPER
DPHI.V/V                  :   DPHI
DT  .US/M     60 520  0  1:   2 SONIC INTERVAL TRANSIT TIME (COMPENSATED)
GR  .GAPI     42 310  1  1:   4 GAMMA RAY
ILD .OHMM      5 120 46  1:   7 DEEP INDUCTION
ILM .OHMM      5 120 44  1:   8 MEDIUM INDUCTION
NPHI.V/V      42 890  3  1:   5 NEUTRON POROSITY (SANDSTONE)
RHOB.K/M3     42 350  1  1:   6 BULK DENSITY
SFLU.OHMM      5 220  1  1:   9 FOCUSSED RESISTIVITY
SP  .MV        5  10  1  1:   10 SPONTANEOUS POTENTIAL
~A  Depth           CALI        DPHI          DT          GR         ILD         ILM        NPHI        RHOB        SFLU          SP
# ...
88.2000         182.2500      0.2344    450.5200     40.2750      7.3830      6.2034      0.4830   2296.8999      4.3634    114.4200
88.4000         184.8000      0.2198    455.1200     39.0750      8.0952      7.1159      0.4720   2317.0000      4.0535    114.7650
88.6000         186.0750      0.2000    463.3200     40.1850      8.7949      9.0413      0.4288   2344.0000      3.2496    113.5650
88.8000         172.1000      0.1791    429.5200     46.2750     10.3808     13.3116      0.2794   2500.0000     46.1137    104.6550
89.0000         170.8250      0.1244    367.0400     49.4850     11.0721     14.7309      0.2340   2571.8999    162.8658    101.2650
89.2000         170.8250      0.0902    295.5200     51.1800     11.4770     14.7309      0.2348   2592.0000    192.2339    111.8100
89.4000         172.1000      0.0616    225.8000     51.8850     11.2779     13.4348      0.2612   2558.0000     79.4017    110.1600
89.6000         170.8250      0.0769    197.2800     52.1850      9.6434      9.9136      0.4230   2285.8999      5.7521     94.7100
89.8000         170.8250      0.2268    236.0000     51.9900      8.7142      8.9584      0.4462   2209.0000      4.2056     81.6000
90.0000         170.8250      0.2706    302.2400     51.5850      7.8746      8.1701      0.4478   2164.8999      5.8054     83.4600
90.2000         173.3750      0.2860    433.2800     52.9800      6.9860      7.0507      0.4495   2207.0000      6.0790    102.3600
90.4000         172.1000      0.2800    468.8800     54.0900      6.8585      6.8585      0.4510   2214.0000      6.6655     99.8550
90.6000         172.1000      0.2689    470.8400     55.4850      6.8585      6.7395      0.4612   2190.0000      7.4444    104.3100
90.8000         173.3750      0.2595    470.0400     57.7800      7.0507      6.7956      0.4578   2205.0000      6.8522    101.2650
91.0000         174.6250      0.2640    473.3200     59.8800      7.1817      6.9220      0.4532   2220.0000      6.3655    100.8150
91.2000         174.6250      0.2570    477.0800     61.4850      7.1817      7.1159      0.4508   2276.0000      7.0442    102.3150
91.4000         170.8250      0.2323    476.2400     62.4900      6.9220      7.2482      0.4438   2352.0000      8.4690     89.0100
91.6000         175.9000      0.2067    473.4800     62.1900      6.6716      6.9860      0.4312   2385.0000      8.6264     94.5600
91.8000         181.0000      0.1819    461.3200     61.8900      6.4898      6.5559      0.4118   2406.0000      7.7238    100.9050
92.0000         183.5250      0.1657    431.8000     62.2800      5.9735      5.9790      0.4218   2272.8999      5.1031    111.9150
92.2000         182.2500      0.1770    433.9600     62.3850      5.6524      5.7628      0.4454   2269.0000      4.6540    115.6650
92.4000         193.6750      0.2144    452.3200     63.1800      5.2509      5.4529      0.4612   2255.0000      4.7406    115.0650
92.6000         192.4250      0.2300    482.8000     64.3950      5.0609      5.1598      0.4588   2256.0000      5.0563    106.6050
92.8000         193.6750      0.2322    504.8000     66.1950      4.7449      4.5356      0.4512   2248.0000      4.3634    109.9050
93.0000         193.6750      0.2347    505.2800     66.6900      4.7014      4.4119      0.4540   2246.5000      3.7656    113.1150
93.2000         191.1500      0.2480    504.8000     65.5950      4.6583      4.4119      0.4950   2245.0000      3.6968    118.0650
93.4000         188.6000      0.2571    509.7200     61.0800      4.7014      4.4119      0.5102   2243.5000      4.1289    119.6100
93.6000         192.4250      0.2578    512.3600     57.9900      4.8779      4.5356      0.5118   2242.0000      3.9069    119.4600
93.8000         186.0750      0.2536    509.8800     55.4850      5.0145      4.7932      0.4984   2213.0000      3.9430    117.8700
94.0000         178.4500      0.2453    508.5600     54.5850      5.4479      5.3043      0.4780   2230.0000      5.2946    116.0100
94.2000         181.0000      0.2387    503.7600     55.9800      5.7574      5.5543      0.4718   2253.0000      5.1979    115.7100
94.4000         177.1750      0.2382    498.7200     59.8800      6.0846      5.9242      0.4742   2261.0000      4.6971    111.9600
94.6000         178.4500      0.2477    491.2000     62.6850      6.4303      6.3772      0.4808   2258.0000      7.5828     96.7650
94.8000         178.4500      0.2569    488.8800     64.1850      6.4303      6.4958      0.4662   2234.0000      8.4690     91.0650
95.0000         178.4500      0.2575    485.9200     64.5900      6.3713      6.4958      0.4566   2217.0000      8.6264     92.8050
95.2000         186.0750      0.2521    477.7200     66.8850      6.0846      6.0343      0.4596   2245.0000      7.3762    108.6600
95.4000         188.6000      0.2426    474.4400     67.6950      5.8645      5.7099      0.4590   2252.0000      5.5954    110.6100
95.6000         186.0750      0.2359    474.4400     67.2900      5.5492      5.5034      0.4434   2263.0000      4.6114    112.4100
95.8000         187.3250      0.2283    479.0400     66.7950      5.1550      5.2557      0.4386   2302.0000      4.7406    112.3050
96.0000         183.5250      0.2194    489.5600     67.2900      4.4898      4.4940      0.4400   2295.0000      4.8287    109.8150
96.2000         189.8750      0.2164    492.0000     67.6950      4.2484      4.1365      0.4474   2301.0000      4.1289    114.1050
96.4000         186.0750      0.2148    492.4800     66.6900      4.0200      3.8782      0.4842   2307.0000      3.5304    115.6650
96.6000         188.6000      0.2228    500.8000     66.8850      3.5994      3.5045      0.5070   2248.0000      3.2496    115.5600
96.8000         187.3250      0.2351    505.9600     68.7900      3.4374      3.3468      0.5212   2245.0000      3.2496    119.4600
97.0000         189.8750      0.2506    508.5600     69.8850      3.3131      3.2257      0.5472   2246.0000      3.1321    116.9100
97.2000         181.0000      0.2490    511.8400     69.3900      3.0495      3.0243      0.5580   2231.0000      2.9637     99.2550
97.4000         179.7250      0.2427    513.6400     67.6950      2.9392      2.8882      0.5742   2254.0000      2.9096    114.4650
97.6000         181.0000      0.2454    514.9600     67.3950      2.8329      2.7582      0.5740   2241.0000      2.8043    119.8200
97.8000         188.6000      0.2611    517.6000     65.7900      2.6806      2.5860      0.5686   2181.0000      2.4201    122.3700
98.0000         192.4250      0.2757    521.6801     65.3850      2.6317      2.5388      0.5700   2187.0000      2.3325    120.7200
98.2000         192.4250      0.2800    526.6000     65.3850      2.6075      2.4925      0.5686   2171.0000      2.3325    120.7200
98.4000         191.1500      0.2791    537.6000     64.8900      2.6317      2.4696      0.5548   2181.0000      2.3759    113.0100
98.6000         192.4250      0.2778    536.4400     63.8850      2.7304      2.4925      0.5548   2198.0000      2.2276    101.4600
98.8000         189.8750      0.2724    534.0000     62.9850      2.8591      2.5623      0.5208   2198.0000      2.0504    101.0100
99.0000         193.6750      0.2672    534.1600     63.0900      3.0216      2.7329      0.5060   2202.0000      2.1078    110.6100
99.2000         187.3250      0.2642    533.0000     63.6900      3.4692      3.2556      0.4950   2213.0000      3.3100    118.5600
99.4000         186.0750      0.2686    528.4000     63.8850      3.7690      3.5697      0.4902   2220.0000      4.0910    116.3100
99.6000         188.6000      0.2603    519.8800     65.0850      4.0948      3.9141      0.4792   2213.0000      4.6114    110.3550
99.8000         188.6000      0.2536    505.2800     67.3950      4.7014      4.5356      0.4692   2219.0000      4.7844    106.1550
100.0000        186.0750      0.2471    499.2400     67.8900      4.9686      4.7058      0.4634   2232.0000      5.1503    108.3600
100.2000        184.8000      0.2426    495.1200     66.5850      5.1550      4.8376      0.4564   2245.0000      5.1979    116.1150
