~VERSION INFORMATION
 VERS.                 2.0:   CWLS LOG ASCII STANDARD -VERSION 2.0
 WRAP.                  NO:   ONE LINE PER DEPTH STEP
~WELL INFORMATION BLOCK
#MNEM.UNIT           DATA                    DESCRIPTION OF MNEMONIC
#---------    -------------------            -------------------------------
# Generated from Intellog Unique Number	CN_94_101/WELL/3291
WELL.         01-35-095-07W4                 : Well_name    - WELL
LOC .         AA/01-35-095-07W4/0            : Location     - LOCATION
UWI .         AA/01-35-095-07W400            : Uwi          - UNIQUE WELL ID
ENTR.         JOETTE                         : Entered      - ENTERED BY
SRVC.         SCHLUMBERGER                   : Scn          - SERVICE COMPANY
DATE.         07/22/92                       : Date         - LOG DATE
STRT.M        50                             : top_depth    - START DEPTH
STOP.M        235                            : bot_depth    - STOP DEPTH
STEP.M        0.25                           : increment    - STEP LENGTH
 NULL. -999.2500:NULL Value
~CURVE INFORMATION BLOCK
#MNEM UNIT       ERCB CURVE CODE    CURVE DESCRIPTION
#-----------   ------------------   ----------------------------------
DEPT.M        00 001 00 00         : DEPTH        - DEPTH
GR  .API      00 310 00 00         : GR           - GAMMA RAY
NPHI.V/V      00 330 00 00         : PHIN         - NEUTRON POROSITY (SANDSTONE)
DPHI.V/V      00 890 00 00         : PHID         - DENSITY POROSITY (SANDSTONE)
ILD .OHMM     00 120 00 00         : RESD         - DEEP RESISTIVITY (DIL)
~PARAMETER INFORMATION
#MNEM.UNIT           DATA             DESCRIPTION OF MNEMONIC
#---------         -----------     ------------------------------
GL  .M        494.08               : gl           - GROUND LEVEL ELEVATION
EREF.M        495.88               : kb           - ELEVATION OF DEPTH REFERENCE
DATM.M        495.88               : datum        - DATUM ELEVATION
TDD .M        236                  : tdd          - TOTAL DEPTH DRILLER
RUN .         ONE                  : Run          - RUN NUMBER
ENG .         JO                   : Engineer     - RECORDING ENGINEER
WIT .         TIM                  : Witness      - WITNESSED BY
MUD .         GEL                  : Mud_type     - MUD TYPE
MATR.         SANDSTONE            : Logunit      - NEUTRON MATRIX
TMAX.C        4.4                  : BHT          - MAXIMUM RECORDED TEMPERATURE
BHTD.M        236                  : BHTDEP       - MAXIMUM RECORDED TEMPERATURE
RMT .C        4.4                  : MDTP         - TEMPERATURE OF MUD
MUDD.KG/M     1030                 : MWT          - MUD DENSITY
NEUT.         1                    : NEUTRON      - NEUTRON TYPE
RESI.         0                    : RESIST       - RESISTIVITY TYPE
RM  .OHMM     7.4                  : RM           - RESISTIVITY OF MUD
RMC .OHMM     7.4                  : RMC          - RESISTIVITY OF MUD CAKE
RMF .OHMM     7.4                  : RMF          - RESISTIVITY OF MUD FILTRATE
SUFT.C        4                    : SUFT         - SURFACE TEMPERATURE
~A  DEPTH       GR     PHIN     PHID     RESD
# ...
  180.500   42.649    0.422    0.308   43.795
  180.750   52.244    0.416    0.283   29.957
  181.000   61.836    0.421    0.260   39.821
  181.250   61.206    0.426    0.260   51.939
  181.500   59.996    0.428    0.258   52.929
  181.750   57.569    0.428    0.263   66.463
  182.000   56.956    0.421    0.276   93.525
  182.250   56.343    0.414    0.284  113.065
  182.500   55.125    0.404    0.291   95.298
  182.750   55.708    0.401    0.295   53.914
  183.000   62.297    0.405    0.280   39.039
  183.250   69.487    0.419    0.264   34.178
  183.500   69.470    0.429    0.253   31.080
  183.750   68.848    0.432    0.232   38.293
  184.000   73.635    0.432    0.232   43.730
  184.250   75.424    0.440    0.221   24.276
  184.500   78.406    0.450    0.226   27.201
  184.750   78.393    0.425    0.223   29.343
  185.000   78.977    0.413    0.217   24.268
  185.250   85.566    0.430    0.213   19.692
  185.500   81.341    0.457    0.192   18.251
  185.750   54.300    0.469    0.204   22.917
  186.000   44.075    0.466    0.215   49.903
  186.250   37.452    0.445    0.233   72.940
  186.500   34.433    0.428    0.259  100.710
  186.750   34.412    0.408    0.314  115.011
  187.000   34.395    0.417    0.337  131.342
  187.250   32.576    0.407    0.336  155.796
  187.500   29.557    0.400    0.326  203.204
  187.750   25.937    0.403    0.319  245.658
  188.000   23.518    0.402    0.334  152.819
  188.250   24.102    0.392    0.341  108.576
  188.500   26.487    0.386    0.345   95.054
  188.750   30.069    0.383    0.347   95.044
  189.000   33.659    0.384    0.352   91.494
  189.250   39.047    0.394    0.355   77.118
  189.500   46.236    0.417    0.346   56.909
  189.750   58.230    0.433    0.312   60.238
  190.000   63.618    0.428    0.276   68.793
  190.250   64.802    0.435    0.287   86.384
  190.500   58.179    0.449    0.306  102.468
  190.750   43.145    0.437    0.322  106.419
  191.000   33.520    0.424    0.319  108.450
  191.250   27.498    0.405    0.319  112.635
  191.500   26.280    0.389    0.319  123.837
  191.750   27.460    0.377    0.323  144.131
  192.000   28.644    0.372    0.326  174.243
  192.250   29.828    0.376    0.335  202.799
  192.500   31.012    0.382    0.334  218.775
  192.750   31.596    0.390    0.327  249.841
  193.000   31.579    0.398    0.318  319.738
  193.250   29.160    0.401    0.321  425.024
  193.500   28.543    0.398    0.314  598.073
  193.750   30.924    0.395    0.311  736.860
  194.000   32.709    0.390    0.310  794.930
  194.250   33.893    0.389    0.311  873.987
  194.500   33.275    0.397    0.309  998.091
  194.750   32.057    0.406    0.308 1404.500
  195.000   31.444    0.417    0.336 1763.590
  195.250   30.827    0.422    0.335 1514.990
  195.500   32.003    0.421    0.330 1036.280
  195.750   34.993    0.423    0.332  873.444
  196.000   39.179    0.437    0.339  890.068
  196.250   43.962    0.450    0.357  978.613
  196.500   44.550    0.465    0.348 1276.400
  196.750   37.923    0.442    0.335 2255.640
  197.000   38.507    0.412    0.322 3490.050
  197.250   38.490    0.417    0.320 3173.780
  197.500   37.877    0.411    0.319 1696.130
  197.750   38.461    0.399    0.324  941.545
  198.000   43.844    0.390    0.333  118.896
  198.250   50.438    0.385    0.317   84.475
  198.500   59.428    0.413    0.290   79.790
  198.750   64.816    0.431    0.278  112.279
  199.000   62.994    0.452    0.273  214.073
  199.250   58.777    0.442    0.284  331.234
  199.500   53.952    0.430    0.283  206.055
  199.750   51.533    0.419    0.328  563.488
  200.000   49.715    0.426    0.337  922.979
  200.250   47.291    0.446    0.347  655.767
  200.500   44.873    0.450    0.351  364.016
  200.750   42.458    0.450    0.359  183.772
  201.000   39.438    0.447    0.361  130.568
  201.250   38.821    0.441    0.358  125.688
  201.500   43.608    0.429    0.352  138.191
  201.750   46.594    0.430    0.341  180.242
  202.000   47.173    0.433    0.322  312.533
  202.250   44.154    0.420    0.328  595.877
  202.500   40.530    0.430    0.331  399.928
  202.750   38.711    0.436    0.331  151.872
  203.000   39.295    0.423    0.332  105.874
  203.250   42.285    0.403    0.342   98.123
  203.500   45.266    0.408    0.331  217.763
  203.750   43.448    0.424    0.300  384.819
  204.000   41.630    0.418    0.305  595.430
  204.250   39.211    0.415    0.301  706.292
  204.500   32.588    0.415    0.304  447.792
  204.750   34.973    0.411    0.309  163.713
  205.000   40.361    0.416    0.296   87.494
  205.250   39.139    0.436    0.293  273.268
  205.500   36.124    0.415    0.295  482.917
  205.750   34.301    0.392    0.282  837.361
  206.000   35.481    0.350    0.264  761.458
  206.250   36.669    0.341    0.248  501.449
  206.500   40.260    0.344    0.254  349.575
  206.750   45.648    0.345    0.240  109.798
  207.000   52.837    0.345    0.225   55.430
  207.250   60.627    0.349    0.210   45.841
  207.500   76.824    0.360    0.196   44.129
  207.750   77.404    0.376    0.189   51.359
  208.000   73.183    0.389    0.199   56.467
  208.250   70.768    0.408    0.207   55.400
  208.500   72.553    0.409    0.217   51.343
  208.750   74.334    0.431    0.228   59.759
  209.000   71.915    0.456    0.246   55.384
  209.250   72.498    0.449    0.250   59.747
  209.500   76.080    0.438    0.252   63.242
  209.750   74.262    0.418    0.240   49.405
  210.000   70.041    0.429    0.287   79.404
  210.250   69.424    0.439    0.284  101.619
  210.500   70.608    0.438    0.276   90.668
  210.750   70.595    0.440    0.268   77.885
  211.000   61.571    0.453    0.281  140.275
  211.250   51.937    0.467    0.309  182.960
  211.500   51.324    0.465    0.329  234.146
  211.750   52.508    0.450    0.340  311.248
  212.000   46.482    0.459    0.344  317.180
  212.250   47.666    0.475    0.350  342.167
  212.500   51.256    0.466    0.334  329.385
  212.750   56.044    0.454    0.315  154.130
  213.000   68.037    0.441    0.274   61.961
  213.250   80.031    0.419    0.249   44.866
  213.500   85.415    0.427    0.226   49.328
  213.750   85.994    0.437    0.232   69.412
  214.000   85.981    0.426    0.238   73.472
  214.250   85.964    0.409    0.224   58.499
  214.500   88.954    0.400    0.199   33.096
  214.750   91.940    0.410    0.197   22.213
  215.000   77.506    0.424    0.216   43.162
  215.250   64.879    0.426    0.241   56.296
  215.500   57.055    0.415    0.273   73.427
  215.750   53.435    0.408    0.290   88.767
  216.000   48.013    0.393    0.257   93.959
  216.250   38.388    0.388    0.262  224.974
  216.500   32.362    0.398    0.277  348.102
  216.750   34.147    0.408    0.290  445.489
  217.000   36.532    0.397    0.292  638.901
  217.250   38.913    0.373    0.289  676.272
  217.500   40.697    0.362    0.295  702.368
  217.750   41.285    0.373    0.289  689.072
  218.000   39.467    0.380    0.278  689.000
  218.250   37.048    0.380    0.284  786.837
  218.500   34.028    0.380    0.289  933.336
  218.750   31.601    0.379    0.289 1107.080
  219.000   31.593    0.384    0.292 1240.540
  219.250   32.768    0.388    0.288 1471.520
  219.500   35.149    0.389    0.292 1993.560
  219.750   36.342    0.389    0.294 1955.770
  220.000   38.727    0.388    0.302 1812.670
  220.250   39.911    0.389    0.296 1648.360
  220.500   39.294    0.390    0.288 1337.580
  220.750   38.076    0.394    0.303 1148.970
  221.000   38.660    0.403    0.323 1148.820
  221.250   39.844    0.439    0.327 1216.020
  221.500   39.827    0.430    0.325 1287.110
  221.750   35.602    0.415    0.323 1336.850
  222.000   30.781    0.404    0.329 1362.330
  222.250   27.762    0.404    0.327 1311.410
  222.500   30.147    0.408    0.321 1238.680
  222.750   33.133    0.393    0.308 1286.480
  223.000   33.116    0.378    0.294 1126.310
  223.250   32.498    0.378    0.280 1004.960
  223.500   31.881    0.385    0.284 1286.080
  223.750   33.057    0.390    0.288 1238.070
