~VERSION INFORMATION
 VERS.                 2.0:   CWLS LOG ASCII STANDARD -VERSION 2.0
 WRAP.                  NO:   ONE LINE PER DEPTH STEP
~WELL INFORMATION BLOCK
#MNEM.UNIT           DATA                    DESCRIPTION OF MNEMONIC
#---------    -------------------            -------------------------------
# Generated from Intellog Unique Number	CN_94_101/WELL/2800
WELL.         03-25-096-16W4                 : Well_name    - WELL
LOC .         AA/03-25-096-16W4/0            : Location     - LOCATION
UWI .         AA/03-25-096-16W400            : Uwi          - UNIQUE WELL ID
ENTR.         JOETTE                         : Entered      - ENTERED BY
SRVC.         SCHLUMBERGER                   : Scn          - SERVICE COMPANY
DATE.         07/07/92                       : Date         - LOG DATE
STRT.M        140                            : top_depth    - START DEPTH
STOP.M        395                            : bot_depth    - STOP DEPTH
STEP.M        0.25                           : increment    - STEP LENGTH
 NULL. -999.2500:NULL Value
~CURVE INFORMATION BLOCK
#MNEM UNIT       ERCB CURVE CODE    CURVE DESCRIPTION
#-----------   ------------------   ----------------------------------
DEPT.M        00 001 00 00         : DEPTH        - DEPTH
CALI.MM       00 280 01 00         : CAL          - CALIPER
GR  .API      00 310 00 00         : GR           - GAMMA RAY
NPHI.V/V      00 330 00 00         : PHIN         - NEUTRON POROSITY (SANDSTONE)
DPHI.V/V      00 890 00 00         : PHID         - DENSITY POROSITY (SANDSTONE)
ILD .OHMM     00 120 00 00         : RESD         - DEEP RESISTIVITY (DIL)
~PARAMETER INFORMATION
#MNEM.UNIT           DATA             DESCRIPTION OF MNEMONIC
#---------         -----------     ------------------------------
GL  .M        651.2                : gl           - GROUND LEVEL ELEVATION
EREF.M        655                  : kb           - ELEVATION OF DEPTH REFERENCE
DATM.M        655                  : datum        - DATUM ELEVATION
TDD .M        398                  : tdd          - TOTAL DEPTH DRILLER
RUN .         ONE                  : Run          - RUN NUMBER
ENG .         JO                   : Engineer     - RECORDING ENGINEER
WIT .         TIM                  : Witness      - WITNESSED BY
MUD .         GEL                  : Mud_type     - MUD TYPE
MATR.         SANDSTONE            : Logunit      - NEUTRON MATRIX
TMAX.C        20                   : BHT          - MAXIMUM RECORDED TEMPERATURE
BHTD.M        398                  : BHTDEP       - MAXIMUM RECORDED TEMPERATURE
RMT .C        13                   : MDTP         - TEMPERATURE OF MUD
MUDD.KG/M     1120                 : MWT          - MUD DENSITY
NEUT.         1                    : NEUTRON      - NEUTRON TYPE
RESI.         0                    : RESIST       - RESISTIVITY TYPE
RM  .OHMM     0.84                 : RM           - RESISTIVITY OF MUD
RMC .OHMM     0.84                 : RMC          - RESISTIVITY OF MUD CAKE
RMF .OHMM     0.88                 : RMF          - RESISTIVITY OF MUD FILTRATE
SUFT.C        4                    : SUFT         - SURFACE TEMPERATURE
~A  DEPTH      CAL       GR     PHIN     PHID     RESD
# ...
  176.500  169.021   32.341    0.427    0.355   35.336
  176.750  170.071   32.378    0.429    0.348   35.445
  177.000  171.213   32.453    0.429    0.344   34.880
  177.250  170.379   32.545    0.402    0.348   34.916
  177.500  169.484   33.230    0.397    0.355   34.376
  177.750  167.631   33.286    0.395    0.347   33.793
  178.000  165.778   33.379    0.406    0.341   33.845
  178.250  165.901   33.453    0.418    0.345   33.322
  178.500  168.001   31.748    0.428    0.351   33.374
  178.750  170.101   29.432    0.434    0.359   33.425
  179.000  172.201   28.320    0.432    0.364   33.528
  179.250  173.312   29.599    0.436    0.362   33.580
  179.500  172.478   32.044    0.443    0.362   33.666
  179.750  171.614   33.286    0.448    0.362   33.701
  180.000  170.718   32.767    0.450    0.362   34.406
  180.250  169.853   31.062    0.438    0.357   34.529
  180.500  168.989   29.376    0.397    0.343   35.215
  180.750  169.112   27.672    0.407    0.326   35.288
  181.000  169.328   27.153    0.419    0.330   35.360
  181.250  169.390   27.227    0.416    0.337   36.082
  181.500  168.494   29.672    0.398    0.327   36.836
  181.750  167.691   32.711    0.391    0.325   37.626
  182.000  167.753   31.025    0.405    0.328   38.413
  182.250  167.876   29.302    0.405    0.338   38.551
  182.500  168.000   27.004    0.398    0.342   38.591
  182.750  169.111   26.467    0.394    0.341   38.670
  183.000  170.223   27.152    0.404    0.341   38.053
  183.250  170.346   28.430    0.394    0.338   38.093
  183.500  170.501   29.061    0.384    0.334   37.485
  183.750  170.593   30.320    0.384    0.337   36.849
  184.000  172.755   31.006    0.382    0.344   36.849
  184.250  174.885   30.505    0.384    0.350   31.905
  184.500  175.997   31.765    0.385    0.351   34.411
  184.750  176.058   34.785    0.386    0.341   33.845
  185.000  177.170   40.214    0.390    0.342   33.288
  185.250  177.324   41.455    0.406    0.353   32.740
  185.500  178.467   45.735    0.434    0.345   31.639
  185.750  178.528   46.383    0.431    0.339   31.102
  186.000  178.683   47.625    0.426    0.334   30.040
  186.250  177.787   47.717    0.421    0.334   28.970
  186.500  177.972   47.199    0.422    0.342   27.450
  186.750  178.034   47.865    0.430    0.317   25.070
  187.000  179.146   50.311    0.394    0.312   22.462
  187.250  186.186   53.924    0.384    0.296   20.494
  187.500  190.324   61.724    0.388    0.310   19.060
  187.750  187.452   69.506    0.398    0.272   18.756
  188.000  183.592   74.360    0.410    0.276   18.785
  188.250  172.876   73.248    0.420    0.281   18.134
  188.500  169.016   73.915    0.422    0.271   16.239
  188.750  166.206   76.972    0.422    0.277   13.504
  189.000  166.299   78.195    0.455    0.274    9.673
  189.250  166.484   81.234    0.491    0.266    8.350
  189.500  167.565   84.865    0.512    0.262    6.212
  189.750  168.645   92.072    0.540    0.239    5.771
  190.000  170.807   97.482    0.551    0.209    5.171
  190.250  173.895   95.796    0.491    0.159    4.635
  190.500  174.018   93.499    0.477    0.144    4.477
  190.750  171.177   91.794    0.484    0.120    4.317
  191.000  168.336   93.054    0.490    0.114    3.870
  191.250  173.431   94.888    0.506    0.191    3.665
  191.500  174.481   98.519    0.530    0.231    4.036
  191.750  177.569  101.576    0.544    0.226    4.194
  192.000  179.761   98.112    0.521    0.232    4.528
  192.250  179.854   95.796    0.500    0.230    4.891
  192.500  179.946   94.073    0.501    0.225    4.993
  192.750  180.039   96.518    0.503    0.232    4.823
  193.000  179.174  103.151    0.490    0.240    4.741
  193.250  178.340  104.392    0.517    0.221    4.661
  193.500  176.518   96.759    0.524    0.215    4.584
  193.750  175.654   89.700    0.515    0.225    4.596
  194.000  174.758   87.402    0.537    0.227    4.522
  194.250  173.862   87.495    0.560    0.209    4.368
  194.500  173.059   88.143    0.576    0.199    4.294
  194.750  174.109   92.386    0.567    0.220    4.071
  195.000  174.233   96.017    0.574    0.226    4.000
  195.250  176.363   97.296    0.580    0.230    4.012
  195.500  176.548   94.980    0.572    0.242    4.018
  195.750  176.641   92.682    0.572    0.245    4.102
  196.000  176.734   97.499    0.576    0.235    4.186
  196.250  176.919   95.202    0.578    0.226    4.273
  196.500  176.980   94.683    0.589    0.215    4.447
  196.750  176.116   94.183    0.593    0.224    4.540
  197.000  176.270   94.257    0.579    0.243    4.549
  197.250  175.374   96.110    0.553    0.243    4.559
  197.500  173.583   98.537    0.543    0.238    4.566
  197.750  173.645   99.241    0.541    0.239    4.578
  198.000  172.780   97.499    0.548    0.240    4.589
  198.250  172.904   95.201    0.557    0.243    4.511
  198.500  173.027   91.144    0.549    0.239    4.518
  198.750  173.150   90.606    0.523    0.229    4.532
  199.000  173.274   94.256    0.516    0.222    4.537
  199.250  173.428   97.906    0.519    0.237    4.546
  199.500  173.521   97.369    0.532    0.245    4.558
  199.750  173.675   92.700    0.538    0.251    4.488
  200.000  173.798   89.217    0.546    0.243    4.411
  200.250  173.891   91.069    0.551    0.256    4.337
  200.500  174.014   91.773    0.504    0.247    4.186
  200.750  175.157   89.439    0.509    0.264    4.274
  201.000  176.269   86.530    0.548    0.229    4.614
  201.250  174.385   84.251    0.551    0.237    5.081
  201.500  170.586   81.935    0.549    0.223    5.182
  201.750  167.745   74.894    0.489    0.092    5.598
  202.000  166.850   74.375    0.428    0.136    5.715
  202.250  167.004   80.378    0.466    0.185    5.523
  202.500  170.092   86.400    0.476    0.241    5.429
  202.750  173.180   84.695    0.477    0.244    5.238
  203.000  173.303   81.193    0.490    0.251    5.238
  203.250  173.488   82.472    0.489    0.260    4.614
  203.500  173.550   84.917    0.490    0.258    5.367
  203.750  173.674   86.177    0.497    0.257    4.907
  204.000  173.828   87.437    0.540    0.265    4.734
  204.250  173.951   87.530    0.546    0.269    4.568
  204.500  174.044   87.011    0.518    0.264    4.491
  204.750  175.155   85.306    0.516    0.256    4.337
  205.000  176.298   84.194    0.528    0.254    4.344
  205.250  176.390   83.676    0.544    0.253    4.518
  205.500  175.526   83.157    0.556    0.244    5.881
  205.750  172.716   81.434    0.544    0.256    7.102
  206.000  175.773   77.969    0.520    0.213    8.109
  206.250  179.879   76.857    0.521    0.152    9.615
  206.500  180.991   73.355    0.494    0.123   10.577
  206.750  176.143   71.669    0.453    0.166   10.408
  207.000  171.326   74.096    0.450    0.217   10.042
  207.250  167.496   73.578    0.453    0.248    9.167
  207.500  164.655   73.059    0.445    0.281    7.486
  207.750  164.779   76.690    0.473    0.239    6.700
  208.000  165.890   81.507    0.502    0.247    5.677
  208.250  168.978   84.546    0.510    0.274    5.280
  208.500  170.121   85.861    0.534    0.277    5.198
  208.750  171.232   85.305    0.554    0.263    5.304
  209.000  169.410   81.822    0.493    0.271    5.624
  209.250  166.538   81.285    0.514    0.274    5.963
  209.500  162.678   84.935    0.526    0.236    5.969
  209.750  164.840   88.585    0.551    0.237    5.984
  210.000  167.958   89.251    0.556    0.244    5.993
  210.250  168.051   86.954    0.532    0.248    6.119
  210.500  168.205   84.064    0.510    0.240    6.247
  210.750  168.298   81.155    0.505    0.232    6.623
  211.000  167.402   76.504    0.494    0.230    7.018
  211.250  165.549   77.782    0.461    0.193    7.036
  211.500  163.727   79.024    0.465    0.235    6.917
  211.750  162.863   81.469    0.489    0.264    6.436
  212.000  161.967   82.729    0.494    0.271    6.092
  212.250  162.091   82.785    0.483    0.274    5.461
  212.500  165.209   81.673    0.491    0.285    4.896
  212.750  166.290   78.190    0.510    0.258    4.637
