~VERSION INFORMATION
 VERS.                 2.0:   CWLS LOG ASCII STANDARD -VERSION 2.0
 WRAP.                  NO:   ONE LINE PER DEPTH STEP
~WELL INFORMATION BLOCK
#MNEM.UNIT           DATA                    DESCRIPTION OF MNEMONIC
#---------    -------------------            -------------------------------
# Generated from Intellog Unique Number	CN_94_101/WELL/4995
WELL.         09-06-100-13W4                 : Well_name    - WELL
LOC .         AA/09-06-100-13W4/0            : Location     - LOCATION
UWI .         AA/09-06-100-13W400            : Uwi          - UNIQUE WELL ID
ENTR.         TIM                            : Entered      - ENTERED BY
SRVC.         WESTERN ATLAS                  : Scn          - SERVICE COMPANY
DATE.         08/28/92                       : Date         - LOG DATE
STRT.M        485                            : top_depth    - START DEPTH
STOP.M        555                            : bot_depth    - STOP DEPTH
STEP.M        0.25                           : increment    - STEP LENGTH
 NULL. -999.2500:NULL Value
~CURVE INFORMATION BLOCK
#MNEM UNIT       ERCB CURVE CODE    CURVE DESCRIPTION
#-----------   ------------------   ----------------------------------
DEPT.M        00 001 00 00         : DEPTH        - DEPTH
GR  .API      00 310 00 00         : GR           - GAMMA RAY
ILD .OHMM     00 120 00 00         : RESD         - DEEP RESISTIVITY (DIL)
NPHI.V/V      00 330 00 00         : PHIN         - NEUTRON POROSITY (SANDSTONE)
DPHI.V/V      00 890 00 00         : PHID         - DENSITY POROSITY (SANDSTONE)
~PARAMETER INFORMATION
#MNEM.UNIT           DATA             DESCRIPTION OF MNEMONIC
#---------         -----------     ------------------------------
GL  .M        784                  : gl           - GROUND LEVEL ELEVATION
EREF.M        787.8                : kb           - ELEVATION OF DEPTH REFERENCE
DATM.M        787.8                : datum        - DATUM ELEVATION
TDD .M        557                  : tdd          - TOTAL DEPTH DRILLER
RUN .         ONE                  : Run          - RUN NUMBER
ENG .         JO                   : Engineer     - RECORDING ENGINEER
WIT .         TIM                  : Witness      - WITNESSED BY
MUD .         GEL                  : Mud_type     - MUD TYPE
MATR.         SANDSTONE            : Logunit      - NEUTRON MATRIX
TMAX.C        27                   : BHT          - MAXIMUM RECORDED TEMPERATURE
BHTD.M        557                  : BHTDEP       - MAXIMUM RECORDED TEMPERATURE
RMT .C        19                   : MDTP         - TEMPERATURE OF MUD
MUDD.KG/M     1050                 : MWT          - MUD DENSITY
NEUT.         1                    : NEUTRON      - NEUTRON TYPE
RESI.         0                    : RESIST       - RESISTIVITY TYPE
RM  .OHMM     1.8                  : RM           - RESISTIVITY OF MUD
RMC .OHMM     1.55                 : RMC          - RESISTIVITY OF MUD CAKE
RMF .OHMM     1.55                 : RMF          - RESISTIVITY OF MUD FILTRATE
SUFT.C        4                    : SUFT         - SURFACE TEMPERATURE
~A  DEPTH       GR     RESD     PHIN     PHID
  485.000   83.805    0.764    0.530    0.327
  485.250   83.155    0.763    0.535    0.334
  485.500   83.750    0.763    0.534    0.347
  485.750   83.731    0.762    0.521    0.359
  486.000   84.332    0.762    0.517    0.369
  486.250   84.313    0.762    0.521    0.375
  486.500   84.908    0.761    0.522    0.374
  486.750   86.134    0.760    0.515    0.302
  487.000   84.852    0.760    0.497    0.303
  487.250   82.957    0.774    0.482    0.304
  487.500   79.806    0.789    0.465    0.298
  487.750   82.283    0.804    0.454    0.284
  488.000   91.014    0.803    0.448    0.273
  488.250   91.614    0.819    0.436    0.270
  488.500   89.082    0.834    0.439    0.265
  488.750   87.181    0.850    0.445    0.247
  489.000   87.156    0.900    0.447    0.221
  489.250   84.624    0.954    0.449    0.206
  489.500   83.361    1.010    0.453    0.265
  489.750   80.203    1.134    0.458    0.337
  490.000   78.302    1.202    0.471    0.366
  490.250   75.769    1.201    0.478    0.372
  490.500   74.500    1.177    0.483    0.341
  490.750   75.732    1.154    0.482    0.318
  491.000   88.216    1.153    0.473    0.324
  491.250   86.934    1.108    0.476    0.340
  491.500   85.658    1.065    0.487    0.351
  491.750   86.259    1.044    0.500    0.356
  492.000   86.228    1.023    0.505    0.359
  492.250   86.216    1.003    0.507    0.355
  492.500   86.817    1.002    0.495    0.349
  492.750   88.668    1.002    0.485    0.349
  493.000   86.761    1.001    0.484    0.348
  493.250   84.854    1.020    0.476    0.337
  493.500   84.823    1.019    0.471    0.341
  493.750   84.811    1.039    0.475    0.344
  494.000   84.786    1.144    0.484    0.350
  494.250   82.253    1.212    0.500    0.343
  494.500   80.353    1.283    0.512    0.341
  494.750   83.461    1.283    0.523    0.337
  495.000   82.811    1.282    0.519    0.330
  495.250   80.285    1.208    0.492    0.327
  495.500   80.260    1.184    0.486    0.329
  495.750   82.737    1.207    0.494    0.329
  496.000   83.338    1.206    0.498    0.329
  496.250   82.687    1.137    0.482    0.329
  496.500   84.539    1.072    0.487    0.327
  496.750   90.143    1.030    0.497    0.320
  497.000   91.995    0.971    0.508    0.314
  497.250   91.344    0.952    0.511    0.312
  497.500   86.942    0.951    0.515    0.319
  497.750   81.288    0.915    0.530    0.336
  498.000   83.140    0.879    0.537    0.355
  498.250   84.354    0.845    0.547    0.415
  498.500   82.453    0.828    0.555    0.466
  498.750   76.805    0.812    0.564    0.493
  499.000   71.771    0.843    0.574    0.508
  499.250   71.127    0.965    0.575    0.524
  499.500   67.969    1.105    0.586    0.545
  499.750   61.697    1.567    0.593    0.545
  500.000   58.545    3.610    0.600    0.539
  500.250   60.397    3.680    0.599    0.523
  500.500   58.489    5.117    0.585    0.489
  500.750   50.966    7.840    0.569    0.450
  501.000   36.551   11.332    0.502    0.343
  501.250   31.523   15.755    0.502    0.350
  501.500   28.365   18.753    0.524    0.370
  501.750   26.464   21.053    0.507    0.457
  502.000   25.188   21.873    0.477    0.562
  502.250   24.544   23.170    0.467    0.587
  502.500   24.507   24.068    0.511    0.583
  502.750   24.489   24.532    0.530    0.572
  503.000   25.096   24.508    0.566    0.560
  503.250   25.065   24.496    0.576    0.550
  503.500   25.040   24.484    0.572    0.529
  503.750   25.021   24.468    0.373    0.505
  504.000   24.991   24.447    0.359    0.488
  504.250   24.966   24.435    0.370    0.477
  504.500   24.941   24.415    0.417    0.475
  504.750   25.542   24.882    0.428    0.472
  505.000   28.006   25.349    0.443    0.467
  505.250   28.620   25.332    0.459    0.447
  505.500   31.722   24.824    0.461    0.384
  505.750   34.193   23.870    0.455    0.342
  506.000   36.670   20.822    0.451    0.306
  506.250   39.766   18.163    0.450    0.292
  506.500   42.874   14.944    0.447    0.322
  506.750   45.977   13.037    0.455    0.353
  507.000   48.460   10.520    0.480    0.507
  507.250   51.562    8.824    0.518    0.553
  507.500   55.290    8.651    0.551    0.526
  507.750   62.770    7.844    0.585    0.509
  508.000   68.374    7.113    0.587    0.463
  508.250   70.857    6.451    0.582    0.451
  508.500   76.455    5.965    0.565    0.448
  508.750   80.189    5.515    0.540    0.445
  509.000   86.412    5.099    0.501    0.447
  509.250   87.019    5.196    0.521    0.455
  509.500   85.118    5.612    0.549    0.460
  509.750   76.332    6.062    0.555    0.451
  510.000   66.926    6.941    0.527    0.433
  510.250   52.517    9.465    0.393    0.362
  510.500   41.234   12.658    0.337    0.313
  510.750   36.206   19.775    0.315    0.288
  511.000   31.166   24.950    0.316    0.289
  511.250   28.646   27.477    0.325    0.284
  511.500   27.996   27.997    0.334    0.279
  511.750   27.340   26.908    0.353    0.283
  512.000   27.940   25.364    0.395    0.291
  512.250   36.678   23.916    0.415    0.291
  512.500   45.409   23.440    0.438    0.303
  512.750   49.130   21.253    0.448    0.332
  513.000   52.239   18.906    0.448    0.361
  513.250   59.093   15.258    0.455    0.331
  513.500   61.564   13.056    0.468    0.303
  513.750   61.540    8.510    0.518    0.356
  514.000   63.397    6.232    0.549    0.429
  514.250   66.493    5.229    0.574    0.490
  514.500   67.720    5.328    0.568    0.489
  514.750   68.326    5.983    0.539    0.480
  515.000   68.302    6.718    0.517    0.454
  515.250   67.026    8.476    0.464    0.400
  515.500   65.751   11.558    0.382    0.367
  515.750   65.101   15.761    0.415    0.336
  516.000   65.076   19.503    0.419    0.308
  516.250   65.045   21.477    0.415    0.300
  516.500   66.265   21.463    0.410    0.279
  516.750   66.253   20.632    0.409    0.253
  517.000   67.473   18.350    0.409    0.242
  517.250   67.454   16.640    0.409    0.272
  517.500   68.049   15.386    0.406    0.296
  517.750   69.275   14.790    0.402    0.303
  518.000   67.368   15.070    0.402    0.309
  518.250   64.228   17.590    0.405    0.319
  518.500   59.200   19.374    0.410    0.327
  518.750   49.157   22.181    0.422    0.328
  519.000   44.760   23.958    0.427    0.328
  519.250   42.234   24.412    0.429    0.330
  519.500   40.958   24.870    0.434    0.331
  519.750   40.934   25.838    0.410    0.334
  520.000   40.903   26.332    0.403    0.332
  520.250   40.878   26.306    0.412    0.330
  520.500   40.222   26.808    0.427    0.328
  520.750   40.209   26.791    0.436    0.331
  521.000   39.559   26.773    0.437    0.335
  521.250   38.903   26.241    0.455    0.336
  521.500   39.504   24.739    0.468    0.332
  521.750   41.355   24.251    0.462    0.328
  522.000   39.454   23.303    0.455    0.327
  522.250   38.810   22.848    0.460    0.328
  522.500   38.773   22.382    0.467    0.331
  522.750   38.755   22.371    0.465    0.334
  523.000   39.349   21.930    0.459    0.333
  523.250   39.331   21.490    0.459    0.328
  523.500   41.182   21.480    0.466    0.317
  523.750   42.408   20.247    0.475    0.313
  524.000   44.248   19.466    0.480    0.338
  524.250   44.235   17.646    0.485    0.347
  524.500   46.074   16.642    0.479    0.346
  524.750   47.301   15.385    0.452    0.342
  525.000   47.914   14.505    0.443    0.335
  525.250   49.140   13.411    0.436    0.316
  525.500   49.115   13.145    0.405    0.315
  525.750   47.208   13.656    0.395    0.314
  526.000   44.056   14.752    0.387    0.310
  526.250   42.787   15.934    0.385    0.299
  526.500   40.880   15.921    0.383    0.290
  526.750   44.614   14.721    0.383    0.262
  527.000   50.843   13.614    0.391    0.251
  527.250   57.072   12.104    0.415    0.284
  527.500   62.676   11.865    0.420    0.287
  527.750   68.906   11.186    0.428    0.267
  528.000   75.135   10.544    0.427    0.265
  528.250   75.111   10.338    0.395    0.318
