~VERSION INFORMATION
 VERS.                 2.0:   CWLS LOG ASCII STANDARD -VERSION 2.0
 WRAP.                  NO:   ONE LINE PER DEPTH STEP
~WELL INFORMATION BLOCK
#MNEM.UNIT           DATA                    DESCRIPTION OF MNEMONIC
#---------    -------------------            -------------------------------
# Generated from Intellog Unique Number	CW_76_78/WELL/2778
WELL.         AMOCO MCULLEN                  : Well_name    - WELL
LOC .         AA/06-23-077-25W4/0            : Location     - LOCATION
UWI .         AA/06-23-077-25W4/0            : Uwi          - UNIQUE WELL ID
ENTR.         JOE                            : Entered      - ENTERED BY
SRVC.         WESTERN ATLAS                  : Scn          - SERVICE COMPANY
STRT.M        435                            : top_depth    - START DEPTH
STOP.M        686                            : bot_depth    - STOP DEPTH
STEP.M        0.25                           : increment    - STEP LENGTH
 NULL. -999.2500:NULL Value
~CURVE INFORMATION BLOCK
#MNEM UNIT       ERCB CURVE CODE    CURVE DESCRIPTION
#-----------   ------------------   ----------------------------------
DEPT.M        00 001 00 00         : DEPTH        - DEPTH
CALI.MM       00 280 01 00         : CAL          - CALIPER
ILD .OHMM     00 120 00 00         : RESD         - DEEP RESISTIVITY (DIL)
DPHI.V/V      00 890 00 00         : PHID         - DENSITY POROSITY (SANDSTONE)
NPHI.V/V      00 330 00 00         : PHIN         - NEUTRON POROSITY (SANDSTONE)
GR  .API      00 310 00 00         : GR           - GAMMA RAY
~PARAMETER INFORMATION
#MNEM.UNIT           DATA             DESCRIPTION OF MNEMONIC
#---------         -----------     ------------------------------
GL  .M        737.31               : gl           - GROUND LEVEL ELEVATION
EREF.M        741                  : kb           - ELEVATION OF DEPTH REFERENCE
DATM.M        741                  : datum        - DATUM ELEVATION
TDD .M        690                  : tdd          - TOTAL DEPTH DRILLER
RUN .         ONE                  : Run          - RUN NUMBER
ENG .         KAWOLSKI             : Engineer     - RECORDING ENGINEER
WIT .         BROWN                : Witness      - WITNESSED BY
MUD .         GEL                  : Mud_type     - MUD TYPE
MATR.         SANDSTONE            : Logunit      - NEUTRON MATRIX
TMAX.C        32                   : BHT          - MAXIMUM RECORDED TEMPERATURE
BHTD.M        687.5                : BHTDEP       - MAXIMUM RECORDED TEMPERATURE
RMT .C        24                   : MDTP         - TEMPERATURE OF MUD
MUDD.KG/M     1130                 : MWT          - MUD DENSITY
NEUT.         1                    : NEUTRON      - NEUTRON TYPE
RESI.         0                    : RESIST       - RESISTIVITY TYPE
RM  .OHMM     3                    : RM           - RESISTIVITY OF MUD
RMC .OHMM     3.2                  : RMC          - RESISTIVITY OF MUD CAKE
RMF .OHMM     2.8                  : RMF          - RESISTIVITY OF MUD FILTRATE
SUFT.C        0                    : SUFT         - SURFACE TEMPERATURE
~A  DEPTH      CAL     RESD     PHID     PHIN       GR
# ...
  471.500  172.529   15.165    0.259    0.308   35.298
  471.750  172.579   27.028    0.259    0.302   36.869
  472.000  172.642   40.737    0.259    0.293   43.681
  472.250  172.687   42.702    0.258    0.286   41.859
  472.500  172.737   40.776    0.256    0.283   39.117
  472.750  172.788   36.479    0.254    0.283   39.767
  473.000  172.325   31.440    0.253    0.282   41.650
  473.250  171.868   29.468    0.252    0.277   39.523
  473.500  171.919   29.482    0.251    0.274   36.777
  473.750  171.963   29.494    0.249    0.277   34.963
  474.000  172.014   28.162    0.237    0.290   35.606
  474.250  172.077   25.195    0.219    0.296   38.413
  474.500  172.128   20.345    0.188    0.302   45.833
  474.750  172.172   13.764    0.171    0.307   61.578
  475.000  172.229   10.126    0.180    0.313  101.666
  475.250  173.313    7.951    0.187    0.325  110.634
  475.500  174.384    6.982    0.199    0.355  107.583
  475.750  175.455    6.668    0.202    0.354  102.989
  476.000  177.566    6.670    0.200    0.340   90.696
  476.250  178.643    6.798    0.193    0.349   85.486
  476.500  179.201    6.801    0.178    0.363   91.373
  476.750  179.771    6.555    0.150    0.382  103.726
  477.000  179.822    6.201    0.149    0.387  106.537
  477.250  180.386    5.600    0.165    0.380  104.107
  477.500  180.436    5.010    0.172    0.389  107.518
  477.750  180.487    4.441    0.169    0.398  115.866
  478.000  180.537    3.722    0.167    0.398  123.910
  478.250  180.594    3.456    0.174    0.393  121.172
  478.500  180.594    3.300    0.194    0.387  121.510
  478.750  180.702    3.271    0.208    0.382  125.234
  479.000  180.740    3.303    0.206    0.373  129.577
  479.250  180.740    3.398    0.202    0.351  128.991
  479.500  180.860    3.662    0.191    0.326  123.784
  479.750  180.904    4.059    0.189    0.335  110.260
  480.000  180.948    4.847    0.188    0.345  104.745
  480.250  181.012    6.008    0.190    0.306  106.011
  480.500  180.542    7.042    0.198    0.299  108.810
  480.750  180.587    7.733    0.213    0.307  107.608
  481.000  180.644    7.665    0.227    0.331  106.406
  481.250  180.694    7.387    0.243    0.341  108.285
  481.500  180.238    6.860    0.250    0.333  106.163
  481.750  180.276    6.612    0.245    0.311  102.496
  482.000  179.306    6.802    0.235    0.295   96.978
  482.250  178.336    7.263    0.232    0.289   88.690
  482.500  177.873    7.975    0.237    0.292   77.634
  482.750  176.890    8.840    0.248    0.301   73.035
  483.000  175.914   10.361    0.265    0.318   69.061
  483.250  174.937   12.962    0.285    0.339   66.010
  483.500  174.937   16.066    0.294    0.360   63.580
  483.750  175.064   20.668    0.295    0.375   62.686
  484.000  175.609   26.343    0.288    0.348   63.641
  484.250  177.213   33.577    0.269    0.316   67.676
  484.500  177.758   35.192    0.232    0.312   73.868
  484.750  178.848   33.921    0.179    0.307   74.822
  485.000  179.405   32.091    0.127    0.297   71.156
  485.250  179.982   29.523    0.080    0.281   67.797
  485.500  180.533   27.160    0.053    0.258   64.751
  485.750  181.098   24.754    0.047    0.196   63.237
  486.000  181.148   22.353    0.063    0.202   62.651
  486.250  181.205   18.389    0.123    0.231   66.686
  486.500  180.229   12.325    0.227    0.267   76.271
  486.750  179.246    8.984    0.262    0.336   88.936
  487.000  177.763    6.609    0.285    0.347   88.350
  487.250  177.306    5.858    0.281    0.336   82.523
  487.500  176.837    6.373    0.273    0.331   72.387
  487.750  176.374    7.469    0.268    0.340   67.492
  488.000  176.431   10.547    0.265    0.343   65.362
  488.250  176.431   16.811    0.262    0.338   63.548
  488.500  176.025   24.870    0.259    0.326   62.038
  488.750  176.069   30.539    0.255    0.307   61.760
  489.000  175.600   34.486    0.253    0.303   62.711
  489.250  175.137   35.480    0.252    0.315   64.597
  489.500  174.674   34.840    0.252    0.327   64.932
  489.750  174.211   32.959    0.253    0.319   64.966
  490.000  173.755   32.066    0.257    0.307   65.301
  490.250  173.812   32.377    0.264    0.310   65.335
  490.500  173.349   31.208    0.276    0.314   63.521
  490.750  173.406   28.709    0.287    0.317   61.695
  491.000  173.444   24.976    0.296    0.324   59.569
  491.250  173.501   21.329    0.304    0.331   61.140
  491.500  173.501   18.213    0.313    0.340   64.254
  491.750  173.095   16.913    0.318    0.347   66.441
  492.000  173.133   16.918    0.316    0.355   65.243
  492.250  172.163   18.237    0.309    0.357   62.805
  492.500  171.700   19.293    0.301    0.351   57.286
  492.750  171.237   20.034    0.295    0.346   53.004
  493.000  171.287   20.042    0.289    0.341   58.275
  493.250  171.338   18.961    0.288    0.346   65.395
  493.500  170.875   17.283    0.293    0.356   63.265
  493.750  170.419   16.197    0.298    0.368   59.290
  494.000  169.956   14.491    0.301    0.373   64.566
  494.250  168.973   13.331    0.302    0.370   65.513
  494.500  169.030   12.494    0.302    0.357   63.702
  494.750  168.561   11.821    0.299    0.345   61.264
  495.000  168.098   11.609    0.295    0.330   59.446
  495.250  168.155   11.831    0.289    0.317   59.168
  495.500  168.199   12.401    0.267    0.310   57.658
  495.750  168.250   13.241    0.224    0.303   55.228
  496.000  168.820   15.092    0.180    0.299   52.790
  496.250  168.877   17.689    0.195    0.301   49.431
  496.500  169.441   20.927    0.222    0.311   49.154
  496.750  169.491   22.556    0.254    0.341   52.573
  497.000  169.548   22.356    0.256    0.349   57.224
  497.250  169.586   20.567    0.245    0.331   57.871
  497.500  168.610   17.892    0.221    0.319   56.053
  497.750  166.106   15.279    0.216    0.314   55.779
  498.000  165.123   12.338    0.211    0.314   58.890
  498.250  164.667   10.535    0.200    0.314   64.157
  498.500  165.738    9.338    0.180    0.313   70.657
  498.750  167.855    7.974    0.159    0.317   77.777
  499.000  168.920    7.267    0.157    0.318   80.888
  499.250  170.517    7.005    0.178    0.310   76.297
  499.500  171.081    7.342    0.203    0.304   71.090
  499.750  171.645    7.913    0.225    0.304   73.285
  500.000  172.209    8.371    0.229    0.304   73.927
  500.250  172.767    9.905    0.228    0.302   75.494
  500.500  173.344   10.382    0.225    0.303   78.609
  500.750  173.381   10.099    0.209    0.305   81.720
  501.000  173.952    9.917    0.189    0.301   81.442
  501.250  174.516   10.108    0.156    0.292   78.088
  501.500  174.573   10.496    0.133    0.283   73.181
  501.750  174.623   10.899    0.145    0.286   68.899
  502.000  174.668   11.748    0.171    0.293   67.697
  502.250  174.217   12.662    0.187    0.286   70.812
  502.500  174.255   13.270    0.198    0.290   69.922
  502.750  174.312   13.909    0.212    0.296   70.264
  503.000  173.849   13.915    0.226    0.309   72.759
  503.250  173.906   13.538    0.244    0.328   73.706
  503.500  173.944   12.688    0.257    0.336   72.196
  503.750  174.001   11.782    0.272    0.323   70.073
  504.000  174.064   10.839    0.289    0.326   71.648
  504.250  173.595   10.255    0.303    0.343   72.606
  504.500  171.598    9.977    0.320    0.369   72.321
  504.750  171.129    9.888    0.357    0.404   69.271
  505.000  171.687   10.172    0.411    0.445   63.136
  505.250  172.251   10.563    0.329    0.413   48.995
  505.500  172.815   11.175    0.299    0.343   48.101
  505.750  172.358   11.823    0.256    0.322   53.369
  506.000  171.895   12.276    0.256    0.330   57.103
  506.250  171.439   12.281    0.259    0.343   57.134
  506.500  170.982   12.059    0.266    0.332   59.009
  506.750  170.982   12.178    0.271    0.327   58.115
  507.000  171.071   12.297    0.277    0.331   55.989
  507.250  170.608   13.131    0.281    0.336   57.563
  507.500  170.151   15.248    0.284    0.345   60.670
  507.750  170.196   18.209    0.286    0.358   63.473
