~VERSION INFORMATION
 VERS.                 2.0:   CWLS LOG ASCII STANDARD -VERSION 2.0
 WRAP.                  NO:   ONE LINE PER DEPTH STEP
~WELL INFORMATION BLOCK
#MNEM.UNIT           DATA                    DESCRIPTION OF MNEMONIC
#---------    -------------------            -------------------------------
# Generated from Intellog Unique Number	CN_94_101/WELL/3242
WELL.         01-36-096-09W4                 : Well_name    - WELL
LOC .         AA/01-36-096-09W4/0            : Location     - LOCATION
UWI .         AA/01-36-096-09W400            : Uwi          - UNIQUE WELL ID
ENTR.         JOETTE                         : Entered      - ENTERED BY
SRVC.         SCHLUMBERGER                   : Scn          - SERVICE COMPANY
DATE.         07/20/92                       : Date         - LOG DATE
STRT.M        0                              : top_depth    - START DEPTH
STOP.M        90                             : bot_depth    - STOP DEPTH
STEP.M        0.25                           : increment    - STEP LENGTH
 NULL. -999.2500:NULL Value
~CURVE INFORMATION BLOCK
#MNEM UNIT       ERCB CURVE CODE    CURVE DESCRIPTION
#-----------   ------------------   ----------------------------------
DEPT.M        00 001 00 00         : DEPTH        - DEPTH
GR  .API      00 310 00 00         : GR           - GAMMA RAY
ILD .OHMM     00 120 00 00         : RESD         - DEEP RESISTIVITY (DIL)
RHOB.KG/M3    00 350 00 00         : DENS         - BULK DENSITY
NPHI.V/V      00 330 00 00         : PHIN         - NEUTRON POROSITY (SANDSTONE)
DPHI.V/V      00 890 00 00         : PHID         - DENSITY POROSITY (SANDSTONE)
~PARAMETER INFORMATION
#MNEM.UNIT           DATA             DESCRIPTION OF MNEMONIC
#---------         -----------     ------------------------------
GL  .M        289.24               : gl           - GROUND LEVEL ELEVATION
EREF.M        289.24               : kb           - ELEVATION OF DEPTH REFERENCE
DATM.M        289.24               : datum        - DATUM ELEVATION
TDD .M        94.8                 : tdd          - TOTAL DEPTH DRILLER
RUN .         ONE                  : Run          - RUN NUMBER
ENG .         JO                   : Engineer     - RECORDING ENGINEER
WIT .         TIM                  : Witness      - WITNESSED BY
MUD .         GEL                  : Mud_type     - MUD TYPE
MATR.         SANDSTONE            : Logunit      - NEUTRON MATRIX
TMAX.C        5                    : BHT          - MAXIMUM RECORDED TEMPERATURE
BHTD.M        94.8                 : BHTDEP       - MAXIMUM RECORDED TEMPERATURE
RMT .C        5                    : MDTP         - TEMPERATURE OF MUD
MUDD.KG/M     1090                 : MWT          - MUD DENSITY
NEUT.         1                    : NEUTRON      - NEUTRON TYPE
RESI.         0                    : RESIST       - RESISTIVITY TYPE
RM  .OHMM     5.75                 : RM           - RESISTIVITY OF MUD
RMC .OHMM     5.75                 : RMC          - RESISTIVITY OF MUD CAKE
RMF .OHMM     5.75                 : RMF          - RESISTIVITY OF MUD FILTRATE
SUFT.C        4                    : SUFT         - SURFACE TEMPERATURE
~A  DEPTH       GR     RESD     DENS     PHIN     PHID
# ...
   36.500   26.546   20.278 1836.010    0.461    0.493
   36.750   22.798   24.366 2060.660    0.467    0.357
   37.000   24.723   27.970 2209.140    0.458    0.267
   37.250   26.168   27.569 2195.190    0.459    0.276
   37.500   24.316   32.139 2163.210    0.458    0.295
   37.750   21.989   31.672 2207.430    0.449    0.268
   38.000   21.077   40.449 2205.530    0.439    0.269
   38.250   21.114   39.869 2199.600    0.444    0.273
   38.500   18.782   37.548 2157.620    0.457    0.298
   38.750   16.923   42.450 2139.650    0.461    0.309
   39.000   17.900   45.154 2177.850    0.458    0.286
   39.250   19.352   48.773 2177.950    0.460    0.286
   39.500   18.441   58.600 2190.080    0.456    0.279
   39.750   20.366   80.764 2210.210    0.448    0.267
   40.000   17.567   94.124 2188.250    0.443    0.280
   40.250   16.179  114.859 2192.390    0.459    0.277
   40.500   16.216  116.704 2182.440    0.455    0.283
   40.750   17.660  111.589 2172.520    0.453    0.289
   41.000   17.221  136.145 2186.650    0.454    0.281
   41.250   17.730  173.856 2176.730    0.454    0.287
   41.500   19.179  239.614 2182.850    0.450    0.283
   41.750   18.735  301.388 2198.980    0.451    0.273
   42.000   18.768  236.367 2187.050    0.440    0.281
   42.250   21.633  132.572 2257.330    0.439    0.238
   42.500   21.194   54.823 2335.610    0.442    0.191
   42.750   22.179   30.284 2311.650    0.448    0.205
   43.000   20.795   35.297 2243.580    0.456    0.246
   43.250   29.321   11.972 2213.600    0.462    0.264
   43.500   57.678    5.262 2482.370    0.481    0.102
   43.750   73.769    4.453 2344.130    0.506    0.185
   44.000   63.412    4.457 2354.260    0.517    0.179
   44.250   45.034    5.438 2246.090    0.507    0.245
   44.500   36.566    6.243 2274.250    0.487    0.228
   44.750   33.294    7.617 2184.130    0.470    0.282
   45.000   33.811    7.064 2306.540    0.462    0.208
   45.250   36.668    6.258 2348.740    0.466    0.183
   45.500   44.725    5.804 2320.760    0.478    0.200
   45.750   47.595    5.549 2346.920    0.488    0.184
   46.000   53.292    5.553 2365.060    0.491    0.173
   46.250   52.377    5.390 2224.820    0.483    0.258
   46.500   50.521    6.283 2190.830    0.461    0.278
   46.750   59.999    5.827 2261.100    0.479    0.236
   47.000   68.529    5.487 2363.460    0.520    0.174
   47.250   68.561    4.504 2265.310    0.533    0.233
   47.500   66.234    4.372 2297.480    0.521    0.214
   47.750   53.049    4.651 2339.700    0.503    0.188
   48.000   46.001    5.762 2371.890    0.481    0.169
   48.250   44.145    5.945 2402.050    0.457    0.150
   48.500   41.345    5.430 2460.300    0.456    0.115
   48.750   37.130    6.233 2366.150    0.445    0.172
   49.000   24.416    6.530 2298.090    0.425    0.213
   49.250   24.925    6.535 2167.850    0.426    0.292
   49.500   31.091    5.702 2186.010    0.433    0.281
   49.750   41.037    6.066 2392.610    0.439    0.156
   50.000   57.124    5.374 2456.880    0.480    0.117
   50.250   69.902    4.688 2348.700    0.510    0.183
   50.500   79.848    4.552 2208.450    0.538    0.268
   50.750   91.210    4.286 2112.320    0.546    0.326
   51.000   90.299    4.098 2040.230    0.554    0.370
   51.250   80.418    4.101 2110.510    0.559    0.327
   51.500   85.652    4.104 2142.690    0.561    0.307
   51.750   83.796    4.171 1775.870    0.561    0.530
   52.000   79.576    4.437 1695.780    0.562    0.578
   52.250   80.081    4.940 1603.640    0.560    0.634
   52.500   82.478    5.019 1691.960    0.555    0.581
   52.750   89.120    4.655 1796.320    0.549    0.517
   53.000   84.432    4.252 2167.330    0.548    0.293
   53.250   77.379    4.387 2249.660    0.543    0.243
   53.500   73.640    4.595 2335.950    0.529    0.190
   53.750   68.948    4.964 2448.330    0.491    0.122
   54.000   65.204    5.361 2462.460    0.471    0.114
   54.250   65.241    5.702 2492.640    0.457    0.095
   54.500   61.493    5.974 2516.810    0.448    0.081
   54.750   60.586    6.164 2524.920    0.444    0.076
   55.000   57.314    6.263 2549.090    0.444    0.061
   55.250   52.150    6.081 2541.170    0.443    0.066
   55.500   49.354    5.726 2549.280    0.441    0.061
   55.750   50.803    5.474 2563.400    0.441    0.052
   56.000   60.749    6.380 2443.210    0.438    0.125
   56.250   69.283    6.194 2519.490    0.436    0.079
   56.500   69.788    6.199 2517.590    0.448    0.080
   56.750   65.096    6.493 2471.570    0.477    0.108
   57.000   50.494    6.802 2247.120    0.508    0.244
   57.250   47.227    7.575 2225.160    0.516    0.257
   57.500   45.367    9.385 2086.910    0.516    0.341
   57.750   55.313    8.972 2307.560    0.515    0.208
   58.000   67.147    7.829 2405.900    0.514    0.148
   58.250   86.539    6.728 2440.080    0.516    0.127
   58.500   86.099    6.631 2488.310    0.518    0.098
   58.750   88.964    6.536 2522.490    0.521    0.077
   59.000   97.026    5.880 2470.460    0.525    0.109
   59.250   90.446    5.453 2542.740    0.528    0.065
   59.500   80.097    5.213 2741.330    0.536   -0.055
   59.750   82.963    4.479 2560.980    0.537    0.054
   60.000   82.995    4.838 2180.130    0.529    0.285
   60.250   80.195    5.469 2164.200    0.516    0.294
   60.500   78.808    5.731 2182.330    0.506    0.283
   60.750   79.317    5.734 2425.040    0.504    0.136
   61.000   74.629    5.828 2503.330    0.502    0.089
   61.250   70.409    5.922 2551.540    0.502    0.060
   61.500   70.918    6.019 2573.720    0.499    0.046
   61.750   65.754    6.305 2587.850    0.495    0.038
   62.000   70.043    6.605 2543.830    0.491    0.064
   62.250   74.792    6.412 2459.710    0.492    0.115
   62.500   73.881    6.225 2403.670    0.494    0.149
   62.750   66.837    6.722 2459.920    0.497    0.115
   63.000   71.590    6.426 2445.980    0.495    0.124
   63.250   68.790    6.530 2458.110    0.491    0.116
   63.500   65.515    6.946 2426.130    0.485    0.136
   63.750   69.328    6.155 2442.270    0.488    0.126
   64.000   73.609    6.160 2440.360    0.499    0.127
   64.250   75.054    6.164 2470.530    0.500    0.109
   64.500   61.873    6.658 2398.450    0.497    0.152
   64.750   62.846    8.123 2252.190    0.495    0.241
   65.000   61.462    8.131 2266.310    0.493    0.233
   65.250   60.083    8.780 2304.520    0.489    0.209
   65.500   55.867    9.341 2278.560    0.489    0.225
   65.750   51.651    9.348 2236.550    0.484    0.251
   66.000   49.328    9.644 2284.770    0.478    0.221
   66.250   49.360    9.799 2164.570    0.490    0.294
   66.500   49.389   10.425 2292.980    0.495    0.216
   66.750   41.868   11.432 2194.840    0.496    0.276
   67.000   35.764   12.536 2134.790    0.494    0.312
   67.250   31.081   13.133 2076.730    0.493    0.347
   67.500   31.117   13.145 2116.940    0.492    0.323
   67.750   31.614   13.154 2139.100    0.492    0.310
   68.000   28.346   13.166 2135.180    0.491    0.312
   68.250   29.323   13.176 2119.240    0.489    0.322
   68.500   27.936   13.185 2091.280    0.486    0.339
   68.750   28.444   13.399 2087.370    0.482    0.341
   69.000   31.786   12.618 2097.490    0.481    0.335
   69.250   31.810   11.523 2127.650    0.483    0.317
   69.500   30.899   12.257 2205.950    0.489    0.269
   69.750   25.743   12.647 2121.830    0.488    0.320
   70.000   25.775   12.658 2097.870    0.485    0.335
   70.250   26.276   12.863 2112.030    0.482    0.326
   70.500   26.313   12.873 2112.130    0.477    0.326
   70.750   25.406   13.082 2140.270    0.474    0.309
   71.000   21.658   13.093 2138.380    0.471    0.310
   71.250   21.218   12.710 2124.450    0.468    0.319
   71.500   22.671   13.114 2176.670    0.468    0.287
   71.750   24.120   12.730 2146.690    0.472    0.305
   72.000   24.153   10.938 2072.610    0.479    0.350
   72.250   27.486    9.841 2052.660    0.487    0.362
   72.500   26.575   11.296 2036.710    0.485    0.372
   72.750   26.135   11.654 2028.810    0.481    0.376
