~VERSION INFORMATION
 VERS.                 2.0:   CWLS LOG ASCII STANDARD -VERSION 2.0
 WRAP.                  NO:   ONE LINE PER DEPTH STEP
~WELL INFORMATION BLOCK
#MNEM.UNIT           DATA                    DESCRIPTION OF MNEMONIC
#---------    -------------------            -------------------------------
# Generated from Intellog Unique Number	CC_84_87/WELL/1047
NULL.         -999.25                        : NULL_VALUE
WELL.         ARCO ACI MCMURRAY              : Well_name    - WELL              
LOC .         02-26-084-10W4                 : Location     - LOCATION          
UWI .         AA/02-26-084-10W400            : Uwi          - UNIQUE WELL ID    
ENTR.         JHS                            : Entered      - ENTERED BY        
SRVC.         SCHLUMBERGER                   : Scn          - SERVICE COMPANY   
DATE.         08 FEB 74                      : Date         - LOG DATE
STRT.M        170.688                        : top_depth    - START DEPTH       
STOP.M        392.083                        : bot_depth    - STOP DEPTH        
STEP.M        0.3                            : increment    - STEP LENGTH       
~CURVE INFORMATION BLOCK
#MNEM UNIT       ERCB CURVE CODE    CURVE DESCRIPTION
#-----------   ------------------   ----------------------------------
DEPT.M        00 001 00 00         : DEPTH        - DEPTH                       
RHOB.KG/M3    00 350 00 00         : DENS         - BULK DENSITY                
GR  .API      00 310 00 00         : GR           - GAMMA RAY                   
NPHI.V/V      00 330 00 00         : PHIN         - NEUTRON POROSITY (LIMESTONE)
ILD .OHMM     00 120 00 00         : RESD         - DEEP RESISTIVITY (DIL)      
~PARAMETER INFORMATION       
#MNEM.UNIT           DATA             DESCRIPTION OF MNEMONIC
#---------         -----------     ------------------------------
GL  .M        643.829              : gl           - GROUND LEVEL ELEVATION      
EREF.M        646.877              : kb           - ELEVATION OF DEPTH REFERENCE
DATM.M        646.877              : datum        - DATUM ELEVATION             
TDD .M        390.449              : tdd          - TOTAL DEPTH DRILLER         
RUN .         ONE                  : Run          - RUN NUMBER                  
ENG .         BILL                 : Engineer     - RECORDING ENGINEER          
WIT .         JIM                  : Witness      - WITNESSED BY                
MUD .         GEL                  : Mud_type     - MUD TYPE                    
MATR.         LIMESTONE            : Logunit      - NEUTRON MATRIX              
TMAX.C        60                   : BHT          - MAXIMUM RECORDED TEMPERATURE
BHTD.M        390.449              : BHTDEP       - MAXIMUM RECORDED TEMPERATURE
MATR.         1                    : LOGUNIT      - NEUTRON MATRIX              
RMT .C        25                   : MDTP         - TEMPERATURE OF MUD          
NEUT.         1                    : NEUTRON      - NEUTRON TYPE                
RESI.         0                    : RESIST       - RESISTIVITY TYPE            
RMC .OHMM     0.25                 : RMC          - RESISTIVITY OF MUD CAKE     
RMF .OHMM     0.25                 : RMF          - RESISTIVITY OF MUD FILTRATE 
SUFT.C        15                   : SUFT         - SURFACE TEMPERATURE         
~A  DEPTH     DENS       GR     PHIN     RESD
# ...
  327.286 2278.570  101.684    0.305    9.734
  327.586 2318.070   97.568    0.296    9.731
  327.886 2355.600   96.404    0.290    9.906
  328.186 2324.100  102.328    0.317    9.902
  328.486 2272.870  107.660    0.313    9.547
  328.786 2251.220  104.135    0.312    9.038
  329.086 2269.040  105.922    0.335    8.714
  329.386 2259.240  110.076    0.348    8.101
  329.686 2257.300  108.909    0.364    7.397
  329.986 2281.020  107.154    0.352    6.877
  330.286 2302.780  108.943    0.329    6.166
  330.586 2269.300  111.913    0.335    5.838
  330.886 2237.790  106.615    0.342    5.234
  331.186 2216.160   99.549    0.367    4.526
  331.486 2093.920  100.747    0.402    3.575
  331.786 2107.780   96.629    0.449    3.264
  332.086 2149.260   89.560    0.442    3.147
  332.386 2220.330   91.937    0.363    3.571
  332.686 2228.260   94.320    0.349    4.280
  332.986 2226.340   83.704    0.341    5.222
  333.286 2216.550   83.130    0.330    5.821
  333.586 2210.680   81.378    0.336    5.925
  333.886 2208.750   86.708    0.341    5.509
  334.186 2208.800   94.404    0.354    4.764
  334.486 2195.060   99.146    0.392    4.045
  334.786 2179.330  108.019    0.422    3.900
  335.086 2177.400  100.950    0.411    4.346
  335.386 2241.590   96.260    0.278    6.620
  335.686 2297.090   95.095    0.264    6.857
  335.986 2429.810   77.395    0.290    6.141
  336.286 2301.150   85.087    0.378    5.209
  336.586 2216.050   99.866    0.409    4.034
  336.886 2184.430  101.063    0.443    3.421
  337.186 2138.930  113.480    0.415    3.236
  337.486 2188.490  110.543    0.414    3.232
  337.786 2216.260  107.607    0.405    3.348
  338.086 2210.380  107.621    0.410    3.662
  338.386 2210.430  108.228    0.404    3.863
  338.686 2216.420  105.289    0.391    3.859
  338.986 2224.390  106.487    0.378    3.998
  339.285 2281.880  108.274    0.402    4.618
  339.585 2309.650  107.107    0.371    4.782
  339.885 2351.280   95.903    0.357    4.777
  340.185 2323.610  109.501    0.389    4.601
  340.485 2222.690  110.701    0.385    4.352
  340.785 2212.830  107.763    0.407    3.898
  341.085 2187.130  107.778    0.423    3.621
  341.385 2161.440  120.193    0.381    3.550
  341.685 2203.080  121.984    0.385    3.747
  341.985 2191.250  117.861    0.355    4.408
  342.285 2234.860  104.295    0.332    5.184
  342.585 2177.490   97.814    0.317    5.989
  342.885 2203.290   99.603    0.316    6.671
  343.185 2219.190   93.713    0.322    7.167
  343.485 2207.360   93.138    0.341    7.290
  343.785 2199.500   91.971    0.302    7.281
  344.085 2199.550   89.624    0.283    7.407
  344.385 2197.610   87.279    0.292    7.955
  344.685 2191.730   91.427    0.311    8.700
  344.985 2191.770   99.120    0.300    8.850
  345.285 2213.620   95.594    0.322    9.005
  345.585 2209.700  102.695    0.315    8.993
  345.885 2211.730  115.111    0.290    8.823
  346.185 2219.700  111.587    0.310    8.972
  346.485 2251.450  119.276    0.314    9.125
  346.785 2269.310  118.113    0.339    9.118
  347.085 2253.520  126.395    0.339    9.271
  347.385 2227.830  127.000    0.315    9.261
  347.685 2239.770  123.473    0.302    9.421
  347.985 2261.600  124.080    0.298    9.584
  348.285 2287.400  118.779    0.322    9.928
  348.585 2243.880  107.576    0.309   10.472
  348.885 2208.300   92.236    0.291   11.248
  349.185 2226.160   91.661    0.280   12.302
  349.485 2244.040   83.409    0.283   12.977
  349.785 2257.950   88.739    0.286   13.203
  350.085 2315.430   98.206    0.278   13.189
  350.385 2359.050   96.448    0.284   13.413
  350.685 2319.490   92.328    0.291   14.940
  350.985 2220.530   91.753    0.296   16.648
  351.285 2234.450   80.549    0.290   16.622
  351.585 2196.870   75.249    0.275   16.015
  351.885 2155.340   75.267    0.287   14.608
  352.185 2222.720  104.217    0.318   12.848
  352.485 2313.870  120.768    0.334   10.897
  352.785 2315.900  117.242    0.320    9.585
  353.085 2315.950  124.933    0.323    9.066
  353.385 2337.780  126.130    0.327    9.386
  353.685 2325.950  116.106    0.322    9.726
  353.985 2238.880  103.129    0.321   11.235
  354.285 2145.860   88.381    0.342   12.070
  354.585 2137.990   84.264    0.358   11.620
  354.885 2104.380   69.515    0.348   11.194
  355.185 2106.410   61.263    0.341   10.782
  355.485 2150.020   82.538    0.333   10.385
  355.785 2181.760   85.506    0.319   10.005
  356.085 2162.010   69.577    0.314    9.639
  356.385 2082.850   64.277    0.324    9.281
  356.685 2063.100   57.209    0.332    9.104
  356.985 2061.170   57.814    0.377    9.258
  357.285 2059.260   61.374    0.352    9.252
  357.585 2081.080   64.932    0.335    9.582
  357.885 2079.150   72.624    0.322    9.746
  358.185 2104.950   76.774    0.333   10.279
  358.485 2126.780   73.836    0.316   10.646
  358.785 2160.500   82.709    0.299   10.829
  359.085 2243.720   99.260    0.292   11.021
  359.385 2271.500  104.000    0.277   11.413
  359.685 2287.390   98.111    0.266   11.819
  359.985 2307.240  102.850    0.273   12.024
  360.285 2265.720  112.905    0.324   12.457
  360.585 2232.100  106.425    0.344   12.439
  360.885 2180.670   98.172    0.328   12.430
  361.185 2238.150  108.818    0.344   11.756
  361.485 2265.920  124.779    0.328   11.118
  361.785 2246.170  123.023    0.319   10.907
  362.085 2192.760  113.590    0.305   11.717
  362.385 2143.300   79.943    0.317   15.369
  362.685 2119.590   67.558    0.331   19.447
  362.985 2119.640   68.164    0.319   27.937
  363.285 2149.400   72.315    0.295   29.472
  363.585 2193.020   83.552    0.291   26.877
  363.884 2222.770   90.650    0.283   22.799
  364.184 2266.390  102.477    0.268   18.646
  364.484 2311.990  104.855    0.275   15.812
  364.784 2345.700  110.775    0.270   14.159
  365.084 2290.300  109.611    0.270   12.916
  365.384 2304.220  113.760    0.289   11.999
  365.684 2318.140  110.233    0.294   10.553
  365.984 2294.430  113.200    0.280   10.542
  366.284 2292.500  113.806    0.278   11.531
  366.584 2300.470  107.327    0.289   13.321
  366.884 2288.640  100.254    0.275   14.567
  367.184 2237.210   83.734    0.295   14.293
  367.484 2241.220   95.562    0.317   13.275
  367.784 2269.000  107.979    0.307   13.502
  368.084 2269.050  101.498    0.289   16.472
  368.384 2185.930   79.663    0.301   18.350
  368.684 2235.480   89.130    0.294   18.661
  368.984 2193.950   86.782    0.295   18.986
  369.284 2205.890   80.306    0.310   20.390
  369.584 2207.920   77.954    0.318   24.878
  369.884 2138.660   54.347    0.333   33.843
  370.184 2061.480   33.694    0.347   45.216
  370.484 2075.410   35.483    0.340   56.177
  370.784 2099.210   45.536    0.319   56.110
  371.084 2126.990   59.727    0.304   51.180
  371.384 2109.220   56.198    0.318   54.966
  371.684 2117.190   49.717    0.332   63.497
  371.984 2095.460   38.513    0.329   72.036
  372.284 2051.960   32.031    0.334   83.219
  372.584 2071.800   35.002    0.359  101.517
  372.884 2063.940   35.015    0.363  105.162
  373.184 2052.110   40.346    0.344   92.476
  373.484 2054.140   43.316    0.332   75.648
  373.784 2091.820   48.054    0.355   48.847
  374.084 2151.270   69.920    0.345   33.307
  374.384 2202.810   80.565    0.317   29.831
  374.684 2163.260   67.589    0.313   27.208
  374.984 2147.470   66.423    0.301   23.502
  375.284 2228.710   68.801    0.304   21.051
  375.584 2248.560   93.619    0.320   23.025
  375.884 2197.130   70.603    0.343   25.189
  376.184 2098.170   46.997    0.338   31.863
  376.484 2054.660   32.249    0.326   41.805
  376.784 2062.630   38.763    0.314   72.030
  377.084 2118.130   47.043    0.278   73.275
  377.384 2187.490   56.508    0.275   44.802
  377.684 2219.230   63.611    0.294   38.699
  377.984 2161.850   64.216    0.312   43.107
  378.284 2110.410   50.650    0.329   54.524
  378.584 2062.950   43.578    0.358   81.249
  378.884 2035.270   36.507    0.342  104.653
  379.184 2031.370   37.114    0.332  106.461
