~VERSION INFORMATION
 VERS.                 2.0:   CWLS LOG ASCII STANDARD -VERSION 2.0
 WRAP.                  NO:   ONE LINE PER DEPTH STEP
~WELL INFORMATION BLOCK
#MNEM.UNIT           DATA                    DESCRIPTION OF MNEMONIC
#---------    -------------------            -------------------------------
# Generated from Intellog Unique Number	CN_94_101/WELL/2349
WELL.         01-18-097-10W4                 : Well_name    - WELL
LOC .         AA/01-18-097-10W4/0            : Location     - LOCATION
UWI .         AA/01-18-097-10W400            : Uwi          - UNIQUE WELL ID
ENTR.         JOETTE                         : Entered      - ENTERED BY
SRVC.         SCHLUMBERGER                   : Scn          - SERVICE COMPANY
DATE.         08/13/92                       : Date         - LOG DATE
STRT.M        0                              : top_depth    - START DEPTH
STOP.M        75                             : bot_depth    - STOP DEPTH
STEP.M        0.25                           : increment    - STEP LENGTH
 NULL. -999.2500:NULL Value
~CURVE INFORMATION BLOCK
#MNEM UNIT       ERCB CURVE CODE    CURVE DESCRIPTION
#-----------   ------------------   ----------------------------------
DEPT.M        00 001 00 00         : DEPTH        - DEPTH
DPHI.V/V      00 890 00 00         : PHID         - DENSITY POROSITY (SANDSTONE)
NPHI.V/V      00 330 00 00         : PHIN         - NEUTRON POROSITY (SANDSTONE)
ILD .OHMM     00 120 00 00         : RESD         - DEEP RESISTIVITY (DIL)
GR  .API      00 310 00 00         : GR           - GAMMA RAY
~PARAMETER INFORMATION
#MNEM.UNIT           DATA             DESCRIPTION OF MNEMONIC
#---------         -----------     ------------------------------
GL  .M        277.5                : gl           - GROUND LEVEL ELEVATION
EREF.M        277.5                : kb           - ELEVATION OF DEPTH REFERENCE
DATM.M        277.5                : datum        - DATUM ELEVATION
TDD .M        81                   : tdd          - TOTAL DEPTH DRILLER
RUN .         ONE                  : Run          - RUN NUMBER
ENG .         JO                   : Engineer     - RECORDING ENGINEER
WIT .         TIM                  : Witness      - WITNESSED BY
MUD .         GEL                  : Mud_type     - MUD TYPE
MATR.         SANDSTONE            : Logunit      - NEUTRON MATRIX
TMAX.C        4                    : BHT          - MAXIMUM RECORDED TEMPERATURE
BHTD.M        81                   : BHTDEP       - MAXIMUM RECORDED TEMPERATURE
RMT .C        4                    : MDTP         - TEMPERATURE OF MUD
MUDD.KG/M     1300                 : MWT          - MUD DENSITY
NEUT.         1                    : NEUTRON      - NEUTRON TYPE
RESI.         0                    : RESIST       - RESISTIVITY TYPE
RM  .OHMM     15                   : RM           - RESISTIVITY OF MUD
RMC .OHMM     15                   : RMC          - RESISTIVITY OF MUD CAKE
RMF .OHMM     15                   : RMF          - RESISTIVITY OF MUD FILTRATE
SUFT.C        4                    : SUFT         - SURFACE TEMPERATURE
~A  DEPTH     PHID     PHIN     RESD       GR
# ...
   43.500    0.152    0.459   19.551   79.245
   43.750    0.152    0.468   22.370   82.409
   44.000    0.153    0.405   22.828   83.079
   44.250    0.153    0.409   22.858   91.857
   44.500    0.151    0.456   26.145   78.182
   44.750    0.151    0.440   28.238   60.141
   45.000    0.150    0.424   33.552   62.058
   45.250    0.152    0.427   36.945   67.094
   45.500    0.155    0.420   20.517   82.109
   45.750    0.152    0.453   19.776   95.900
   46.000    0.148    0.463   19.802   97.182
   46.250    0.149    0.392   19.460  102.218
   46.500    0.150    0.470   16.105   82.918
   46.750    0.159    0.493   19.878   69.242
   47.000    0.161    0.432   25.012   59.309
   47.250    0.162    0.449   25.036   61.227
   47.500    0.161    0.457   30.337   71.876
   47.750    0.156    0.430   24.163   80.042
   48.000    0.155    0.425   26.608   75.098
   48.250    0.156    0.424   30.454   72.638
   48.500    0.158    0.447   24.256   65.823
   48.750    0.159    0.449   18.968   78.979
   49.000    0.158    0.443   19.728   92.747
   49.250    0.148    0.454   23.890   99.041
   49.500    0.143    0.472   26.829   85.355
   49.750    0.146    0.485   27.379   75.422
   50.000    0.160    0.466   28.485   66.112
   50.250    0.160    0.479   29.618   74.267
   50.500    0.160    0.466   29.656   69.947
   50.750    0.157    0.428   30.264   60.002
   51.000    0.156    0.442   32.081   61.296
   51.250    0.156    0.420   35.326   50.739
   51.500    0.157    0.441   39.633   63.271
   51.750    0.157    0.471  211.645   48.337
   52.000    0.156    0.445  328.275   39.028
   52.250    0.155    0.449  368.301   40.321
   52.500    0.155    0.451  257.033   36.001
   52.750    0.155    0.433  262.218   44.779
   53.000    0.156    0.417  243.323   45.449
   53.250    0.158    0.447  415.054   38.011
   53.500    0.158    0.424  439.840   26.218
   53.750    0.158    0.453  400.459   30.007
   54.000    0.153    0.476  160.961   38.161
   54.250    0.149    0.475   86.023   59.413
   54.500    0.151    0.447   50.592   38.254
   54.750    0.154    0.460  250.298   31.428
   55.000    0.156    0.468  339.628   28.979
   55.250    0.156    0.440  427.359   29.025
   55.500    0.157    0.428  321.615   32.201
   55.750    0.157    0.429  246.760   33.483
   56.000    0.156    0.461  276.935   34.777
   56.250    0.156    0.473  117.846   33.576
   56.500    0.155    0.459  216.835   39.871
   56.750    0.160    0.464  356.069   28.679
   57.000    0.159    0.436  511.674   25.606
   57.250    0.154    0.423  163.651   31.266
   57.500    0.149    0.476  154.774   38.808
   57.750    0.146    0.484   71.044   31.381
   58.000    0.146    0.476  108.118   38.277
   58.250    0.146    0.425   64.766   42.689
   58.500    0.147    0.456   84.628   49.596
   58.750    0.147    0.465  136.351   47.771
   59.000    0.148    0.481  241.523   29.730
   59.250    0.148    0.450  171.737   36.637
   59.500    0.148    0.481  178.622   32.952
   59.750    0.148    0.465  172.176   28.621
   60.000    0.149    0.454  390.630   30.538
   60.250    0.149    0.440  283.094   26.842
   60.500    0.148    0.413  294.443   26.888
   60.750    0.148    0.424   74.936   23.192
   61.000    0.148    0.426  221.869   31.970
   61.250    0.151    0.424  209.901   37.006
   61.500    0.153    0.421  173.720   32.698
   61.750    0.153    0.453  325.882   33.356
   62.000    0.151    0.466  394.636   25.918
   62.250    0.151    0.466  525.560   19.739
   62.500    0.151    0.418  536.333   22.268
   62.750    0.155    0.425  452.692   27.939
   63.000    0.156    0.417  420.073   28.598
   63.250    0.157    0.410  382.339   31.762
   63.500    0.158    0.400  310.572   23.701
   63.750    0.158    0.390  323.022   26.242
   64.000    0.154    0.396  189.914   26.912
   64.250    0.153    0.412  294.569   27.581
   64.500    0.153    0.421  263.060   36.995
   64.750    0.153    0.453  127.838   30.804
   65.000    0.151    0.488   79.572   37.711
   65.250    0.150    0.461  210.193   37.757
   65.500    0.149    0.456   50.544   31.566
   65.750    0.150    0.445   33.936   40.968
   66.000    0.152    0.415   78.472   40.390
   66.250    0.152    0.408   40.373   51.039
   66.500    0.152    0.460   41.201   52.333
   66.750    0.152    0.427   49.909   62.994
   67.000    0.148    0.417   27.185   45.565
   67.250    0.149    0.421   25.711   33.137
   67.500    0.159    0.477   28.855   25.699
   67.750    0.161    0.463   28.347   27.616
   68.000    0.160    0.465   28.938   27.039
   68.250    0.159    0.430   29.531   23.343
   68.500    0.159    0.420   25.875   20.282
   68.750    0.159    0.399   18.405   29.683
   69.000    0.160    0.400   18.428   32.837
   69.250    0.160    0.428   18.452   34.754
   69.500    0.159    0.424   17.122   39.166
   69.750    0.159    0.467   16.504   33.599
   70.000    0.165    0.438   15.909   34.893
   70.250    0.163    0.395   14.758   94.837
   70.500    0.160    0.375    9.725  142.943
   70.750    0.155    0.399    6.917  136.105
   71.000    0.148    0.400    7.328  120.559
   71.250    0.143    0.389    7.917  127.466
   71.500    0.138    0.423    8.559  114.414
   71.750    0.137    0.463    7.940  116.955
   72.000    0.142    0.466    7.365  102.668
   72.250    0.144    0.486    9.627  104.574
   72.500    0.141    0.453   10.604   93.393
   72.750    0.140    0.443   11.454   87.191
   73.000    0.139    0.418   12.374   98.487
   73.250    0.139    0.392   10.245   92.285
   73.500    0.138    0.362   12.648   94.202
   73.750    0.138    0.377   15.023  107.357
   74.000    0.138    0.374    6.516  113.005
   74.250    0.136    0.369    6.777  127.420
   74.500    0.133    0.378    7.606  121.217
   74.750    0.128    0.396    7.911  117.510
   75.000    0.123    0.398    7.921  124.428
