~VERSION INFORMATION
 VERS.                 2.0:   CWLS LOG ASCII STANDARD -VERSION 2.0
 WRAP.                  NO:   ONE LINE PER DEPTH STEP
~WELL INFORMATION BLOCK
#MNEM.UNIT           DATA                    DESCRIPTION OF MNEMONIC
#---------    -------------------            -------------------------------
# Generated from Intellog Unique Number	CN_94_101/WELL/2347
WELL.         01-05-101-13W4                 : Well_name    - WELL
LOC .         AA/01-05-101-13W4/0            : Location     - LOCATION
UWI .         AA/01-05-101-13W400            : Uwi          - UNIQUE WELL ID
ENTR.         TIM                            : Entered      - ENTERED BY
SRVC.         SCHLUMBERGER                   : Scn          - SERVICE COMPANY
DATE.         08/13/92                       : Date         - LOG DATE
STRT.M        350                            : top_depth    - START DEPTH
STOP.M        550                            : bot_depth    - STOP DEPTH
STEP.M        0.25                           : increment    - STEP LENGTH
NULL. -999.2500:NULL Value
~CURVE INFORMATION BLOCK
#MNEM UNIT       ERCB CURVE CODE    CURVE DESCRIPTION
#-----------   ------------------   ----------------------------------
DEPT.M        00 001 00 00         : DEPTH        - DEPTH
DPHI.V/V      00 890 00 00         : PHID         - DENSITY POROSITY (SANDSTONE)
NPHI.V/V      00 330 00 00         : PHIN         - NEUTRON POROSITY (SANDSTONE)
ILD .OHMM     00 120 00 00         : RESD         - DEEP RESISTIVITY (DIL)
GR  .API      00 310 00 00         : GR           - GAMMA RAY
~PARAMETER INFORMATION
#MNEM.UNIT           DATA             DESCRIPTION OF MNEMONIC
#---------         -----------     ------------------------------
GL  .M        775.3                : gl           - GROUND LEVEL ELEVATION
EREF.M        778.7                : kb           - ELEVATION OF DEPTH REFERENCE
DATM.M        778.7                : datum        - DATUM ELEVATION
TDD .M        554                  : tdd          - TOTAL DEPTH DRILLER
RUN .         ONE                  : Run          - RUN NUMBER
ENG .         JO                   : Engineer     - RECORDING ENGINEER
WIT .         TIM                  : Witness      - WITNESSED BY
MUD .         GEL                  : Mud_type     - MUD TYPE
MATR.         SANDSTONE            : Logunit      - NEUTRON MATRIX
TMAX.C        29                   : BHT          - MAXIMUM RECORDED TEMPERATURE
BHTD.M        554                  : BHTDEP       - MAXIMUM RECORDED TEMPERATURE
RMT .C        10                   : MDTP         - TEMPERATURE OF MUD
MUDD.KG/M     1000                 : MWT          - MUD DENSITY
NEUT.         1                    : NEUTRON      - NEUTRON TYPE
RESI.         0                    : RESIST       - RESISTIVITY TYPE
RM  .OHMM     6                    : RM           - RESISTIVITY OF MUD
RMC .OHMM     6                    : RMC          - RESISTIVITY OF MUD CAKE
RMF .OHMM     6                    : RMF          - RESISTIVITY OF MUD FILTRATE
SUFT.C        4                    : SUFT         - SURFACE TEMPERATURE
~A  DEPTH     PHID     PHIN     RESD       GR
# ...
  437.000    0.278    0.505    2.646  122.573
  437.250    0.277    0.504    2.867  123.850
  437.500    0.276    0.510    2.878  123.255
  437.750    0.277    0.512    2.885  122.647
  438.000    0.282    0.509    2.685  120.799
  438.250    0.285    0.509    2.694  120.823
  438.500    0.283    0.518    2.494  123.979
  438.750    0.273    0.543    2.295  127.135
  439.000    0.271    0.550    2.304  126.533
  439.250    0.273    0.545    2.522  125.299
  439.500    0.278    0.531    2.743  122.198
  439.750    0.276    0.520    2.964  123.475
  440.000    0.275    0.491    3.178  127.257
  440.250    0.273    0.472    3.396  126.667
  440.500    0.273    0.470    3.408  126.679
  440.750    0.275    0.494    3.208  127.963
  441.000    0.276    0.519    3.006  132.371
  441.250    0.274    0.526    2.390  134.894
  441.500    0.269    0.535    2.187  136.797
  441.750    0.270    0.537    2.201  138.080
  442.000    0.274    0.564    2.208  139.357
  442.250    0.278    0.592    2.220  142.513
  442.500    0.280    0.576    2.436  145.043
  442.750    0.280    0.549    2.450  145.687
  443.000    0.272    0.523    2.459  142.587
  443.250    0.244    0.523    2.255  140.100
  443.500    0.231    0.549    2.264  135.114
  443.750    0.207    0.550    2.064  129.502
  444.000    0.184    0.524    2.076  126.402
  444.250    0.156    0.503    2.083  128.925
  444.500    0.136    0.476    2.303  141.475
  444.750    0.208    0.466    2.524  145.263
  445.000    0.245    0.487    2.738  147.160
  445.250    0.260    0.532    3.166  142.174
  445.500    0.274    0.525    3.596  135.310
  445.750    0.273    0.498    4.021  130.957
  446.000    0.266    0.450    4.663  135.359
  446.250    0.245    0.423    5.088  142.904
  446.500    0.226    0.421    5.520  139.171
  446.750    0.233    0.423    5.737  133.553
  447.000    0.244    0.424    5.957  129.826
  447.250    0.249    0.442    5.964  131.103
  447.500    0.253    0.446    5.558  130.508
  447.750    0.255    0.470    5.355  128.021
  448.000    0.259    0.489    4.739  123.668
  448.250    0.266    0.495    4.537  123.066
  448.500    0.277    0.465    4.544  124.343
  448.750    0.276    0.444    4.556  124.361
  449.000    0.273    0.439    4.563  124.386
  449.250    0.271    0.424    4.781  123.170
  449.500    0.267    0.422    5.000  122.568
  449.750    0.263    0.429    5.011  121.954
  450.000    0.259    0.450    5.230  123.243
  450.250    0.253    0.454    5.239  124.508
  450.500    0.257    0.462    5.250  125.791
  450.750    0.265    0.461    5.471  126.436
  451.000    0.273    0.441    5.476  125.214
  451.250    0.273    0.435    5.488  124.612
  451.500    0.271    0.424    5.497  124.016
  451.750    0.268    0.415    5.508  124.034
  452.000    0.265    0.418    5.515  124.053
  452.250    0.263    0.419    5.313  125.342
  452.500    0.262    0.420    5.113  125.987
  452.750    0.267    0.424    4.286  126.011
  453.000    0.271    0.448    3.670  126.029
  453.250    0.273    0.478    4.100  126.054
  453.500    0.275    0.485    4.104  126.078
  453.750    0.277    0.448    4.327  126.729
  454.000    0.273    0.441    4.332  128.632
  454.250    0.269    0.437    4.341  130.542
  454.500    0.272    0.436    4.351  128.061
  454.750    0.276    0.438    4.153  126.201
  455.000    0.284    0.463    3.955  122.474
  455.250    0.283    0.467    3.753  121.866
  455.500    0.280    0.477    3.558  123.149
  455.750    0.273    0.483    3.562  124.432
  456.000    0.265    0.487    3.781  123.204
  456.250    0.257    0.482    3.999  120.097
  456.500    0.244    0.462    4.218  117.610
  456.750    0.227    0.439    4.230  117.641
  457.000    0.225    0.437    4.448  118.912
  457.250    0.220    0.435    4.457  120.189
  457.500    0.248    0.439    4.464  121.472
  457.750    0.264    0.445    4.476  122.743
  458.000    0.270    0.454    4.274  124.652
  458.250    0.265    0.459    3.660  125.923
  458.500    0.264    0.484    3.248  127.206
  458.750    0.275    0.524    2.632  127.857
  459.000    0.299    0.554    2.428  127.875
  459.250    0.306    0.578    2.021  127.285
  459.500    0.315    0.588    1.819  126.045
  459.750    0.322    0.639    1.621  124.197
  460.000    0.324    0.650    1.630  124.841
  460.250    0.322    0.566    1.431  126.745
  460.500    0.321    0.584    1.649  129.900
  460.750    0.318    0.599    1.658  131.810
  461.000    0.316    0.611    2.086  131.834
  461.250    0.302    0.638    2.514  131.859
  461.500    0.278    0.614    2.941  131.883
  461.750    0.273    0.569    3.585  129.402
  462.000    0.264    0.534    4.008  127.548
  462.250    0.254    0.501    4.224  130.084
  462.500    0.245    0.495    4.657  133.872
  462.750    0.239    0.489    4.661  135.769
  463.000    0.231    0.494    4.880  137.040
  463.250    0.232    0.499    4.889  139.575
  463.500    0.237    0.472    5.112  140.846
  463.750    0.239    0.460    5.117  140.251
  464.000    0.246    0.459    5.126  139.022
  464.250    0.257    0.436    5.140  135.916
  464.500    0.268    0.427    5.147  134.061
  464.750    0.263    0.415    4.952  133.460
  465.000    0.256    0.420    4.959  133.490
  465.250    0.255    0.424    4.966  133.502
  465.500    0.256    0.431    5.187  134.153
  465.750    0.257    0.435    5.198  134.177
  466.000    0.261    0.446    5.203  132.956
  466.250    0.258    0.454    5.424  134.232
  466.500    0.249    0.456    5.431  136.136
  466.750    0.241    0.459    5.440  138.665
  467.000    0.235    0.452    5.240  139.942
  467.250    0.234    0.444    5.249  139.967
  467.500    0.237    0.417    5.261  138.106
  467.750    0.242    0.409    5.059  134.373
  468.000    0.245    0.413    5.070  135.024
  468.250    0.254    0.416    5.077  136.927
  468.500    0.259    0.427    4.882  138.204
  468.750    0.264    0.438    4.891  139.487
  469.000    0.269    0.446    4.898  140.138
  469.250    0.270    0.457    4.907  140.168
  469.500    0.265    0.470    4.917  137.688
  469.750    0.263    0.489    4.931  135.207
  470.000    0.263    0.438    4.938  128.963
  470.250    0.267    0.427    5.158  123.345
  470.500    0.268    0.429    5.163  120.864
  470.750    0.268    0.456    5.381  122.780
  471.000    0.264    0.461    5.811  123.431
  471.250    0.258    0.433    6.032  119.697
  471.500    0.249    0.409    6.246  117.837
  471.750    0.236    0.400    6.465  113.478
  472.000    0.169    0.379    6.265  109.738
  472.250    0.127    0.354    5.439  107.264
  472.500    0.104    0.398    4.821  111.672
  472.750    0.162    0.444    4.203  117.339
  473.000    0.211    0.474    3.791  121.741
  473.250    0.272    0.503    3.387  125.529
  473.500    0.269    0.525    3.394  127.439
  473.750    0.266    0.530    3.403  128.077
  474.000    0.269    0.501    3.412  129.354
  474.250    0.269    0.494    3.422  131.884
  474.500    0.271    0.522    3.431  135.666
  474.750    0.276    0.528    3.649  138.821
  475.000    0.287    0.529    3.659  138.846
  475.250    0.297    0.528    3.254  135.739
  475.500    0.301    0.551    3.052  132.012
  475.750    0.308    0.581    2.850  132.036
  476.000    0.315    0.595    2.231  132.681
  476.250    0.321    0.599    2.036  134.603
  476.500    0.323    0.597    1.834  134.615
  476.750    0.307    0.603    1.843  135.266
  477.000    0.288    0.631    2.062  134.670
  477.250    0.288    0.637    2.068  132.816
  477.500    0.285    0.606    2.501  131.587
  477.750    0.280    0.570    2.717  132.238
  478.000    0.276    0.575    2.935  134.762
  478.250    0.265    0.549    3.361  137.291
  478.500    0.259    0.515    3.793  136.695
  478.750    0.251    0.457    4.221  134.841
  479.000    0.248    0.450    4.437  134.239
  479.250    0.246    0.442    4.869  134.258
  479.500    0.246    0.436    5.086  134.914
  479.750    0.246    0.427    5.093  134.313
  480.000    0.245    0.426    5.106  131.200
  480.250    0.243    0.430    4.902  130.598
