~VERSION INFORMATION
 VERS.                 2.0:   CWLS LOG ASCII STANDARD -VERSION 2.0
 WRAP.                  NO:   ONE LINE PER DEPTH STEP
~WELL INFORMATION BLOCK
#MNEM.UNIT           DATA                    DESCRIPTION OF MNEMONIC
#---------    -------------------            -------------------------------
# Generated from Intellog Unique Number	CN_94_101/WELL/4980
WELL.         06-04-097-14W4                 : Well_name    - WELL
LOC .         AA/06-04-097-14W4/0            : Location     - LOCATION
UWI .         AA/06-04-097-14W400            : Uwi          - UNIQUE WELL ID
ENTR.         JOETTE                         : Entered      - ENTERED BY
SRVC.         SCHLUMBERGER                   : Scn          - SERVICE COMPANY
DATE.         08/17/92                       : Date         - LOG DATE
STRT.M        106.68                         : top_depth    - START DEPTH
STOP.M        374.93                         : bot_depth    - STOP DEPTH
STEP.M        0.25                           : increment    - STEP LENGTH
 NULL. -999.2500:NULL Value
~CURVE INFORMATION BLOCK
#MNEM UNIT       ERCB CURVE CODE    CURVE DESCRIPTION
#-----------   ------------------   ----------------------------------
DEPT.M        00 001 00 00         : DEPTH        - DEPTH
ILD .OHMM     00 120 00 00         : RESD         - DEEP RESISTIVITY (DIL)
GR  .API      00 310 00 00         : GR           - GAMMA RAY
NPHI.V/V      00 330 00 00         : PHIN         - NEUTRON POROSITY (SANDSTONE)
~PARAMETER INFORMATION
#MNEM.UNIT           DATA             DESCRIPTION OF MNEMONIC
#---------         -----------     ------------------------------
GL  .M        639.166              : gl           - GROUND LEVEL ELEVATION
EREF.M        639.166              : kb           - ELEVATION OF DEPTH REFERENCE
DATM.M        639.166              : datum        - DATUM ELEVATION
TDD .M        377.647              : tdd          - TOTAL DEPTH DRILLER
RUN .         ONE                  : Run          - RUN NUMBER
ENG .         JO                   : Engineer     - RECORDING ENGINEER
WIT .         TIM                  : Witness      - WITNESSED BY
MUD .         GEL                  : Mud_type     - MUD TYPE
MATR.         SANDSTONE            : Logunit      - NEUTRON MATRIX
TMAX.C        12.2222              : BHT          - MAXIMUM RECORDED TEMPERATURE
BHTD.M        377.647              : BHTDEP       - MAXIMUM RECORDED TEMPERATURE
RMT .C        8.33333              : MDTP         - TEMPERATURE OF MUD
MUDD.KG/M     1200                 : MWT          - MUD DENSITY
NEUT.         1                    : NEUTRON      - NEUTRON TYPE
RESI.         0                    : RESIST       - RESISTIVITY TYPE
RM  .OHMM     6.5                  : RM           - RESISTIVITY OF MUD
RMC .OHMM     6.5                  : RMC          - RESISTIVITY OF MUD CAKE
RMF .OHMM     5.9                  : RMF          - RESISTIVITY OF MUD FILTRATE
SUFT.C        4                    : SUFT         - SURFACE TEMPERATURE
~A  DEPTH     RESD       GR     PHIN
# ...
  323.680    5.276   76.018    0.491
  323.930    4.606   90.921    0.502
  324.180    4.003   94.653    0.508
  324.430    3.468   90.953    0.509
  324.680    3.472   85.022    0.493
  324.930    4.081   75.744    0.482
  325.180    4.894   89.898    0.475
  325.430    5.437   90.656    0.459
  325.680    7.800   94.398    0.457
  325.930    9.827   87.351    0.467
  326.180    6.257   83.650    0.475
  326.430    5.385   76.599    0.469
  326.680    5.321   68.436    0.464
  326.930    5.729   78.500    0.461
  327.180    7.420   85.217    0.460
  327.430    7.625   84.864    0.455
  327.680    7.763   95.290    0.448
  327.930   12.284   86.760    0.440
  328.180   19.030   90.121    0.429
  328.430   14.719   96.843    0.418
  328.680    7.980   89.791    0.440
  328.930    6.771   81.996    0.445
  329.180    7.112   73.461    0.451
  329.430    7.182   69.761    0.441
  329.680    6.917   68.292    0.442
  329.930    6.313   78.356    0.451
  330.180    6.385   91.018    0.458
  330.430    7.872   96.991    0.453
  330.680    6.595   88.824    0.454
  330.930    6.194   89.214    0.464
  331.180    5.862   94.816    0.473
  331.430    5.864   90.744    0.454
  331.680    6.070   90.390    0.447
  331.930    8.973   92.268    0.427
  332.180   33.788   89.684    0.404
  332.430   23.139   94.165    0.434
  332.680    5.613   80.796    0.457
  332.930    4.740   83.046    0.472
  333.180    4.407   67.445    0.491
  333.430    3.871   58.535    0.503
  333.680    3.605   91.287    0.496
  333.930    4.419   98.748    0.492
  334.180    5.367   96.903    0.485
  334.430    4.898   95.434    0.482
  334.680    4.297   93.965    0.486
  334.930    4.299   76.133    0.479
  335.180    4.370   69.458    0.473
  335.430    4.778   69.472    0.476
  335.680    4.850   73.214    0.472
  335.930    4.650   75.473    0.469
  336.180    4.385   74.739    0.470
  336.430    4.389   76.245    0.478
  336.680    4.662   77.379    0.506
  336.930    3.520   74.799    0.519
  337.180    2.714   75.933    0.526
  337.430    2.448   72.972    0.530
  337.680    2.249   67.041    0.537
  337.930    2.120   65.572    0.541
  338.180    1.989   62.987    0.534
  338.430    2.329   53.709    0.522
  338.680    3.006   55.592    0.480
  338.930    4.223   57.837    0.437
  339.180    5.644   59.719    0.394
  339.430    6.187   50.808    0.368
  339.680    6.595   32.605    0.344
  339.930   10.576   23.327    0.351
  340.180    7.614   14.048    0.345
  340.430    9.304   13.319    0.323
  340.680   10.587    8.136    0.317
  340.930   12.413    7.778    0.261
  341.180   13.629   12.640    0.139
  341.430   14.509   16.744    0.024
  341.680    8.849   19.366    0.120
  341.930    8.989   10.832    0.286
  342.180    3.666    8.991    0.310
  342.430    2.321   12.361    0.337
  342.680    1.111   14.234    0.375
  342.930    2.733   12.765    0.403
  343.180    6.108   22.085    0.429
  343.430    6.718   34.376    0.442
  343.680    6.182   54.480    0.437
  343.930    6.389   65.660    0.441
  344.180    6.460   67.170    0.436
  344.430    6.936   70.159    0.426
  344.680    7.346   70.550    0.422
  344.930    6.202   69.081    0.428
  345.180    6.407   53.481    0.432
  345.430    7.153   59.077    0.431
  345.680    7.021   62.443    0.426
  345.930    6.757   62.094    0.423
  346.180    7.098   54.675    0.435
  346.430    6.696   52.458    0.449
  346.680    7.104   45.411    0.456
  346.930    7.513   44.690    0.452
  347.180    6.237   52.895    0.428
  347.430    6.105   54.768    0.403
  347.680    6.580   61.852    0.371
  347.930    8.201   64.102    0.327
  348.180    8.678   68.211    0.315
  348.430   10.232   68.235    0.339
  348.680   26.147   67.509    0.349
  348.930   32.960   57.855    0.336
  349.180    6.940   19.565    0.330
  349.430    9.910    9.915    0.307
  349.680   12.610   13.281    0.302
  349.930   15.446   13.299    0.327
  350.180   26.102    5.137    0.351
  350.430   30.893   13.336    0.394
  350.680   33.796   31.958    0.433
  350.930   12.629   34.203    0.426
  351.180   15.397   40.172    0.423
  351.430   12.907   60.276    0.424
  351.680   13.382   44.304    0.422
  351.930   13.858   35.026    0.418
  352.180    7.861   30.954    0.418
  352.430    7.797   32.460    0.420
  352.680    8.138   38.800    0.424
  352.930    8.613   41.427    0.435
  353.180    6.595   51.486    0.447
  353.430    4.982   54.480    0.458
  353.680    4.850   47.065    0.465
  353.930    6.538   50.063    0.436
  354.180   12.205   48.585    0.391
  354.430   15.917   45.257    0.357
  354.680   18.888   59.407    0.343
  354.930   20.914   45.294    0.341
  355.180    6.491   15.186    0.363
  355.430    5.281    2.561    0.372
  355.680    4.678   11.133    0.395
  355.930   34.279   11.523    0.407
  356.180   32.799   12.657    0.419
  356.430   35.635   21.234    0.412
  356.680   36.044   19.765    0.406
  356.930   36.923   18.296    0.409
  357.180   34.499   11.249    0.400
  357.430   30.727   15.358    0.382
  357.680   22.911   21.703    0.403
  357.930   20.352   23.576    0.406
  358.180   15.772   29.921    0.410
  358.430   13.079   25.849    0.416
  358.680   10.723   35.537    0.411
  358.930   27.178   37.791    0.410
  359.180   29.003   34.086    0.418
  359.430   30.151   37.080    0.425
  359.680   12.085   50.867    0.422
  359.930    8.786   53.112    0.422
  360.180    8.453   66.160    0.427
  360.430    8.591   65.798    0.430
  360.680    8.393   62.842    0.427
  360.930    8.599   73.644    0.424
  361.180    8.334   71.804    0.428
  361.430    8.472   77.781    0.430
  361.680   12.318   77.052    0.432
  361.930    9.153   82.653    0.434
  362.180    9.495   79.692    0.433
  362.430    9.565   73.026    0.428
  362.680    9.771   72.292    0.424
  362.930    8.224   71.195    0.428
  363.180    9.712   64.524    0.432
  363.430   10.187   63.799    0.434
  363.680    9.921   61.953    0.431
  363.930    9.386   69.781    0.427
  364.180    9.122   60.508    0.424
  364.430    8.854   57.175    0.426
  364.680    8.723   66.490    0.427
  364.930    8.593   76.182    0.425
  365.180    8.327   84.382    0.424
  365.430    7.992   75.852    0.425
  365.680    8.132   87.771    0.428
  365.930    8.540   92.624    0.431
  366.180    8.747   82.978    0.436
  366.430    8.412   81.509    0.442
  366.680    7.876   89.704    0.437
  366.930    9.296   96.045    0.437
  367.180   10.580   83.791    0.431
  367.430   12.337   73.398    0.419
  367.680   17.801   68.210    0.424
  367.930   15.311   61.907    0.432
  368.180   16.393   58.950    0.430
  368.430   18.420   55.622    0.422
  368.680   15.389   47.459    0.414
  368.930   15.258   46.729    0.416
  369.180   16.881   46.376    0.416
  369.430   14.052   52.349    0.410
  369.680   11.292   55.715    0.406
  369.930   15.274   59.452    0.409
  370.180   20.536   55.380    0.413
  370.430   25.394   57.258    0.417
  370.680   16.094   63.975    0.415
  370.930   14.413   65.481    0.412
  371.180   16.640   62.529    0.404
  371.430   18.195   64.035    0.393
  371.680   13.008   58.099    0.386
  371.930   13.282   48.449    0.371
  372.180   13.419   45.874    0.379
  372.430   12.142   45.144    0.388
  372.680   12.281   44.786    0.382
  372.930   12.015   45.920    0.371
  373.180   10.469   56.351    0.376
  373.430   11.213   67.164    0.397
  373.680    9.801   70.524    0.391
  373.930    9.468   66.080    0.360
  374.180    7.247   64.988    0.350
  374.430    5.632   69.093    0.327
  374.680    8.198   70.599    0.294
  374.930   10.157   67.270    0.248
