~VERSION INFORMATION
 VERS.                 2.0:   CWLS LOG ASCII STANDARD -VERSION 2.0
 WRAP.                  NO:   ONE LINE PER DEPTH STEP
~WELL INFORMATION BLOCK
#MNEM.UNIT           DATA                    DESCRIPTION OF MNEMONIC
#---------    -------------------            -------------------------------
# Generated from Intellog Unique Number	CC_88_90/WELL/1067
WELL.         06-35-090-10W4                 : Well_name    - WELL
LOC .         AA/06-35-090-10W4/0            : Location     - LOCATION
UWI .         AA/06-35-090-10W400            : Uwi          - UNIQUE WELL ID
ENTR.         DW                             : Entered      - ENTERED BY
SRVC.         SCHLUMBERGER                   : Scn          - SERVICE COMPANY
STRT.M        15                             : top_depth    - START DEPTH
STOP.M        114.75                         : bot_depth    - STOP DEPTH
STEP.M        0.25                           : increment    - STEP LENGTH
 NULL. -999.2500:NULL Value
~CURVE INFORMATION BLOCK
#MNEM UNIT       ERCB CURVE CODE    CURVE DESCRIPTION
#-----------   ------------------   ----------------------------------
DEPT.M        00 001 00 00         : DEPTH        - DEPTH
GR  .API      00 310 00 00         : GR           - GAMMA RAY
DPHI.V/V      00 890 00 00         : PHID         - DENSITY POROSITY (SANDSTONE)
NPHI.V/V      00 330 00 00         : PHIN         - NEUTRON POROSITY (SANDSTONE)
ILD .OHMM     00 120 00 00         : RESD         - DEEP RESISTIVITY (DIL)
~PARAMETER INFORMATION
#MNEM.UNIT           DATA             DESCRIPTION OF MNEMONIC
#---------         -----------     ------------------------------
GL  .M        346.73               : gl           - GROUND LEVEL ELEVATION
EREF.M        0                    : kb           - ELEVATION OF DEPTH REFERENCE
DATM.M        346.73               : datum        - DATUM ELEVATION
TDD .M        154                  : tdd          - TOTAL DEPTH DRILLER
RUN .         ONE                  : Run          - RUN NUMBER
ENG .         BILL                 : Engineer     - RECORDING ENGINEER
WIT .         JIM                  : Witness      - WITNESSED BY
MUD .         GEL                  : Mud_type     - MUD TYPE
MATR.         SANDSTONE            : Logunit      - NEUTRON MATRIX
TMAX.C        5.4                  : BHT          - MAXIMUM RECORDED TEMPERATURE
BHTD.M        154                  : BHTDEP       - MAXIMUM RECORDED TEMPERATURE
MATR.         1                    : LOGUNIT      - NEUTRON MATRIX
RMT .C        25                   : MDTP         - TEMPERATURE OF MUD
NEUT.         1                    : NEUTRON      - NEUTRON TYPE
RESI.         0                    : RESIST       - RESISTIVITY TYPE
RMC .OHMM     0.25                 : RMC          - RESISTIVITY OF MUD CAKE
RMF .OHMM     0.25                 : RMF          - RESISTIVITY OF MUD FILTRATE
SUFT.C        4                    : SUFT         - SURFACE TEMPERATURE
~A  DEPTH       GR     PHID     PHIN     RESD
# ...
   58.500   60.346    0.288    0.428  122.276
   58.750   58.110    0.280    0.396  103.581
   59.000   57.912    0.266    0.408   63.115
   59.250   55.146    0.258    0.405   30.453
   59.500   71.622    0.251    0.381   18.297
   59.750   96.195    0.236    0.396   19.891
   60.000   86.418    0.228    0.421   17.728
   60.250   82.667    0.231    0.403   17.299
   60.500   87.432    0.225    0.434   15.104
   60.750   88.951    0.218    0.457   14.918
   61.000   91.680    0.217    0.431   16.764
   61.250   95.530    0.218    0.412   14.662
   61.500   90.711    0.221    0.428   13.699
   61.750   91.632    0.224    0.432   20.938
   62.000   97.598    0.208    0.406   -1.370
   62.250  105.100    0.232    0.413  120.093
   62.500  105.060    0.212    0.356  202.835
   62.750   86.353    0.082    0.252   88.110
   63.000   56.410    0.000    0.284   16.698
   63.250   45.745    0.091    0.313   12.968
   63.500   51.684    0.150    0.352   12.456
   63.750   74.798    0.176    0.383    4.424
   64.000   94.448    0.185    0.403   23.298
   64.250   98.961    0.177    0.430   50.186
   64.500   96.179    0.210    0.448   31.558
   64.750   66.581    0.256    0.435   10.985
   65.000   47.510    0.283    0.400    5.619
   65.250   97.003    0.283    0.412    5.760
   65.500  140.728    0.233    0.459    5.310
   65.750  126.806    0.180    0.488    5.476
   66.000  123.499    0.196    0.497    5.430
   66.250  112.135    0.192    0.485    4.427
   66.500  100.991    0.180    0.505    3.880
   66.750  115.778    0.166    0.502    3.321
   67.000  130.212    0.177    0.499    2.774
   67.250  121.569    0.210    0.519    3.049
   67.500  116.591    0.218    0.507    3.744
   67.750  117.875    0.209    0.521    3.659
   68.000  120.236    0.202    0.529    3.572
   68.250  119.045    0.187    0.505    3.721
   68.500  117.868    0.178    0.482    3.905
   68.750  120.224    0.190    0.495    3.999
   69.000  123.374    0.205    0.510    3.922
   69.250  126.674    0.207    0.488    3.767
   69.500  128.208    0.196    0.522    4.124
   69.750  133.156    0.184    0.568    4.894
   70.000  130.447    0.182    0.559    5.320
   70.250  116.439    0.185    0.501    5.241
   70.500  110.238    0.189    0.445    5.266
   70.750  114.378    0.199    0.441    5.299
   71.000  121.023    0.199    0.464    5.027
   71.250  120.684    0.190    0.480    4.764
   71.500  119.142    0.180    0.484    4.514
   71.750  120.773    0.174    0.502    4.834
   72.000  118.265    0.182    0.553    6.066
   72.250  115.807    0.187    0.597    6.042
   72.500  117.087    0.152    0.491    5.773
   72.750  117.138    0.146    0.440    5.768
   73.000  116.438    0.170    0.491    5.690
   73.250  118.924    0.187    0.528    5.382
   73.500  121.933    0.202    0.551    5.154
   73.750  121.371    0.197    0.576    5.303
   74.000  122.349    0.194    0.595    5.690
   74.250  123.907    0.191    0.548    6.317
   74.500  123.092    0.187    0.493    7.045
   74.750  121.906    0.187    0.495    7.733
   75.000  122.492    0.187    0.498    8.365
   75.250  120.314    0.191    0.486    8.688
   75.500  120.187    0.187    0.518    8.802
   75.750  120.730    0.188    0.518    9.801
   76.000  118.904    0.192    0.466    9.913
   76.250  116.585    0.186    0.448   12.888
   76.500  112.467    0.175    0.495   24.478
   76.750   97.264    0.178    0.525   42.825
   77.000   85.922    0.188    0.511   88.201
   77.250   66.209    0.226    0.483   58.163
   77.500   48.092    0.265    0.419   10.318
   77.750   65.948    0.236    0.373   21.071
   78.000  106.180    0.160    0.435   29.861
   78.250   92.355    0.181    0.462   58.177
   78.500   55.916    0.240    0.445   18.879
   78.750   45.968    0.235    0.422  227.007
   79.000   55.292    0.205    0.435  304.937
   79.250   60.424    0.233    0.461   78.677
   79.500   69.396    0.271    0.438   44.906
   79.750   82.799    0.223    0.415   23.770
   80.000   66.339    0.220    0.446  949.240
   80.250   47.157    0.262    0.463 1492.360
   80.500   38.423    0.290    0.466  796.494
   80.750   32.061    0.291    0.455  -27.548
   81.000   40.695    0.279    0.396   72.764
   81.250   66.076    0.249    0.411  294.191
   81.500   62.754    0.240    0.417  415.919
   81.750   47.783    0.264    0.414  335.345
   82.000   47.815    0.292    0.390  154.381
   82.250   58.149    0.272    0.359   70.657
   82.500   62.419    0.220    0.391  135.042
   82.750   58.995    0.243    0.430  274.824
   83.000   64.877    0.270    0.462  173.297
   83.250   57.454    0.263    0.410   56.844
   83.500   66.356    0.222    0.353   21.872
   83.750   93.699    0.189    0.382   71.222
   84.000   82.898    0.209    0.428  171.264
   84.250   72.671    0.233    0.462   22.594
   84.500   57.851    0.259    0.466  693.628
   84.750   42.889    0.277    0.501  962.540
   85.000   33.743    0.292    0.485  905.810
   85.250   29.471    0.310    0.417 1222.940
   85.500   27.438    0.320    0.445 1135.230
   85.750   22.527    0.326    0.462  613.854
   86.000   22.345    0.322    0.485  338.662
   86.250   31.160    0.313    0.491  335.218
   86.500   36.534    0.311    0.433  233.887
   86.750   32.024    0.323    0.354   41.201
   87.000   42.919    0.309    0.356   40.249
   87.250   86.831    0.208    0.420   53.528
   87.500   82.232    0.208    0.430   52.771
   87.750   73.063    0.238    0.429   57.813
   88.000   80.244    0.231    0.425   44.437
   88.250   84.175    0.211    0.406   27.187
   88.500   91.410    0.186    0.427   44.661
   88.750   85.051    0.198    0.461   73.841
   89.000   76.939    0.226    0.492  327.891
   89.250   55.673    0.249    0.458  451.074
   89.500   39.163    0.279    0.400  265.375
   89.750   44.228    0.298    0.400   51.830
   90.000   48.402    0.270    0.427   32.592
   90.250   51.703    0.250    0.392   43.865
   90.500   80.615    0.223    0.370    3.712
   90.750   96.650    0.208    0.424  332.093
   91.000   75.838    0.222    0.495  436.395
   91.250   49.598    0.254    0.488  166.904
   91.500   46.472    0.283    0.416  341.135
   91.750   44.821    0.279    0.393  221.392
   92.000   52.913    0.266    0.418   64.965
   92.250   76.745    0.240    0.428   36.236
   92.500  101.260    0.213    0.438   82.183
   92.750  101.341    0.217    0.477  132.926
   93.000   73.191    0.253    0.493  160.815
   93.250   49.556    0.268    0.447  186.794
   93.500   44.736    0.262    0.422  135.947
   93.750   49.718    0.262    0.398   81.841
   94.000   56.835    0.277    0.394  155.461
   94.250   58.589    0.290    0.457  174.349
   94.500   50.079    0.305    0.520  223.743
   94.750   45.607    0.331    0.491 1139.630
   95.000   37.065    0.336    0.526 1466.330
   95.250   29.761    0.329    0.511 1459.890
   95.500   32.854    0.324    0.445  918.674
   95.750   44.394    0.317    0.422   90.071
   96.000   54.362    0.303    0.415  169.909
   96.250   56.954    0.286    0.457  197.349
   96.500   54.373    0.284    0.481  579.095
   96.750   41.139    0.271    0.434  738.474
   97.000   28.628    0.271    0.404  518.746
   97.250   26.832    0.273    0.401  348.515
   97.500   28.779    0.222    0.340  346.421
   97.750   33.616    0.205    0.354  612.175
   98.000   18.754    0.238    0.376  979.488
   98.250    8.648    0.277    0.396  990.119
   98.500   11.111    0.295    0.402  783.536
   98.750   10.863    0.299    0.404  712.266
   99.000    8.804    0.308    0.418  706.813
   99.250   12.271    0.315    0.370  660.326
   99.500   15.485    0.313    0.356  368.322
   99.750   17.252    0.313    0.389  363.833
  100.000   18.549    0.314    0.428  577.992
  100.250   19.538    0.306    0.440  626.307
  100.500   19.941    0.293    0.418  556.527
  100.750   17.298    0.294    0.395  280.584
  101.000   11.007    0.307    0.417  138.238
  101.250   12.106    0.289    0.379   97.759
  101.500   15.344    0.243    0.340   66.522
  101.750   26.476    0.212    0.368   55.738
