~VERSION INFORMATION
 VERS.                 2.0:   CWLS LOG ASCII STANDARD -VERSION 2.0
 WRAP.                  NO:   ONE LINE PER DEPTH STEP
~WELL INFORMATION BLOCK
#MNEM.UNIT           DATA                    DESCRIPTION OF MNEMONIC
#---------    -------------------            -------------------------------
# Generated from Intellog Unique Number	CN_94_101/WELL/2654
WELL.         06-01-094-15W4                 : Well_name    - WELL
LOC .         AA/06-01-094-15W4/0            : Location     - LOCATION
UWI .         AA/06-01-094-15W400            : Uwi          - UNIQUE WELL ID
ENTR.         JOETTE                         : Entered      - ENTERED BY
SRVC.         SCHLUMBERGER                   : Scn          - SERVICE COMPANY
DATE.         06/18/92                       : Date         - LOG DATE
STRT.F        60                             : top_depth    - START DEPTH
STOP.F        510.295                        : bot_depth    - STOP DEPTH
STEP.F        0.8202                         : increment    - STEP LENGTH
 NULL. -999.2500:NULL Value
~CURVE INFORMATION BLOCK
#MNEM UNIT       ERCB CURVE CODE    CURVE DESCRIPTION
#-----------   ------------------   ----------------------------------
DEPT.F        00 001 00 00         : DEPTH        - DEPTH
GR  .API      00 310 00 00         : GR           - GAMMA RAY
DPHI.V/V      00 890 00 00         : PHID         - DENSITY POROSITY (SANDSTONE)
ILD .OHMM     00 120 00 00         : RESD         - DEEP RESISTIVITY (DIL)
~PARAMETER INFORMATION
#MNEM.UNIT           DATA             DESCRIPTION OF MNEMONIC
#---------         -----------     ------------------------------
GL  .M        435.498              : gl           - GROUND LEVEL ELEVATION
EREF.M        436.26               : kb           - ELEVATION OF DEPTH REFERENCE
DATM.M        436.26               : datum        - DATUM ELEVATION
TDD .M        155.448              : tdd          - TOTAL DEPTH DRILLER
RUN .         ONE                  : Run          - RUN NUMBER
ENG .         JO                   : Engineer     - RECORDING ENGINEER
WIT .         TIM                  : Witness      - WITNESSED BY
MUD .         GEL                  : Mud_type     - MUD TYPE
MATR.         SANDSTONE            : Logunit      - NEUTRON MATRIX
TMAX.F        40                   : BHT          - MAXIMUM RECORDED TEMPERATURE
BHTD.F        510                  : BHTDEP       - MAXIMUM RECORDED TEMPERATURE
RMT .F        45                   : MDTP         - TEMPERATURE OF MUD
MUDD.LB/G     1                    : MWT          - MUD DENSITY
NEUT.         1                    : NEUTRON      - NEUTRON TYPE
RESI.         0                    : RESIST       - RESISTIVITY TYPE
RM  .OHMM     10.1                 : RM           - RESISTIVITY OF MUD
RMC .OHMM     10.1                 : RMC          - RESISTIVITY OF MUD CAKE
RMF .OHMM     10.1                 : RMF          - RESISTIVITY OF MUD FILTRATE
SUFT.F        39.2                 : SUFT         - SURFACE TEMPERATURE
~A  DEPTH       GR     PHID     RESD
# ...
  415.971   52.544    0.293   18.455
  416.791   50.450    0.339   17.214
  417.612   47.297    0.342   14.876
  418.432   49.437    0.319   13.928
  419.252   49.104    0.310   13.785
  420.072   46.299    0.297   13.497
  420.892   42.090    0.284   12.841
  421.713   42.819    0.272   13.284
  422.533   43.191    0.257   13.800
  423.353   39.687    0.246   13.879
  424.173   31.243    0.232   14.102
  424.993   27.034    0.228   13.812
  425.814   29.526    0.230   14.036
  426.634   39.775    0.238   14.112
  427.454   41.194    0.264   16.386
  428.274   46.858    0.286   16.317
  429.094   52.516    0.342   13.393
  429.915   54.650    0.383   13.324
  430.735   57.846    0.349   13.327
  431.555   61.038    0.290   12.891
  432.375   66.344    0.233   14.067
  433.196   46.628    0.200   25.637
  434.016   30.431    0.202   25.788
  434.836   22.346    0.213   20.814
  435.656   22.723    0.222   16.206
  436.476   23.442    0.220   19.870
  437.297   23.824    0.225   35.027
  438.117   24.201    0.235    9.482
  438.937   24.916    0.246   21.200
  439.757   28.112    0.253   21.057
  440.577   29.889    0.257   20.695
  441.398   32.028    0.262   19.088
  442.218   31.347    0.266   20.630
  443.038   31.010    0.274   19.022
  443.858   31.734    0.281   15.879
  444.678   32.464    0.288   15.224
  445.499   31.426    0.299   18.815
  446.319   32.145    0.309   18.087
  447.139   32.875    0.301   15.088
  447.959   34.314    0.276   12.604
  448.780   34.676    0.254   11.143
  449.600   35.401    0.266   11.733
  450.420   33.311    0.284   13.787
  451.240   32.983    0.292   11.595
  452.060   33.350    0.302    9.548
  452.881   34.432    0.301    7.941
  453.701   34.799    0.293    8.751
  454.521   35.171    0.284   11.902
  455.341   32.733    0.266   14.030
  456.161   32.743    0.240   15.131
  456.982   32.768    0.235   13.817
  457.802   33.497    0.264   11.991
  458.622   34.931    0.280    7.237
  459.442   35.998    0.289    5.483
  460.262   38.847    0.284    5.122
  461.083   39.914    0.274    5.931
  461.903   40.649    0.288    6.301
  462.723   40.316    0.283    6.011
  463.543   42.102    0.277    5.356
  464.364   43.522    0.269    4.043
  465.184   44.956    0.266    4.926
  466.004   43.209    0.271    5.808
  466.824   41.466    0.276    5.886
  467.644   42.196    0.282    5.596
  468.465   43.278    0.291    5.233
  469.285   44.002    0.297    4.726
  470.105   44.727    0.304    4.804
  470.925   45.099    0.298    4.806
  471.745   43.351    0.289    4.883
  472.566   41.966    0.288    5.106
  473.386   43.400    0.293    5.039
  474.206   43.068    0.292    5.042
  475.026   42.377    0.283    5.192
  475.846   40.987    0.280    5.561
  476.667   40.302    0.295    5.931
  477.487   39.974    0.307    6.302
  478.307   39.989    0.312    7.038
  479.127   38.252    0.302    6.602
  479.948   37.214    0.291    6.020
  480.768   38.291    0.279    6.097
  481.588   38.663    0.277    5.809
  482.408   37.630    0.283    5.447
  483.228   38.707    0.287    5.084
  484.049   40.484    0.287    4.650
  484.869   42.275    0.286    4.288
  485.689   40.885    0.278    3.999
  486.509   37.376    0.271    4.002
  487.329   33.871    0.269    4.299
  488.150   33.186    0.291    4.303
  488.970   39.197    0.342    2.843
  489.790   54.023    0.350    2.626
  490.610   58.272    0.304    2.996
  491.430   63.235    0.266    3.294
  492.251   48.448    0.160    3.150
  493.071   45.291    0.143    2.715
  493.891   41.786    0.125    3.524
  494.711   39.344    0.116    3.894
  495.531   39.716    0.131    3.678
  496.352   41.498    0.143    3.609
  497.172   44.342    0.155    3.834
  497.992   46.823    0.180    3.544
  498.812   47.195    0.210    3.035
  499.633   49.334    0.241    2.527
  500.453   52.878    0.269    2.164
  501.273   52.193    0.275    2.023
  502.093   49.393    0.297    2.026
  502.913   50.828    0.309    2.177
  503.734   55.076    0.309    2.255
  504.554   55.806    0.305    2.258
  505.374   57.235    0.303    2.187
  506.194   57.250    0.301    2.193
  507.014   33.300    0.295    2.196
  507.835    9.708    0.299    2.127
  508.655    2.322    0.296    2.057
  509.475    1.636    0.294    1.988
  510.295    2.376    0.287    1.921
