~VERSION INFORMATION
 VERS.                 2.0:   CWLS LOG ASCII STANDARD -VERSION 2.0
 WRAP.                  NO:   ONE LINE PER DEPTH STEP
~WELL INFORMATION BLOCK
#MNEM.UNIT           DATA                    DESCRIPTION OF MNEMONIC
#---------    -------------------            -------------------------------
# Generated from Intellog Unique Number	CX_WELLS/WELL/3142
WELL.         HUSKY OIL OPERATIONS           : Well_name    - WELL
LOC .         AA/07-33-089-09W4/0            : Location     - LOCATION
UWI .         AA/07-33-089-09W400            : Uwi          - UNIQUE WELL ID
ENTR.         JOETTE                         : Entered      - ENTERED BY
SRVC.         SCHLUMBERGER                   : Scn          - SERVICE COMPANY
DATE.         03/06/92                       : Date         - LOG DATE
STRT.M        15.240                         : top_depth    - START DEPTH
STOP.M        112.740                        : bot_depth    - STOP DEPTH
STEP.M        0.25                           : increment    - STEP LENGTH
 NULL. -999.2500:NULL Value
~CURVE INFORMATION BLOCK
#MNEM UNIT       ERCB CURVE CODE    CURVE DESCRIPTION
#-----------   ------------------   ----------------------------------
DEPT.M        00 001 00 00         : DEPTH        - DEPTH
GR  .API      00 310 00 00         : GR           - GAMMA RAY
CALI.MM       00 280 01 00         : CAL          - CALIPER
DPHI.V/V      00 890 00 00         : PHID         - DENSITY POROSITY (SANDSTONE)
ILD .OHMM     00 120 00 00         : RESD         - DEEP RESISTIVITY (DIL)
~PARAMETER INFORMATION
#MNEM.UNIT           DATA             DESCRIPTION OF MNEMONIC
#---------         -----------     ------------------------------
GL  .M        350.185              : gl           - GROUND LEVEL ELEVATION
EREF.M        350.215              : kb           - ELEVATION OF DEPTH REFERENCE
DATM.M        350.215              : datum        - DATUM ELEVATION
TDD .M        117.958              : tdd          - TOTAL DEPTH DRILLER
RUN .         ONE                  : Run          - RUN NUMBER
ENG .         JO                   : Engineer     - RECORDING ENGINEER
WIT .         TIM                  : Witness      - WITNESSED BY
MUD .         GEL                  : Mud_type     - MUD TYPE
MATR.         SANDSTONE            : Logunit      - NEUTRON MATRIX
TMAX.C        10                   : BHT          - MAXIMUM RECORDED TEMPERATURE
BHTD.M        117.958              : BHTDEP       - MAXIMUM RECORDED TEMPERATURE
RMT .C        18                   : MDTP         - TEMPERATURE OF MUD
MUDD.KG/M     1140                 : MWT          - MUD DENSITY
NEUT.         1                    : NEUTRON      - NEUTRON TYPE
RESI.         0                    : RESIST       - RESISTIVITY TYPE
RM  .OHMM     6.2                  : RM           - RESISTIVITY OF MUD
RMC .OHMM     6.2                  : RMC          - RESISTIVITY OF MUD CAKE
RMF .OHMM     6.2                  : RMF          - RESISTIVITY OF MUD FILTRATE
SUFT.C        4                    : SUFT         - SURFACE TEMPERATURE
~A  DEPTH       GR      CAL     PHID     RESD
   15.240   85.425  135.021    0.202   25.012
   15.490   84.199  138.999    0.216   23.069
   15.740   87.275  141.974    0.230   19.575
   15.990   96.496  146.956    0.241   19.956
   16.240  112.478  152.942    0.249   22.275
   16.490  106.336  158.928    0.259   25.367
   16.740  105.725  164.904    0.283   28.458
   16.990  119.863  166.875    0.317   30.001
   17.240  127.241  161.828    0.346   27.672
   17.490  113.723  153.742    0.390   23.790
   17.740  111.268  156.716    0.435   25.333
   17.990  124.792  155.685    0.498   26.878
   18.240  121.108  145.609    0.428   27.645
   18.490  110.048  140.535    0.310   27.639
   18.740  109.437  145.526    0.256   27.633
   18.990  105.138  154.523    0.201   26.077
   19.240  102.683  163.521    0.191   28.009
   19.490  103.916  160.463    0.199   28.387
   19.740  112.523  166.458    0.214   26.446
   19.990  105.765  167.425    0.258   26.440
   20.240   93.477  174.414    0.231   28.370
   20.490  100.855  188.431    0.220   28.752
   20.740   95.942  171.320    0.226   27.969
   20.990  108.237  156.225    0.245   23.703
   21.240  115.614  148.158    0.289   17.500
   21.490  119.920  144.105    0.289   12.847
   21.740  127.297  148.056    0.288   12.839
   21.990  112.551  152.034    0.296   13.220
   22.240  104.565  154.023    0.333   12.825
   22.490  107.641  156.998    0.347   12.435
   22.740  118.706  158.968    0.355   12.039
   22.990  121.168  154.916    0.346   12.034
   23.240  121.171  153.857    0.342   13.190
   23.490  109.497  158.839    0.348   16.282
   23.740   90.449  163.821    0.340   19.760
   23.990   89.838  165.791    0.349   22.852
   24.240   93.528  162.743    0.382   23.620
   24.490   94.760  158.690    0.377   20.903
   24.740  108.899  154.638    0.337   11.602
   24.990  120.578  152.593    0.310    8.885
   25.240  126.727  151.552    0.296    8.104
   25.490  125.501  151.497    0.288    8.873
   25.740  106.453  151.478    0.276   10.416
   25.990   84.331  152.436    0.262   12.734
   26.240   97.856  152.371    0.250   15.437
   26.490   89.255  152.343    0.260   18.139
   26.740   91.102  153.329    0.268   18.910
   26.990   99.094  153.292    0.260   18.128
   27.240   99.712  154.258    0.254   16.187
   27.490  102.173  155.225    0.267   11.534
   27.740   96.030  157.196    0.276    9.588
   27.990  102.794  158.153    0.279   10.744
   28.240  124.307  156.108    0.277   11.512
   28.490  135.987  155.058    0.270   10.731
   28.740  129.230  155.031    0.273    9.176
   28.990  116.941  154.994    0.270    8.007
   29.240  102.195  155.960    0.266    7.229
   29.490  112.646  155.905    0.258    6.445
   29.740  114.493  155.858    0.251    6.050
   29.990  118.183  155.840    0.262    6.047
   30.240  121.874  155.803    0.268    7.978
   30.490  118.189  155.766    0.266   11.070
   30.740  115.734  154.725    0.264   12.998
   30.990  118.196  151.658    0.263   12.992
   31.240  120.043  150.626    0.259   11.051
   31.490  108.984  149.567    0.246    9.106
   31.740  100.998  149.548    0.243    7.936
   31.990  102.229  149.502    0.243    7.932
   32.240  113.295  148.461    0.238    7.151
   32.490  102.850  145.413    0.233    6.370
   32.740  101.625  144.372    0.237    5.591
   32.990  104.701  150.348    0.243    7.521
   33.240  110.849  153.332    0.243    7.901
   33.490  112.082  153.295    0.241    6.346
   33.740  105.325  153.249    0.243    7.114
   33.990  109.630  153.193    0.244    8.656
   34.240  109.633  152.152    0.252    7.875
   34.490  107.792  152.125    0.250    6.320
   34.740  108.410  151.074    0.252    4.766
   34.990   99.809  151.047    0.264    3.984
   35.240   99.812  151.019    0.278    3.978
   35.490   97.972  150.954    0.293    3.969
   35.740   83.225  150.926    0.312    4.351
   35.990   88.145  150.898    0.307    4.347
   36.240   94.909  151.847    0.289    5.112
   36.490   89.380  151.819    0.274    5.882
   36.740   91.842  152.795    0.258    6.650
   36.990  101.678  152.739    0.250    7.805
   37.240  102.296  150.695    0.243    8.962
   37.490   93.081  148.641    0.225   10.115
   37.740  105.375  148.622    0.186   10.499
   37.990  120.742  148.585    0.162    7.782
   38.240  120.131  150.556    0.196    6.611
   38.490  117.061  154.525    0.219    8.539
   38.740  120.137  158.503    0.236    9.311
   38.990  109.079  156.458    0.226   10.079
   39.240   99.249  152.406    0.238   11.234
   39.490   94.949  149.357    0.236   12.389
   39.740   98.640  148.317    0.231   12.771
   39.990   99.258  148.270    0.232   10.829
   40.240  100.490  152.249    0.244    5.400
   40.490   98.650  157.221    0.298    5.006
   40.740   91.892  160.196    0.332    4.223
   40.990   96.197  160.159    0.329    3.831
   41.240  108.492  159.118    0.324    3.437
   41.490   94.975  162.083    0.325    3.433
   41.740   95.593  168.078    0.318    3.038
   41.990  102.356  171.052    0.296    2.643
   42.240   92.526  171.015    0.288    2.637
   42.490  101.747  167.967    0.277    2.632
   42.740  100.522  165.913    0.268    3.401
   42.990   89.463  165.876    0.267    5.718
   43.240   88.852  164.835    0.279    5.712
   43.490   94.386  161.787    0.277    4.930
   43.740   98.691  153.710    0.269    6.086
   43.990   95.621  154.677    0.258    8.016
   44.240   88.864  155.634    0.238    8.784
   44.490   91.325  156.610    0.231    8.390
   44.740  118.369  156.554    0.228    6.834
   44.990  104.852  155.523    0.233    6.055
   45.240   93.178  155.495    0.254    5.274
   45.490   90.723  154.454    0.265    5.267
   45.740   89.498  154.417    0.283    6.421
   45.990  112.239  155.375    0.285    6.802
   46.240  123.919  155.328    0.284    6.021
   46.490  113.475  155.301    0.283    5.239
   46.740  114.708  154.241    0.278    4.849
   46.990  114.710  154.213    0.273    4.451
   47.240  104.266  154.186    0.266    4.448
   47.490   98.738  155.134    0.263    4.442
   47.740   97.512  156.110    0.257    4.434
   47.990  109.806  156.064    0.253    4.429
   48.240  120.258  156.027    0.252    4.809
   48.490  110.427  154.976    0.253    4.805
   48.740  107.357  153.954    0.259    4.798
   48.990  109.819  153.908    0.260    4.791
   49.240  108.593  154.875    0.258    4.009
   49.490  108.597  157.840    0.259    3.615
   49.740  116.589  159.810    0.265    3.611
   49.990  112.290  159.773    0.268    3.990
   50.240   93.241  156.725    0.267    5.144
   50.490   87.099  155.675    0.255    5.916
   50.740   82.800  155.647    0.233    7.459
   50.990   80.960  154.578    0.188   10.935
   51.240   72.974  154.569    0.158   12.477
   51.490   64.987  153.528    0.136   12.474
   51.740   74.823  153.473    0.156   11.693
   51.990   83.430  153.445    0.217   10.524
   52.240   88.350  154.393    0.269    9.354
   52.490   96.957  154.365    0.297    8.573
   52.740  116.012  155.341    0.283    7.794
   52.990  106.797  154.291    0.266    6.623
   53.240  117.862  151.243    0.242    6.231
   53.490  127.084  147.190    0.223    5.836
   53.740  120.327  144.142    0.219    5.832
   53.990  116.642  144.105    0.234    6.213
   54.240  120.948  145.072    0.252    6.207
   54.490  124.024  148.046    0.258    6.588
   54.740  128.329  151.011    0.252    6.969
   54.990  116.655  151.987    0.242    6.962
   55.240  110.512  152.935    0.238    7.344
   55.490   95.766  152.908    0.233    7.335
   55.740   90.239  152.852    0.226    7.332
   55.990   97.002  152.824    0.227    6.937
   56.240  102.536  152.796    0.234    6.542
   56.490  110.528  151.746    0.238    6.536
   56.740  106.844  151.709    0.243    7.304
   56.990  111.764  151.663    0.248    8.847
   57.240  106.850  151.626    0.251    9.614
   57.490  108.697  151.598    0.261    9.999
   57.740  105.627  151.561    0.275    9.992
   57.990   93.954  150.511    0.275    9.209
   58.240   93.957  150.474    0.269    8.815
   58.490  104.408  149.433    0.262    8.811
