~VERSION INFORMATION
 VERS.                 2.0:   CWLS LOG ASCII STANDARD -VERSION 2.0
 WRAP.                  NO:   ONE LINE PER DEPTH STEP
~WELL INFORMATION BLOCK
#MNEM.UNIT           DATA                    DESCRIPTION OF MNEMONIC
#---------    -------------------            -------------------------------
# Generated from Intellog Unique Number	CC_88_90/WELL/1068
WELL.         07-11-090-15W4                 : Well_name    - WELL
LOC .         AA/07-11-090-15W4/0            : Location     - LOCATION
UWI .         AA/07-11-090-15W400            : Uwi          - UNIQUE WELL ID
ENTR.         DW                             : Entered      - ENTERED BY
SRVC.         SCHLUMBERGER                   : Scn          - SERVICE COMPANY
STRT.M        75                             : top_depth    - START DEPTH
STOP.M        199.75                         : bot_depth    - STOP DEPTH
STEP.M        0.25                           : increment    - STEP LENGTH
 NULL. -999.2500:NULL Value
~CURVE INFORMATION BLOCK
#MNEM UNIT       ERCB CURVE CODE    CURVE DESCRIPTION
#-----------   ------------------   ----------------------------------
DEPT.M        00 001 00 00         : DEPTH        - DEPTH
GR  .API      00 310 00 00         : GR           - GAMMA RAY
DPHI.V/V      00 890 00 00         : PHID         - DENSITY POROSITY (SANDSTONE)
NPHI.V/V      00 330 00 00         : PHIN         - NEUTRON POROSITY (SANDSTONE)
ILD .OHMM     00 120 00 00         : RESD         - DEEP RESISTIVITY (DIL)
~PARAMETER INFORMATION
#MNEM.UNIT           DATA             DESCRIPTION OF MNEMONIC
#---------         -----------     ------------------------------
GL  .M        468.52               : gl           - GROUND LEVEL ELEVATION
EREF.M        471.72               : kb           - ELEVATION OF DEPTH REFERENCE
DATM.M        471.72               : datum        - DATUM ELEVATION
TDD .M        206                  : tdd          - TOTAL DEPTH DRILLER
RUN .         ONE                  : Run          - RUN NUMBER
ENG .         BILL                 : Engineer     - RECORDING ENGINEER
WIT .         JIM                  : Witness      - WITNESSED BY
MUD .         GEL                  : Mud_type     - MUD TYPE
MATR.         SANDSTONE            : Logunit      - NEUTRON MATRIX
TMAX.C        25                   : BHT          - MAXIMUM RECORDED TEMPERATURE
BHTD.M        206                  : BHTDEP       - MAXIMUM RECORDED TEMPERATURE
MATR.         1                    : LOGUNIT      - NEUTRON MATRIX
RMT .C        25                   : MDTP         - TEMPERATURE OF MUD
NEUT.         1                    : NEUTRON      - NEUTRON TYPE
RESI.         0                    : RESIST       - RESISTIVITY TYPE
RMC .OHMM     0.25                 : RMC          - RESISTIVITY OF MUD CAKE
RMF .OHMM     0.25                 : RMF          - RESISTIVITY OF MUD FILTRATE
SUFT.C        15                   : SUFT         - SURFACE TEMPERATURE
~A  DEPTH       GR     PHID     PHIN     RESD
# ...
  162.000   50.472    0.299    0.464   65.850
  162.250   54.113    0.330    0.440   66.979
  162.500   56.638    0.332    0.450   67.169
  162.750   58.089    0.330    0.473   67.649
  163.000   56.884    0.331    0.488   65.877
  163.250   54.804    0.319    0.498   60.075
  163.500   57.288    0.315    0.496   53.758
  163.750   60.450    0.335    0.470   45.689
  164.000   62.999    0.341    0.474   35.229
  164.250   66.023    0.333    0.456   26.376
  164.500   68.626    0.315    0.445   21.709
  164.750   69.891    0.296    0.466   19.422
  165.000   70.907    0.300    0.448   17.432
  165.250   71.469    0.306    0.432   16.925
  165.500   71.824    0.303    0.423   15.664
  165.750   73.022    0.287    0.428   14.248
  166.000   74.580    0.285    0.439   12.669
  166.250   77.316    0.294    0.438   10.845
  166.500   83.259    0.279    0.431    9.058
  166.750   90.617    0.262    0.433    5.136
  167.000  102.153    0.174    0.442    3.613
  167.250  116.995    0.198    0.462    3.470
  167.500  127.841    0.274    0.519    3.207
  167.750  128.172    0.267    0.586    3.152
  168.000  122.828    0.274    0.609    3.162
  168.250  125.030    0.281    0.636    3.450
  168.500  128.368    0.263    0.563    3.957
  168.750  129.357    0.238    0.523    4.253
  169.000  129.965    0.231    0.545    4.496
  169.250  127.042    0.230    0.555    4.712
  169.500  119.160    0.186    0.553    4.458
  169.750  121.121    0.107    0.509    4.181
  170.000  126.566    0.146    0.488    4.034
  170.250  132.461    0.223    0.519    4.243
  170.500  124.916    0.245    0.569    4.805
  170.750  106.700    0.230    0.578    5.894
  171.000  101.287    0.217    0.510    8.317
  171.250   98.187    0.215    0.421   12.181
  171.500   95.875    0.233    0.397   14.054
  171.750   96.562    0.252    0.396   10.645
  172.000   97.743    0.259    0.391    6.799
  172.250   95.677    0.256    0.395    6.769
  172.500   90.834    0.255    0.413    7.897
  172.750   85.603    0.277    0.460   10.672
  173.000   81.339    0.290    0.529   13.751
  173.250   77.323    0.307    0.518   17.195
  173.500   76.336    0.324    0.445   23.045
  173.750   79.996    0.321    0.402   26.994
  174.000   85.261    0.307    0.393   23.689
  174.250   91.128    0.300    0.392   22.814
  174.500   93.731    0.285    0.396   22.461
  174.750   88.599    0.256    0.404   22.813
  175.000   80.802    0.229    0.396   23.317
  175.250   78.695    0.206    0.366   22.730
  175.500   82.824    0.192    0.345   22.047
  175.750   88.253    0.240    0.371   21.633
  176.000   90.293    0.269    0.388   22.113
  176.250   89.975    0.267    0.399   23.068
  176.500   89.540    0.264    0.407   23.315
  176.750   89.772    0.258    0.404   22.929
  177.000   90.895    0.239    0.408   22.983
  177.250   92.550    0.237    0.418   22.708
  177.500   92.868    0.239    0.422   21.886
  177.750   92.595    0.240    0.424   22.087
  178.000   89.976    0.244    0.424   22.794
  178.250   87.158    0.251    0.421   23.170
  178.500   89.071    0.262    0.420   23.957
  178.750   89.158    0.267    0.422   24.615
  179.000   89.003    0.269    0.418   26.587
  179.250   86.588    0.269    0.404   28.000
  179.500   84.419    0.263    0.387   28.909
  179.750   84.815    0.253    0.386   29.504
  180.000   84.174    0.240    0.402   28.500
  180.250   82.756    0.233    0.406   28.469
  180.500   80.226    0.243    0.410   28.560
  180.750   78.397    0.251    0.409   28.597
  181.000   79.492    0.250    0.404   29.856
  181.250   82.116    0.251    0.401   32.585
  181.500   82.963    0.259    0.399   35.856
  181.750   83.018    0.268    0.401   39.656
  182.000   82.613    0.274    0.408   40.993
  182.250   82.132    0.284    0.413   40.890
  182.500   84.586    0.278    0.412   39.312
  182.750   91.257    0.267    0.407   36.024
  183.000   98.402    0.284    0.402   32.787
  183.250  102.406    0.288    0.398   29.346
  183.500  102.937    0.279    0.397   27.137
  183.750  102.771    0.271    0.396   26.364
  184.000  104.169    0.263    0.395   26.099
  184.250  106.108    0.252    0.394   26.411
  184.500  105.258    0.246    0.396   27.769
  184.750  100.649    0.247    0.402   28.350
  185.000   97.188    0.277    0.423   27.800
  185.250   96.529    0.292    0.428   26.226
  185.500   98.045    0.278    0.420   22.645
  185.750   99.986    0.274    0.425   17.955
  186.000  100.949    0.295    0.445   14.984
  186.250  103.226    0.304    0.465   13.138
  186.500  108.397    0.334    0.493   12.326
  186.750  114.059    0.277    0.513   12.082
  187.000  117.281    0.203    0.478   12.475
  187.250  118.508    0.211    0.415   13.700
  187.500  119.501    0.219    0.405   15.032
  187.750  118.613    0.220    0.406   15.750
  188.000  116.565    0.213    0.408   16.898
  188.250  112.394    0.208    0.413   18.363
  188.500  108.464    0.224    0.403   18.930
  188.750  107.953    0.245    0.382   18.460
  189.000  109.648    0.237    0.385   18.220
  189.250  110.819    0.238    0.410   18.711
  189.500  110.672    0.243    0.414   20.184
  189.750  109.390    0.246    0.406   21.604
  190.000  106.271    0.248    0.402   23.253
  190.250  100.222    0.251    0.407   25.666
  190.500   93.652    0.260    0.424   27.694
  190.750   93.842    0.271    0.448   28.295
  191.000  100.856    0.281    0.457   27.460
  191.250  105.265    0.279    0.452   25.253
  191.500  105.260    0.269    0.440   23.309
  191.750  104.563    0.261    0.420   22.387
  192.000  102.932    0.266    0.403   21.367
  192.250  101.163    0.277    0.410   21.206
  192.500  101.702    0.258    0.412   22.531
  192.750  100.398    0.233    0.403   23.559
  193.000   97.538    0.238    0.387   26.732
  193.250   81.948    0.198    0.367   29.337
  193.500   48.118    0.057    0.329   32.998
  193.750   37.499    0.003    0.244   57.216
  194.000   33.529   -0.003    0.200   70.585
  194.250   30.988    0.010    0.152  171.245
  194.500   30.525    0.020    0.111  260.888
  194.750   30.179    0.018    0.110  246.171
  195.000   30.764    0.025    0.106  244.541
  195.250   30.783    0.032    0.106  237.746
  195.500   31.023    0.028    0.109  229.382
  195.750   32.191    0.017    0.111  225.690
  196.000   32.406    0.004    0.114  230.444
  196.250   31.239    0.002    0.118  236.553
  196.500   30.799    0.016    0.119  232.107
  196.750   30.208    0.018    0.117  230.478
  197.000   30.588    0.012    0.114  246.634
  197.250   30.840    0.012    0.113  266.096
  197.500   30.943    0.010    0.115  281.830
  197.750   31.554   -0.000    0.119  292.969
  198.000   32.058    0.000    0.120  286.676
  198.250   32.555    0.012    0.115  261.223
  198.500   33.199    0.014    0.110  241.365
  198.750   33.186    0.005    0.104  217.258
  199.000   33.825   -0.001    0.100  192.994
  199.250   35.379    0.000    0.102  181.167
  199.500   35.791    0.000    0.109  173.072
  199.750   36.295   -0.000    0.115  165.024
