~VERSION INFORMATION
 VERS.                 2.0:   CWLS LOG ASCII STANDARD -VERSION 2.0
 WRAP.                  NO:   ONE LINE PER DEPTH STEP
~WELL INFORMATION BLOCK
#MNEM.UNIT           DATA                    DESCRIPTION OF MNEMONIC
#---------    -------------------            -------------------------------
# Generated from Intellog Unique Number	CX_WELLS/WELL/3682
WELL.         AMOCO C31 GREGOIRE             : Well_name    - WELL
LOC .         AA/06-24-085-08W4/0            : Location     - LOCATION
UWI .         AA/06-24-085-08W400            : Uwi          - UNIQUE WELL ID
ENTR.         T                              : Entered      - ENTERED BY
SRVC.         SCHLUMBERGER                   : Scn          - SERVICE COMPANY
DATE.         03/04/92                       : Date         - LOG DATE
STRT.F        200                            : top_depth    - START DEPTH
STOP.F        989.862                        : bot_depth    - STOP DEPTH
STEP.F        0.82                           : increment    - STEP LENGTH
 NULL. -999.2500:NULL Value
~CURVE INFORMATION BLOCK
#MNEM UNIT       ERCB CURVE CODE    CURVE DESCRIPTION
#-----------   ------------------   ----------------------------------
DEPT.F        00 001 00 00         : DEPTH        - DEPTH
GR  .API      00 310 00 00         : GR           - GAMMA RAY
NPHI.V/V      00 330 00 00         : PHIN         - NEUTRON POROSITY (SANDSTONE)
ILD .OHMM     00 120 00 00         : RESD         - DEEP RESISTIVITY (OTHER)
~PARAMETER INFORMATION
#MNEM.UNIT           DATA             DESCRIPTION OF MNEMONIC
#---------         -----------     ------------------------------
GL  .F        1738                 : gl           - GROUND LEVEL ELEVATION
EREF.F        1742                 : kb           - ELEVATION OF DEPTH REFERENCE
DATM.F        1742                 : datum        - DATUM ELEVATION
TDD .F        1008                 : tdd          - TOTAL DEPTH DRILLER
RUN .         ONE                  : Run          - RUN NUMBER
ENG .         JO                   : Engineer     - RECORDING ENGINEER
WIT .         TIM                  : Witness      - WITNESSED BY
MUD .         GEL                  : Mud_type     - MUD TYPE
MATR.         SANDSTONE            : Logunit      - NEUTRON MATRIX
TMAX.F        70                   : BHT          - MAXIMUM RECORDED TEMPERATURE
BHTD.F        1005                 : BHTDEP       - MAXIMUM RECORDED TEMPERATURE
RMT .F        60                   : MDTP         - TEMPERATURE OF MUD
MUDD.LB/G     1                    : MWT          - MUD DENSITY
NEUT.         1                    : NEUTRON      - NEUTRON TYPE
RESI.         4.27                 : RESIST       - RESISTIVITY TYPE
RM  .OHMM     4.27                 : RM           - RESISTIVITY OF MUD
RMC .OHMM     3.86                 : RMC          - RESISTIVITY OF MUD CAKE
RMF .OHMM     3                    : RMF          - RESISTIVITY OF MUD FILTRATE
SUFT.F        32.2                 : SUFT         - SURFACE TEMPERATURE
~A  DEPTH       GR     PHIN     RESD
  200.000   97.747    0.411    6.301
  200.820  100.569    0.409    6.292
  201.640  107.204    0.410    6.283
  202.461  116.223    0.411    6.475
  203.281  123.334    0.415    6.671
  204.101  124.250    0.419    6.863
  204.921  123.736    0.421    6.852
  205.741  122.249    0.425    6.848
  206.562  121.277    0.428    7.245
  207.382  116.922    0.426    7.643
  208.202  115.463    0.414    7.837
  209.022  114.473    0.404    9.861
  209.843  113.968    0.400   11.886
  210.663  114.407    0.401   13.503
  211.483  117.696    0.404   15.121
  212.303  120.527    0.402   15.722
  213.123  123.826    0.401   16.318
  213.944  126.648    0.401   16.515
  214.764  129.461    0.401   16.506
  215.584  131.330    0.402   16.695
  216.404  132.731    0.406   16.280
  217.224  136.974    0.410   15.866
  218.045  135.030    0.412   15.247
  218.865  130.226    0.414   14.628
  219.685  119.226    0.411   13.602
  220.505  103.926    0.405   12.371
  221.325   94.347    0.406   11.549
  222.146   89.543    0.408   11.538
  222.966   85.206    0.415   12.143
  223.786   86.121    0.431   14.777
  224.606   88.944    0.437   16.802
  225.427   91.289    0.423   20.249
  226.247   94.111    0.406   21.053
  227.067   95.971    0.393   19.009
  227.887   97.372    0.392   17.170
  228.707   98.288    0.389   18.177
  229.528   99.204    0.386   19.388
  230.348  101.072    0.387   20.396
  231.168  103.885    0.387   20.791
  231.988  106.240    0.387   20.581
  232.808  109.053    0.388   19.962
  233.629  111.408    0.392   19.953
  234.449  115.650    0.394   19.734
  235.269  117.519    0.393   19.320
  236.089  117.491    0.391   19.110
  236.909  117.444    0.394   18.082
  237.730  117.892    0.398   17.262
  238.550  120.228    0.400   15.627
  239.370  121.153    0.401   14.192
  240.190  123.975    0.400   13.776
  241.010  126.321    0.399   13.767
  241.831  128.657    0.399   13.550
  242.651  130.039    0.398   12.934
  243.471  130.488    0.397   12.317
  244.291  130.460    0.397   11.694
  245.112  130.422    0.397   11.483
  245.932  126.085    0.398   11.472
  246.752  120.795    0.395   11.666
  247.572  116.477    0.384   11.657
  248.392  111.187    0.379   11.849
  249.213  107.813    0.383   12.046
  250.033  110.159    0.389   12.647
  250.853  115.840    0.388   13.245
  251.673  121.046    0.386   14.255
  252.493  125.774    0.387   15.466
  253.314  124.783    0.392   18.507
  254.134  112.830    0.394   18.089
  254.954  106.587    0.398   17.472
  255.774   97.016    0.399   16.648
  256.594   88.857    0.402   16.637
  257.415   89.287    0.405   17.039
  258.235   89.268    0.405   21.706
  259.055   89.707    0.404   25.560
  259.875   92.043    0.400   28.601
  260.696   93.912    0.397   32.453
  261.516   95.790    0.395   31.425
  262.336   97.182    0.395   31.014
  263.156   98.098    0.396   29.579
  263.976   99.948    0.399   29.367
  264.797  102.284    0.400   28.951
  265.617  103.218    0.399   28.737
  266.437  106.040    0.397   28.321
  267.257  107.909    0.394   27.908
  268.077  108.815    0.394   26.880
  268.898  107.348    0.396   25.856
  269.718  105.890    0.398   21.168
  270.538  102.992    0.398   18.923
  271.358  100.571    0.393   17.491
  272.178   97.178    0.388   18.295
  272.999   96.664    0.381   19.910
  273.819   97.103    0.372   19.899
  274.639   98.963    0.368   19.280
  275.459  100.374    0.364   18.254
  276.280  103.672    0.362   17.228
  277.100  108.401    0.365   16.408
  277.920  113.606    0.381   15.177
  278.740  116.886    0.389   14.965
  279.560  118.764    0.400   14.547
  280.381  119.203    0.399   14.131
  281.201  119.175    0.398   13.916
  282.021  118.661    0.397   13.706
  282.841  117.670    0.399   13.293
  283.661  112.847    0.394   12.466
  284.482  109.950    0.393   12.256
  285.302  107.538    0.396   12.041
  286.122  107.501    0.396   12.233
  286.942  107.930    0.395   12.430
  287.762  106.930    0.397   12.419
  288.583  104.985    0.398   12.414
  289.403  102.565    0.401   12.403
  290.223   99.667    0.401   12.595
  291.043   96.779    0.394   12.794
  291.864   91.489    0.394   13.189
  292.684   92.405    0.394   14.601
  293.504   96.657    0.394   19.067
  294.324  102.329    0.388   22.110
  295.144  105.151    0.387   24.336
  295.965  107.973    0.391   23.107
  296.785  110.796    0.393   21.471
  297.605  112.664    0.394   18.209
  298.425  113.103    0.396   16.980
  299.245  112.103    0.395   15.749
  300.066  110.645    0.399   14.924
  300.886  107.747    0.401   14.712
  301.706  103.897    0.398   14.296
  302.526   96.233    0.390   13.883
  303.346   72.821    0.382   13.056
  304.167   74.214    0.377   13.661
  304.987   73.223    0.376   26.868
  305.807   70.793    0.381   35.399
  306.627   68.848    0.387   40.676
  307.448   67.857    0.393   40.466
  308.268   70.680    0.399   40.252
  309.088   73.511    0.402   40.446
  309.908   76.333    0.401   38.607
  310.728   80.576    0.399   36.158
  311.549   80.538    0.392   33.912
  312.369   78.127    0.386   35.327
  313.189   75.706    0.377   35.112
  314.009   71.846    0.368   33.476
  314.829   68.948    0.373   32.044
  315.650   66.527    0.377   28.782
  316.470   63.630    0.381   26.737
  317.290   58.330    0.383   23.882
  318.110   56.396    0.387   24.889
  318.930   54.451    0.387   31.387
  319.751   53.451    0.387   37.884
  320.571   54.834    0.387   47.230
  321.391   55.768    0.393   47.018
  322.211   58.590    0.392   46.193
  323.031   61.413    0.387   44.151
  323.852   65.188    0.389   42.716
  324.672   69.430    0.392   48.606
  325.492   72.243    0.392   50.628
  326.312   73.654    0.392   45.742
  327.133   76.953    0.399   35.971
  327.953   80.252    0.398   33.318
  328.773   83.074    0.395   29.243
  329.593   86.840    0.390   29.437
  330.413   88.718    0.390   23.529
  331.234   90.110    0.392   21.894
  332.054   77.671    0.395   20.052
  332.874   71.913    0.402   21.672
  333.694   69.474    0.403   35.083
  334.514   67.997    0.404   37.310
  335.335   67.025    0.409   36.691
  336.155   65.071    0.412   34.443
  336.975   66.940    0.412   34.843
  337.795   69.285    0.407   40.527
  338.615   71.154    0.401   44.381
  339.436   72.079    0.400   36.036
  340.256   73.948    0.399   33.585
  341.076   75.322    0.398   31.540
  341.896   74.798    0.398   31.127
  342.717   74.302    0.398   29.489
  343.537   74.265    0.398   29.277
  344.357   74.704    0.397   30.483
  345.177   75.610    0.395   30.883
  345.997   76.049    0.394   30.264
  346.818   73.628    0.392   29.444
  347.638   71.693    0.391   28.007
  348.458   73.067    0.399   27.596
  349.278   73.515    0.403   27.587
  350.098   74.421    0.395   27.372
  350.919   74.383    0.393   26.344
  351.739   74.355    0.393   25.727
  352.559   74.785    0.398   25.716
  353.379   74.747    0.405   26.523
  354.199   74.233    0.413   25.901
  355.020   75.148    0.414   26.708
  355.840   77.494    0.410   28.323
  356.660   79.839    0.407   26.688
  357.480   80.764    0.404   23.019
  358.301   83.091    0.399   22.400
  359.121   83.539    0.396   23.611
  359.941   85.399    0.394   25.025
  360.761   86.324    0.387   24.404
  361.581   88.650    0.384   22.971
  362.402   90.538    0.381   21.539
  363.222   93.341    0.384   21.327
  364.042   95.229    0.387   20.911
  364.862   97.575    0.389   20.900
  365.682  101.340    0.390   20.484
  366.503  104.649    0.391   19.257
  367.323  108.424    0.392   16.399
  368.143  114.106    0.393   13.948
  368.963  120.274    0.394   12.721
  369.783  124.526    0.392   12.509
  370.604  125.918    0.392   12.297
  371.424  125.862    0.393   12.895
  372.244  126.291    0.393   13.291
  373.064  126.263    0.391   13.284
  373.885  126.702    0.392   13.478
  374.705  128.094    0.398   13.062
  375.525  129.963    0.405   12.645
  376.345  130.878    0.410   12.434
  377.165  130.850    0.408   12.423
