~VERSION INFORMATION
 VERS.                 2.0:   CWLS LOG ASCII STANDARD -VERSION 2.0
 WRAP.                  NO:   ONE LINE PER DEPTH STEP
~WELL INFORMATION BLOCK
#MNEM.UNIT           DATA                    DESCRIPTION OF MNEMONIC
#---------    -------------------            -------------------------------
# Generated from Intellog Unique Number	CN_94_101/WELL/3325
WELL.         08-17-095-09W4                 : Well_name    - WELL
LOC .         AA/08-17-095-09W4/0            : Location     - LOCATION
UWI .         AA/08-17-095-09W400            : Uwi          - UNIQUE WELL ID
ENTR.         T                              : Entered      - ENTERED BY
SRVC.         COMPUTALOG                     : Scn          - SERVICE COMPANY
DATE.         06/18/92                       : Date         - LOG DATE
STRT.M        5                              : top_depth    - START DEPTH
STOP.M        125                            : bot_depth    - STOP DEPTH
STEP.M        0.25                           : increment    - STEP LENGTH
 NULL. -999.2500:NULL Value
~CURVE INFORMATION BLOCK
#MNEM UNIT       ERCB CURVE CODE    CURVE DESCRIPTION
#-----------   ------------------   ----------------------------------
DEPT.M        00 001 00 00         : DEPTH        - DEPTH
GR  .API      00 310 00 00         : GR           - GAMMA RAY
NPHI.V/V      00 330 00 00         : PHIN         - NEUTRON POROSITY (SANDSTONE)
RHOB.KG/M3    00 350 00 00         : DENS         - BULK DENSITY
ILD .OHMM     00 120 00 00         : RESD         - DEEP RESISTIVITY (DIL)
~PARAMETER INFORMATION
#MNEM.UNIT           DATA             DESCRIPTION OF MNEMONIC
#---------         -----------     ------------------------------
GL  .M        302.6                : gl           - GROUND LEVEL ELEVATION
EREF.M        302.6                : kb           - ELEVATION OF DEPTH REFERENCE
DATM.M        302.6                : datum        - DATUM ELEVATION
TDD .M        129                  : tdd          - TOTAL DEPTH DRILLER
RUN .         ONE                  : Run          - RUN NUMBER
ENG .         JO                   : Engineer     - RECORDING ENGINEER
WIT .         TIM                  : Witness      - WITNESSED BY
MUD .         GEL                  : Mud_type     - MUD TYPE
MATR.         SANDSTONE            : Logunit      - NEUTRON MATRIX
TMAX.C        8                    : BHT          - MAXIMUM RECORDED TEMPERATURE
BHTD.M        129                  : BHTDEP       - MAXIMUM RECORDED TEMPERATURE
RMT .C        8                    : MDTP         - TEMPERATURE OF MUD
MUDD.KG/M     1240                 : MWT          - MUD DENSITY
NEUT.         1                    : NEUTRON      - NEUTRON TYPE
RESI.         0                    : RESIST       - RESISTIVITY TYPE
RM  .OHMM     10.7                 : RM           - RESISTIVITY OF MUD
RMC .OHMM     6.8                  : RMC          - RESISTIVITY OF MUD CAKE
RMF .OHMM     15.9                 : RMF          - RESISTIVITY OF MUD FILTRATE
SUFT.C        4                    : SUFT         - SURFACE TEMPERATURE
~A  DEPTH       GR     PHIN     DENS     RESD
    5.000   68.763    0.441 2033.330   74.534
    5.250   62.063    0.421 2031.450   81.834
    5.500   56.589    0.391 2037.720   96.768
    5.750   58.479    0.427 2105.180  125.585
    6.000   70.188    0.453 2137.990  108.441
    6.250   82.522    0.460 2109.580   76.501
    6.500   91.162    0.481 2068.980   57.040
    6.750   91.223    0.492 2046.720   45.804
    7.000   91.272    0.490 2030.570   46.732
    7.250   92.549    0.406 2032.810   43.477
    7.500   91.371    0.453 2061.460   41.203
    7.750   89.579    0.481 2082.040   54.425
    8.000   89.616    0.498 2100.550   44.482
    8.250  114.837    0.497 2119.130   34.413
    8.500  117.966    0.454 2119.210   30.293
    8.750  112.481    0.422 2117.370   27.668
    9.000   83.689    0.433 2109.340   28.753
    9.250   64.704    0.441 2091.160   32.769
    9.500   47.571    0.361 2066.860   45.748
    9.750   44.565    0.383 2060.910   81.209
   10.000   48.284    0.405 2065.140   92.551
   10.250   56.310    0.425 2073.460  131.665
   10.500   73.553    0.430 2081.770  141.975
   10.750   84.648    0.434 2096.230   89.628
   11.000  100.664    0.441 2116.780   36.341
   11.250   97.031    0.432 2139.360   34.439
   11.500   88.490    0.414 2170.130   44.678
   11.750   79.322    0.415 2153.980   38.625
   12.000   65.270    0.406 2143.910   41.633
   12.250   67.762    0.393 2140.040   68.619
   12.500   72.720    0.381 2148.390   67.499
   12.750   85.668    0.384 2158.700   63.942
   13.000   90.626    0.415 2175.160   56.286
   13.250   99.290    0.438 2189.590   48.641
   13.500  101.782    0.456 2208.170   39.772
   13.750  104.286    0.469 2216.450   35.661
   14.000  109.244    0.469 2222.720   29.701
   14.250  114.816    0.465 2227.040   23.406
   14.500  113.024    0.469 2227.120   21.369
   14.750  106.937    0.470 2229.360   18.810
   15.000   99.009    0.469 2233.590   20.669
   15.250  101.513    0.453 2237.830   24.451
   15.500  112.632    0.455 2237.990   24.946
   15.750  107.147    0.460 2225.880   25.441
   16.000   97.979    0.423 2207.700   26.932
   16.250   88.210    0.389 2185.440   33.659
   16.500   77.828    0.383 2150.950   64.326
   16.750   74.195    0.394 2134.810  118.478
   17.000   87.131    0.407 2120.700  142.708
   17.250  101.318    0.423 2131.050  116.685
   17.500   97.060    0.408 2153.630   93.664
   17.750   86.677    0.398 2194.590   73.810
   18.000   77.522    0.410 2211.140   53.019
   18.250   69.582    0.399 2201.030   51.180
   18.500   70.858    0.399 2172.650   52.237
   18.750   80.124    0.398 2144.280   55.298
   19.000   87.537    0.401 2144.440   57.492
   19.250   83.905    0.397 2179.250   56.509
   19.500   79.045    0.370 2195.750   54.571
   19.750   73.571    0.383 2185.760   53.638
   20.000   65.644    0.401 2181.770   50.872
   20.250   54.034    0.413 2173.810   50.933
   20.500   44.253    0.426 2171.970   51.015
   20.750   35.711    0.426 2163.980   54.026
   21.000   36.374    0.425 2153.870   59.294
   21.250   41.946    0.427 2127.540  155.054
   21.500   62.871    0.437 2144.040  107.385
   21.750   69.695    0.444 2140.210   84.623
   22.000   66.663    0.434 2136.210   80.228
   22.250   63.019    0.417 2134.330   84.963
   22.500   61.239    0.391 2144.680   93.284
   22.750   64.970    0.383 2157.070   91.689
   23.000   69.929    0.384 2175.570   67.115
   23.250   79.796    0.387 2216.540   40.088
   23.500   76.777    0.396 2249.310   32.192
   23.750   73.157    0.366 2186.280   36.003
   24.000   79.956    0.358 2149.720   52.193
   24.250   89.823    0.375 2200.870   43.453
   24.500   97.862    0.401 2188.800   37.536
   24.750   92.990    0.422 2160.430   34.283
   25.000   90.585    0.436 2136.130   42.097
   25.250   86.351    0.449 2113.830   49.760
   25.500   83.332    0.451 2101.800   62.189
   25.750   87.051    0.438 2108.080   64.656
   26.000   96.930    0.425 2128.620   60.177
   26.250  100.661    0.375 2153.240   56.983
   26.500  101.938    0.363 2177.860   49.243
   26.750   94.623    0.379 2216.780   29.425
   27.000   89.150    0.380 2233.280   26.886
   27.250   81.836    0.372 2219.180   27.941
   27.500   89.249    0.382 2202.990   29.038
   27.750   97.275    0.390 2192.960   26.037
   28.000  105.314    0.394 2201.280   23.337
   28.250  112.113    0.410 2195.360   20.925
   28.500  110.935    0.424 2185.330   19.476
   28.750   99.939    0.427 2173.220   22.600
   29.000   88.329    0.405 2157.080   27.729
   29.250   74.253    0.369 2142.970   33.400
   29.500   63.257    0.365 2145.170   45.794
   29.750   54.715    0.390 2177.980   59.407
   30.000   57.219    0.415 2174.060   53.247
   30.250   67.700    0.407 2168.110   48.633
   30.500   75.738    0.404 2156.040   40.505
   30.750   84.391    0.400 2141.890   37.684
   31.000   78.905    0.393 2109.440   93.276
   31.250   77.126    0.389 2113.680   85.194
   31.500   78.402    0.398 2146.490   83.771
   31.750   80.894    0.418 2158.880   79.356
   32.000   82.170    0.378 2169.270   46.533
   32.250   80.992    0.364 2181.620   35.356
   32.500   78.587    0.363 2214.430   34.751
   32.750   79.900    0.364 2232.930   33.546
   33.000   83.005    0.368 2233.130   31.222
   33.250   86.737    0.374 2233.290   30.701
   33.500   90.455    0.386 2229.380   31.322
   33.750   96.027    0.402 2223.420   31.360
   34.000   96.702    0.415 2209.270   30.273
   34.250   89.376    0.407 2184.980   29.767
   34.500   85.142    0.396 2166.790   33.938
   34.750   89.499    0.408 2156.800   35.284
   35.000   93.831    0.426 2161.040   34.047
   35.250   96.961    0.440 2167.310   31.676
   35.500   92.702    0.397 2171.510   27.894
   35.750   95.206    0.407 2179.820   25.951
   36.000   98.937    0.425 2180.060   24.144
   36.250  105.761    0.437 2176.110   22.872
   36.500  105.184    0.429 2172.190   23.335
   36.750   97.256    0.424 2170.310   25.631
   37.000   91.771    0.416 2182.700   32.629
   37.250   89.365    0.384 2197.130   32.097
   37.500   93.722    0.360 2219.710   31.561
   37.750   97.453    0.361 2238.250   30.466
   38.000   99.969    0.390 2252.680   28.345
   38.250  102.473    0.392 2260.990   27.351
   38.500  104.965    0.390 2267.310   24.991
   38.750  112.390    0.396 2267.430   24.563
   39.000  112.439    0.419 2267.590   23.278
   39.250  108.193    0.429 2267.750   21.666
   39.500  107.027    0.436 2259.790   20.149
   39.750  109.519    0.429 2247.720   18.745
   40.000  113.250    0.428 2229.500   18.432
   40.250  112.072    0.438 2205.200   20.631
   40.500  105.985    0.415 2182.940   37.289
   40.750   95.602    0.395 2172.950   39.490
   41.000   91.356    0.394 2173.110   36.054
   41.250   97.541    0.396 2187.500   32.930
   41.500   92.682    0.380 2193.780   31.788
   41.750   87.208    0.369 2177.630   31.839
   42.000   92.780    0.390 2200.250   30.173
   42.250  110.023    0.424 2230.980   26.085
   42.500  115.595    0.432 2237.260   23.380
   42.750  105.826    0.443 2217.040   23.873
   43.000   93.603    0.460 2198.850   24.790
   43.250   83.208    0.477 2154.170   30.440
   43.500   64.849    0.460 2133.950   37.333
   43.750   52.613    0.428 2107.580   85.800
   44.000   45.299    0.400 2085.320  224.369
   44.250   42.906    0.432 2093.670  376.841
   44.500   46.023    0.422 2112.170  286.206
   44.750   50.368    0.391 2132.720  256.526
   45.000   59.008    0.415 2183.830  132.254
   45.250   94.660    0.435 2212.560   69.426
   45.500  106.381    0.454 2235.140   42.241
   45.750  112.566    0.465 2253.650   30.919
   46.000  115.683    0.465 2253.850   25.752
   46.250  109.596    0.431 2247.850   25.332
   46.500   98.600    0.423 2227.630   25.372
   46.750   90.071    0.412 2199.260   28.376
   47.000   88.279    0.406 2174.960   40.368
   47.250   85.862    0.428 2173.120   39.710
   47.500   86.525    0.396 2177.360   37.632
   47.750   90.256    0.378 2181.590   36.313
   48.000   86.010    0.392 2185.790   35.706
   48.250   77.481    0.404 2198.220   45.456
