~Version : LASO    vs 4.00 - DATA COPYRIGHT - RILEYS DATASHARE INTERNATIONAL
 VERS.                2.0 :   CWLS Log ASCII Standard -VERSION 2.0
 WRAP.                 NO :   One line per depth step
~Well Information Block
#MNEM.UNIT       Data                        Description of Mnemonic
#----.----      -------------------------- : -----------------------------
 STRT.M             0.0000                 : Start Depth
 STOP.M           204.7500                 : End Depth
 STEP.M             0.1250                 : Depth Increment
 NULL.           -999.25                   : NULL Value
 COMP.                                     : COMPANY
 WELL.    MOBIL CLARKE OV 7-25             : WELL NAME
 FLD .    WILDCAT                          : FIELD NAME
 LOC .    07-25-090-08W4                   : WELL LOCATION
 PROV.    ALBERTA                          : PROVINCE
 SRVC.    DRESSER ATLAS                    : LOGGING SERVICE COMPANY
 DATE.    19-FEB-81                        : DATE LOGGED
 UWI .    AA/07-25-090-08W400              : UNIQUE WELL ID
~Curve Information Block
#MNEM.UNIT        API CODE                   Curve Description
#----.----      LG--CV-CL--M               : -----------------
 DEPT.M          0   1  0  0               : 1 DEPTH
 DT  .US/M      60 520 42  1               : 2 SONIC INTERVAL TRANSIT TIME (COMPENSATED)
 CALI.MM        42 280  1  1               : 3 DENSITY CALIPER
 GR  .GAPI      42 310  1  1               : 4 GAMMA RAY
 NPHI.V/V       42 890  3  1               : 5 NEUTRON POROSITY (SANDSTONE)
 RHOB.K/M3      42 350  1  1               : 6 BULK DENSITY
 IL  .OHMM       5 120 45  1               : 7 INDUCTION
 SFL .OHMM       5 220  6  1               : 8 FOCUSSED RESISTIVITY
 SP  .MV         5  10  1  1               : 9 SPONTANEOUS POTENTIAL
~Parameter Information Block
#MNEM.UNIT       Data                        Description of Mnemonic
#----.----      -------------------------- : -----------------------------
 RUN .                   1                 : Run Number
 GL  .M           449.0000                 : Ground Level Elevation
 DREF.                  KB                 : Depth Reference
 EREF.M           449.0000                 : Elevation of Depth Reference
 TDL .M           202.0000                 : Total Depth Logger
 TDD .M           205.0000                 : Total Depth Driller
 BHT .DEGC         20.0000                 : Bottom Hole Temperature
 BS  .MM          159.0000                 : Bit Size
 DFD .           9999.0000                 : Mud Weight (Density)
 DFV .            150.0000                 : Mud Viscosity
 RM  .OHMM          4.1000                 : Mud Resistivity
 RMT .DEGC         20.0000                 : Mud Resistivity Temperature
 RMF .OHMM          3.9000                 : Mud Filtrate Resistivity
 RMFT.DEGC          8.0000                 : RMF Temperature
 RMC .OHMM          7.8000                 : Mud Cake Resistivity
 RMCT.DEGC          8.0000                 : RMC Temperature
~Asc DEPTH      DT         CALI       GR         NPHI       RHOB       IL         SFL        SP   
# ...
   81.0000   598.2800   163.1500    60.2100     0.3492  2037.0000    35.6550    37.1900  -160.6650
   81.1250   597.8000   171.1250    57.8250     0.3463  2035.1000    35.5300    36.7000  -160.6650
   81.2500   593.1200   179.4000    56.3400     0.3470  2038.8000    35.6550    36.4550  -161.0400
   81.3750   581.3600   184.3000    56.5350     0.3389  2048.6001    35.5300    37.1900  -161.2200
   81.5000   561.2000   196.8750    56.7150     0.3349  2058.3999    35.2850    38.9700  -161.2200
   81.6250   574.2400   214.6250    54.3150     0.3345  2058.3999    34.9800    40.6250  -161.5950
   81.7500   585.2800   218.6250    52.1100     0.3367  2060.2000    34.9150    40.7450  -161.9700
   81.8750   587.0000   206.9750    52.2900     0.3323  2066.3999    34.9150    39.8850  -161.9700
   82.0000   588.4800   190.1250    53.0250     0.3341  2082.3000    34.8550    38.9700  -162.1500
   82.1250   587.2400   174.8000    54.3150     0.3382  2086.0000    34.7350    38.2350  -162.1500
   82.2500   586.7600   172.3500    55.7850     0.3407  2081.7000    34.5500    38.1700  -162.3300
   82.3750   586.0000   172.3500    55.9800     0.3389  2078.0000    34.3650    38.4800  -162.5250
   82.5000   585.2800   172.3500    55.9800     0.3411  2073.1001    34.2400    38.7850  -162.7050
   82.6250   580.1200   172.6500    56.3400     0.3400  2070.0000    34.3650    38.2350  -163.0800
   82.7500   564.6400   172.3500    55.7850     0.3437  2073.1001    34.4250    37.5000  -163.0800
   82.8750   544.2400   172.3500    54.8700     0.3499  2079.8000    34.4250    37.0700  -163.0800
   83.0000   558.7600   172.0500    53.9550     0.3488  2085.3999    34.3050    37.1900  -162.8850
   83.1250   596.0800   171.4250    53.0250     0.3492  2087.8000    33.9950    37.6800  -162.8850
   83.2500   593.1200   176.3250    50.6250     0.3466  2087.8000    33.6900    38.0500  -162.8850
   83.3750   581.3600   179.7000    47.3100     0.3488  2088.3999    33.3850    38.2950  -162.7050
   83.5000   555.5600   177.5500    45.4800     0.3437  2093.3000    33.2600    37.9250  -162.5250
   83.6250   509.1200   171.1250    45.1050     0.3411  2101.8999    33.1400    37.3150  -162.1500
   83.7500   501.9600   165.6250    45.8400     0.3400  2111.7000    33.4450    36.3950  -161.5950
   83.8750   505.9200   166.5250    48.2400     0.3430  2120.8999    33.9350    35.7800  -161.2200
   84.0000   518.6801   167.4500    49.8900     0.3404  2117.2000    34.6100    34.8000  -160.6650
   84.1250   504.4400   171.7500    51.7350     0.3326  2116.6001    35.4100    34.0050  -159.9300
   84.2500   479.1200   177.8750    54.4950     0.3213  2124.6001    36.3900    34.9850  -159.0000
   84.3750   471.0400   192.5750    59.4750     0.2981  2133.8000    37.1250    39.0300  -158.0700
   84.5000   459.4800   206.9750    65.0100     0.2890  2144.8000    37.2500    43.9300  -157.3350
   84.6250   487.4800   208.8000    71.0850     0.2787  2161.3000    36.3900    47.5450  -156.6000
   84.7500   496.0800   210.3500    75.3300     0.2706  2194.3999    34.9150    49.4450  -156.0450
   84.8750   488.2400   204.8250    78.6450     0.2739  2223.2000    32.3400    53.5500  -155.8500
   85.0000   484.5600   180.0000    83.0700     0.2805  2249.6001    29.3350    57.7500  -155.6700
   85.1250   534.1600   177.5500    85.6500     0.2882  2259.3999    27.4950    58.4500  -154.9200
   85.2500   561.6800   178.7750    84.9150     0.2915  2267.3000    26.3900    50.1800  -153.6300
   85.3750   618.0400   175.4250    84.9150     0.2893  2279.6001    25.7150    37.1300  -152.3400
   85.5000   608.9200   171.1250    86.3850     0.3000  2285.1001    25.0400    23.5900  -150.6450
   85.6250   536.8800   171.4250    86.2050     0.3172  2252.0000    24.4850    18.6250  -149.5500
   85.7500   563.6400   173.5750    83.8050     0.3382  2192.6001    23.9950    19.5450  -149.7450
   85.8750   590.4400   182.1500    84.3600     0.3705  2127.6001    23.8150    23.5250  -151.9650
   86.0000   563.1600   199.6250    85.2750     0.3745  2066.3999    24.1800    29.2850  -155.1150
   86.1250   501.6800   199.6250    85.8300     0.3712  2001.4000    25.2250    35.4150  -158.8200
   86.2500   539.0800   198.4000    83.4300     0.3701  1964.0000    26.5750    38.4800  -160.3050
   86.3750   564.8800   193.8000    80.1150     0.3635  1951.8000    28.1700    39.3350  -160.8600
   86.5000   541.5600   186.7500    76.4250     0.3605  1945.0000    29.5200    39.7650  -161.2200
   86.6250   521.6400   196.2500    70.9050     0.3580  1935.9000    30.5000    40.8650  -161.7750
   86.7500   535.1600   198.1000    68.3250     0.3572  1941.4000    30.9900    42.7050  -162.1500
   86.8750   544.0000   199.9250    68.1450     0.3496  1961.6001    31.1150    43.9900  -162.3300
   87.0000   557.5200   202.3750    71.0850     0.3364  1994.2000    31.5450    41.2950  -162.7050
   87.1250   575.9200   202.3750    74.2200     0.3293  2050.3999    31.6650    35.7800  -163.4400
   87.2500   582.3200   203.0000    75.8850     0.3238  2099.5000    31.7250    33.0250  -164.1900
   87.3750   577.6800   207.9000    77.7150     0.3194  2139.8999    31.9100    33.3900  -164.5650
   87.5000   569.5600   205.1250    79.0050     0.3283  2151.5000    32.3400    34.8650  -164.9250
   87.6250   561.4400   205.7500    78.2700     0.3374  2141.7000    32.5250    35.1100  -165.3000
   87.7500   558.2400   209.1250    75.5100     0.3392  2124.0000    32.2200    34.9850  -165.4800
   87.8750   554.5600   220.4500    71.0850     0.3455  2111.1001    32.6450    35.2300  -165.6750
   88.0000   551.1200   238.2250    69.0600     0.3422  2109.8999    33.0750    35.6000  -166.0350
   88.1250   547.9200   244.3500    68.3250     0.3392  2104.3999    32.9550    36.8250  -166.0350
   88.2500   549.8800   251.1000    69.2400     0.3341  2096.3999    32.4650    37.1300  -165.3000
   88.3750   554.0800   256.6000    69.0600     0.3253  2084.7000    32.0950    37.6800  -164.3700
   88.5000   557.2800   252.3250    69.0600     0.3242  2068.2000    31.4800    36.9450  -162.7050
   88.6250   565.8800   250.1750    67.5900     0.3275  2051.1001    30.8700    35.4750  -160.4850
   88.7500   567.0800   241.9000    66.4800     0.3297  2026.5000    30.0700    34.5550  -157.1550
   88.8750   567.8400   217.7000    66.6600     0.3400  2019.2000    29.2100    33.7600  -150.6450
   89.0000   562.9200   212.8000    66.4800     0.3503  2003.9000    28.6000    32.1050  -140.2950
   89.1250   553.6000   201.7750    66.1050     0.3602  1979.4000    27.4950    31.6750  -137.5200
   89.2500   557.2800   195.0250    65.5650     0.3613  1961.0000    25.7750    32.9650  -136.3950
   89.3750   564.4000   190.7250    65.1900     0.3466  1967.1001    22.8300    32.7800  -135.8400
   89.5000   575.9200   188.6000    65.7450     0.3418  1981.8000    19.3350    34.0050  -135.4800
   89.6250   549.6400   185.8250    66.4800     0.3367  2008.8000    16.6350    32.8400  -135.4800
   89.7500   514.0400   193.1750    67.0350     0.3338  2041.9000    13.6300    28.4900  -135.2850
   89.8750   508.6000   208.8000    67.5900     0.3356  2067.0000    11.2350    23.2800  -134.9250
   90.0000   509.8400   211.5750    69.2400     0.3392  2077.3999     9.7000    22.8550  -133.9950
   90.1250   532.9600   205.4500    72.7500     0.3463  2079.2000     8.4750    21.3800  -133.0650
   90.2500   546.9600   193.8000    78.2700     0.3551  2075.0000     7.6800    13.8450  -132.1350
   90.3750   559.0000   187.6750    82.6950     0.3716  2072.5000     7.0050     9.0650  -131.2200
   90.5000   573.2400   189.2000    88.0350     0.3896  2089.0000     6.5100     8.7000  -130.2900
   90.6250   588.4800   193.1750    93.7500     0.4069  2115.3999     6.2050     9.9850  -129.9150
   90.7500   573.0000   197.7750    98.3550     0.4109  2122.1001     5.9000    11.1500  -129.7350
   90.8750   542.5200   189.2000   102.6000     0.4043  2112.8999     5.7150    11.3950  -129.1800
   91.0000   523.6000   187.0500   104.4450     0.4046  2112.3000     5.7150    10.9650  -128.4300
