~VERSION INFORMATION
 VERS.                 2.0:   CWLS LOG ASCII STANDARD -VERSION 2.0
 WRAP.                  NO:   ONE LINE PER DEPTH STEP
~WELL INFORMATION BLOCK
#MNEM.UNIT           DATA                    DESCRIPTION OF MNEMONIC
#---------    -------------------            -------------------------------
# Generated from Intellog Unique Number	CN_94_101/WELL/4980
WELL.         06-04-097-14W4                 : Well_name    - WELL
LOC .         AA/06-04-097-14W4/0            : Location     - LOCATION
UWI .         AA/06-04-097-14W400            : Uwi          - UNIQUE WELL ID
ENTR.         JOETTE                         : Entered      - ENTERED BY
SRVC.         SCHLUMBERGER                   : Scn          - SERVICE COMPANY
DATE.         08/17/92                       : Date         - LOG DATE
STRT.M        106.68                         : top_depth    - START DEPTH
STOP.M        374.93                         : bot_depth    - STOP DEPTH
STEP.M        0.25                           : increment    - STEP LENGTH
 NULL. -999.2500:NULL Value
~CURVE INFORMATION BLOCK
#MNEM UNIT       ERCB CURVE CODE    CURVE DESCRIPTION
#-----------   ------------------   ----------------------------------
DEPT.M        00 001 00 00         : DEPTH        - DEPTH
ILD .OHMM     00 120 00 00         : RESD         - DEEP RESISTIVITY (DIL)
GR  .API      00 310 00 00         : GR           - GAMMA RAY
NPHI.V/V      00 330 00 00         : PHIN         - NEUTRON POROSITY (SANDSTONE)
~PARAMETER INFORMATION
#MNEM.UNIT           DATA             DESCRIPTION OF MNEMONIC
#---------         -----------     ------------------------------
GL  .M        639.166              : gl           - GROUND LEVEL ELEVATION
EREF.M        639.166              : kb           - ELEVATION OF DEPTH REFERENCE
DATM.M        639.166              : datum        - DATUM ELEVATION
TDD .M        377.647              : tdd          - TOTAL DEPTH DRILLER
RUN .         ONE                  : Run          - RUN NUMBER
ENG .         JO                   : Engineer     - RECORDING ENGINEER
WIT .         TIM                  : Witness      - WITNESSED BY
MUD .         GEL                  : Mud_type     - MUD TYPE
MATR.         SANDSTONE            : Logunit      - NEUTRON MATRIX
TMAX.C        12.2222              : BHT          - MAXIMUM RECORDED TEMPERATURE
BHTD.M        377.647              : BHTDEP       - MAXIMUM RECORDED TEMPERATURE
RMT .C        8.33333              : MDTP         - TEMPERATURE OF MUD
MUDD.KG/M     1200                 : MWT          - MUD DENSITY
NEUT.         1                    : NEUTRON      - NEUTRON TYPE
RESI.         0                    : RESIST       - RESISTIVITY TYPE
RM  .OHMM     6.5                  : RM           - RESISTIVITY OF MUD
RMC .OHMM     6.5                  : RMC          - RESISTIVITY OF MUD CAKE
RMF .OHMM     5.9                  : RMF          - RESISTIVITY OF MUD FILTRATE
SUFT.C        4                    : SUFT         - SURFACE TEMPERATURE
~A  DEPTH     RESD       GR     PHIN
# ...
  269.430    3.318   69.291    0.528
  269.680    3.389   61.496    0.538
  269.930    3.190   76.394    0.530
  270.180    3.125   79.759    0.522
  270.430    3.331   86.848    0.524
  270.680    3.404   84.259    0.520
  270.930    3.611   87.629    0.527
  271.180    3.748   87.276    0.517
  271.430    4.224   84.319    0.505
  271.680    4.631   81.363    0.498
  271.930    5.444   79.150    0.504
  272.180    5.583   70.616    0.500
  272.430    5.789   68.408    0.489
  272.680    5.523   66.562    0.479
  272.930    4.785   62.862    0.486
  273.180    4.587   65.484    0.487
  273.430    6.209   64.387    0.481
  273.680    6.819   60.687    0.473
  273.930    7.632   60.333    0.467
  274.180    5.883   61.472    0.482
  274.430    5.347   55.908    0.494
  274.680    4.745   53.323    0.496
  274.930    4.343   62.639    0.478
  275.180    3.807   71.215    0.474
  275.430    6.576   79.787    0.467
  275.680    9.006   70.880    0.463
  275.930    7.729   64.205    0.473
  276.180    8.474   56.414    0.480
  276.430    8.748   56.061    0.493
  276.680    4.706   62.773    0.498
  276.930    5.115   68.370    0.496
  277.180    4.444   68.022    0.492
  277.430    4.717   79.196    0.486
  277.680    5.260   87.029    0.485
  277.930    5.602   78.862    0.485
  278.180    5.876   79.996    0.474
  278.430    5.272   69.230    0.471
  278.680    4.197   65.530    0.466
  278.930    4.067   63.689    0.475
  279.180    5.148   64.079    0.480
  279.430    5.557   64.842    0.474
  279.680    5.695   80.484    0.468
  279.930    5.159   82.734    0.463
  280.180    5.096   86.471    0.473
  280.430    4.965   86.490    0.477
  280.680    4.227   76.839    0.474
  280.930    4.298   66.074    0.470
  281.180    6.055   74.645    0.477
  281.430    6.059   70.945    0.494
  281.680    3.973   72.079    0.500
  281.930    3.910   73.585    0.508
  282.180    3.981   77.699    0.519
  282.430    4.053   78.090    0.526
  282.680    3.854   87.405    0.505
  282.930    3.991   90.027    0.504
  283.180    4.198   93.020    0.505
  283.430    4.134   88.948    0.503
  283.680    4.273   84.132    0.507
  283.930    4.345   79.317    0.514
  284.180    4.011   89.752    0.518
  284.430    3.879   89.404    0.523
  284.680    3.749   92.393    0.524
  284.930    3.752   90.924    0.524
  285.180    3.757   89.088    0.525
  285.430    3.625   92.077    0.525
  285.680    3.494   94.331    0.525
  285.930    3.834   91.375    0.524
  286.180    5.455   95.112    0.521
  286.430    5.729   92.527    0.500
  286.680    4.182   90.315    0.498
  286.930    3.848   88.846    0.491
  287.180    4.594   89.613    0.464
  287.430    6.283   85.164    0.454
  287.680    7.097   88.901    0.437
  287.930    7.234   98.598    0.432
  288.180    9.194   91.914    0.419
  288.430    8.860   82.263    0.423
  288.680   10.077   74.845    0.440
  288.930   10.148   73.004    0.454
  289.180    9.209   89.389    0.461
  289.430    7.527   86.066    0.465
  289.680    6.857   86.080    0.468
  289.930    6.996   83.495    0.463
  290.180    6.865   81.287    0.466
  290.430    6.802   79.442    0.460
  290.680    6.805   78.349    0.438
  290.930    6.876   70.187    0.430
  291.180    9.778   69.462    0.416
  291.430   12.074   74.682    0.415
  291.680    9.921   74.700    0.423
  291.930    9.115   76.950    0.429
  292.180    7.905   77.712    0.433
  292.430   10.673   69.922    0.435
  292.680    8.519   63.618    0.438
  292.930    6.972   61.406    0.436
  293.180    7.178   64.771    0.430
  293.430    5.969   64.794    0.420
  293.680    9.276   67.044    0.418
  293.930    9.482   63.344    0.419
  294.180    9.014   70.805    0.422
  294.430   11.984   73.050    0.428
  294.680   10.438   74.556    0.434
  294.930    9.902   71.971    0.442
  295.180    7.951   67.156    0.448
  295.430    8.088   64.199    0.442
  295.680    5.801   69.424    0.451
  295.930    6.478   72.794    0.448
  296.180    8.303   65.375    0.443
  296.430    9.251   67.997    0.443
  296.680    7.705   70.247    0.447
  296.930    7.572   75.100    0.449
  297.180    7.509   75.495    0.449
  297.430    7.783   74.765    0.449
  297.680    7.853   72.185    0.449
  297.930    7.856   72.947    0.450
  298.180    7.253   75.941    0.457
  298.430    6.853   82.281    0.465
  298.680    6.115   71.144    0.462
  298.930    5.781   72.650    0.458
  299.180    6.189   77.503    0.452
  299.430    5.047   88.310    0.446
  299.680    8.490   80.515    0.441
  299.930    7.213   77.186    0.442
  300.180    7.756   72.371    0.442
  300.430    9.107   69.414    0.445
  300.680   12.213   77.623    0.465
  300.930    8.575   81.728    0.508
  301.180    3.253   79.515    0.513
  301.430    2.919   86.228    0.494
  301.680    6.835   92.940    0.488
  301.930    6.771   92.591    0.472
  302.180    7.113   88.519    0.501
  302.430    5.294   84.071    0.516
  302.680    2.804   72.938    0.525
  302.930    2.539   82.253    0.525
  303.180    2.474   87.111    0.522
  303.430    2.748   85.265    0.521
  303.680    2.953   84.173    0.492
  303.930    4.508   76.005    0.468
  304.180    5.795   77.883    0.461
  304.430    6.066   84.972    0.450
  304.680    6.677   77.177    0.434
  304.930    7.220   73.477    0.430
  305.180    7.494   67.545    0.429
  305.430    7.834   70.167    0.439
  305.680    7.703   70.557    0.432
  305.930    5.280   72.064    0.408
  306.180    7.778   87.706    0.439
  306.430   12.434   77.311    0.449
  306.680   25.045   67.661    0.442
  306.930    7.722   75.494    0.445
  307.180    7.321   77.367    0.442
  307.430    9.010   79.622    0.434
  307.680    8.070   77.404    0.441
  307.930    7.805   75.192    0.439
  308.180    7.675   87.115    0.417
  308.430    7.341   78.957    0.414
  308.680    9.164   81.202    0.415
  308.930   12.134   88.291    0.425
  309.180   10.588   91.280    0.424
  309.430   11.400   87.580    0.420
  309.680    9.988   77.186    0.418
  309.930   10.261   75.717    0.413
  310.180   10.265   79.826    0.410
  310.430    8.920   79.845    0.395
  310.680   10.475   83.959    0.416
  310.930   13.647   85.093    0.422
  311.180   15.607   81.021    0.422
  311.430    8.059   75.461    0.422
  311.680    9.547   76.223    0.427
  311.930    9.415   75.870    0.423
  312.180    8.137   77.004    0.425
  312.430    8.411   77.395    0.440
  312.680    9.426   91.549    0.430
  312.930    8.621   81.522    0.421
  313.180    8.155   74.475    0.418
  313.430    7.819   85.655    0.413
  313.680    8.767   86.789    0.405
  313.930    9.445   78.259    0.389
  314.180   21.787   85.711    0.386
  314.430   11.475   74.201    0.408
  314.680   10.939   71.617    0.421
  314.930   11.280   64.941    0.426
  315.180    7.778   61.613    0.432
  315.430    9.265   68.697    0.432
  315.680    9.404   76.525    0.416
  315.930   10.150   85.474    0.411
  316.180   10.558   89.583    0.407
  316.430   11.370   75.098    0.418
  316.680   11.374   71.393    0.429
  316.930   11.378   59.512    0.427
  317.180   10.842   57.671    0.420
  317.430   11.048   64.388    0.418
  317.680   12.198   63.291    0.416
  317.930   11.258   62.566    0.419
  318.180   12.340   62.589    0.421
  318.430   12.074   62.236    0.369
  318.680   10.864   65.597    0.360
  318.930    8.441   55.946    0.340
  319.180   28.064   50.759    0.331
  319.430   17.820   48.918    0.414
  319.680    9.194   51.168    0.463
  319.930    5.827   52.302    0.475
  320.180    5.628   63.105    0.481
  320.430    5.295   77.259    0.478
  320.680    6.107   93.273    0.470
  320.930    6.111   92.920    0.470
  321.180    6.384   92.195    0.478
  321.430    6.658   91.841    0.468
  321.680    6.257   81.076    0.461
  321.930    8.014   77.380    0.452
  322.180   12.805   80.002    0.436
  322.430   15.303   77.413    0.418
  322.680   16.049   86.728    0.427
  322.930    5.738   85.259    0.450
  323.180    5.875   71.518    0.466
  323.430    5.544   75.256    0.476
