~VERSION INFORMATION
 VERS.                 2.0:   CWLS LOG ASCII STANDARD -VERSION 2.0
 WRAP.                  NO:   ONE LINE PER DEPTH STEP
~WELL INFORMATION BLOCK
#MNEM.UNIT           DATA                    DESCRIPTION OF MNEMONIC
#---------    -------------------            -------------------------------
# Generated from Intellog Unique Number	CX_WELLS/WELL/2676
WELL.         06-20-089-10W4                 : Well_name    - WELL
LOC .         AA/06-20-089-10W4/0            : Location     - LOCATION
UWI .         AA/06-20-089-10W400            : Uwi          - UNIQUE WELL ID
ENTR.         JOETTE                         : Entered      - ENTERED BY
SRVC.         SCHLUMBERGER                   : Scn          - SERVICE COMPANY
DATE.         03/04/92                       : Date         - LOG DATE
STRT.M        55                             : top_depth    - START DEPTH
STOP.M        160                            : bot_depth    - STOP DEPTH
STEP.M        0.25                           : increment    - STEP LENGTH
 NULL. -999.2500:NULL Value
~CURVE INFORMATION BLOCK
#MNEM UNIT       ERCB CURVE CODE    CURVE DESCRIPTION
#-----------   ------------------   ----------------------------------
DEPT.M        00 001 00 00         : DEPTH        - DEPTH
GR  .API      00 310 00 00         : GR           - GAMMA RAY
NPHI.V/V      00 330 00 00         : PHIN         - NEUTRON POROSITY (SANDSTONE)
DPHI.V/V      00 890 00 00         : PHID         - DENSITY POROSITY (SANDSTONE)
ILD .OHMM     00 120 00 00         : RESD         - DEEP RESISTIVITY (DIL)
~PARAMETER INFORMATION
#MNEM.UNIT           DATA             DESCRIPTION OF MNEMONIC
#---------         -----------     ------------------------------
GL  .M        397.32               : gl           - GROUND LEVEL ELEVATION
EREF.M        397.32               : kb           - ELEVATION OF DEPTH REFERENCE
DATM.M        397.32               : datum        - DATUM ELEVATION
TDD .M        164.28               : tdd          - TOTAL DEPTH DRILLER
RUN .         ONE                  : Run          - RUN NUMBER
ENG .         JO                   : Engineer     - RECORDING ENGINEER
WIT .         TIM                  : Witness      - WITNESSED BY
MUD .         GEL                  : Mud_type     - MUD TYPE
MATR.         SANDSTONE            : Logunit      - NEUTRON MATRIX
TMAX.C        6.4                  : BHT          - MAXIMUM RECORDED TEMPERATURE
BHTD.M        164.28               : BHTDEP       - MAXIMUM RECORDED TEMPERATURE
RMT .C        14.4                 : MDTP         - TEMPERATURE OF MUD
MUDD.KG/M     1                    : MWT          - MUD DENSITY
NEUT.         1                    : NEUTRON      - NEUTRON TYPE
RESI.         0                    : RESIST       - RESISTIVITY TYPE
RM  .OHMM     9.5                  : RM           - RESISTIVITY OF MUD
RMC .OHMM     9.5                  : RMC          - RESISTIVITY OF MUD CAKE
RMF .OHMM     9.5                  : RMF          - RESISTIVITY OF MUD FILTRATE
SUFT.C        4                    : SUFT         - SURFACE TEMPERATURE
~A  DEPTH       GR     PHIN     PHID     RESD
# ...
   98.500   80.455    0.429    0.286   46.370
   98.750   82.271    0.434    0.282   46.347
   99.000   80.485    0.418    0.282   49.962
   99.250   71.515    0.410    0.280   52.265
   99.500   63.743    0.411    0.282   49.104
   99.750   49.982    0.413    0.290   48.322
  100.000   49.397    0.408    0.297   51.315
  100.250   61.395    0.400    0.292   55.332
  100.500   56.618    0.405    0.286   56.112
  100.750   51.841    0.411    0.293   59.602
  101.000   44.069    0.415    0.305   67.282
  101.250   46.479    0.418    0.306   77.122
  101.500   56.676    0.412    0.305  104.578
  101.750   64.477    0.403    0.297  123.591
  102.000   62.695    0.404    0.269  109.259
  102.250   58.517    0.403    0.272   67.951
  102.500   55.537    0.395    0.275   60.071
  102.750   53.156    0.383    0.275   61.872
  103.000   52.571    0.367    0.265   67.743
  103.250   63.966    0.370    0.247   76.472
  103.500   72.965    0.395    0.234   87.655
  103.750   86.760    0.402    0.191   54.529
  104.000   99.353    0.422    0.198   34.435
  104.250   99.367    0.445    0.221   26.939
  104.500   99.382    0.439    0.229   21.070
  104.750  101.193    0.423    0.230   21.690
  105.000  104.203    0.418    0.230   22.007
  105.250  107.216    0.415    0.230   22.329
  105.500  111.423    0.410    0.231   21.968
  105.750  114.429    0.407    0.230   20.644
  106.000  117.442    0.407    0.225   18.812
  106.250  116.259    0.411    0.231   19.674
  106.500  113.279    0.412    0.238   21.546
  106.750  107.304    0.411    0.241   23.590
  107.000  100.730    0.413    0.241   22.511
  107.250   93.557    0.420    0.242   21.154
  107.500   84.587    0.413    0.247   22.124
  107.750   75.617    0.412    0.253   26.549
  108.000   70.840    0.418    0.267   30.431
  108.250   70.855    0.429    0.271   41.265
  108.500   71.468    0.443    0.270   54.272
  108.750   70.884    0.429    0.272   63.167
  109.000   67.305    0.415    0.278   63.086
  109.250   67.922    0.412    0.286   65.994
  109.500   70.928    0.398    0.283   63.942
  109.750   75.734    0.396    0.280   57.398
  110.000   84.134    0.404    0.276   55.613
  110.250   84.149    0.409    0.270   59.057
  110.500   84.164    0.391    0.262   65.656
  110.750   81.183    0.399    0.255   75.239
  111.000   66.823    0.409    0.256   76.338
  111.250   62.645    0.410    0.266   72.843
  111.500   61.462    0.405    0.281   72.769
  111.750   80.048    0.394    0.281   69.419
  112.000   81.863    0.384    0.278   63.290
  112.250   84.869    0.386    0.273   56.783
  112.500   92.670    0.394    0.270   59.385
  112.750   96.877    0.399    0.265   59.324
  113.000   92.699    0.388    0.259   56.608
  113.250   82.531    0.387    0.257   57.421
  113.500   78.952    0.389    0.263   57.362
  113.750   87.951    0.398    0.270   57.289
  114.000   88.565    0.413    0.276   58.141
  114.250   83.189    0.428    0.278   58.975
  114.500   71.823    0.440    0.268   54.568
  114.750   70.640    0.438    0.280   57.069
  115.000   77.247    0.425    0.285   66.439
  115.250   79.055    0.412    0.283   70.535
  115.500   79.073    0.411    0.279   62.372
  115.750   76.699    0.412    0.271   55.988
  116.000   74.314    0.415    0.270   67.185
  116.250   70.731    0.420    0.280   68.150
  116.500   64.757    0.426    0.291   71.273
  116.750   58.183    0.436    0.297   76.853
  117.000   51.609    0.443    0.303   96.549
  117.250   46.233    0.453    0.312  123.160
  117.500   41.456    0.455    0.324  188.722
  117.750   38.479    0.417    0.337  161.816
  118.000   38.494    0.422    0.341  130.520
  118.250   40.901    0.427    0.337  182.480
  118.500   44.513    0.441    0.334  218.920
  118.750   45.721    0.463    0.337  205.783
  119.000   46.934    0.439    0.337  208.737
  119.250   47.551    0.414    0.336  208.523
  119.500   50.557    0.424    0.333  246.434
  119.750   54.169    0.458    0.327  324.112
  120.000   51.788    0.476    0.317  183.964
  120.250   48.804    0.448    0.300   84.287
  120.500   46.427    0.457    0.304   93.705
  120.750   49.436    0.473    0.321  123.242
  121.000   58.435    0.446    0.326  157.211
  121.250   61.448    0.432    0.331  226.675
  121.500   57.869    0.431    0.332  307.298
  121.750   54.889    0.458    0.333  200.132
  122.000   52.504    0.469    0.334  106.859
  122.250   51.920    0.465    0.334  100.395
  122.500   53.731    0.450    0.332  140.398
  122.750   56.142    0.437    0.327  133.971
  123.000   59.151    0.437    0.318   94.153
  123.250   58.571    0.435    0.309   99.959
  123.500   55.590    0.430    0.297   91.132
  123.750   53.205    0.421    0.299   83.043
  124.000   52.022    0.395    0.297   81.721
  124.250   56.832    0.395    0.293   82.873
  124.500   58.644    0.402    0.297   82.766
  124.750   58.658    0.396    0.298   78.977
  125.000   58.677    0.380    0.282   75.362
  125.250   56.891    0.383    0.277   73.019
  125.500   51.515    0.398    0.289   72.963
  125.750   47.337    0.409    0.307   75.130
  126.000   43.158    0.417    0.319   78.573
  126.250   38.980    0.428    0.325   91.474
  126.500   33.005    0.430    0.325  108.104
  126.750   33.623    0.410    0.327  135.810
  127.000   36.029    0.392    0.329  181.415
  127.250   36.044    0.393    0.329  231.419
  127.500   31.267    0.399    0.331  198.425
  127.750   29.492    0.407    0.332  201.274
  128.000   30.098    0.418    0.332  213.739
  128.250   32.513    0.425    0.333  183.219
  128.500   34.923    0.434    0.334  203.693
  128.750   36.136    0.438    0.335  272.093
  129.000   38.546    0.442    0.337  271.814
  129.250   40.361    0.441    0.338  199.988
  129.500   38.575    0.440    0.340  190.832
  129.750   36.194    0.425    0.341  296.995
  130.000   35.011    0.411    0.342  340.427
  130.250   38.623    0.395    0.333  242.932
  130.500   42.228    0.396    0.323  144.354
  130.750   45.836    0.407    0.309  118.198
  131.000   47.052    0.449    0.294   99.810
  131.250   43.477    0.460    0.299  101.242
  131.500   41.092    0.415    0.307  141.547
  131.750   37.509    0.392    0.323  186.164
  132.000   29.138    0.392    0.339  494.711
  132.250   30.351    0.401    0.347  558.458
  132.500   30.968    0.413    0.354  229.916
  132.750   29.182    0.423    0.360  154.343
  133.000   26.202    0.429    0.364  163.902
  133.250   25.019    0.429    0.355  185.022
  133.500   25.037    0.429    0.351  208.810
  133.750   25.055    0.430    0.348  228.681
  134.000   25.665    0.430    0.351  258.083
  134.250   26.283    0.422    0.357  300.456
  134.500   26.896    0.402    0.356  377.556
  134.750   26.907    0.399    0.338  426.097
  135.000   26.323    0.403    0.343  425.661
  135.250   26.341    0.405    0.346  431.661
  135.500   26.951    0.410    0.346  458.395
  135.750   28.167    0.416    0.344  494.406
  136.000   27.583    0.424    0.340  509.224
  136.250   27.594    0.431    0.339  549.088
  136.500   27.608    0.435    0.338  583.094
  136.750   28.828    0.437    0.343  531.471
  137.000   29.435    0.436    0.347  367.943
  137.250   30.052    0.433    0.352  296.705
  137.500   30.067    0.437    0.357  305.520
  137.750   29.482    0.441    0.359  329.606
  138.000   28.902    0.395    0.357  395.527
  138.250   29.519    0.391    0.348  453.368
  138.500   30.125    0.419    0.333  446.037
  138.750   31.937    0.449    0.334  333.225
  139.000   31.951    0.463    0.339  234.247
  139.250   30.169    0.462    0.347  194.805
  139.500   28.986    0.456    0.354  223.236
  139.750   33.792    0.455    0.361  259.821
  140.000   36.801    0.438    0.355  336.625
  140.250   40.414    0.423    0.347  336.280
  140.500   43.419    0.425    0.337  196.742
  140.750   43.441    0.415    0.325  136.207
  141.000   42.258    0.404    0.313  199.362
  141.250   47.061    0.411    0.321  225.052
  141.500   53.065    0.418    0.332  135.788
  141.750   58.470    0.429    0.306  142.011
