~VERSION INFORMATION
 VERS.                 2.0:   CWLS LOG ASCII STANDARD -VERSION 2.0
 WRAP.                  NO:   ONE LINE PER DEPTH STEP
~WELL INFORMATION BLOCK
#MNEM.UNIT           DATA                    DESCRIPTION OF MNEMONIC
#---------    -------------------            -------------------------------
# Generated from Intellog Unique Number	CN_94_101/WELL/1066
WELL.         09-10-094-07W4                 : Well_name    - WELL
LOC .         AA/09-10-094-07W4/0            : Location     - LOCATION
UWI .         AA/09-10-094-07W400            : Uwi          - UNIQUE WELL ID
ENTR.         JOETTE                         : Entered      - ENTERED BY
SRVC.         WESTERN ATLAS                  : Scn          - SERVICE COMPANY
DATE.         04/12/92                       : Date         - LOG DATE
STRT.M        30.48                          : top_depth    - START DEPTH
STOP.M        246.98                         : bot_depth    - STOP DEPTH
STEP.M        0.25                           : increment    - STEP LENGTH
 NULL. -999.2500:NULL Value
~CURVE INFORMATION BLOCK
#MNEM UNIT       ERCB CURVE CODE    CURVE DESCRIPTION
#-----------   ------------------   ----------------------------------
DEPT.M        00 001 00 00         : DEPTH        - DEPTH
DPHI.V/V      00 890 00 00         : PHID         - DENSITY POROSITY (SANDSTONE)
ILD .OHMM     00 120 00 00         : RESD         - DEEP RESISTIVITY (DIL)
GR  .API      00 310 00 00         : GR           - GAMMA RAY
CALI.MM       00 280 01 00         : CAL          - CALIPER
~PARAMETER INFORMATION
#MNEM.UNIT           DATA             DESCRIPTION OF MNEMONIC
#---------         -----------     ------------------------------
GL  .M        524.134              : gl           - GROUND LEVEL ELEVATION
EREF.M        525.658              : kb           - ELEVATION OF DEPTH REFERENCE
DATM.M        525.658              : datum        - DATUM ELEVATION
TDD .M        249.326              : tdd          - TOTAL DEPTH DRILLER
RUN .         ONE                  : Run          - RUN NUMBER
ENG .         BILL                 : Engineer     - RECORDING ENGINEER
WIT .         JIM                  : Witness      - WITNESSED BY
MUD .         GEL                  : Mud_type     - MUD TYPE
MATR.         SANDSTONE            : Logunit      - NEUTRON MATRIX
TMAX.C        7.77778              : BHT          - MAXIMUM RECORDED TEMPERATURE
BHTD.M        249.326              : BHTDEP       - MAXIMUM RECORDED TEMPERATURE
RMT .C        5.55556              : MDTP         - TEMPERATURE OF MUD
MUDD.KG/M     1100                 : MWT          - MUD DENSITY
NEUT.         1                    : NEUTRON      - NEUTRON TYPE
RESI.         0                    : RESIST       - RESISTIVITY TYPE
RM  .OHMM     9                    : RM           - RESISTIVITY OF MUD
RMC .OHMM     9                    : RMC          - RESISTIVITY OF MUD CAKE
RMF .OHMM     9                    : RMF          - RESISTIVITY OF MUD FILTRATE
SUFT.C        -15                  : SUFT         - SURFACE TEMPERATURE
~A  DEPTH     PHID     RESD       GR      CAL
   30.480    0.185    1.000   64.883  178.412
   30.730    0.184   15.386   65.464  177.333
   30.980    0.182   15.632   66.011  177.297
   31.230    0.182   15.636   65.394  176.254
   31.480    0.181   15.639   64.169  175.164
   31.730    0.182   15.641   64.155  175.140
   31.980    0.183   15.644   62.937  178.117
   32.230    0.183   15.646   62.313  180.086
   32.480    0.182   15.406   61.676  177.003
   32.730    0.182   15.408   61.046  174.940
   32.980    0.182   15.411   61.032  173.885
   33.230    0.184   15.414   61.005  172.806
   33.480    0.185   15.417   61.565  172.782
   33.730    0.184   15.419   62.721  173.731
   33.980    0.182   15.421   63.302  175.712
   34.230    0.182   15.424   63.863  178.677
   34.480    0.184   15.186   63.835  180.646
   34.730    0.189   14.721   63.807  179.591
   34.980    0.193   14.493   66.154  177.516
   35.230    0.198   14.269   67.912  175.453
   35.480    0.204   13.615   68.479  174.398
   35.730    0.205   13.405   68.451  173.331
   35.980    0.209   13.407   67.226  172.287
   36.230    0.213   13.409   66.008  171.220
   36.480    0.219   13.412   65.980  171.173
   36.730    0.225   13.628   65.357  171.138
   36.980    0.232   13.846   65.329  172.099
   37.230    0.235   14.067   65.301  173.048
   37.480    0.238   14.067   65.259  174.021
   37.730    0.243   16.211   65.245  175.966
   37.980    0.250   16.212   64.622  177.947
   38.230    0.250   16.472   63.999  178.908
   38.480    0.247   16.736   65.757  176.833
   38.730    0.244   16.738   67.515  176.786
   38.980    0.240   16.741   69.273  175.743
   39.230    0.240   16.483   71.620  173.679
   39.480    0.239   15.727   73.973  170.584
   39.730    0.235   15.006   77.510  169.529
   39.980    0.227   13.659   79.269  169.482
   40.230    0.209   12.630   76.271  171.451
   40.480    0.158   12.435   73.855  173.432
   40.730    0.112   12.243   71.446  174.381
   40.980    0.134   12.439   69.632  174.334
   41.230    0.168   12.637   67.811  173.279
   41.480    0.202   13.674   65.991  172.212
   41.730    0.199   14.794   65.375  172.176
   41.980    0.196   15.755   64.758  171.109
   42.230    0.196   17.045   62.931  171.062
   42.480    0.199   19.029   61.124  171.015
   42.730    0.209   21.245   59.310  172.984
   42.980    0.235   21.586   56.901  178.986
   43.230    0.280   22.990   53.897  176.922
   43.480    0.253   24.485   51.474  175.855
   43.730    0.240   25.270   51.446  177.824
   43.980    0.242   25.674   52.020  178.785
   44.230    0.253   24.886   57.343  175.702
   44.480    0.261   24.502   59.704  176.675
   44.730    0.271   26.510   63.843  179.652
   44.980    0.283   28.233   66.792  179.593
   45.230    0.312   32.525   66.169  173.509
   45.480    0.327   35.748   58.983  173.462
   45.730    0.346   35.752   58.955  179.464
   45.980    0.367   33.581   61.309  180.401
   46.230    0.311   29.621   63.067  178.349
   46.480    0.262   26.128   62.444  174.270
   46.730    0.249   23.046   61.828  171.199
   46.980    0.256   20.650   62.388  169.124
   47.230    0.258   19.396   65.330  168.057
   47.480    0.241   18.508   67.088  169.018
   47.730    0.216   18.222   67.656  169.990
   47.980    0.204   18.515   67.635  170.940
   48.230    0.203   19.107   66.416  170.904
   48.480    0.206   19.720   64.000  171.853
   48.730    0.209   22.018   62.775  171.794
   48.980    0.204   22.723   63.335  171.736
   49.230    0.197   22.372   63.917  170.704
   49.480    0.188   20.049   65.073  170.657
   49.730    0.191   18.830   65.647  169.590
   49.980    0.194   18.833   65.010  169.543
   50.230    0.196   19.135   63.791  169.507
   50.480    0.199   21.031   60.794  168.440
   50.730    0.200   22.047   58.973  168.393
   50.980    0.201   24.615   58.350  169.354
   51.230    0.206   27.916   57.720  169.307
   51.480    0.224   31.166   55.906  169.248
   51.730    0.246   33.196   54.688  168.193
   51.980    0.281   33.724   54.667  167.126
   52.230    0.305   33.730   54.037  170.115
   52.480    0.305   32.184   54.009  178.132
   52.730    0.278   30.229   54.583  192.198
   52.980    0.279   27.086   55.144  180.054
   53.230    0.280   24.270   56.300  171.943
   53.480    0.248   21.408   56.874  171.895
   53.730    0.241   21.077   58.632  172.833
   53.980    0.260   21.755   59.788  172.786
   54.230    0.248   22.808   60.349  172.739
   54.480    0.223   24.676   60.923  172.691
   54.730    0.213   26.697   61.491  172.644
   54.980    0.198   27.555   62.647  172.585
   55.230    0.176   26.291   62.612  172.550
   55.480    0.166   25.084   62.002  172.491
   55.730    0.178   22.832   60.189  172.456
   55.980    0.196   22.480   61.947  172.397
   56.230    0.231   23.943   64.896  172.338
   56.480    0.239   25.103   67.242  173.311
   56.730    0.225   24.331   67.207  174.272
   56.980    0.223   22.852   66.584  177.249
   57.230    0.224   20.800   68.938  187.271
   57.480    0.222   18.062   71.893  183.203
   57.730    0.214   17.233   75.430  177.108
   57.980    0.188   17.236   71.242  170.004
   58.230    0.181   18.648   63.468  167.929
   58.480    0.182   21.823   59.267  169.898
   58.730    0.189   23.610   58.055  170.835
   58.980    0.199   24.368   57.432  171.820
   59.230    0.195   24.760   57.404  171.749
   59.480    0.192   25.556   57.369  170.717
   59.730    0.189   26.375   56.732  169.651
   59.980    0.189   27.651   56.123  168.584
   60.230    0.197   28.991   53.714  167.528
   60.480    0.224   30.394   50.709  167.481
   60.730    0.258   31.866   48.293  167.446
   60.980    0.297   31.378   48.861  167.387
   61.230    0.308   30.893   48.833  167.340
   61.480    0.299   29.942   48.196  167.293
   61.730    0.288   28.570   47.580  168.242
   61.980    0.276   28.131   45.171  169.203
   62.230    0.254   28.578   42.166  169.168
   62.480    0.229   29.496   39.155  171.113
   62.730    0.215   30.925   37.943  171.078
   62.980    0.246   32.423   36.130  173.047
   63.230    0.287   33.464   34.302  177.032
   63.480    0.290   33.469   33.686  183.033
   63.730    0.294   32.441   33.658  188.026
   63.980    0.311   31.442   36.607  194.028
   64.230    0.310   28.619   42.532  192.972
   64.480    0.299   25.244   49.641  189.889
   64.730    0.289   22.267   53.192  185.810
   64.980    0.264   19.643   57.325  191.823
   65.230    0.204   19.037   59.090  187.732
   65.480    0.201   18.451   60.245  182.644
   65.730    0.208   18.747   59.622  178.565
   65.980    0.210   20.283   58.397  176.502
   66.230    0.210   21.266   58.376  176.455
   66.480    0.209   21.949   58.944  178.412
   66.730    0.211   21.951   60.688  174.332
   66.980    0.205   22.303   61.269  166.209
   67.230    0.204   22.659   61.837  174.215
   67.480    0.204   22.663   61.837  177.204
   67.730    0.204   22.669   62.944  181.189
   67.980    0.201   22.672   62.937  183.146
   68.230    0.200   22.676   63.504  183.099
   68.480    0.202   22.680   63.477  180.027
   68.730    0.208   22.331   64.037  176.944
   68.980    0.214   21.306   63.995  175.913
   69.230    0.211   20.977   63.974  173.849
   69.480    0.204   20.333   63.933  173.802
   69.730    0.200   19.707   63.919  178.784
   69.980    0.197   19.404   63.891  173.685
   70.230    0.197   19.105   63.870  170.613
   70.480    0.198   18.810   64.431  173.590
   70.730    0.201   18.520   64.403  177.587
   70.980    0.202   18.234   64.963  180.564
   71.230    0.209   17.954   65.538  175.453
   71.480    0.217   17.957   65.503  173.390
   71.730    0.211   17.681   64.291  175.359
   71.980    0.209   17.408   63.073  178.336
   72.230    0.206   17.411   63.045  177.281
   72.480    0.206   17.143   63.599  176.238
   72.730    0.208   16.878   64.173  174.174
   72.980    0.212   16.619   65.336  176.108
   73.230    0.217   16.108   66.499  179.097
   73.480    0.225   15.613   67.648  181.078
   73.730    0.240   15.371   68.229  183.047
