~VERSION INFORMATION
 VERS.                 2.0:   CWLS LOG ASCII STANDARD -VERSION 2.0
 WRAP.                  NO:   ONE LINE PER DEPTH STEP
~WELL INFORMATION BLOCK
#MNEM.UNIT           DATA                    DESCRIPTION OF MNEMONIC
#---------    -------------------            -------------------------------
# Generated from Intellog Unique Number	CN_94_101/WELL/3191
WELL.         03-23-097-12W4                 : Well_name    - WELL
LOC .         AA/03-23-097-12W4/0            : Location     - LOCATION
UWI .         AA/03-23-097-12W400            : Uwi          - UNIQUE WELL ID
ENTR.         JOETTE                         : Entered      - ENTERED BY
SRVC.         SCHLUMBERGER                   : Scn          - SERVICE COMPANY
DATE.         08/17/92                       : Date         - LOG DATE
STRT.M        0                              : top_depth    - START DEPTH
STOP.M        130                            : bot_depth    - STOP DEPTH
STEP.M        0.25                           : increment    - STEP LENGTH
 NULL. -999.2500:NULL Value
~CURVE INFORMATION BLOCK
#MNEM UNIT       ERCB CURVE CODE    CURVE DESCRIPTION
#-----------   ------------------   ----------------------------------
DEPT.M        00 001 00 00         : DEPTH        - DEPTH
DPHI.V/V      00 890 00 00         : PHID         - DENSITY POROSITY (SANDSTONE)
NPHI.V/V      00 330 00 00         : PHIN         - NEUTRON POROSITY (SANDSTONE)
GR  .API      00 310 00 00         : GR           - GAMMA RAY
ILD .OHMM     00 120 00 00         : RESD         - DEEP RESISTIVITY (DIL)
~PARAMETER INFORMATION
#MNEM.UNIT           DATA             DESCRIPTION OF MNEMONIC
#---------         -----------     ------------------------------
GL  .M        338.9                : gl           - GROUND LEVEL ELEVATION
EREF.M        338.9                : kb           - ELEVATION OF DEPTH REFERENCE
DATM.M        338.9                : datum        - DATUM ELEVATION
TDD .M        131                  : tdd          - TOTAL DEPTH DRILLER
RUN .         ONE                  : Run          - RUN NUMBER
ENG .         JO                   : Engineer     - RECORDING ENGINEER
WIT .         TIM                  : Witness      - WITNESSED BY
MUD .         GEL                  : Mud_type     - MUD TYPE
MATR.         SANDSTONE            : Logunit      - NEUTRON MATRIX
TMAX.C        18                   : BHT          - MAXIMUM RECORDED TEMPERATURE
BHTD.M        131                  : BHTDEP       - MAXIMUM RECORDED TEMPERATURE
RMT .C        18                   : MDTP         - TEMPERATURE OF MUD
MUDD.KG/M     800                  : MWT          - MUD DENSITY
NEUT.         1                    : NEUTRON      - NEUTRON TYPE
RESI.         0                    : RESIST       - RESISTIVITY TYPE
RM  .OHMM     12.5                 : RM           - RESISTIVITY OF MUD
RMC .OHMM     12.5                 : RMC          - RESISTIVITY OF MUD CAKE
RMF .OHMM     12.5                 : RMF          - RESISTIVITY OF MUD FILTRATE
SUFT.C        4                    : SUFT         - SURFACE TEMPERATURE
~A  DEPTH     PHID     PHIN       GR     RESD
# ...
   87.000    0.315    0.359   58.644   76.410
   87.250    0.316    0.339   52.600   82.182
   87.500    0.299    0.338   66.892   82.349
   87.750    0.301    0.346   78.080   74.746
   88.000    0.317    0.356   73.267   47.742
   88.250    0.313    0.356   66.608   39.850
   88.500    0.297    0.352   66.718   40.496
   88.750    0.300    0.345   68.702   42.925
   89.000    0.311    0.342   65.092   41.236
   89.250    0.301    0.345   60.867   50.332
   89.500    0.298    0.361   53.592   54.873
   89.750    0.319    0.362   59.912   58.164
   90.000    0.314    0.353   56.890   65.219
   90.250    0.307    0.366   49.642  102.626
   90.500    0.311    0.365   47.263   98.539
   90.750    0.309    0.355   46.170   89.441
   91.000    0.260    0.397   51.176   36.931
   91.250    0.220    0.396   70.420   31.262
   91.500    0.217    0.380   87.175   25.717
   91.750    0.266    0.383   90.362   21.166
   92.000    0.284    0.354   80.626   23.733
   92.250    0.288    0.374   75.785   28.165
   92.500    0.292    0.390   69.125   30.277
   92.750    0.285    0.358   64.900   29.915
   93.000    0.273    0.365   60.730   29.145
   93.250    0.252    0.391   64.533   25.734
   93.500    0.285    0.355   68.951   24.024
   93.750    0.273    0.363   72.781   21.223
   94.000    0.266    0.339   59.297   22.171
   94.250    0.296    0.365   58.176   25.582
   94.500    0.310    0.378   53.979   23.561
   94.750    0.340    0.345   45.445   23.943
   95.000    0.340    0.354   32.632   38.710
   95.250    0.330    0.377   27.175   48.571
   95.500    0.336    0.343   29.747   65.415
   95.750    0.336    0.336   32.962  113.578
   96.000    0.339    0.336   29.352  107.587
   96.250    0.346    0.364   28.902  100.438
   96.500    0.340    0.379   30.216   91.165
   96.750    0.334    0.369   32.172   81.676
   97.000    0.337    0.370   33.514   78.502
   97.250    0.339    0.348   34.855   78.582
   97.500    0.348    0.347   34.993   80.987
   97.750    0.342    0.355   34.487   85.844
   98.000    0.332    0.362   35.801   97.718
   98.250    0.339    0.336   35.911  103.527
   98.500    0.350    0.337   33.560  102.290
   98.750    0.348    0.345   31.208   92.940
   99.000    0.340    0.356   30.088   86.853
   99.250    0.332    0.363   30.841   84.573
   99.500    0.335    0.340   29.693   82.313
   99.750    0.339    0.367   28.572   82.480
  100.000    0.344    0.374   30.529   99.318
  100.250    0.340    0.375   31.870   94.127
  100.500    0.332    0.367   28.288   85.393
  100.750    0.341    0.373   28.398   76.427
  101.000    0.350    0.383   32.228   67.482
  101.250    0.358    0.393   32.339   59.614
  101.500    0.353    0.392   29.959   55.681
  101.750    0.339    0.372   30.768   52.034
  102.000    0.326    0.371   32.054   51.360
  102.250    0.324    0.376   34.010   51.465
  102.500    0.340    0.374   36.610   56.164
  102.750    0.343    0.370   38.594   57.017
  103.000    0.341    0.377   38.649   46.248
  103.250    0.344    0.382   36.913   37.009
  103.500    0.347    0.384   33.358   31.328
  103.750    0.347    0.385   35.903   27.647
  104.000    0.343    0.378   34.810   19.485
  104.250    0.337    0.375   33.074   15.813
  104.500    0.324    0.380   30.722   13.962
  104.750    0.259    0.387   34.553   13.035
  105.000    0.287    0.365   37.097   12.175
  105.250    0.329    0.392   40.285   11.056
  105.500    0.359    0.422   36.702    9.762
  105.750    0.328    0.374   31.861    9.650
  106.000    0.331    0.362   32.642   10.081
  106.250    0.333    0.367   32.165    8.911
  106.500    0.331    0.340   31.604    8.560
  106.750    0.340    0.336   31.715    8.817
  107.000    0.325    0.346   34.314    8.960
  107.250    0.250    0.413   34.425    8.974
  107.500    0.207    0.435   31.458    9.384
  107.750    0.189    0.458   27.205   10.666
  108.000    0.172    0.472   14.391   10.699
  108.250    0.178    0.462   18.221   10.413
  108.500    0.186    0.448   19.590   10.150
  108.750    0.179    0.432   18.442   10.034
  109.000    0.169    0.437   17.294    9.765
  109.250    0.175    0.458   16.844    8.383
  109.500    0.180    0.451   18.157    7.945
  109.750    0.174    0.438   18.855    8.078
  110.000    0.163    0.439   20.867    8.090
  110.250    0.189    0.442   22.236    8.103
  110.500    0.201    0.433   22.906    8.006
  110.750    0.221    0.422   26.094    7.583
  111.000    0.189    0.394   30.512    7.285
  111.250    0.241    0.387   48.525    7.508
  111.500    0.282    0.393   49.251    7.962
  111.750    0.277    0.386   43.179    8.092
  112.000    0.235    0.368   48.240    7.661
  112.250    0.216    0.394   51.455    7.359
  112.500    0.213    0.351   47.845    7.801
  112.750    0.241    0.347   46.109    7.708
  113.000    0.288    0.358   94.306    7.003
  113.250    0.308    0.413  120.935    7.113
  113.500    0.310    0.429  122.276    7.335
  113.750    0.283    0.463  119.309    7.149
  114.000    0.247    0.505  125.629    6.769
  114.250    0.218    0.538  120.788    6.782
  114.500    0.199    0.539  108.562    7.189
  114.750    0.173    0.512   92.000    7.728
  115.000    0.166    0.380   81.648    8.426
  115.250    0.170    0.364   84.863    9.316
  115.500    0.176    0.367   86.792    9.467
  115.750    0.183    0.373   89.364    9.620
  116.000    0.181    0.361   88.299    9.122
  116.250    0.192    0.311   85.892    9.270
  116.500    0.222    0.294   76.771    9.549
  116.750    0.247    0.352   72.546    9.990
  117.000    0.208    0.337   72.068   10.147
  117.250    0.200    0.360   79.564   10.307
  117.500    0.197    0.411   93.241    9.096
  117.750    0.236    0.647  145.157    7.700
  118.000    0.259    0.626  165.604    6.992
  118.250    0.238    0.602  165.715    6.538
  118.500    0.233    0.566  159.698    6.544
  118.750    0.246    0.563  154.242    6.650
  119.000    0.164    0.611  149.401    6.664
  119.250    0.129    0.612  143.973    5.482
  119.500    0.140    0.583  137.929    4.775
  119.750    0.189    0.551  141.732    4.396
  120.000    0.141    0.572  142.457    4.728
  120.250    0.098    0.601  142.568    4.939
  120.500    0.093    0.604  138.370    5.698
  120.750    0.060    0.530  129.836    6.483
  121.000    0.047    0.502  116.995    6.872
  121.250   -0.042    0.453   97.384    7.384
  121.500    0.043    0.424   87.004    9.270
  121.750    0.088    0.391   73.548   11.474
  122.000    0.097    0.405   89.714   10.426
  122.250    0.100    0.460  107.084    9.728
  122.500    0.093    0.446  111.558    8.589
  122.750    0.070    0.374  107.305    8.733
  123.000    0.054    0.321   93.848    9.397
  123.250    0.026    0.273   77.314    9.550
  123.500   -0.001    0.268   73.116    9.832
  123.750   -0.010    0.276   71.996   10.575
  124.000    0.013    0.273   67.798   13.840
  124.250    0.041    0.274   66.677   14.480
  124.500    0.049    0.288   68.634   14.700
  124.750    0.030    0.284   71.233   15.372
  125.000    0.027    0.234   70.728   16.067
  125.250    0.003    0.189   67.734   16.550
  125.500    0.002    0.182   57.970   16.819
  125.750    0.008    0.182   39.589   16.853
  126.000    0.033    0.225   55.113   38.199
  126.250    0.042    0.252   66.944   37.234
  126.500    0.047    0.283   73.824   35.270
  126.750    0.040    0.308   83.193   32.943
  127.000    0.031    0.335   86.996   25.994
  127.250    0.027    0.348   95.750   24.959
  127.500    0.040    0.318   94.629   13.280
  127.750    0.039    0.307   92.893   13.306
  128.000    0.036    0.349   90.569   13.334
  128.250    0.072    0.375   94.988   13.367
  128.500    0.065    0.349   96.301   13.381
  128.750    0.059    0.312   97.027   12.854
  129.000    0.049    0.313   97.780   12.881
  129.250    0.044    0.332   88.016   13.476
  129.500    0.000    0.328   67.147   13.688
  129.750   -0.002    0.269   46.920   14.100
  130.000    0.006    0.220   46.415   14.953
