~VERSION INFORMATION
 VERS.                 2.0:   CWLS LOG ASCII STANDARD -VERSION 2.0
 WRAP.                  NO:   ONE LINE PER DEPTH STEP
~WELL INFORMATION BLOCK
#MNEM.UNIT           DATA                    DESCRIPTION OF MNEMONIC
#---------    -------------------            -------------------------------
# Generated from Intellog Unique Number	CN_91_93/WELL/1070
WELL.         04-19-091-11W4                 : Well_name    - WELL
LOC .         AA/04-19-091-11W4/0            : Location     - LOCATION
UWI .         AA/04-19-091-11W400            : Uwi          - UNIQUE WELL ID
ENTR.         JOETTE                         : Entered      - ENTERED BY
SRVC.         WESTERN ATLAS                  : Scn          - SERVICE COMPANY
DATE.         01/22/92                       : Date         - LOG DATE
STRT.F        50                             : top_depth    - START DEPTH
STOP.F        550.328                        : bot_depth    - STOP DEPTH
STEP.F        0.8202                         : increment    - STEP LENGTH
 NULL. -999.2500:NULL Value
~CURVE INFORMATION BLOCK
#MNEM UNIT       ERCB CURVE CODE    CURVE DESCRIPTION
#-----------   ------------------   ----------------------------------
DEPT.F        00 001 00 00         : DEPTH        - DEPTH
GR  .API      00 310 00 00         : GR           - GAMMA RAY
CALI.IN       00 280 01 00         : CAL          - CALIPER
DPHI.V/V      00 890 00 00         : PHID         - DENSITY POROSITY (SANDSTONE)
ILD .OHMM     00 120 00 00         : RESD         - DEEP RESISTIVITY (DIL)
~PARAMETER INFORMATION
#MNEM.UNIT           DATA             DESCRIPTION OF MNEMONIC
#---------         -----------     ------------------------------
GL  .M        432.542              : gl           - GROUND LEVEL ELEVATION
EREF.M        432.542              : kb           - ELEVATION OF DEPTH REFERENCE
DATM.M        432.542              : datum        - DATUM ELEVATION
TDD .M        168.554              : tdd          - TOTAL DEPTH DRILLER
RUN .         ONE                  : Run          - RUN NUMBER
ENG .         JO                   : Engineer     - RECORDING ENGINEER
WIT .         TIM                  : Witness      - WITNESSED BY
MUD .         GEL                  : Mud_type     - MUD TYPE
MATR.         SANDSTONE            : Logunit      - NEUTRON MATRIX
TMAX.F        53.6                 : BHT          - MAXIMUM RECORDED TEMPERATURE
BHTD.F        553                  : BHTDEP       - MAXIMUM RECORDED TEMPERATURE
RMT .F        53.6                 : MDTP         - TEMPERATURE OF MUD
MUDD.LB/G     9                    : MWT          - MUD DENSITY
NEUT.         1                    : NEUTRON      - NEUTRON TYPE
RESI.         0                    : RESIST       - RESISTIVITY TYPE
RM  .OHMM     1.5                  : RM           - RESISTIVITY OF MUD
RMC .OHMM     1.8                  : RMC          - RESISTIVITY OF MUD CAKE
RMF .OHMM     1.1                  : RMF          - RESISTIVITY OF MUD FILTRATE
SUFT.F        39.2                 : SUFT         - SURFACE TEMPERATURE
~A  DEPTH       GR      CAL     PHID     RESD
# ...
  335.433   96.110    7.496    0.154   12.741
  336.253   95.868    7.476    0.152   12.292
  337.073   94.435    7.376    0.136   13.351
  337.894   92.764    7.177    0.164   20.145
  338.714   91.332    7.038    0.182   22.490
  339.534   92.041    7.117    0.190   10.453
  340.354   94.653    7.295    0.187    9.633
  341.175   96.077    7.453    0.181    9.552
  341.995   96.071    7.453    0.176    9.558
  342.815   95.830    7.413    0.164    9.136
  343.635   96.062    7.353    0.163    8.814
  344.455   95.106    7.293    0.148    9.930
  345.276   94.386    7.194    0.158   13.306
  346.096   96.048    7.233    0.176   14.321
  346.916   97.946    7.332    0.174   12.160
  347.736   97.466    7.332    0.176   11.624
  348.556   94.605    7.450    0.177   11.111
  349.377   95.552    7.529    0.177   10.430
  350.197   96.023    7.548    0.178   10.726
  351.017   94.352    7.528    0.179   10.928
  351.837   93.395    7.527    0.179   11.035
  352.657   92.677    7.547    0.179   11.143
  353.478   93.624    7.546    0.180   11.048
  354.298   94.809    7.546    0.185   10.953
  355.118   95.042    7.486    0.186   10.860
  355.938   93.371    7.367    0.186   10.867
  356.759   92.651    7.208    0.218   11.485
  357.579   91.933    7.148    0.239   12.704
  358.399   92.403    7.366    0.237   14.578
  359.219   92.875    7.484    0.234   11.610
  360.039   92.157    7.523    0.256   10.316
  360.860   90.247    7.523    0.249    8.600
  361.680   90.005    7.522    0.239    7.039
  362.500   90.714    7.502    0.222    6.086
  363.320   92.375    7.502    0.206    5.980
  364.140   93.797    7.481    0.194    6.319
  364.961   95.459    7.481    0.191    8.315
  365.781   97.834    7.481    0.191    9.986
  366.601   99.733    7.480    0.195   10.177
  367.421   97.110    7.460    0.188   10.657
  368.241   92.108    7.440    0.187   12.568
  369.062   88.294    7.400    0.208   12.461
  369.882   86.624    7.340    0.217   12.814
  370.702   84.716    7.280    0.215   17.015
  371.522   82.330    7.181    0.211   17.820
  372.343   80.660    7.041    0.277    8.748
  373.163   78.275    7.180    0.277    5.858
  373.983   77.319    7.298    0.276    5.499
  374.803   77.312    7.338    0.274    5.452
  375.623   78.736    7.317    0.257    5.555
  376.444   80.873    7.238    0.258    6.034
  377.264   79.679    7.178    0.226    6.614
  378.084   80.625    7.138    0.198    7.872
  378.904   81.573    7.138    0.193    9.541
  379.724   82.996    7.097    0.197    8.794
  380.545   83.466    7.057    0.205    9.817
  381.365   83.700    6.938    0.217   11.161
  382.185   84.409    6.858    0.229   11.272
  383.005   85.356    6.897    0.223   12.021
  383.825   87.730    6.956    0.213    7.761
  384.646   88.678    7.015    0.222    7.418
  385.466   88.435    7.114    0.235    7.156
  386.286   88.668    7.352    0.239    6.905
  387.106   89.139    7.490    0.228    7.100
  387.927   90.325    7.450    0.224    7.104
  388.747   91.747    7.351    0.220    7.043
  389.567   91.742    7.231    0.216    6.983
  390.387   91.262    7.151    0.214    7.247
  391.207   91.019    7.111    0.210    7.729
  392.028   90.538    7.151    0.208    8.397
  392.848   89.819    7.190    0.203    7.810
  393.668   87.911    7.170    0.201    8.254
  394.488   85.526    7.149    0.204    9.300
  395.308   86.949    7.089    0.208    8.728
  396.129   85.516    7.049    0.215    7.616
  396.949   83.608    6.970    0.211    7.415
  397.769   80.747    6.870    0.211    7.837
  398.589   76.697    6.790    0.244    8.909
  399.409   70.980    6.730    0.263   11.200
  400.230   60.821    6.839    0.311   15.500
  401.050   56.581    6.682    0.306   17.543
  401.870   49.288    6.583    0.363   19.858
  402.690   44.106    6.484    0.342   46.302
  403.510   43.386    6.404    0.311   83.330
  404.331   44.548    6.383    0.309   81.181
  405.151   50.871    6.382    0.358  107.471
  405.971   52.971    6.381    0.336   83.045
  406.791   57.654    6.400    0.307   61.173
  407.612   59.989    6.398    0.289   53.812
  408.432   62.325    6.377    0.265   49.974
  409.252   67.712    6.357    0.226   42.767
  410.072   76.622    6.336    0.204   26.568
  410.892   82.479    6.394    0.204   15.209
  411.713   85.749    6.510    0.198   13.197
  412.533   84.092    6.587    0.197   13.951
  413.353   83.841    6.625    0.204   13.876
  414.173   86.414    6.624    0.201   13.335
  414.993   88.980    6.623    0.203   13.180
  415.814   89.671    6.621    0.203   13.004
  416.634   89.656    6.621    0.199   14.128
  417.454   90.115    6.638    0.198   13.577
  418.274   91.274    6.676    0.202   14.856
  419.094   93.137    6.695    0.200   13.986
  419.915   91.951    6.694    0.196   13.083
  420.735   89.824    6.712    0.196   13.642
  421.555   86.756    6.711    0.208   14.039
  422.375   80.871    6.710    0.216   13.768
  423.195   77.805    6.728    0.217   13.878
  424.016   72.154    6.727    0.225   14.474
  424.836   68.849    6.687    0.229   13.630
  425.656   66.252    6.646    0.241   14.310
  426.476   64.362    6.586    0.263   18.188
  427.297   61.530    6.546    0.274   14.052
  428.117   55.410    6.506    0.276   18.354
  428.937   50.230    6.485    0.284   21.939
  429.757   46.928    6.464    0.293   19.166
  430.577   46.676    6.463    0.304   22.446
  431.398   49.483    6.462    0.313   23.731
  432.218   53.929    6.422    0.300   26.680
  433.038   56.027    6.401    0.280   26.892
  433.858   57.892    6.380    0.267   28.626
  434.678   61.167    6.379    0.231   30.479
  435.499   66.555    6.397    0.204   28.306
  436.319   69.594    6.416    0.182   24.227
  437.139   81.554    6.415    0.165   17.968
  437.959   84.360    6.433    0.143   14.266
  438.780   82.468    6.452    0.162   14.382
  439.600   80.572    6.470    0.192   18.913
  440.420   80.793    6.488    0.221   17.447
  441.240   77.259    6.468    0.223   14.044
  442.060   72.782    6.427    0.230   15.680
  442.881   68.540    6.367    0.235   19.794
  443.701   67.119    6.347    0.230   20.506
  444.521   65.695    6.345    0.229   25.358
  445.341   65.914    6.344    0.235   18.807
  446.161   62.849    6.382    0.256   16.318
  446.982   57.429    6.381    0.277   18.852
  447.802   55.772    6.399    0.276   16.809
  448.622   51.298    6.398    0.275   22.870
  449.442   47.058    6.358    0.280   30.281
  450.262   45.162    6.337    0.290   35.465
  451.083   43.743    6.316    0.291   57.608
  451.903   42.084    6.315    0.295   69.818
  452.723   41.835    6.314    0.294  202.464
  453.543   39.943    6.332    0.292   85.850
  454.364   37.343    6.351    0.297   41.724
  455.184   36.388    6.369    0.303  107.758
  456.004   35.672    6.369    0.305  107.894
  456.824   35.422    6.367    0.303   90.464
  457.644   35.410    6.346    0.306   33.935
  458.465   35.159    6.325    0.308   55.124
  459.285   34.208    6.324    0.313  138.538
  460.105   32.782    6.323    0.315  131.354
  460.925   32.062    6.341    0.311   88.555
  461.745   32.755    6.341    0.312   49.660
  462.566   33.677    6.358    0.309   74.332
  463.386   33.197    6.357    0.304   76.484
  464.206   32.479    6.376    0.306  159.891
  465.026   32.230    6.394    0.305  131.385
  465.846   31.510    6.393    0.299   86.783
  466.667   30.323    6.393    0.301   77.366
  467.487   32.184    6.410    0.301   59.774
  468.307   32.409    6.409    0.297   78.071
  469.127   31.924    6.408    0.299   87.176
  469.948   30.969    6.407    0.302   59.173
  470.768   31.188    6.405    0.305   73.186
  471.588   32.349    6.404    0.304  103.029
  472.408   32.806    6.403    0.304   93.123
  473.228   32.556    6.421    0.291   94.520
  474.049   32.308    6.440    0.280  106.977
  474.869   32.061    6.439    0.282  133.214
  475.689   31.574    6.457    0.268  118.775
  476.509   31.326    6.475    0.269   71.305
  477.329   31.077    6.494    0.283   69.941
