~VERSION INFORMATION
 VERS.                 2.0:   CWLS LOG ASCII STANDARD -VERSION 2.0
 WRAP.                  NO:   ONE LINE PER DEPTH STEP
~WELL INFORMATION BLOCK
#MNEM.UNIT           DATA                    DESCRIPTION OF MNEMONIC
#---------    -------------------            -------------------------------
# Generated from Intellog Unique Number	CN_94_101/WELL/3188
WELL.         02-29-099-14W4                 : Well_name    - WELL
LOC .         AA/02-29-099-14W4/0            : Location     - LOCATION
UWI .         AA/02-29-099-14W400            : Uwi          - UNIQUE WELL ID
ENTR.         TIM                            : Entered      - ENTERED BY
SRVC.         SCHLUMBERGER                   : Scn          - SERVICE COMPANY
DATE.         08/13/92                       : Date         - LOG DATE
STRT.M        360                            : top_depth    - START DEPTH
STOP.M        562                            : bot_depth    - STOP DEPTH
STEP.M        0.25                           : increment    - STEP LENGTH
 NULL. -999.2500:NULL Value
~CURVE INFORMATION BLOCK
#MNEM UNIT       ERCB CURVE CODE    CURVE DESCRIPTION
#-----------   ------------------   ----------------------------------
DEPT.M        00 001 00 00         : DEPTH        - DEPTH
DPHI.V/V      00 890 00 00         : PHID         - DENSITY POROSITY (SANDSTONE)
NPHI.V/V      00 330 00 00         : PHIN         - NEUTRON POROSITY (SANDSTONE)
ILD .OHMM     00 120 00 00         : RESD         - DEEP RESISTIVITY (DIL)
GR  .API      00 310 00 00         : GR           - GAMMA RAY
~PARAMETER INFORMATION
#MNEM.UNIT           DATA             DESCRIPTION OF MNEMONIC
#---------         -----------     ------------------------------
GL  .M        800.3                : gl           - GROUND LEVEL ELEVATION
EREF.M        803.3                : kb           - ELEVATION OF DEPTH REFERENCE
DATM.M        803.3                : datum        - DATUM ELEVATION
TDD .M        562                  : tdd          - TOTAL DEPTH DRILLER
RUN .         ONE                  : Run          - RUN NUMBER
ENG .         JO                   : Engineer     - RECORDING ENGINEER
WIT .         TIM                  : Witness      - WITNESSED BY
MUD .         GEL                  : Mud_type     - MUD TYPE
MATR.         SANDSTONE            : Logunit      - NEUTRON MATRIX
TMAX.C        25                   : BHT          - MAXIMUM RECORDED TEMPERATURE
BHTD.M        562                  : BHTDEP       - MAXIMUM RECORDED TEMPERATURE
RMT .C        24                   : MDTP         - TEMPERATURE OF MUD
MUDD.KG/M     1000                 : MWT          - MUD DENSITY
NEUT.         1                    : NEUTRON      - NEUTRON TYPE
RESI.         0                    : RESIST       - RESISTIVITY TYPE
RM  .OHMM     4.75                 : RM           - RESISTIVITY OF MUD
RMC .OHMM     6.3                  : RMC          - RESISTIVITY OF MUD CAKE
RMF .OHMM     6.3                  : RMF          - RESISTIVITY OF MUD FILTRATE
SUFT.C        4                    : SUFT         - SURFACE TEMPERATURE
~A  DEPTH     PHID     PHIN     RESD       GR
# ...
  403.500    0.301    0.474    3.118   95.257
  403.750    0.300    0.471    3.119   94.654
  404.000    0.301    0.465    3.122   92.838
  404.250    0.310    0.462    3.124   94.081
  404.500    0.308    0.459    3.127   94.101
  404.750    0.297    0.465    3.128   91.677
  405.000    0.303    0.473    3.191   91.084
  405.250    0.311    0.484    3.256   92.935
  405.500    0.316    0.499    3.322   96.632
  405.750    0.322    0.512    3.324   99.104
  406.000    0.315    0.520    3.263  102.179
  406.250    0.311    0.526    3.142  104.646
  406.500    0.307    0.532    3.083  105.278
  406.750    0.307    0.541    2.968  105.909
  407.000    0.308    0.549    2.914  106.540
  407.250    0.308    0.539    2.916  107.177
  407.500    0.307    0.508    2.919  107.196
  407.750    0.298    0.497    2.920  106.609
  408.000    0.289    0.495    2.979  106.006
  408.250    0.303    0.493    2.924  105.414
  408.500    0.316    0.492    2.870  104.214
  408.750    0.309    0.490    2.659  103.005
  409.000    0.286    0.486    2.560  101.800
  409.250    0.273    0.486    2.466  101.829
  409.500    0.293    0.487    2.419  100.625
  409.750    0.310    0.487    2.421   96.972
  410.000    0.315    0.480    2.423   93.315
  410.250    0.322    0.471    2.520   89.662
  410.500    0.331    0.471    2.621   88.462
  410.750    0.339    0.461    2.833   86.034
  411.000    0.344    0.442    3.062   84.212
  411.250    0.345    0.401    3.441   79.336
  411.500    0.346    0.362    3.867   73.847
  411.750    0.347    0.376    4.429   67.134
  412.000    0.317    0.402    5.171   65.930
  412.250    0.316    0.412    6.158   64.123
  412.500    0.336    0.424    6.657   63.521
  412.750    0.348    0.433    6.790   61.097
  413.000    0.352    0.434    6.797   59.280
  413.250    0.352    0.430    6.671   58.071
  413.500    0.359    0.427    6.675   56.259
  413.750    0.364    0.423    6.681   55.667
  414.000    0.358    0.418    6.685   56.298
  414.250    0.358    0.413    6.818   56.313
  414.500    0.360    0.403    6.823   55.108
  414.750    0.353    0.390    6.828   55.127
  415.000    0.333    0.396    6.834   56.983
  415.250    0.327    0.404    6.708   59.455
  415.500    0.335    0.412    6.584   61.311
  415.750    0.342    0.420    6.463   63.778
  416.000    0.338    0.418    6.221   65.634
  416.250    0.312    0.417    5.990   66.265
  416.500    0.338    0.422    5.443   63.842
  416.750    0.347    0.437    4.945   62.637
  417.000    0.337    0.447    4.494   66.936
  417.250    0.315    0.456    4.006   77.359
  417.500    0.289    0.467    3.640   89.007
  417.750    0.283    0.471    3.372   96.983
  418.000    0.289    0.467    3.246   97.012
  418.250    0.290    0.442    3.007   97.031
  418.500    0.277    0.433    2.785   98.892
  418.750    0.264    0.438    2.580  100.126
  419.000    0.258    0.441    2.484  103.210
  419.250    0.261    0.449    2.439  105.678
  419.500    0.268    0.446    2.440  107.528
  419.750    0.273    0.441    2.490  109.996
  420.000    0.270    0.442    2.540  113.692
  420.250    0.265    0.450    2.591  113.100
  420.500    0.262    0.461    2.593  112.502
  420.750    0.261    0.456    2.595  110.078
  421.000    0.261    0.454    2.597  108.257
  421.250    0.263    0.464    2.598  107.057
  421.500    0.261    0.484    2.600  107.077
  421.750    0.259    0.511    2.602  107.096
  422.000    0.261    0.525    2.604  106.509
  422.250    0.272    0.519    2.556  106.528
  422.500    0.282    0.509    2.509  107.159
  422.750    0.283    0.495    2.463  107.796
  423.000    0.279    0.499    2.418  106.591
  423.250    0.274    0.512    2.419  105.377
  423.500    0.274    0.515    2.420  104.172
  423.750    0.279    0.513    2.376  102.973
  424.000    0.284    0.510    2.378  101.768
  424.250    0.286    0.509    2.380  101.176
  424.500    0.286    0.509    2.381  101.200
  424.750    0.288    0.511    2.382  101.210
  425.000    0.289    0.511    2.384  101.841
  425.250    0.290    0.503    2.386  101.249
  425.500    0.287    0.501    2.342  100.044
  425.750    0.289    0.499    2.344  101.292
  426.000    0.295    0.496    2.345  101.924
  426.250    0.296    0.488    2.302  102.555
  426.500    0.296    0.489    2.304  100.739
  426.750    0.298    0.494    2.306   98.310
  427.000    0.299    0.500    2.352   95.882
  427.250    0.302    0.501    2.353   94.065
  427.500    0.303    0.496    2.401   92.860
  427.750    0.303    0.480    2.498   94.104
  428.000    0.304    0.472    2.499   97.795
  428.250    0.307    0.485    2.549  100.268
  428.500    0.309    0.495    2.652   99.675
  428.750    0.316    0.501    2.654   96.635
  429.000    0.320    0.493    2.760   94.818
  429.250    0.323    0.487    2.761   94.230
  429.500    0.327    0.480    2.818   94.852
  429.750    0.332    0.464    2.820   96.713
  430.000    0.323    0.472    2.768   98.568
  430.250    0.193    0.487    2.716  101.040
  430.500    0.217    0.493    2.615   99.836
  430.750    0.221    0.489    2.470   99.850
  431.000    0.190    0.484    2.378  101.706
  431.250    0.201    0.483    2.290  101.730
  431.500    0.227    0.490    2.205   99.914
  431.750    0.241    0.498    2.082   98.097
  432.000    0.250    0.509    2.044   99.953
  432.250    0.261    0.521    1.968  101.813
  432.500    0.269    0.528    1.932  102.440
  432.750    0.281    0.533    1.896  103.066
  433.000    0.292    0.537    1.861  103.698
  433.250    0.300    0.545    1.862  102.493
  433.500    0.304    0.570    1.828  100.065
  433.750    0.313    0.578    1.865   97.024
  434.000    0.319    0.560    1.903   96.431
  434.250    0.321    0.534    1.941   96.451
  434.500    0.329    0.505    2.058   95.251
  434.750    0.331    0.490    2.225   95.271
  435.000    0.335    0.480    2.314   95.902
  435.250    0.335    0.487    2.406   98.370
  435.500    0.335    0.500    2.704  101.454
  435.750    0.335    0.510    3.039   99.637
  436.000    0.336    0.523    3.221   97.826
  436.250    0.336    0.534    3.691   97.228
  436.500    0.336    0.542    3.912   95.417
  436.750    0.334    0.524    4.482   94.814
  437.000    0.333    0.505    4.753   92.386
  437.250    0.332    0.488    4.942   86.902
  437.500    0.332    0.465    5.142   83.249
  437.750    0.344    0.449    5.244   80.209
  438.000    0.352    0.433    4.766   76.551
  438.250    0.349    0.416    4.330   71.062
  438.500    0.344    0.387    3.859   64.962
  438.750    0.340    0.388    3.374   60.085
  439.000    0.339    0.412    3.126   63.165
  439.250    0.336    0.433    2.952   70.528
  439.500    0.322    0.451    2.842   76.061
  439.750    0.306    0.469    2.789   78.523
  440.000    0.314    0.478    2.845   82.225
  440.250    0.320    0.483    3.017   84.080
  440.500    0.324    0.473    3.138   84.100
  440.750    0.319    0.450    3.141   84.736
  441.000    0.303    0.422    3.083   84.746
  441.250    0.296    0.415    3.027   82.929
  441.500    0.300    0.424    3.028   81.113
  441.750    0.311    0.434    3.212   85.416
  442.000    0.317    0.442    3.276   86.052
  442.250    0.324    0.453    3.407   86.684
  442.500    0.330    0.459    3.612   86.087
  442.750    0.330    0.451    3.830   79.991
  443.000    0.323    0.436    4.062   75.721
  443.250    0.321    0.425    4.392   72.073
  443.500    0.332    0.413    4.480   69.038
  443.750    0.343    0.397    4.482   67.216
  444.000    0.349    0.386    4.573   64.176
  444.250    0.361    0.384    4.236   62.966
  444.500    0.376    0.390    3.775   60.543
  444.750    0.381    0.399    3.365   61.174
  445.000    0.378    0.407    2.942   64.254
  445.250    0.371    0.416    2.725   66.721
  445.500    0.358    0.428    2.429   71.025
  445.750    0.341    0.460    2.294   78.393
  446.000    0.312    0.478    2.167   83.304
  446.250    0.330    0.506    2.126   88.831
  446.500    0.331    0.546    2.212   91.916
  446.750    0.326    0.526    2.301   90.706
