~VERSION INFORMATION
 VERS.                 2.0:   CWLS LOG ASCII STANDARD -VERSION 2.0
 WRAP.                  NO:   ONE LINE PER DEPTH STEP
~WELL INFORMATION BLOCK
#MNEM.UNIT           DATA                    DESCRIPTION OF MNEMONIC
#---------    -------------------            -------------------------------
# Generated from Intellog Unique Number	CN_94_101/WELL/3562
WELL.         09-24-096-11W4                 : Well_name    - WELL
LOC .         AA/09-24-096-11W4/0            : Location     - LOCATION
UWI .         AA/09-24-096-11W400            : Uwi          - UNIQUE WELL ID
ENTR.         JOETTE                         : Entered      - ENTERED BY
SRVC.         SCHLUMBERGER                   : Scn          - SERVICE COMPANY
DATE.         07/30/92                       : Date         - LOG DATE
STRT.M        12                             : top_depth    - START DEPTH
STOP.M        151.25                         : bot_depth    - STOP DEPTH
STEP.M        0.25                           : increment    - STEP LENGTH
 NULL. -999.2500:NULL Value
~CURVE INFORMATION BLOCK
#MNEM UNIT       ERCB CURVE CODE    CURVE DESCRIPTION
#-----------   ------------------   ----------------------------------
DEPT.M        00 001 00 00         : DEPTH        - DEPTH
ILD .OHMM     00 120 00 00         : RESD         - DEEP RESISTIVITY (DIL)
GR  .API      00 310 00 00         : GR           - GAMMA RAY
NPHI.V/V      00 330 00 00         : PHIN         - NEUTRON POROSITY (SANDSTONE)
~PARAMETER INFORMATION
#MNEM.UNIT           DATA             DESCRIPTION OF MNEMONIC
#---------         -----------     ------------------------------
GL  .M        0                    : gl           - GROUND LEVEL ELEVATION
EREF.M        285                  : kb           - ELEVATION OF DEPTH REFERENCE
DATM.M        285                  : datum        - DATUM ELEVATION
TDD .M        154.4                : tdd          - TOTAL DEPTH DRILLER
RUN .         ONE                  : Run          - RUN NUMBER
ENG .         TIM                  : Engineer     - RECORDING ENGINEER
WIT .         JIM                  : Witness      - WITNESSED BY
MUD .         GEL                  : Mud_type     - MUD TYPE
MATR.         SANDSTONE            : Logunit      - NEUTRON MATRIX
TMAX.C        18                   : BHT          - MAXIMUM RECORDED TEMPERATURE
BHTD.M        154.4                : BHTDEP       - MAXIMUM RECORDED TEMPERATURE
RMT .C        18                   : MDTP         - TEMPERATURE OF MUD
MUDD.KG/M     1100                 : MWT          - MUD DENSITY
NEUT.         1                    : NEUTRON      - NEUTRON TYPE
RESI.         0                    : RESIST       - RESISTIVITY TYPE
RM  .OHMM     4.18                 : RM           - RESISTIVITY OF MUD
RMC .OHMM     4.18                 : RMC          - RESISTIVITY OF MUD CAKE
RMF .OHMM     4.18                 : RMF          - RESISTIVITY OF MUD FILTRATE
SUFT.C        4                    : SUFT         - SURFACE TEMPERATURE
~A  DEPTH     RESD       GR     PHIN
# ...
   66.250   16.047  115.180    0.434
   66.500   13.937  104.494    0.455
   66.750   17.449   93.808    0.475
   67.000   19.416   94.466    0.449
   67.250   13.162  101.426    0.430
   67.500   14.134   92.000    0.456
   67.750   14.310   93.288    0.483
   68.000   14.833   98.988    0.465
   68.250   14.157   89.562    0.502
   68.500   19.022   76.355    0.354
   68.750   90.297   29.739    0.327
   69.000  122.764   46.160    0.347
   69.250   93.649   53.750    0.373
   69.500   47.274   78.357    0.442
   69.750   27.176   72.712    0.474
   70.000   28.501   71.480    0.452
   70.250   31.709   58.273    0.481
   70.500   60.697   78.474    0.441
   70.750   33.671   71.570    0.418
   71.000   28.227   64.665    0.444
   71.250   26.313   43.888    0.460
   71.500   64.523   73.543    0.420
   71.750   24.833  108.240    0.398
   72.000   13.778   95.033    0.394
   72.250   12.108   95.691    0.418
   72.500   12.258   91.937    0.438
   72.750   11.979   76.840    0.453
   73.000   11.987   83.176    0.459
   73.250   13.024   85.088    0.472
   73.500   25.525   80.704    0.449
   73.750   24.362   80.732    0.452
   74.000   16.323   94.624    0.462
   74.250   14.011   94.022    0.472
   74.500   19.503   60.017    0.462
   74.750   20.216   65.717    0.454
   75.000   18.625   73.307    0.455
   75.250   30.947   89.097    0.441
   75.500   17.785  113.704    0.439
   75.750   14.225   74.028    0.452
   76.000   16.202   88.550    0.464
   76.250   13.743   87.318    0.492
   76.500   20.536   82.303    0.472
   76.750   15.299   84.852    0.470
   77.000   24.828   90.552    0.467
   77.250   21.819   98.772    0.454
   77.500   17.448   85.572    0.447
   77.750   18.303   86.853    0.464
   78.000   18.099   95.718    0.460
   78.250   23.197   89.437    0.456
   78.500   16.100   77.483    0.493
   78.750   20.394   71.839    0.480
   79.000   37.681   66.195    0.460
   79.250   25.547   80.094    0.440
   79.500   22.188   75.710    0.428
   79.750   23.548   54.940    0.435
   80.000   71.399   71.361    0.433
   80.250   28.807   78.944    0.417
   80.500   24.436   80.232    0.409
   80.750   19.312   83.418    0.413
   81.000   19.098   81.548    0.426
   81.250   25.962   74.643    0.446
   81.500   20.277   69.006    0.438
   81.750   20.775   69.657    0.456
   82.000   21.535   70.952    0.438
   82.250   22.323   87.365    0.422
   82.500   30.709   79.200    0.417
   82.750   20.817   80.488    0.416
   83.000   28.642   83.044    0.433
   83.250   28.322   78.023    0.443
   83.500   34.221   61.035    0.467
   83.750  106.237   47.828    0.481
   84.000   68.707   54.788    0.461
   84.250   49.998   37.799    0.424
   84.500  136.330   34.676    0.415
   84.750   63.366   50.459    0.419
   85.000   35.573   55.535    0.413
   85.250   92.528   48.624    0.407
   85.500   72.259   39.842    0.421
   85.750   53.837   38.602    0.437
   86.000   63.536   36.733    0.440
   86.250  148.620   33.609    0.424
   86.500  152.250   26.704    0.415
   86.750   29.221   57.620    0.419
   87.000   26.604   71.513    0.433
   87.250   28.235   58.943    0.416
   87.500   44.229   53.922    0.400
   87.750   31.431   36.933    0.397
   88.000  178.074   18.061    0.399
   88.250   53.501   14.938    0.418
   88.500   54.165   42.688    0.424
   88.750   27.021   43.976    0.430
   89.000  208.054   18.795    0.453
   89.250  353.905   17.562    0.434
   89.500  443.030   17.590    0.437
   89.750  422.844   11.946    0.396
   90.000  354.477   36.559    0.389
   90.250  114.309   54.863    0.406
   90.500  181.183   44.177    0.411
   90.750  196.881   24.668    0.430
   91.000   39.612   19.661    0.448
   91.250   27.493   24.093    0.439
   91.500   49.614   68.243    0.422
   91.750   36.532   71.422    0.406
   92.000  114.756   48.762    0.405
   92.250   69.958   38.075    0.431
   92.500   44.714   33.054    0.423
   92.750  298.808   29.301    0.429
   93.000  173.768   23.657    0.441
   93.250  123.502   19.910    0.397
   93.500  361.445   18.054    0.383
   93.750  195.860   23.116    0.371
   94.000   66.210   23.774    0.376
   94.250   68.632   16.869    0.397
   94.500   36.749   40.846    0.408
   94.750  251.442   22.597    0.434
   95.000  162.618   24.515    0.419
   95.250   77.388   26.433    0.393
   95.500   45.010   39.072    0.388
   95.750   31.990   27.133    0.402
   96.000  293.933   23.365    0.418
   96.250  290.643   22.140    0.406
   96.500  327.198   20.907    0.389
   96.750   89.454   27.237    0.403
   97.000  113.309   28.525    0.406
   97.250  120.256   22.250    0.397
   97.500   45.747   42.445    0.389
   97.750   19.122  120.004    0.396
   98.000    8.185  109.955    0.434
   98.250    8.092   98.632    0.454
   98.500    8.793   82.274    0.524
   98.750    9.899   74.732    0.517
   99.000   11.147   69.087    0.483
   99.250   11.285   80.466    0.392
   99.500   11.561   70.410    0.398
   99.750   15.349   59.717    0.436
  100.000   13.649   64.793    0.437
  100.250   14.660   81.214    0.427
  100.500   10.175   81.235    0.427
  100.750   10.927   30.837    0.469
  101.000   14.171   47.888    0.490
  101.250   36.001   33.414    0.512
  101.500   25.587   40.388    0.387
  101.750   16.354   42.299    0.408
  102.000   17.153   56.822    0.411
  102.250   13.398   40.464    0.396
  102.500   17.582   41.122    0.387
  102.750   18.011   54.384    0.404
  103.000   37.004   59.467    0.428
  103.250   13.426   56.337    0.409
  103.500   16.808   59.516    0.396
  103.750   14.090   56.392    0.458
  104.000   36.220   48.857    0.448
  104.250   37.104   46.994    0.450
  104.500   17.660   39.459    0.455
  104.750   14.978   33.815    0.425
  105.000   75.419   19.348    0.440
  105.250   49.941   13.696    0.451
  105.500  239.849   15.622    0.400
  105.750   55.593   33.926    0.391
  106.000   29.074   27.021    0.395
  106.250  189.760   18.233    0.418
  106.500   89.258   30.858    0.408
  106.750  380.988   30.885    0.401
  107.000  270.780    9.492    0.408
  107.250  157.468   10.774    0.397
  107.500  315.985    8.911    0.404
  107.750   50.217   20.913    0.416
  108.000   37.854   20.324    0.405
  108.250  161.596   19.084    0.401
  108.500  204.691   16.598    0.407
  108.750   80.660   25.449    0.378
  109.000  244.563   21.688    0.444
  109.250  336.488   16.044    0.460
  109.500  441.574    9.769    0.433
  109.750  397.321    7.283    0.387
  110.000  383.716    7.304    0.389
  110.250  416.962    9.222    0.380
  110.500  388.687    8.619    0.377
  110.750  353.883    6.133    0.376
  111.000  296.666    9.305    0.372
  111.250  119.710   17.532    0.390
  111.500  170.614   15.669    0.429
  111.750   91.356   15.067    0.415
  112.000   84.163   27.699    0.407
  112.250  118.561   28.357    0.404
  112.500   57.769   18.301    0.385
  112.750  110.581   32.201    0.370
  113.000  104.305   17.726    0.380
  113.250   84.401   13.973    0.365
  113.500  127.598   51.821    0.359
  113.750   28.212   64.453    0.349
  114.000   18.244   48.095    0.367
  114.250   19.595   60.727    0.450
  114.500   21.800   88.491    0.420
  114.750   16.628  113.728    0.385
  115.000   15.502  112.502    0.355
  115.250   13.784  101.809    0.380
  115.500   11.555   91.753    0.438
  115.750   13.800   77.285    0.453
  116.000   15.174   59.667    0.414
  116.250   16.684   55.283    0.397
  116.500   19.231   59.722    0.390
  116.750   24.074   58.489    0.383
  117.000   24.961   52.215    0.413
  117.250   25.870   42.789    0.391
  117.500   28.782   38.405    0.380
  117.750   33.569   30.240    0.407
  118.000   41.531   24.603    0.389
  118.250   27.178   24.000    0.380
  118.500   29.533   18.356    0.370
  118.750   31.720   16.486    0.366
  119.000   30.274   14.630    0.339
  119.250   31.754   14.034    0.326
  119.500   30.666   15.316    0.347
  119.750   29.612   14.713    0.344
  120.000   29.636   14.117    0.356
  120.250   28.286    9.727    0.356
