~VERSION INFORMATION
 VERS.                 2.0:   CWLS LOG ASCII STANDARD -VERSION 2.0
 WRAP.                  NO:   ONE LINE PER DEPTH STEP
~WELL INFORMATION BLOCK
#MNEM.UNIT           DATA                    DESCRIPTION OF MNEMONIC
#---------    -------------------            -------------------------------
# Generated from Intellog Unique Number	CN_94_101/WELL/2832
WELL.         06-08-096-14W4                 : Well_name    - WELL
LOC .         AA/06-08-096-14W4/0            : Location     - LOCATION
UWI .         AA/06-08-096-14W400            : Uwi          - UNIQUE WELL ID
ENTR.         JOETTE                         : Entered      - ENTERED BY
SRVC.         SCHLUMBERGER                   : Scn          - SERVICE COMPANY
DATE.         07/07/92                       : Date         - LOG DATE
STRT.M        40                             : top_depth    - START DEPTH
STOP.M        310                            : bot_depth    - STOP DEPTH
STEP.M        0.25                           : increment    - STEP LENGTH
 NULL. -999.2500:NULL Value
~CURVE INFORMATION BLOCK
#MNEM UNIT       ERCB CURVE CODE    CURVE DESCRIPTION
#-----------   ------------------   ----------------------------------
DEPT.M        00 001 00 00         : DEPTH        - DEPTH
CALI.MM       00 280 01 00         : CAL          - CALIPER
GR  .API      00 310 00 00         : GR           - GAMMA RAY
NPHI.V/V      00 330 00 00         : PHIN         - NEUTRON POROSITY (SANDSTONE)
DPHI.V/V      00 890 00 00         : PHID         - DENSITY POROSITY (SANDSTONE)
ILD .OHMM     00 120 00 00         : RESD         - DEEP RESISTIVITY (DIL)
~PARAMETER INFORMATION
#MNEM.UNIT           DATA             DESCRIPTION OF MNEMONIC
#---------         -----------     ------------------------------
GL  .M        559.67               : gl           - GROUND LEVEL ELEVATION
EREF.M        562.67               : kb           - ELEVATION OF DEPTH REFERENCE
DATM.M        562.67               : datum        - DATUM ELEVATION
TDD .M        320                  : tdd          - TOTAL DEPTH DRILLER
RUN .         ONE                  : Run          - RUN NUMBER
ENG .         JO                   : Engineer     - RECORDING ENGINEER
WIT .         TIM                  : Witness      - WITNESSED BY
MUD .         GEL                  : Mud_type     - MUD TYPE
MATR.         SANDSTONE            : Logunit      - NEUTRON MATRIX
TMAX.C        17                   : BHT          - MAXIMUM RECORDED TEMPERATURE
BHTD.M        320                  : BHTDEP       - MAXIMUM RECORDED TEMPERATURE
RMT .C        15                   : MDTP         - TEMPERATURE OF MUD
MUDD.KG/M     1120                 : MWT          - MUD DENSITY
NEUT.         1                    : NEUTRON      - NEUTRON TYPE
RESI.         0                    : RESIST       - RESISTIVITY TYPE
RM  .OHMM     0.709                : RM           - RESISTIVITY OF MUD
RMC .OHMM     0.709                : RMC          - RESISTIVITY OF MUD CAKE
RMF .OHMM     0.709                : RMF          - RESISTIVITY OF MUD FILTRATE
SUFT.C        4                    : SUFT         - SURFACE TEMPERATURE
~A  DEPTH      CAL       GR     PHIN     PHID     RESD
# ...
  222.500  180.487   77.145    0.453    0.252    5.892
  222.750  185.538   77.840    0.464    0.254    5.795
  223.000  186.698   76.717    0.481    0.274    5.199
  223.250  186.809   73.888    0.497    0.279    4.575
  223.500  186.995   70.496    0.513    0.276    4.029
  223.750  187.107   69.980    0.512    0.267    3.896
  224.000  187.256   67.734    0.497    0.248    4.054
  224.250  192.270   70.764    0.471    0.239    4.221
  224.500  197.247   73.189    0.459    0.218    4.226
  224.750  203.234   73.278    0.439    0.233    4.083
  225.000  209.258   73.345    0.451    0.265    3.875
  225.250  213.373   72.267    0.515    0.279    3.608
  225.500  214.458   70.627    0.533    0.287    3.417
  225.750  219.472   68.965    0.548    0.282    2.956
  226.000  221.529   69.032    0.547    0.276    2.802
  226.250  222.651   71.479    0.520    0.271    2.972
  226.500  224.784   73.320    0.489    0.277    3.330
  226.750  225.868   73.409    0.485    0.290    3.594
  227.000  227.065   71.163    0.565    0.297    4.261
  227.250  228.261   70.063    0.581    0.301    4.955
  227.500  228.335   67.255    0.555    0.298    5.657
  227.750  228.522   65.571    0.550    0.303    6.344
  228.000  228.596   67.434    0.547    0.289    6.851
  228.250  226.799   70.465    0.540    0.270    7.541
  228.500  225.938   71.093    0.502    0.269    7.852
  228.750  221.222   71.766    0.474    0.273    8.015
  229.000  218.489   71.272    0.458    0.270    8.042
  229.250  218.600   73.697    0.483    0.262    8.053
  229.500  216.878   75.537    0.490    0.248    7.931
  229.750  213.097   69.227    0.495    0.213    7.663
  230.000  208.381   67.565    0.479    0.201    7.532
  230.250  202.692   69.428    0.453    0.185    7.277
  230.500  201.868   70.641    0.429    0.189    7.168
  230.750  201.980   71.897    0.431    0.231    7.182
  231.000  200.220   71.987    0.435    0.241    7.623
  231.250  198.348   72.076    0.426    0.247    7.927
  231.500  194.605   73.356    0.418    0.243    8.566
  231.750  191.872   73.467    0.419    0.232    8.901
  232.000  188.092   72.344    0.431    0.219    9.442
  232.250  183.413   71.266    0.440    0.219    9.651
  232.500  180.717   72.523    0.435    0.232    9.663
  232.750  179.782   73.196    0.422    0.233    9.696
  233.000  177.984   73.892    0.423    0.245    9.374
  233.250  177.198   72.791    0.436    0.247    9.220
  233.500  176.373   71.735    0.443    0.230    8.745
  233.750  176.485   70.657    0.435    0.219    8.601
  234.000  176.634   70.724    0.407    0.200    8.310
  234.250  176.820   73.171    0.401    0.176    8.040
  234.500  176.932   72.676    0.400    0.184    8.061
  234.750  178.091   72.159    0.407    0.218    8.077
  235.000  179.176   71.665    0.411    0.226    8.099
  235.250  180.335   71.754    0.412    0.239    8.121
  235.500  180.484   72.450    0.444    0.245    8.295
  235.750  181.568   73.707    0.440    0.234    8.478
  236.000  183.663   75.547    0.435    0.235    8.816
  236.250  184.823   77.388    0.443    0.242    8.999
  236.500  186.917   78.668    0.434    0.248    9.546
  236.750  186.093   78.802    0.431    0.244   10.119
  237.000  182.313   78.263    0.440    0.240    9.776
  237.250  170.823   77.768    0.436    0.234    8.935
  237.500  168.952   76.690    0.437    0.236    8.324
  237.750  164.235   75.050    0.450    0.233    8.340
  238.000  160.530   73.343    0.449    0.229    8.203
  238.250  158.732   71.681    0.429    0.239    8.379
  238.500  157.946   70.603    0.428    0.256    8.559
  238.750  158.094   71.254    0.424    0.263    8.742
  239.000  157.196   70.782    0.431    0.268    9.097
  239.250  156.409   68.536    0.447    0.277    9.472
  239.500  156.521   66.312    0.445    0.266    9.850
  239.750  156.670   65.212    0.437    0.247   10.441
  240.000  156.856   64.111    0.429    0.249   11.493
  240.250  157.005   61.865    0.435    0.248   11.740
  240.500  158.164   58.474    0.434    0.229    9.779
  240.750  160.222   59.147    0.356    0.174    8.937
  241.000  163.289   61.572    0.290    0.040    8.623
  241.250  160.519   63.996    0.344    0.134    8.331
  241.500  159.658   64.669    0.389    0.242    8.200
  241.750  160.817   64.781    0.444    0.293    8.071
  242.000  162.875   64.264    0.453    0.284    7.949
  242.250  167.926   63.748    0.459    0.261    7.824
  242.500  172.940   57.999    0.455    0.233    7.845
  242.750  174.062   56.921    0.451    0.208    7.866
  243.000  172.265   62.264    0.390    0.098    7.742
  243.250  175.370   67.046    0.298    0.076    7.203
  243.500  181.431   70.638    0.358    0.110    6.458
  243.750  183.452   74.253    0.422    0.237    5.793
  244.000  186.520   74.926    0.460    0.257    5.294
  244.250  188.615   75.016    0.467    0.255    5.119
  244.500  192.730   75.105    0.474    0.253    5.132
  244.750  193.778   75.172    0.467    0.249    5.340
  245.000  195.910   74.677    0.467    0.245    5.553
  245.250  196.994   73.599    0.480    0.244    5.778
  245.500  199.089   72.521    0.475    0.245    5.906
  245.750  201.259   72.049    0.466    0.253    5.706
  246.000  202.306   70.993    0.462    0.260    5.123
  246.250  203.428   70.498    0.475    0.252    5.035
  246.500  204.550   70.543    0.488    0.243    4.865
  246.750  204.699   71.216    0.473    0.242    4.878
  247.000  205.821   72.496    0.458    0.223    4.888
  247.250  206.044   75.526    0.464    0.197    4.904
  247.500  206.156   76.738    0.467    0.159    4.824
  247.750  205.295   78.579    0.453    0.184    4.497
  248.000  203.535   81.004    0.461    0.243    4.420
  248.250  202.711   82.844    0.493    0.242    3.968
  248.500  200.913   80.621    0.505    0.238    3.761
  248.750  198.143   79.565    0.511    0.238    3.504
  249.000  196.383   80.216    0.535    0.244    3.508
  249.250  194.512   82.618    0.557    0.269    3.522
  249.500  192.715   82.168    0.556    0.276    3.660
  249.750  191.928   81.045    0.545    0.267    3.880
  250.000  192.077   80.596    0.536    0.258    4.603
  250.250  193.199   81.224    0.519    0.250    5.064
  250.500  197.202   82.503    0.497    0.232    5.464
  250.750  199.297   82.009    0.480    0.247    6.011
  251.000  195.592   77.406    0.485    0.252    6.144
  251.250  192.784   76.911    0.479    0.243    6.156
  251.500  189.041   78.752    0.471    0.237    6.177
  251.750  188.217   80.009    0.463    0.234    6.189
  252.000  188.403   80.682    0.468    0.244    6.574
  252.250  188.552   79.604    0.464    0.258    6.702
  252.500  192.556   77.942    0.470    0.252    7.242
  252.750  200.489   76.279    0.465    0.236    7.535
  253.000  206.513   75.201    0.449    0.224    7.835
  253.250  200.787   76.481    0.430    0.210    7.722
  253.500  187.313   78.905    0.422    0.187    7.451
  253.750  181.587   80.724    0.390    0.125    6.566
  254.000  205.125   80.229    0.408    0.248    6.458
  254.250  197.490   80.318    0.439    0.230    6.357
  254.500  194.757   80.430    0.442    0.221    6.261
  254.750  198.835   82.271    0.443    0.221    6.273
  255.000  201.866   84.112    0.444    0.220    6.412
  255.250  204.897   84.785    0.436    0.215    6.429
  255.500  208.002   83.123    0.444    0.215    6.563
  255.750  210.097   82.628    0.459    0.210    6.585
  256.000  211.256   83.324    0.473    0.211    6.607
  256.250  211.368   80.472    0.478    0.218    6.498
  256.500  211.554   78.204    0.477    0.222    6.274
  256.750  211.703   76.541    0.471    0.229    5.955
  257.000  211.852   75.463    0.465    0.224    5.640
  257.250  211.028   73.801    0.459    0.218    4.875
  257.500  211.214   71.578    0.453    0.211    4.137
  257.750  210.315   74.586    0.457    0.208    3.849
  258.000  210.464   77.010    0.446    0.210    3.518
  258.250  210.650   77.661    0.454    0.220    3.403
  258.500  209.863   77.773    0.486    0.228    3.471
  258.750  208.965   77.278    0.513    0.247    3.546
