~VERSION INFORMATION
 VERS.                 2.0:   CWLS LOG ASCII STANDARD -VERSION 2.0
 WRAP.                  NO:   ONE LINE PER DEPTH STEP
~WELL INFORMATION BLOCK
#MNEM.UNIT           DATA                    DESCRIPTION OF MNEMONIC
#---------    -------------------            -------------------------------
# Generated from Intellog Unique Number	CX_WELLS/WELL/1073
WELL.         07-23-089-08W4                 : Well_name    - WELL
LOC .         AA/07-23-089-08W4/0            : Location     - LOCATION
UWI .         AA/07-23-089-08W400            : Uwi          - UNIQUE WELL ID
ENTR.         RJA                            : Entered      - ENTERED BY
SRVC.         SCHLUMBERGER                   : Scn          - SERVICE COMPANY
STRT.F        50                             : top_depth    - START DEPTH
STOP.F        579.856                        : bot_depth    - STOP DEPTH
STEP.F        0.8202                         : increment    - STEP LENGTH
 NULL. -999.2500:NULL Value
~CURVE INFORMATION BLOCK
#MNEM UNIT       ERCB CURVE CODE    CURVE DESCRIPTION
#-----------   ------------------   ----------------------------------
DEPT.F        00 001 00 00         : DEPTH        - DEPTH
GR  .API      00 310 00 00         : GR           - GAMMA RAY
DPHI.V/V      00 890 00 00         : PHID         - DENSITY POROSITY (SANDSTONE)
ILD .OHMM     00 120 00 00         : RESD         - DEEP RESISTIVITY (DLL)
~PARAMETER INFORMATION
#MNEM.UNIT           DATA             DESCRIPTION OF MNEMONIC
#---------         -----------     ------------------------------
GL  .M        421.398              : gl           - GROUND LEVEL ELEVATION
EREF.M        422.313              : kb           - ELEVATION OF DEPTH REFERENCE
DATM.M        422.313              : datum        - DATUM ELEVATION
TDD .M        183.49               : tdd          - TOTAL DEPTH DRILLER
RUN .         ONE                  : Run          - RUN NUMBER
ENG .         BILL                 : Engineer     - RECORDING ENGINEER
WIT .         JIM                  : Witness      - WITNESSED BY
MUD .         GEL                  : Mud_type     - MUD TYPE
MATR.         SANDSTONE            : Logunit      - NEUTRON MATRIX
TMAX.C        60                   : BHT          - MAXIMUM RECORDED TEMPERATURE
BHTD.M        183.49               : BHTDEP       - MAXIMUM RECORDED TEMPERATURE
MATR.         1                    : LOGUNIT      - NEUTRON MATRIX
RMT .C        25                   : MDTP         - TEMPERATURE OF MUD
NEUT.         1                    : NEUTRON      - NEUTRON TYPE
RESI.         1                    : RESIST       - RESISTIVITY TYPE
RMC .OHMM     0.25                 : RMC          - RESISTIVITY OF MUD CAKE
RMF .OHMM     0.25                 : RMF          - RESISTIVITY OF MUD FILTRATE
SUFT.C        15                   : SUFT         - SURFACE TEMPERATURE
~A  DEPTH       GR     PHID     RESD
# ...
  227.986  129.540    0.145    8.518
  228.806  127.099    0.251    9.167
  229.626  128.299    0.271   10.426
  230.446  131.924    0.281   12.306
  231.266  131.301    0.290   15.070
  232.087  129.464    0.293   17.786
  232.907  128.845    0.293   17.136
  233.727  121.537    0.293   14.245
  234.547  114.840    0.295   11.203
  235.367  108.139    0.303    9.313
  236.188  106.305    0.310    7.741
  237.008  119.046    0.300    6.677
  237.828  129.960    0.269    5.865
  238.648  137.841    0.241    5.652
  239.469  143.293    0.227    5.248
  240.289  143.885    0.251    4.964
  241.109  140.828    0.282    4.782
  241.929  138.991    0.289    4.523
  242.749  138.368    0.290    4.358
  243.570  135.923    0.292    4.277
  244.390  135.908    0.292    4.275
  245.210  140.140    0.295    4.354
  246.030  141.340    0.298    4.433
  246.850  141.325    0.299    4.951
  247.671  143.124    0.299    5.952
  248.491  143.112    0.302    7.424
  249.311  143.097    0.307    8.139
  250.131  141.259    0.311    8.441
  250.951  139.426    0.305    8.756
  251.772  139.403    0.295    9.423
  252.592  138.176    0.275   10.330
  253.412  134.513    0.261   11.118
  254.232  131.460    0.255   11.966
  255.052  130.837    0.251   11.111
  255.873  130.822    0.258   10.508
  256.693  131.414    0.264   11.954
  257.513  135.647    0.278   14.639
  258.333  139.280    0.284   14.907
  259.154  145.339    0.287   14.362
  259.974  150.183    0.283   27.382
  260.794  153.808    0.265   54.172
  261.614  153.186    0.234   43.400
  262.434  150.133    0.226   23.171
  263.255  145.258    0.224   19.262
  264.075  133.702    0.221   22.730
  264.895  116.675    0.208   21.901
  265.715  114.230    0.191   18.890
  266.535  119.074    0.158   15.703
  267.356  120.881    0.119   14.053
  268.176  119.651    0.169   11.898
  268.996  114.165    0.191   11.463
  269.816  112.935    0.180   11.044
  270.636  118.994    0.185   10.840
  271.457  120.797    0.236   10.638
  272.277  120.178    0.282   10.062
  273.097  121.370    0.288    9.171
  273.917  121.354    0.287    8.676
  274.738  124.380    0.281    7.909
  275.558  130.435    0.271    8.203
  276.378  134.068    0.263   10.423
  277.198  137.693    0.255   13.741
  278.018  140.715    0.250   16.218
  278.839  143.737    0.245   17.454
  279.659  146.151    0.241   15.619
  280.479  147.958    0.237   14.238
  281.299  144.294    0.237   12.742
  282.119  140.638    0.237   11.195
  282.940  133.330    0.238    9.656
  283.760  132.704    0.245    8.966
  284.580  135.729    0.250    7.877
  285.400  139.358    0.251    7.314
  286.220  141.165    0.254    6.309
  287.041  142.968    0.255    6.666
  287.861  145.379    0.253    9.461
  288.681  146.578    0.250    7.720
  289.501  147.170    0.249    6.659
  290.322  148.977    0.248    8.005
  291.142  149.569    0.247   10.751
  291.962  146.513    0.246   11.151
  292.782  144.072    0.246    6.528
  293.602  139.805    0.246    4.949
  294.423  133.715    0.246    5.039
  295.243  130.051    0.246    6.058
  296.063  137.321    0.248    7.419
  296.883  137.306    0.255    8.755
  297.703  137.898    0.262    9.251
  298.524  137.883    0.267   10.719
  299.344  137.867    0.271   13.370
  300.164  140.889    0.273   15.492
  300.984  140.266    0.266   15.487
  301.804  136.607    0.257   13.605
  302.625  132.339    0.247   11.519
  303.445  127.461    0.231   10.897
  304.265  125.012    0.216   10.498
  305.085  125.608    0.206   10.495
  305.906  127.415    0.195   10.491
  306.726  128.614    0.190   10.682
  307.546  129.810    0.200   10.680
  308.366  130.402    0.248   10.875
  309.186  129.775    0.260   11.280
  310.007  128.549    0.259   12.365
  310.827  128.534    0.256   10.864
  311.647  128.518    0.246    6.848
  312.467  129.107    0.238    5.288
  313.287  130.302    0.224    3.522
  314.108  130.894    0.213    3.331
  314.928  130.879    0.205    3.455
  315.748  130.864    0.205    3.651
  316.568  129.637    0.239    4.077
  317.388  108.358    0.275    4.552
  318.209  106.517    0.298    4.991
  319.029  108.320    0.298    5.472
  319.849  110.738    0.289    6.701
  320.669  113.156    0.276    8.055
  321.490  117.389    0.263    4.893
  322.310  117.981    0.258    5.170
  323.130  119.181    0.256    7.756
  323.950  122.806    0.256    8.821
  324.770  124.613    0.256    8.819
  325.591  125.813    0.256    9.318
  326.411  125.190    0.256   10.998
  327.231  123.352    0.254   15.608
  328.051  119.692    0.252    9.838
  328.871  118.462    0.249    6.317
  329.692  112.980    0.205    4.208
  330.512  109.924    0.136    4.613
  331.332  116.590    0.110    4.874
  332.152  123.864    0.137    4.872
  332.972  134.175    0.180    4.871
  333.793  139.019    0.216    4.960
  334.613  137.181    0.257    5.050
  335.433  134.121    0.257    5.143
  336.253  134.709    0.264    5.237
  337.073  135.913    0.266    5.235
  337.894  136.509    0.266    5.331
  338.714  137.704    0.274    5.844
  339.534  137.689    0.276    6.061
  340.354  137.062    0.273    6.060
  341.175  134.014    0.268    5.947
  341.995  127.924    0.265    5.945
  342.815  124.260    0.261    5.834
  343.635  123.630    0.258    5.725
  344.455  123.618    0.252    5.724
  345.276  124.207    0.248    6.161
  346.096  124.199    0.246    8.907
  346.916  124.180    0.245   15.486
  347.736  124.168    0.242   18.964
  348.556  124.145    0.241   17.286
  349.377  124.130    0.240   18.264
  350.197  122.896    0.238   20.023
  351.017  121.670    0.228   19.649
  351.837  119.832    0.219   17.913
  352.657  107.661    0.235   16.633
  353.478  107.653    0.253   19.272
  354.298  108.245    0.272   28.910
  355.118  110.659    0.273   25.872
  355.938  111.859    0.270   19.252
  356.759  113.051    0.266   26.828
  357.579  114.858    0.260   29.956
  358.399  116.665    0.253   25.838
  359.219  119.083    0.238   22.285
  360.039  120.282    0.212   19.580
  360.860  111.763    0.204   19.572
  361.680   92.914    0.224   23.530
  362.500   91.076    0.279   29.897
  363.320   95.920    0.284   31.589
  364.140  103.801    0.279   27.246
  364.961  107.431    0.272   23.070
  365.781  109.837    0.266   22.226
  366.601  109.214    0.265   22.219
  367.421  106.773    0.271   20.632
  368.241  100.072    0.274   17.151
  369.062  101.883    0.275   13.739
  369.882  107.938    0.257   12.296
  370.702  110.353    0.250   13.233
  371.522  109.730    0.243   28.710
  372.343  112.752    0.241  150.998
  373.163  125.492    0.238  510.060
  373.983  130.332    0.230  839.086
  374.803  111.487    0.243 1126.830
  375.623   93.856    0.284 1281.660
  376.444   81.085    0.312 1105.450
  377.264   64.666    0.333  902.209
  378.084   42.176    0.326   91.550
  378.904   37.904    0.315   56.647
  379.724   39.104    0.312   29.148
  380.545   42.126    0.312   35.042
  381.365   50.007    0.311   65.594
  382.185   56.673    0.312   78.852
  383.005   67.591    0.309   66.773
  383.825   73.650    0.298   43.667
  384.646   80.924    0.291   36.975
  385.466   86.983    0.300   32.486
  386.286   94.257    0.307   46.108
  387.106   97.878    0.319   66.663
  387.927   97.256    0.323   94.610
  388.747   99.670    0.294  109.622
  389.567  103.910    0.260  105.618
  390.387  109.969    0.240  117.943
  391.207  113.598    0.271   69.054
  392.028  111.150    0.286   42.727
  392.848  103.238    0.304   39.676
  393.668   92.896    0.312   55.284
  394.488   86.199    0.305   56.296
  395.308   91.651    0.290   48.556
  396.129  106.821    0.259   43.444
  396.949  106.194    0.244   41.864
  397.769  103.142    0.245   38.874
  398.589   98.267    0.274   36.766
  399.409   95.215    0.286   36.086
  400.230   92.151    0.291   34.765
  401.050   93.354    0.286   33.490
  401.870   95.161    0.284   32.870
  402.690   97.575    0.277   31.669
  403.510  102.423    0.273   29.407
  404.331  109.090    0.269   25.364
  405.151  113.934    0.265   21.877
