~VERSION INFORMATION
 VERS.                 2.0:   CWLS LOG ASCII STANDARD -VERSION 2.0
 WRAP.                  NO:   ONE LINE PER DEPTH STEP
~WELL INFORMATION BLOCK
#MNEM.UNIT           DATA                    DESCRIPTION OF MNEMONIC
#---------    -------------------            -------------------------------
# Generated from Intellog Unique Number	CX_WELLS/WELL/3877
WELL.         H.B. S.M.T.                    : Well_name    - WELL
LOC .         AA/05-30-087-16W4/0            : Location     - LOCATION
UWI .         AA/05-30-087-16W400            : Uwi          - UNIQUE WELL ID
ENTR.         TIM                            : Entered      - ENTERED BY
SRVC.         SCHLUMBERGER                   : Scn          - SERVICE COMPANY
STRT.F        100                            : top_depth    - START DEPTH
STOP.F        739.764                        : bot_depth    - STOP DEPTH
STEP.F        0.82                           : increment    - STEP LENGTH
 NULL. -999.2500:NULL Value
~CURVE INFORMATION BLOCK
#MNEM UNIT       ERCB CURVE CODE    CURVE DESCRIPTION
#-----------   ------------------   ----------------------------------
DEPT.F        00 001 00 00         : DEPTH        - DEPTH
GR  .API      00 310 00 00         : GR           - GAMMA RAY
NPHI.V/V      00 330 00 00         : PHIN         - NEUTRON POROSITY (SANDSTONE)
ILD .OHMM     00 120 00 00         : RESD         - DEEP RESISTIVITY (DIL)
~PARAMETER INFORMATION
#MNEM.UNIT           DATA             DESCRIPTION OF MNEMONIC
#---------         -----------     ------------------------------
GL  .F        1686                 : gl           - GROUND LEVEL ELEVATION
EREF.F        1686                 : kb           - ELEVATION OF DEPTH REFERENCE
DATM.F        1686                 : datum        - DATUM ELEVATION
TDD .F        747                  : tdd          - TOTAL DEPTH DRILLER
RUN .         ONE                  : Run          - RUN NUMBER
ENG .         BILL                 : Engineer     - RECORDING ENGINEER
WIT .         JIM                  : Witness      - WITNESSED BY
MUD .         GEL                  : Mud_type     - MUD TYPE
MATR.         SANDSTONE            : Logunit      - NEUTRON MATRIX
TMAX.F        50                   : BHT          - MAXIMUM RECORDED TEMPERATURE
BHTD.F        747                  : BHTDEP       - MAXIMUM RECORDED TEMPERATURE
MATR.         1                    : LOGUNIT      - NEUTRON MATRIX
RMT .F        50                   : MDTP         - TEMPERATURE OF MUD
NEUT.         1                    : NEUTRON      - NEUTRON TYPE
RESI.         6                    : RESIST       - RESISTIVITY TYPE
RMC .OHMM     6                    : RMC          - RESISTIVITY OF MUD CAKE
RMF .OHMM     6                    : RMF          - RESISTIVITY OF MUD FILTRATE
SUFT.F        39.2                 : SUFT         - SURFACE TEMPERATURE
~A  DEPTH       GR     PHIN     RESD
# ...
  455.971   47.862    0.490   13.382
  456.791   58.978    0.447   11.551
  457.612   65.635    0.440   10.086
  458.432   70.946    0.427   10.442
  459.252   61.105    0.414   10.800
  460.072   52.156    0.398   13.341
  460.892   48.112    0.390   18.067
  461.713   47.173    0.392   23.157
  462.533   46.704    0.392   23.509
  463.353   46.657    0.390   23.138
  464.173   46.633    0.396   23.492
  464.993   46.610    0.401   23.850
  465.814   46.578    0.406   24.934
  466.634   44.302    0.410   23.467
  467.454   42.941    0.410   22.366
  468.274   42.448    0.410   22.358
  469.094   43.324    0.407   21.986
  469.915   44.615    0.406   20.881
  470.735   45.029    0.406   20.512
  471.555   42.768    0.405   20.502
  472.375   39.616    0.404   21.222
  473.196   40.030    0.402   21.576
  474.016   42.667    0.396   22.660
  474.836   44.435    0.391   24.108
  475.656   45.295    0.389   27.016
  476.476   45.240    0.394   29.557
  477.297   45.225    0.399   29.184
  478.117   46.977    0.402   22.256
  478.937   47.837    0.408   19.697
  479.757   49.144    0.417   17.866
  480.577   55.801    0.419   17.131
  481.398   57.999    0.419   16.752
  482.218   56.630    0.421   16.382
  483.038   56.145    0.423   16.376
  483.858   57.459    0.423   16.363
  484.678   61.441    0.423   15.993
  485.499   64.523    0.421   15.618
  486.319   66.275    0.420   15.614
  487.139   64.898    0.416   15.606
  487.959   55.949    0.410   15.231
  488.780   47.000    0.403   15.951
  489.600   45.631    0.402   18.128
  490.420   42.924    0.402   20.667
  491.240   38.864    0.402   20.661
  492.060   37.941    0.405   20.288
  492.881   38.356    0.408   19.916
  493.701   38.778    0.412   18.085
  494.521   38.739    0.413   16.984
  495.341   38.262    0.416   16.247
  496.161   38.661    0.416   16.601
  496.982   38.191    0.416   18.778
  497.802   37.722    0.417   20.592
  498.622   35.899    0.413   22.039
  499.442   36.321    0.408   21.300
  500.262   38.965    0.416   21.296
  501.083   42.048    0.425   20.921
  501.903   45.138    0.432   20.549
  502.723   44.653    0.431   19.080
  503.543   43.737    0.425   18.709
  504.364   41.469    0.419   18.335
  505.184   40.100    0.418   17.966
  506.004   39.184    0.418   17.954
  506.824   39.591    0.419   17.944
  507.644   40.452    0.427   17.939
  508.465   41.304    0.434   16.472
  509.285   42.611    0.434   15.007
  510.105   43.917    0.429   14.273
  510.925   43.886    0.429   13.534
  511.745   44.300    0.457   15.711
  512.566   45.606    0.463   17.521
  513.386   48.251    0.455   16.787
  514.206   52.232    0.391   15.322
  515.026   50.863    0.356   14.949
  515.846   41.022    0.306   16.398
  516.667   32.065    0.250   19.303
  517.487   25.338    0.095   98.689
  518.307   20.840    0.130  128.544
  519.127   24.383    0.222  133.634
  519.948   41.304    0.306   91.378
  520.768   49.299    0.376   81.537
  521.588   58.631    0.412   58.583
  522.408   62.151    0.426   38.544
  523.228   63.473    0.435   15.955
  524.049   66.117    0.443   13.031
  524.869   70.091    0.455   11.932
  525.689   71.405    0.432   12.286
  526.509   68.253    0.428   13.008
  527.329   63.309    0.430   14.090
  528.150   58.373    0.430   14.810
  528.970   57.004    0.429   14.802
  529.790   56.972    0.426   14.792
  530.610   58.717    0.428   15.514
  531.430   60.461    0.429   15.870
  532.251   61.768    0.430   15.861
  533.071   61.298    0.431   15.853
  533.891   59.029    0.433   15.841
  534.711   58.106    0.434   15.832
  535.531   59.859    0.435   15.824
  536.352   62.503    0.438   15.814
  537.172   65.593    0.445   15.809
  537.992   67.345    0.446   15.435
  538.812   68.644    0.440   15.425
  539.633   67.720    0.432   16.509
  540.453   64.122    0.422   17.959
  541.273   56.510    0.418   20.500
  542.093   54.695    0.414   20.490
  542.913   56.894    0.413   20.117
  543.734   60.867    0.411   20.109
  544.554   63.074    0.410   20.101
  545.374   66.163    0.410   20.091
  546.194   64.779    0.412   20.084
  547.014   63.871    0.417   19.710
  547.835   55.360    0.418   19.701
  548.655   53.983    0.416   20.422
  549.475   51.722    0.411   22.234
  550.295   51.691    0.406   24.413
  551.115   55.227    0.404   24.767
  551.936   57.417    0.404   21.845
  552.756   48.030    0.407   19.285
  553.576   45.323    0.409   20.370
  554.396   41.717    0.409   22.547
  555.217   40.794    0.401   22.538
  556.037   42.992    0.397   19.979
  556.857   47.420    0.397   19.242
  557.677   51.401    0.400   21.785
  558.497   51.370    0.404   25.783
  559.318   50.447    0.407   25.046
  560.138   49.954    0.409   23.581
  560.958   49.915    0.400   23.935
  561.778   49.899    0.375   24.291
  562.598   48.530    0.335   24.647
  563.419   40.019    0.307   25.729
  564.239   38.650    0.284   26.451
  565.059   36.835    0.336   29.356
  565.879   35.458    0.407   32.626
  566.699   37.211    0.416   29.340
  567.520   46.997    0.424   24.959
  568.340   49.195    0.421   22.037
  569.160   52.285    0.415   20.936
  569.980   55.813    0.409   21.290
  570.801   57.119    0.402   22.374
  571.621   57.980    0.388   20.909
  572.441   56.157    0.393   21.630
  573.261   54.342    0.406   28.174
  574.081   52.081    0.406   27.438
  574.902   50.712    0.405   27.065
  575.722   52.472    0.412   25.964
  576.542   57.346    0.422   22.681
  577.362   63.111    0.429   19.395
  578.182   67.531    0.432   17.925
  579.003   67.954    0.434   17.553
  579.823   70.590    0.439   17.547
  580.643   72.788    0.448   17.172
  581.463   75.424    0.444   16.798
  582.283   74.501    0.438   16.791
  583.104   72.694    0.436   16.785
  583.924   69.088    0.436   16.773
  584.744   67.265    0.435   16.767
  585.564   67.687    0.435   16.758
  586.385   69.424    0.431   16.746
  587.205   71.184    0.424   16.742
  588.025   72.936    0.416   17.095
  588.845   73.351    0.411   17.816
  589.665   72.874    0.406   18.900
  590.486   71.943    0.410   21.441
  591.306   70.574    0.414   22.161
  592.126   69.651    0.422   18.873
  592.946   70.073    0.424   16.679
  593.766   71.825    0.425   15.216
  594.587   74.016    0.424   18.848
  595.407   73.100    0.417   24.665
  596.227   70.386    0.411   24.290
  597.047   67.233    0.407   23.558
  597.867   64.965    0.406   22.454
  598.688   67.617    0.402   22.084
  599.508   70.706    0.396   21.712
  600.328   72.905    0.388   22.066
  601.148   73.749    0.374   24.604
  601.969   73.710    0.357   28.240
  602.789   73.249    0.341   31.507
  603.609   70.980    0.368   28.950
  604.429   68.273    0.398   27.120
  605.249   67.788    0.403   24.929
  606.070   69.987    0.407   22.367
  606.890   73.076    0.412   21.631
  607.710   73.045    0.414   20.894
  608.530   73.014    0.415   20.157
  609.350   72.083    0.415   20.149
  610.171   70.722    0.414   20.503
  610.991   69.799    0.413   20.863
  611.811   74.226    0.412   20.853
  612.631   75.971    0.412   20.114
  613.451   75.939    0.416   19.011
  614.272   75.916    0.423   18.276
  615.092   75.885    0.428   17.542
  615.912   78.083    0.443   16.075
  616.732   88.299    0.454   13.877
  617.552   89.613    0.444   13.509
  618.373   77.527    0.408   13.136
  619.193   69.478    0.368   15.677
  620.013   62.750    0.379   27.687
  620.833   59.151    0.409   29.862
  621.654   60.904    0.429   27.306
  622.474   66.669    0.451   22.195
  623.294   74.664    0.458   19.638
  624.114   79.529    0.449   18.175
  624.934   81.728    0.440   15.981
  625.755   84.364    0.431   14.516
  626.575   85.232    0.416   13.780
  627.395   86.093    0.401   14.131
  628.215   84.731    0.391   15.216
  629.035   73.983    0.401   15.210
  629.856   71.730    0.415   15.565
  630.676   69.023    0.428   14.827
  631.496   72.559    0.427   14.456
  632.316   80.108    0.424   14.444
  633.136   84.090    0.419   15.166
