~VERSION INFORMATION
 VERS.                 2.0:   CWLS LOG ASCII STANDARD -VERSION 2.0
 WRAP.                  NO:   ONE LINE PER DEPTH STEP
~WELL INFORMATION BLOCK
#MNEM.UNIT           DATA                    DESCRIPTION OF MNEMONIC
#---------    -------------------            -------------------------------
# Generated from Intellog Unique Number	CN_94_101/WELL/3176
WELL.         01-09-095-13W4                 : Well_name    - WELL
LOC .         AA/01-09-095-13W4/0            : Location     - LOCATION
UWI .         AA/01-09-095-13W4/0            : Uwi          - UNIQUE WELL ID
ENTR.         JOETTE                         : Entered      - ENTERED BY
SRVC.         SCHLUMBERGER                   : Scn          - SERVICE COMPANY
DATE.         07/16/92                       : Date         - LOG DATE
STRT.F        50                             : top_depth    - START DEPTH
STOP.F        500.295                        : bot_depth    - STOP DEPTH
STEP.F        0.8202                         : increment    - STEP LENGTH
 NULL. -999.2500:NULL Value
~CURVE INFORMATION BLOCK
#MNEM UNIT       ERCB CURVE CODE    CURVE DESCRIPTION
#-----------   ------------------   ----------------------------------
DEPT.F        00 001 00 00         : DEPTH        - DEPTH
ILD .OHMM     00 120 00 00         : RESD         - DEEP RESISTIVITY (DIL)
GR  .API      00 310 00 00         : GR           - GAMMA RAY
DELT.US/F     00 520 00 00         : DELT         - SONIC TRAVEL TIME
~PARAMETER INFORMATION
#MNEM.UNIT           DATA             DESCRIPTION OF MNEMONIC
#---------         -----------     ------------------------------
GL  .M        390.571              : gl           - GROUND LEVEL ELEVATION
EREF.M        390.571              : kb           - ELEVATION OF DEPTH REFERENCE
DATM.M        390.571              : datum        - DATUM ELEVATION
TDD .M        92.6592              : tdd          - TOTAL DEPTH DRILLER
RUN .         ONE                  : Run          - RUN NUMBER
ENG .         JO                   : Engineer     - RECORDING ENGINEER
WIT .         TIM                  : Witness      - WITNESSED BY
MUD .         GEL                  : Mud_type     - MUD TYPE
MATR.         SANDSTONE            : Logunit      - NEUTRON MATRIX
TMAX.F        36                   : BHT          - MAXIMUM RECORDED TEMPERATURE
BHTD.F        509                  : BHTDEP       - MAXIMUM RECORDED TEMPERATURE
RMT .F        36                   : MDTP         - TEMPERATURE OF MUD
MUDD.LB/G     1.11                 : MWT          - MUD DENSITY
NEUT.         1                    : NEUTRON      - NEUTRON TYPE
RESI.         0                    : RESIST       - RESISTIVITY TYPE
RM  .OHMM     3.5                  : RM           - RESISTIVITY OF MUD
RMC .OHMM     3.5                  : RMC          - RESISTIVITY OF MUD CAKE
RMF .OHMM     3.5                  : RMF          - RESISTIVITY OF MUD FILTRATE
SUFT.F        39.2                 : SUFT         - SURFACE TEMPERATURE
~A  DEPTH     RESD       GR     DELT
# ...
  227.986   14.423   79.136  164.775
  228.806   12.445   77.456  166.595
  229.626   11.741   80.089  168.782
  230.446   13.237   85.341  177.795
  231.266   14.661   87.134  178.547
  232.087   11.335   83.712  172.123
  232.907   12.121   84.639  168.929
  233.727   12.694   87.284  165.726
  234.547   11.637   87.754  161.455
  235.367   11.006   86.075  160.063
  236.188   10.446   89.165  158.654
  237.008   10.167   92.242  157.971
  237.828    9.606   94.035  160.884
  238.648    8.975   91.923  158.048
  239.469    8.556   88.501  155.563
  240.289    8.280   83.794  152.368
  241.109    8.143   81.262  151.685
  241.929    8.574   84.759  162.492
  242.749    9.360   90.432  164.329
  243.570   10.220   94.832  163.996
  244.390   10.083   91.842  165.833
  245.210   10.230   85.825  168.379
  246.030   12.932   72.902  170.208
  246.850   15.774   67.317  174.197
  247.671   15.072   67.800  177.102
  248.491   14.369   80.404  177.863
  249.311   13.169   90.414  175.736
  250.131   12.183   94.369  172.542
  250.951   12.828   97.014  173.652
  251.772   14.181   88.402  182.306
  252.592   16.174   77.208  186.287
  253.412   17.243   80.718  188.116
  254.232   14.910   87.713  181.692
  255.052   14.562   86.466  178.139
  255.873   14.497   88.246  179.968
  256.693   14.078   91.311  182.163
  257.513   14.084   94.821  183.633
  258.333   14.374  101.370  181.506
  259.154   14.096  104.880  177.594
  259.974   12.118   93.686  174.041
  260.794   11.559   84.210  172.999
  261.614   11.280   76.043  174.828
  262.434   11.569   76.094  177.015
  263.255   14.200   88.698  175.982
  264.075   15.127  103.897  173.137
  264.895   14.283  105.677  167.790
  265.715   13.013  102.267  167.825
  266.535   12.948   92.791  172.541
  267.356   11.748   86.354  172.925
  268.176   11.329   76.878  174.395
  268.996   12.189   86.455  174.797
  269.816   11.556   89.112  174.473
  270.636   11.636   88.730  172.346
  271.457   11.498   92.672  171.304
  272.277   11.859   96.182  172.774
  273.097   12.360   97.098  170.297
  273.917   12.153   82.864  167.461
  274.738   11.592   82.074  164.275
  275.558    9.047   85.584  161.431
  276.378    8.203   85.635  159.672
  277.198    8.280   86.550  161.859
  278.018    8.711   86.600  165.123
  278.839    9.497   84.475  166.609
  279.659    9.861   79.769  164.124
  280.479    9.794   77.656  160.562
  281.299    9.730   81.599  165.269
  282.119    9.877   87.284  168.900
  282.940   10.098   89.496  167.132
  283.760   10.033   86.087  163.220
  284.580   10.038   82.245  162.896
  285.400   10.754   83.160  167.971
  286.220    9.130   83.210  165.485
  287.041    8.851   76.341  161.923
  287.861    8.078   78.999  157.653
  288.681    7.162   81.631  163.795
  289.501    6.887   79.951  159.883
  290.322    6.964   70.042  152.374
  291.142    7.039   66.213  147.027
  291.962    6.692   68.858  146.712
  292.782    6.628   69.341  149.249
  293.602    6.776   63.756  166.522
  294.423    7.703   44.766  172.297
  295.243   13.241   40.071  178.431
  296.063   16.509   40.122  182.780
  296.883   29.918   40.592  182.814
  297.703   26.024   42.384  179.620
  298.524   27.306   43.732  178.937
  299.344   28.802   45.525  181.124
  300.164   25.830   47.292  178.647
  300.984   19.525   49.505  176.888
  301.804   16.056   55.202  176.922
  302.625    8.759   58.700  169.781
  303.445    7.773   67.844  160.479
  304.265    7.991   77.841  158.728
  305.085    8.353   85.255  162.701
  305.906    9.068   92.670  165.973
  306.726    9.218   99.207  163.146
  307.546    9.152   87.136  165.333
  308.366    9.796   70.308  165.726
  309.186   11.292   71.235  166.837
  310.007    9.600   80.367  169.033
  310.827    9.674   87.362  167.256
  311.647    9.680   89.995  162.268
  312.467    9.403   89.180  166.616
  313.287    9.692   80.148  178.132
  314.108   10.411   70.672  181.404
  314.928   10.417   62.073  180.721
  315.748   10.634   59.096  181.132
  316.568   12.696   56.996  181.508
  317.388   16.816   55.749  182.260
  318.209   19.942   54.934  184.456
  319.029   18.956   54.540  186.643
  319.849   18.183   51.995  187.036
  320.669   17.622   48.141  185.636
  321.490   17.628   42.569  186.388
  322.310   17.209   41.322  206.523
  323.130   16.008   37.480  223.078
  323.950   12.823   30.611  231.724
  324.770   11.270   25.891  216.689
  325.591   11.560   49.319  206.311
  326.411   14.404   54.559  180.146
  327.231   15.828   53.745  182.324
  328.051   16.614   51.645  185.596
  328.871   18.606   53.858  183.120
  329.692   18.685   51.313  185.307
  330.512   21.314   45.729  189.288
  331.332   21.320   35.845  199.736
  332.152   21.256   32.855  193.671
  332.972   21.899   38.095  188.683
  333.793   21.127   48.130  188.358
  334.613   21.273   49.452  189.110
  335.433   23.549   52.097  189.145
  336.253   24.338   50.850  190.265
  337.073   24.911   45.711  191.726
  337.894   25.625   41.436  191.401
  338.714   24.993   37.162  189.283
  339.534   20.603   36.780  191.120
  340.354   18.625   42.884  190.787
  341.175   19.836   48.137  189.754
  341.995   21.757   51.214  192.300
  342.815   22.897   52.142  193.420
  343.635   24.748   50.462  194.881
  344.455   25.108   48.338  195.633
  345.276   22.987   43.631  193.156
  346.096   21.292   39.356  189.244
  346.916   20.518   45.029  193.225
  347.736   22.723   48.984  199.367
  348.556   24.076   48.601  192.585
  349.377   24.366   50.381  186.153
  350.197   22.742   53.891  185.470
  351.017   23.102   56.117  194.483
  351.837   25.662   53.559  198.105
  352.657   27.229   41.513  187.376
  353.478   26.028   39.376  184.541
  354.298   26.320   43.763  180.987
  355.118   25.475   48.571  181.389
  355.938   17.680   49.053  178.177
  356.759   15.418   39.157  187.190
  357.579   21.948   35.315  200.508
  358.399   20.962   32.351  207.009
  359.219   21.039   35.861  202.730
  360.039   26.008   43.263  198.100
  360.860   31.546   46.773  196.341
  361.680   29.426   51.148  213.255
  362.500   28.509   46.873  218.313
  363.320   24.899   39.584  223.729
  364.140   20.580   42.649  221.970
  364.961   34.982   47.456  210.165
  365.781   34.280   56.601  205.168
  366.601   38.825   57.083  203.058
  367.421   38.475   51.944  203.084
  368.241   38.058   46.372  208.150
  369.062   38.277   41.653  205.690
  369.882   37.572   40.838  204.990
  370.702   30.842   60.807  201.796
  371.522   21.773   72.114  193.570
  372.343   20.856   71.731  182.132
  373.163   24.412   69.199  184.310
  373.983   24.769   64.468  187.933
  374.803   26.264   57.611  187.967
  375.623   27.831   60.243  188.728
  376.444   25.639   65.496  195.221
  377.264   22.313   78.125  202.807
  378.084   19.270   79.880  202.833
  378.904   17.930   91.187  197.836
  379.724   16.446   97.304  186.031
  380.545   16.310   96.057  182.836
  381.365   16.600   93.500  176.763
  382.185   16.182   71.049  176.088
  383.005   16.259   70.667  180.787
  383.825   16.053   79.392  185.486
  384.646   17.193   82.037  186.597
  385.466   21.453   82.939  189.510
  386.286   20.467   75.638  190.980
  387.106   23.381   63.134  194.602
  387.927   20.480   54.955  196.430
  388.747   22.047   51.113  188.931
  389.567   27.301   50.731  186.821
  390.387   22.626   57.713  189.008
  391.207   20.648   67.722  190.119
  392.028   21.717   67.772  190.154
  392.848   23.142   63.498  189.471
  393.668   24.282   62.264  191.658
  394.488   20.956   64.031  192.769
  395.308   19.121   71.891  190.659
  396.129   19.763   73.238  189.609
  396.949   29.484   75.451  192.164
  397.769   30.413   72.894  194.342
  398.589   28.363   72.524  197.256
  399.409   29.788   74.304  194.779
  400.230   30.928   73.909  190.858
  401.050   27.885   68.338  191.260
  401.870   27.253   62.766  198.496
  402.690   29.600   59.344  199.581
  403.510   27.054   54.637  201.068
  404.331   25.712   51.227  198.574
  405.151   25.293   53.008  196.456
