~VERSION INFORMATION
 VERS.                 2.0:   CWLS LOG ASCII STANDARD -VERSION 2.0
 WRAP.                  NO:   ONE LINE PER DEPTH STEP
~WELL INFORMATION BLOCK
#MNEM.UNIT           DATA                    DESCRIPTION OF MNEMONIC
#---------    -------------------            -------------------------------
# Generated from Intellog Unique Number	CN_91_93/WELL/1070
WELL.         04-19-091-11W4                 : Well_name    - WELL
LOC .         AA/04-19-091-11W4/0            : Location     - LOCATION
UWI .         AA/04-19-091-11W400            : Uwi          - UNIQUE WELL ID
ENTR.         JOETTE                         : Entered      - ENTERED BY
SRVC.         WESTERN ATLAS                  : Scn          - SERVICE COMPANY
DATE.         01/22/92                       : Date         - LOG DATE
STRT.F        50                             : top_depth    - START DEPTH
STOP.F        550.328                        : bot_depth    - STOP DEPTH
STEP.F        0.8202                         : increment    - STEP LENGTH
 NULL. -999.2500:NULL Value
~CURVE INFORMATION BLOCK
#MNEM UNIT       ERCB CURVE CODE    CURVE DESCRIPTION
#-----------   ------------------   ----------------------------------
DEPT.F        00 001 00 00         : DEPTH        - DEPTH
GR  .API      00 310 00 00         : GR           - GAMMA RAY
CALI.IN       00 280 01 00         : CAL          - CALIPER
DPHI.V/V      00 890 00 00         : PHID         - DENSITY POROSITY (SANDSTONE)
ILD .OHMM     00 120 00 00         : RESD         - DEEP RESISTIVITY (DIL)
~PARAMETER INFORMATION
#MNEM.UNIT           DATA             DESCRIPTION OF MNEMONIC
#---------         -----------     ------------------------------
GL  .M        432.542              : gl           - GROUND LEVEL ELEVATION
EREF.M        432.542              : kb           - ELEVATION OF DEPTH REFERENCE
DATM.M        432.542              : datum        - DATUM ELEVATION
TDD .M        168.554              : tdd          - TOTAL DEPTH DRILLER
RUN .         ONE                  : Run          - RUN NUMBER
ENG .         JO                   : Engineer     - RECORDING ENGINEER
WIT .         TIM                  : Witness      - WITNESSED BY
MUD .         GEL                  : Mud_type     - MUD TYPE
MATR.         SANDSTONE            : Logunit      - NEUTRON MATRIX
TMAX.F        53.6                 : BHT          - MAXIMUM RECORDED TEMPERATURE
BHTD.F        553                  : BHTDEP       - MAXIMUM RECORDED TEMPERATURE
RMT .F        53.6                 : MDTP         - TEMPERATURE OF MUD
MUDD.LB/G     9                    : MWT          - MUD DENSITY
NEUT.         1                    : NEUTRON      - NEUTRON TYPE
RESI.         0                    : RESIST       - RESISTIVITY TYPE
RM  .OHMM     1.5                  : RM           - RESISTIVITY OF MUD
RMC .OHMM     1.8                  : RMC          - RESISTIVITY OF MUD CAKE
RMF .OHMM     1.1                  : RMF          - RESISTIVITY OF MUD FILTRATE
SUFT.F        39.2                 : SUFT         - SURFACE TEMPERATURE
~A  DEPTH       GR      CAL     PHID     RESD
   50.000   65.921    7.320    0.264  243.592
   50.820   69.248    7.379    0.249  185.342
   51.640   69.482    7.498    0.251  175.561
   52.461   69.001    7.577    0.255  183.886
   53.281   72.089    7.676    0.284  175.767
   54.101   68.753    7.536    0.304  166.491
   54.921   64.464    7.397    0.293  157.715
   55.742   64.222    7.357    0.298  144.046
   56.562   66.357    7.357    0.318  130.348
   57.382   64.925    7.416    0.332  107.677
   58.202   62.065    7.475    0.333   88.937
   59.022   56.824    7.494    0.328   74.817
   59.843   54.439    7.494    0.327   69.586
   60.663   52.768    7.493    0.327   66.523
   61.483   53.953    7.493    0.321   63.599
   62.303   55.377    7.493    0.325   62.478
   63.123   56.561    7.532    0.319   63.086
   63.944   56.557    7.670    0.312   64.288
   64.764   56.314    7.749    0.314   65.509
   65.584   55.357    7.749    0.320   66.151
   66.404   55.828    7.709    0.332   66.192
   67.224   57.013    7.629    0.335   66.228
   68.045   58.675    7.609    0.337   66.256
   68.865   61.526    7.608    0.337   65.093
   69.685   63.186    7.628    0.337   62.232
   70.505   62.705    7.588    0.339   60.038
   71.326   61.033    7.449    0.342   59.517
   72.146   59.602    7.369    0.345   59.017
   72.966   58.169    7.329    0.348   59.591
   73.786   57.688    7.328    0.346   59.623
   74.606   57.921    7.328    0.352   60.203
   75.427   58.631    7.328    0.356   61.355
   76.247   59.102    7.327    0.359   62.520
   77.067   59.096    7.327    0.332   63.702
   77.887   59.330    7.346    0.332   65.507
   78.707   60.038    7.385    0.331   66.751
   79.528   59.796    7.444    0.335   68.018
   80.348   58.364    7.484    0.339   67.437
   81.168   54.550    7.483    0.341   66.263
   81.988   53.118    7.483    0.334   67.526
   82.808   53.113    7.463    0.333   68.798
   83.629   54.536    7.442    0.332   68.220
   84.449   55.483    7.442    0.333   67.023
   85.269   55.953    7.442    0.339   67.023
   86.089   55.710    7.481    0.330   65.888
   86.909   54.754    7.540    0.320   62.978
   87.730   53.558    7.599    0.317   61.311
   88.550   52.840    7.599    0.316   59.154
   89.370   52.122    7.618    0.315   58.640
   90.190   51.403    7.697    0.315   57.619
   91.010   50.921    7.716    0.321   58.175
   91.831   50.679    7.736    0.328   60.930
   92.651   49.959    7.735    0.334   61.527
   93.471   50.431    7.715    0.339   60.997
   94.291   51.854    7.675    0.335   59.386
   95.112   51.372    7.635    0.335   59.386
   95.932   53.987    7.615    0.346   58.392
   96.752   53.982    7.614    0.356   58.409
   97.572   53.263    7.614    0.352   57.384
   98.392   55.399    7.594    0.356   55.868
   99.213   56.823    7.574    0.357   53.895
  100.033   57.531    7.494    0.357   52.475
  100.853   57.051    7.434    0.356   52.475
  101.673   56.332    7.394    0.356   52.059
  102.493   57.041    7.393    0.361   51.611
  103.314   60.368    7.373    0.370   51.640
  104.134   60.602    7.293    0.376   51.199
  104.954   59.883    7.174    0.365   50.300
  105.774   62.019    7.134    0.360   49.870
  106.594   61.063    7.114    0.356   48.112
  107.415   60.581    7.133    0.341   46.410
  108.235   62.243    7.153    0.331   44.370
  109.055   63.666    7.152    0.330   43.588
  109.875   63.899    7.172    0.331   43.219
  110.696   64.132    7.171    0.336   42.847
  111.516   65.317    7.131    0.324   41.715
  112.336   65.075    7.091    0.325   38.446
  113.156   63.403    7.071    0.333   33.853
  113.976   64.112    7.051    0.340   36.109
  114.797   62.918    7.070    0.353   32.086
  115.617   61.961    7.089    0.341   30.953
  116.437   61.241    7.089    0.340   35.843
  117.257   61.237    7.128    0.343   38.584
  118.077   60.994    7.148    0.349   38.954
  118.898   60.276    7.147    0.356   39.697
  119.718   58.841    7.167    0.354   41.579
  120.538   58.362    7.166    0.339   42.751
  121.358   59.308    7.166    0.345   43.167
  122.178   60.731    7.165    0.347   43.194
  122.999   61.202    7.165    0.337   41.295
  123.819   62.864    7.165    0.338   39.834
  124.639   64.524    7.125    0.327   36.381
  125.459   64.044    7.144    0.325   35.091
  126.280   63.563    7.163    0.329   33.856
  127.100   62.843    7.163    0.334   33.262
  127.920   61.648    7.162    0.320   33.278
  128.740   61.406    7.142    0.323   33.297
  129.560   61.402    7.102    0.336   33.625
  130.381   62.347    7.082    0.343   33.642
  131.201   63.058    7.042    0.346   33.356
  132.021   63.528    7.042    0.346   33.078
  132.841   63.524    7.021    0.350   32.493
  133.661   64.946    7.021    0.351   32.216
  134.482   65.418    7.021    0.352   31.941
  135.302   65.413    7.000    0.350   31.959
  136.122   65.885    6.960    0.349   32.568
  136.942   66.356    6.960    0.351   33.490
  137.762   66.588    7.078    0.355   34.126
  138.583   66.345    7.157    0.352   34.458
  139.403   66.102    7.197    0.341   32.642
  140.223   65.621    7.176    0.341   32.067
  141.043   65.379    7.136    0.335   32.087
  141.864   65.612    7.116    0.332   32.106
  142.684   66.083    7.096    0.329   32.124
  143.504   66.316    7.076    0.323   32.739
  144.324   68.215    7.055    0.320   33.661
  145.144   68.924    7.055    0.315   34.932
  145.965   68.919    7.094    0.308   35.925
  146.785   69.390    7.074    0.300   35.944
  147.605   71.289    7.054    0.288   35.314
  148.425   74.140    7.033    0.286   31.958
  149.245   77.228    7.033    0.283   20.820
  150.066   80.081    7.033    0.282   14.069
  150.886   83.169    7.052    0.284   14.468
  151.706   85.068    7.270    0.285   13.831
  152.526   87.204    7.408    0.284   11.425
  153.346   89.104    7.507    0.279   10.531
  154.167   91.955    7.586    0.270   10.828
  154.987   94.568    7.645    0.257   10.934
  155.807   96.706    7.684    0.254   11.346
  156.627   99.794    7.724    0.235   12.901
  157.448  102.169    7.783    0.216   14.273
  158.268  106.448    7.822    0.208   14.811
  159.088  107.633    7.861    0.201   14.029
  159.908  107.152    7.880    0.201   13.659
  160.728  106.671    7.900    0.211   14.568
  161.549  105.952    7.919    0.216   15.538
  162.369  104.282    7.979    0.221   16.273
  163.189  104.276    8.018    0.207   16.283
  164.009  103.795    8.077    0.210   16.293
  164.829  101.172    8.096    0.215   16.153
  165.650   99.265    8.096    0.224   16.016
  166.470   99.022    8.095    0.228   16.025
  167.290   98.778    8.075    0.227   15.887
  168.110   98.060    8.075    0.222   15.754
  168.930   97.103    8.055    0.216   15.764
  169.751   99.002    8.034    0.213   15.772
  170.571  101.377    8.034    0.209   15.636
  171.391  102.561    8.014    0.210   15.503
  172.211  102.795    7.993    0.217   15.512
  173.031  103.028    7.993    0.221   15.521
  173.852  103.023    7.973    0.223   15.389
  174.672  103.256    7.953    0.225   15.118
  175.492  104.203    7.912    0.222   14.584
  176.312  104.436    7.872    0.226   13.817
  177.133  104.194    7.832    0.232   13.452
  177.953  102.285    7.753    0.230   12.977
  178.773   99.900    7.653    0.231   12.631
  179.593   98.706    7.573    0.235   12.074
  180.413   96.558    7.454    0.236   12.081
  181.234   93.698    7.354    0.215   11.762
  182.054   90.361    7.275    0.204   12.660
  182.874   87.263    7.155    0.205   14.526
  183.694   83.212    7.075    0.234   19.113
  184.514   81.302    7.035    0.253   29.105
  185.335   82.250    7.154    0.253   22.760
  186.155   86.767    7.193    0.247   18.460
  186.975   86.524    7.173    0.241   16.860
  187.795   85.567    7.153    0.235   16.263
  188.615   84.373    7.291    0.239   16.272
  189.436   82.464    7.271    0.243   16.432
  190.256   82.934    7.231    0.236   16.897
  191.076   84.595    7.210    0.229   15.861
  191.896   85.066    7.170    0.230   15.162
