~VERSION INFORMATION
 VERS.                 2.0:   CWLS LOG ASCII STANDARD -VERSION 2.0
 WRAP.                  NO:   ONE LINE PER DEPTH STEP
~WELL INFORMATION BLOCK
#MNEM.UNIT           DATA                    DESCRIPTION OF MNEMONIC
#---------    -------------------            -------------------------------
# Generated from Intellog Unique Number	CW_82_90/WELL/3419
WELL.         UNION MINK OV                  : Well_name    - WELL
LOC .         AA/06-11-089-20W4/0            : Location     - LOCATION
UWI .         AA/06-11-089-20W4/0            : Uwi          - UNIQUE WELL ID
ENTR.         MAX                            : Entered      - ENTERED BY
SRVC.         SCHLUMBERGER                   : Scn          - SERVICE COMPANY
STRT.M        120                            : top_depth    - START DEPTH
STOP.M        245                            : bot_depth    - STOP DEPTH
STEP.M        0.25                           : increment    - STEP LENGTH
 NULL. -999.2500:NULL Value
~CURVE INFORMATION BLOCK
#MNEM UNIT       ERCB CURVE CODE    CURVE DESCRIPTION
#-----------   ------------------   ----------------------------------
DEPT.M        00 001 00 00         : DEPTH        - DEPTH
GR  .API      00 310 00 00         : GR           - GAMMA RAY
CALI.MM       00 280 01 00         : CAL          - CALIPER
DPHI.V/V      00 890 00 00         : PHID         - DENSITY POROSITY (SANDSTONE)
NPHI.V/V      00 330 00 00         : PHIN         - NEUTRON POROSITY (SANDSTONE)
ILD .OHMM     00 120 00 00         : RESD         - DEEP RESISTIVITY (DIL)
~PARAMETER INFORMATION
#MNEM.UNIT           DATA             DESCRIPTION OF MNEMONIC
#---------         -----------     ------------------------------
GL  .M        512.6                : gl           - GROUND LEVEL ELEVATION
EREF.M        516.91               : kb           - ELEVATION OF DEPTH REFERENCE
DATM.M        512.6                : datum        - DATUM ELEVATION
TDD .M        275                  : tdd          - TOTAL DEPTH DRILLER
RUN .         ONE                  : Run          - RUN NUMBER
ENG .         BILL                 : Engineer     - RECORDING ENGINEER
WIT .         JIM                  : Witness      - WITNESSED BY
MUD .         GEL                  : Mud_type     - MUD TYPE
MATR.         SANDSTONE            : Logunit      - NEUTRON MATRIX
TMAX.C        18                   : BHT          - MAXIMUM RECORDED TEMPERATURE
BHTD.M        275                  : BHTDEP       - MAXIMUM RECORDED TEMPERATURE
MATR.         1                    : LOGUNIT      - NEUTRON MATRIX
RMT .C        17                   : MDTP         - TEMPERATURE OF MUD
NEUT.         1                    : NEUTRON      - NEUTRON TYPE
RESI.         0                    : RESIST       - RESISTIVITY TYPE
RMC .OHMM     3.8                  : RMC          - RESISTIVITY OF MUD CAKE
RMF .OHMM     3.8                  : RMF          - RESISTIVITY OF MUD FILTRATE
SUFT.C        -15                  : SUFT         - SURFACE TEMPERATURE
~A  DEPTH       GR      CAL     PHID     PHIN     RESD
# ...
  193.000   52.334  292.842    0.173    0.272   32.536
  193.250   54.415  292.311    0.122    0.272   28.877
  193.500   57.092  291.760    0.095    0.247   24.488
  193.750   57.071  290.718    0.185    0.278   21.931
  194.000   58.549  290.673    0.225    0.372   20.372
  194.250   62.730  291.143    0.255    0.393   19.273
  194.500   68.411  291.598    0.258    0.381   19.082
  194.750   69.892  292.054    0.235    0.368   19.238
  195.000   68.966  293.025    0.225    0.349   19.757
  195.250   71.045  293.986    0.266    0.372   20.470
  195.500   71.318  293.945    0.292    0.386   22.205
  195.750   70.095  293.900    0.284    0.376   22.595
  196.000   66.159  294.360    0.256    0.389   23.197
  196.250   64.035  294.825    0.204    0.366   23.392
  196.500   62.209  296.287    0.172    0.333   22.745
  196.750   61.881  295.240    0.206    0.331   20.000
  197.000   63.359  295.705    0.247    0.365   18.412
  197.250   65.434  297.663    0.325    0.431   16.489
  197.500   65.110  300.121    0.354    0.471   16.476
  197.750   64.187  302.083    0.320    0.446   16.463
  198.000   65.665  304.546    0.284    0.422   16.297
  198.250   65.941  305.507    0.211    0.391   16.138
  198.500   66.818  305.968    0.199    0.361   16.124
  198.750   69.197  305.426    0.243    0.375   15.820
  199.000   70.678  305.391    0.268    0.401   15.100
  199.250   72.754  306.352    0.264    0.392   14.549
  199.500   74.833  307.308    0.239    0.387   14.406
  199.750   75.109  306.772    0.214    0.380   14.262
  200.000   70.882  304.223    0.198    0.356   13.742
  200.250   71.455  304.188    0.183    0.356   13.358
  200.500   74.736  304.638    0.211    0.373   12.989
  200.750   74.711  303.095    0.248    0.387   12.741
  201.000   74.987  302.048    0.249    0.397   12.615
  201.250   78.866  303.019    0.236    0.385   12.491
  201.500   82.747  304.481    0.245    0.400   12.481
  201.750   80.322  303.439    0.268    0.420   12.471
  202.000   76.993  302.898    0.268    0.418   12.460
  202.250   76.365  302.357    0.257    0.428   12.450
  202.500   78.147  300.799    0.207    0.409   12.552
  202.750   79.922  301.775    0.163    0.410   12.428
  203.000   81.403  302.731    0.188    0.424   12.084
  203.250   83.482  302.190    0.247    0.405   11.856
  203.500   83.457  302.155    0.265    0.400   11.845
  203.750   84.328  302.605    0.248    0.420   12.053
  204.000   84.010  302.575    0.245    0.424   12.375
  204.250   82.480  302.519    0.239    0.419   12.478
  204.500   83.357  301.988    0.233    0.403   12.582
  204.750   82.432  302.443    0.230    0.385   12.803
  205.000   83.008  302.403    0.244    0.391   12.792
  205.250   83.882  301.867    0.237    0.416   12.549
  205.500   82.957  301.821    0.209    0.423   12.426
  205.750   80.832  300.779    0.185    0.406   12.192
  206.000   79.907  300.243    0.195    0.394   12.071
  206.250   80.781  300.698    0.242    0.411   11.630
  206.500   80.459  301.164    0.265    0.404   11.305
  206.750   79.834  301.123    0.262    0.414   11.093
  207.000   78.608  300.081    0.256    0.422   10.983
  207.250   78.281  300.537    0.233    0.416   10.974
  207.500   80.062  300.491    0.196    0.401   10.965
  207.750   83.940  300.451    0.212    0.384   10.956
  208.000   86.319  299.910    0.224    0.383   10.946
  208.250   85.394  300.375    0.222    0.392   11.034
  208.500   85.369  300.830    0.237    0.407   11.130
  208.750   85.345  300.289    0.254    0.403   11.532
  209.000   84.119  300.243    0.295    0.426   11.842
  209.250   82.893  300.213    0.317    0.448   12.383
  209.500   81.664  300.168    0.340    0.415   12.951
  209.750   80.438  304.133    0.306    0.403   13.421
  210.000   78.912  308.093    0.323    0.409   13.906
  210.250   77.082  310.561    0.360    0.440   14.945
  210.500   76.763  314.527    0.388    0.454   16.211
  210.750   78.842  315.993    0.404    0.415   18.235
  211.000   78.214  316.949    0.245    0.362   19.597
  211.250   71.881  317.409    0.212    0.357   18.203
  211.500   72.157  317.875    0.204    0.342   14.482
  211.750   76.339  319.326    0.227    0.329   13.087
  212.000   80.220  321.284    0.258    0.371   12.843
  212.250   80.196  322.751    0.339    0.443   12.716
  212.500   81.974  322.710    0.372    0.419   12.936
  212.750   85.254  322.670    0.325    0.399   13.405
  213.000   88.532  322.634    0.253    0.382   13.643
  213.250   90.914  322.589    0.218    0.355   13.022
  213.500   90.887  322.548    0.227    0.361   12.207
  213.750   89.060  323.004    0.224    0.357   11.549
  214.000   86.635  324.470    0.248    0.364   11.025
  214.250   86.908  327.935    0.271    0.397   10.525
  214.500   86.881  341.419    0.341    0.426   10.140
  214.750   85.956  352.895    0.403    0.497    9.859
  215.000   84.426  350.351    0.506    0.566    9.495
  215.250   83.203  355.317    0.492    0.567    9.575
  215.500   81.376  354.771    0.493    0.554   10.291
  215.750   80.754  349.228    0.479    0.539   11.162
  216.000   80.727  337.170    0.461    0.526   12.106
  216.250   79.804  324.607    0.341    0.511   12.431
  216.500   79.777  321.062    0.283    0.478   11.867
  216.750   83.058  320.521    0.256    0.383   11.434
  217.000   86.341  320.475    0.245    0.375   11.011
  217.250   85.415  321.937    0.260    0.390   10.707
  217.500   85.391  326.903    0.276    0.404   10.411
  217.750   85.968  325.366    0.290    0.418   10.122
  218.000   85.944  317.314    0.296    0.428    9.840
  218.250   85.315  316.267    0.270    0.404    9.565
  218.500   84.988  315.726    0.217    0.389    9.301
  218.750   85.267  314.679    0.197    0.429    9.209
  219.000   87.343  315.139    0.241    0.442    8.707
  219.250   89.121  315.094    0.261    0.443    9.111
  219.500   89.100  315.559    0.284    0.432    9.020
  219.750   86.669  316.525    0.289    0.448    8.930
  220.000   84.241  318.988    0.341    0.460    9.006
  220.250   80.615  322.448    0.407    0.476    9.246
  220.500   76.382  328.922    0.448    0.475    9.582
  220.750   77.856  317.365    0.404    0.512   10.204
  221.000   80.539  318.326    0.420    0.531   10.869
  221.250   82.615  325.791    0.496    0.516   12.005
  221.500   81.085  331.264    0.445    0.494   13.379
  221.750   82.266  322.711    0.163    0.476   13.739
  222.000   84.047  320.658    0.126    0.324   13.603
  222.250   90.329  311.609    0.122    0.337   13.225
  222.500   90.605  301.054    0.147    0.351   12.623
  222.750   89.376  300.513    0.196    0.364   12.273
  223.000   89.655  298.970    0.247    0.376   11.932
  223.250   89.634  301.428    0.313    0.381   11.816
  223.500   88.105  303.391    0.344    0.400   12.023
  223.750   86.879  298.839    0.319    0.397   12.570
  224.000   85.953  298.303    0.338    0.389   13.146
  224.250   88.933  296.249    0.414    0.447   14.001
  224.500   94.617  292.213    0.347    0.453   15.324
  224.750   98.201  290.170    0.279    0.376   16.027
  225.000   97.275  289.629    0.209    0.352   15.439
  225.250   93.643  288.086    0.165    0.333   14.605
  225.500   91.516  287.540    0.124    0.311   13.690
  225.750   90.290  287.500    0.119    0.338   12.949
  226.000   89.962  288.461    0.144    0.353   12.478
  226.250   88.138  289.917    0.220    0.373   11.912
  226.500   86.311  291.885    0.215    0.380   11.269
  226.750   85.686  295.344    0.177    0.353   10.373
  227.000   84.761  299.805    0.088    0.320    9.635
  227.250   85.034  304.271    0.112    0.375    9.115
  227.500   82.910  309.253    0.225    0.416    8.089
  227.750   79.271  317.224    0.396    0.541    7.723
  228.000   78.652  333.206    0.461    0.525    8.149
  228.250   76.525  338.173    0.497    0.503    8.759
  228.500   74.998  325.615    0.465    0.492    9.500
  228.750   73.469  317.558    0.421    0.476    9.579
  229.000   72.543  316.015    0.365    0.455    9.483
  229.250   71.615  328.493    0.334    0.438    9.136
