~Version : LASO    vs 4.00
VERS.                2.00:   CWLS Log ASCII Standard -VERSION 2.0
WRAP.                  NO:
~Well Information Block
#MNEM.UNIT       Data                        Description of Mnemonic
#----.----      -------------------------- : -----------------------------
STRT.M            11.0000:
STOP.M           176.0000:
STEP.M             0.1000:
NULL.           -999.2500:
COMP.  MOBIL OIL CANADA LTD.  :COMPANY
WELL.  MOBIL CLARKE OV 5-32   :WELL
FLD.   CLARKE                 :FIELD
LOC.   05-32-089-08W4         :LOCATION
CTRY.  CANADA                 :COUNTRY
PROV.  ALBERTA                :PROVINCE
SRVC.  SCHLUMBERGER           :SERVICE COMPANY
DATE.  04-MAR-81              :LOG DATE
UWI.   AA/05-32-089-08W400    :UNIQUE WELL ID
~Parameter Information Block
#MNEM.UNIT       Data                        Description of Mnemonic
#----.----      -------------------------- : -----------------------------
RUN .                   1                 : Run Number
GL  .M           391.1000                 : Ground Level Elevation
DREF.                  KB                 : Depth Reference
EREF.M           394.5000                 : Elevation of Depth Reference
TDL .M           176.5000                 : Total Depth Logger
TDD .M           174.0000                 : Total Depth Driller
CSGL.M            16.0000                 : Casing Bottom Logger
CSGD.M            14.6000                 : Casing Bottom Driller
CSGS.MM          219.0000                 : Casing Size
CSGW.KG/M          0.0000                 : Casing Weight
BHT .DEGC         23.0000                 : Bottom Hole Temperature
BS  .MM          159.0000                 : Bit Size
DFD .           1110.0000                 : Mud Weight (Density)
DFV .             90.0000                 : Mud Viscosity
DFPH.             10.0000                 : Mud pH
RM  .OHMM          1.9600                 : Mud Resistivity
RMT .DEGC         20.0000                 : Mud Resistivity Temperature
~Curve Information Block
#MNEM.UNIT        API CODE    Curve Description
#---------    ------------    -------------------------------------------
DEPT.M                    :   DEPTH
CALI.MM       42 280  1  1:   3 DENSITY CALIPER
DPHI.V/V                  :   DPHI
DT  .US/M     60 520  0  1:   2 SONIC INTERVAL TRANSIT TIME (COMPENSATED)
GR  .GAPI     42 310  1  1:   4 GAMMA RAY
ILD .OHMM      5 120 46  1:   6 DEEP INDUCTION
ILM .OHMM      5 120 44  1:   7 MEDIUM INDUCTION
NPHI.V/V                  :   NPHI
RHOB.K/M3     42 350  1  1:   5 BULK DENSITY
SFLU.OHMM      5 220  1  1:   8 FOCUSSED RESISTIVITY
SP  .MV        5  10  1  1:   9 SPONTANEOUS POTENTIAL
~A  Depth           CALI        DPHI          DT          GR         ILD         ILM        NPHI        RHOB        SFLU          SP
# ...
126.9000        180.0250      0.1942    445.5200     99.6450      6.4838      5.8591      0.4193   2325.0000      4.1671    -90.7500
127.0000        174.9250      0.1935    441.7200     98.2200      6.5438      6.1920      0.4152   2329.0000      4.2838    -89.5050
127.1000        174.9250      0.1928    436.9600     96.5100      6.5438      6.1920      0.4127   2329.0000      4.2838    -89.5050
127.2000        167.2750      0.1934    433.7200     97.0650      6.5438      6.3071      0.4105   2329.0000      6.3071    -90.2550
127.3000        167.2750      0.1979    431.9200     98.4300      6.5438      6.3071      0.4085   2329.0000      6.3071    -90.2550
127.4000        168.5500      0.2025    432.8000     97.3800      6.6655      6.3655      0.4053   2323.0000      7.8674    -95.0100
127.5000        168.5500      0.2066    435.3200     95.2800      6.6655      6.3655      0.4022   2323.0000      7.8674    -95.0100
127.6000        168.5500      0.2104    438.5600     92.2500      6.7894      6.4244      0.4001   2327.0000      7.4444    -96.2550
127.7000        168.5500      0.2141    441.8000     88.8300      6.7894      6.4244      0.3969   2327.0000      7.4444    -96.2550
127.8000        166.0000      0.2187    444.9600     86.1600      7.0442      6.5438      0.3947   2318.0000      6.3071    -96.0000
127.9000        166.0000      0.2272    448.0800     84.2550      7.0442      6.5438      0.3914   2318.0000      6.3071    -96.0000
128.0000        163.4500      0.2328    450.7200     83.7600      7.4444      7.2415      0.3884   2261.0000      7.8674   -101.7600
128.1000        163.4500      0.2373    452.4400     83.5800      7.4444      7.2415      0.3887   2261.0000      7.8674   -101.7600
128.2000        160.9000      0.2344    450.4000     87.0450      7.4444      7.2415      0.3950   2255.0000      7.8674   -101.7600
128.3000        160.9000      0.2314    447.4800     91.1100      7.4444      7.2415      0.4006   2255.0000      7.8674   -101.7600
128.4000        166.0000      0.2267    441.2800     92.7450      7.5828      7.5133      0.4071   2252.0000     13.2993   -105.0000
128.5000        166.0000      0.2226    436.0400     94.3800      7.5828      7.5133      0.4180   2252.0000     13.2993   -105.0000
128.6000        162.1750      0.2153    431.8800     95.5650      7.5828      7.4444      0.4241   2304.0000     15.5536   -106.2600
128.7000        162.1750      0.2039    431.4400     96.4500      7.5828      7.4444      0.4257   2304.0000     15.5536   -106.2600
128.8000        166.0000      0.2040    431.2000     95.6400      7.6530      7.3085      0.4182   2329.8999     16.8978   -104.5050
128.9000        166.0000      0.2099    437.3200     94.6350      7.6530      7.3085      0.4089   2329.8999     16.8978   -104.5050
129.0000        172.3750      0.2196    439.6000     92.4000      7.7238      7.1751      0.4023   2325.0000     13.6719   -102.5100
129.1000        172.3750      0.2289    440.4800     87.3000      7.7238      7.1751      0.3948   2325.0000     13.6719   -102.5100
129.2000        168.5500      0.2354    436.6800     83.7300      8.0136      7.3085      0.3916   2269.0000      4.1289    -94.5000
129.3000        168.5500      0.2391    433.5200     81.1950      8.0136      7.3085      0.3957   2269.0000      4.1289    -94.5000
129.4000        168.5500      0.2280    431.4400     78.6600      8.0878      7.8674      0.4024   2247.0000      5.1979    -95.0100
129.5000        168.5500      0.2289    433.0800     76.0950      8.0878      7.8674      0.4082   2247.0000      5.1979    -95.0100
129.6000        167.2750      0.2374    435.6000     73.5300      8.3913      8.1626      0.4099   2254.0000     10.0886    -98.0100
129.7000        167.2750      0.2485    438.6400     70.9650      8.3913      8.1626      0.4021   2254.0000     10.0886    -98.0100
129.8000        167.2750      0.2593    441.6800     67.6950      9.9044      9.0330      0.3939   2250.8999     10.5640   -102.2550
129.9000        167.2750      0.2693    443.3200     64.3200      9.9044      9.0330      0.3868   2250.8999     10.5640   -102.2550
130.0000        167.2750      0.2743    444.9600     63.4200     11.0619     10.3712      0.3842   2213.0000      9.1165    -99.7500
130.1000        167.2750      0.2718    446.2000     65.9400     11.0619     10.3712      0.3843   2213.0000      9.1165    -99.7500
130.2000        169.8250      0.2685    446.7600     70.1400     12.1291     12.7008      0.3887   2191.0000     12.4690    -95.7600
130.3000        169.8250      0.2645    447.4800     73.7400     12.1291     12.7008      0.3915   2191.0000     12.4690    -95.7600
130.4000        171.1250      0.2621    447.2800     76.1700     12.8183     14.5824      0.3934   2187.8999     28.8290    -95.0100
130.5000        171.1250      0.2619    447.0000     76.1700     12.8183     14.5824      0.3929   2187.8999     28.8290    -95.0100
130.6000        167.2750      0.2674    446.4000     75.9000     14.1850     14.3163      0.3905   2221.0000     52.4602    -98.2500
130.7000        167.2750      0.2699    444.6400     75.3600     14.1850     14.3163      0.3885   2221.0000     52.4602    -98.2500
130.8000        166.7500      0.2658    443.4000     74.6700     14.5824     13.9261      0.3877   2212.5000     20.3156    -97.7550
130.9000        166.7500      0.2602    445.7600     75.4950     14.5824     13.9261      0.3895   2212.5000     20.3156    -97.7550
131.0000        166.0000      0.2510    447.5600     76.6650     14.1850     14.4487      0.3897   2208.0000     13.6719    -97.7550
131.1000        166.0000      0.2398    446.1200     77.8350     14.1850     14.4487      0.3899   2208.0000     13.6719    -97.7550
131.2000        169.8250      0.2273    444.0400     79.2450     11.7986     12.2414      0.3865   2201.0000     18.1899    -98.2500
131.3000        169.8250      0.2219    440.5600     80.9550     11.7986     12.2414      0.3815   2201.0000     18.1899    -98.2500
131.4000        172.3750      0.2205    437.0400     82.6650     10.7604     10.7604      0.3841   2213.0000     13.5466    -96.7500
131.5000        172.3750      0.2187    434.2400     84.3750     10.7604     10.7604      0.3883   2213.0000     13.5466    -96.7500
131.6000        166.0000      0.2177    434.3200     86.8800     10.3712      9.9961      0.3931   2265.0000     10.0886    -97.5000
131.7000        166.0000      0.2182    434.7200     89.4750     10.3712      9.9961      0.4043   2265.0000     10.0886    -97.5000
131.8000        167.2750      0.2153    438.0800     92.3550      9.3720      9.2009      0.4189   2283.0000     10.1819   -101.2500
131.9000        167.2750      0.2065    441.4400     96.4350      9.3720      9.2009      0.4301   2283.0000     10.1819   -101.2500
132.0000        168.5500      0.1900    444.4800    102.8850      8.7868      8.9501      0.4392   2278.0000     12.5843   -100.5150
132.1000        168.5500      0.1770    447.4000    110.9100      8.7868      8.9501      0.4114   2278.0000     12.5843   -100.5150
132.2000        164.7500      0.1665    448.8400    115.3800      8.0878      8.3913      0.4045   2281.0000     17.6942   -100.5150
132.3000        164.7500      0.1598    447.2800    116.9700      8.0878      8.3913      0.4112   2281.0000     17.6942   -100.5150
132.4000        159.6250      0.1584    444.7200    116.3400      7.3762      6.6655      0.4160   2302.0000     10.0886    -97.0050
132.5000        159.6250      0.1593    442.1600    115.2900      7.3762      6.6655      0.4233   2302.0000     10.0886    -97.0050
132.6000        171.1250      0.1594    440.1600    114.2400      7.1751      6.3655      0.4407   2355.0000      5.3436    -93.5100
132.7000        171.1250      0.1624    439.0400    112.4250      7.1751      6.3655      0.4497   2355.0000      5.3436    -93.5100
132.8000        176.2000      0.1668    440.2000    110.1300      6.9156      6.2493      0.4577   2408.0000      4.4446    -90.0000
132.9000        176.2000      0.1708    441.0400    107.8350      6.9156      6.2493      0.4567   2408.0000      4.4446    -90.0000
