~VERSION INFORMATION
 VERS.                 2.0:   CWLS LOG ASCII STANDARD -VERSION 2.0
 WRAP.                  NO:   ONE LINE PER DEPTH STEP
~WELL INFORMATION BLOCK
#MNEM.UNIT           DATA                    DESCRIPTION OF MNEMONIC
#---------    -------------------            -------------------------------
# Generated from Intellog Unique Number	CW_76_78/WELL/2565
WELL.         05-14-078-24W4                 : Well_name    - WELL
LOC .         AA/05-14-078-24W4/0            : Location     - LOCATION
UWI .         AA/05-14-078-24W4/0            : Uwi          - UNIQUE WELL ID
ENTR.         MAX                            : Entered      - ENTERED BY
SRVC.         SCHLUMBERGER                   : Scn          - SERVICE COMPANY
STRT.M        290                            : top_depth    - START DEPTH
STOP.M        545                            : bot_depth    - STOP DEPTH
STEP.M        0.25                           : increment    - STEP LENGTH
 NULL. -999.2500:NULL Value
~CURVE INFORMATION BLOCK
#MNEM UNIT       ERCB CURVE CODE    CURVE DESCRIPTION
#-----------   ------------------   ----------------------------------
DEPT.M        00 001 00 00         : DEPTH        - DEPTH
ILD .OHMM     00 120 00 00         : RESD         - DEEP RESISTIVITY (DIL)
NPHI.V/V      00 330 00 00         : PHIN         - NEUTRON POROSITY (SANDSTONE)
DPHI.V/V      00 890 00 00         : PHID         - DENSITY POROSITY (SANDSTONE)
CALI.MM       00 280 01 00         : CAL          - CALIPER
GR  .API      00 310 00 00         : GR           - GAMMA RAY
~PARAMETER INFORMATION
#MNEM.UNIT           DATA             DESCRIPTION OF MNEMONIC
#---------         -----------     ------------------------------
GL  .M        597.38               : gl           - GROUND LEVEL ELEVATION
EREF.M        602.13               : kb           - ELEVATION OF DEPTH REFERENCE
DATM.M        597.38               : datum        - DATUM ELEVATION
TDD .M        547                  : tdd          - TOTAL DEPTH DRILLER
RUN .         ONE                  : Run          - RUN NUMBER
ENG .         BILL                 : Engineer     - RECORDING ENGINEER
WIT .         JIM                  : Witness      - WITNESSED BY
MUD .         GEL                  : Mud_type     - MUD TYPE
MATR.         SANDSTONE            : Logunit      - NEUTRON MATRIX
TMAX.C        41.1                 : BHT          - MAXIMUM RECORDED TEMPERATURE
BHTD.M        547                  : BHTDEP       - MAXIMUM RECORDED TEMPERATURE
RMT .C        17.7                 : MDTP         - TEMPERATURE OF MUD
MUDD.KG/M     1115                 : MWT          - MUD DENSITY
NEUT.         1                    : NEUTRON      - NEUTRON TYPE
RESI.         0                    : RESIST       - RESISTIVITY TYPE
RM  .OHMM     6.28                 : RM           - RESISTIVITY OF MUD
RMC .OHMM     0.25                 : RMC          - RESISTIVITY OF MUD CAKE
RMF .OHMM     5.71                 : RMF          - RESISTIVITY OF MUD FILTRATE
SUFT.C        -20                  : SUFT         - SURFACE TEMPERATURE
~A  DEPTH     RESD     PHIN     PHID      CAL       GR
# ...
  472.500   46.022    0.377    0.234  188.237   50.193
  472.750   58.009    0.366    0.246  187.744   45.714
  473.000   63.060    0.359    0.268  187.251   40.040
  473.250   71.136    0.356    0.289  186.759   35.262
  473.500   83.273    0.349    0.283  186.265   30.484
  473.750   94.810    0.340    0.279  185.772   26.902
  474.000  106.962    0.342    0.305  185.778   24.813
  474.250  108.987    0.359    0.305  185.784   23.024
  474.500  110.051    0.363    0.295  185.789   22.728
  474.750  110.080    0.360    0.297  185.794   22.731
  475.000  110.123    0.359    0.297  185.301   22.734
  475.250  109.148    0.356    0.289  184.810   23.933
  475.500  107.177    0.351    0.295  184.813   23.338
  475.750  105.260    0.354    0.293  184.818   22.445
  476.000  103.368    0.349    0.286  183.827   22.746
  476.250  103.368    0.342    0.281  182.339   23.347
  476.500  101.545    0.342    0.288  183.340   24.247
  476.750   96.096    0.349    0.300  185.338   25.146
  477.000   90.111    0.351    0.300  186.338   26.345
  477.250   86.067    0.349    0.286  186.343   25.750
  477.500   79.960    0.347    0.278  185.850   23.661
  477.750   64.672    0.352    0.288  184.859   22.170
  478.000   59.528    0.347    0.297  184.368   23.369
  478.250   51.365    0.341    0.294  184.373   25.763
  478.500   42.708    0.332    0.280  184.378   25.766
  478.750   32.985    0.328    0.276  184.382   24.574
  479.000   30.360    0.329    0.271  184.885   26.370
  479.250   26.683    0.314    0.268  184.891   28.764
  479.500   23.890    0.311    0.270  184.896   31.157
  479.750   22.820    0.326    0.273  184.901   32.952
  480.000   22.204    0.338    0.283  184.907   35.645
  480.250   21.805    0.349    0.290  184.912   36.544
  480.500   21.215    0.356    0.288  185.414   37.444
  480.750   20.453    0.347    0.283  186.913   38.642
  481.000   19.537    0.352    0.281  187.417   40.438
  481.250   19.007    0.351    0.279  187.920   42.533
  481.500   17.989    0.338    0.271  188.922   46.122
  481.750   16.868    0.330    0.265  189.425   52.400
  482.000   15.964    0.355    0.261  189.430   55.690
  482.250   15.108    0.392    0.258  188.938   57.486
  482.500   14.298    0.392    0.274  188.943   61.373
  482.750   13.656    0.378    0.261  187.951   61.974
  483.000   12.688    0.368    0.253  186.960   51.221
  483.250   12.007    0.356    0.264  186.468   51.522
  483.500   11.259    0.352    0.231  187.967   56.306
  483.750   10.656    0.334    0.181  191.459   65.572
  484.000   10.464    0.321    0.171  193.953   78.723
  484.250   10.468    0.312    0.152  194.457   79.622
  484.500   10.967    0.340    0.099  199.940   73.350
  484.750   13.321    0.346    0.126  202.933   63.493
  485.000   17.104    0.339    0.174  199.452   58.416
  485.250   20.967    0.362    0.211  195.473   53.340
  485.500   30.356    0.374    0.292  191.993   47.068
  485.750   34.244    0.373    0.298  190.504   38.107
  486.000   39.716    0.359    0.288  189.513   35.122
  486.250   40.849    0.364    0.284  191.013   36.619
  486.500   38.658    0.365    0.282  193.010   39.013
  486.750   35.587    0.359    0.281  193.014   41.407
  487.000   34.305    0.368    0.274  192.023   43.800
  487.250   33.072    0.369    0.250  191.531   47.389
  487.500   31.882    0.368    0.229  190.540   48.587
  487.750   29.079    0.365    0.213  189.549   49.486
  488.000   25.089    0.292    0.189  189.057   50.983
  488.250   17.502    0.265    0.154  188.065   55.768
  488.500   16.563    0.289    0.086  187.572   63.539
  488.750   13.396    0.306    0.079  187.079   66.531
  489.000   11.037    0.315    0.168  187.582   69.821
  489.250   10.639    0.313    0.169  189.580   71.319
  489.500    9.614    0.314    0.153  193.570   75.803
  489.750    8.219    0.343    0.143  199.053   84.173
  490.000    7.924    0.404    0.162  199.557   98.818
  490.250    7.927    0.406    0.172  199.063  104.797
  490.500    7.856    0.380    0.175  198.073  102.409
  490.750    7.435    0.354    0.171  198.078  103.608
  491.000    7.438    0.362    0.186  198.582  107.197
  491.250    7.792    0.450    0.201  199.084  108.992
  491.500    9.641    0.465    0.219  200.085  103.916
  491.750   11.820    0.394    0.217  200.589   91.369
  492.000   14.898    0.351    0.196  199.100   76.731
  492.250   16.498    0.324    0.182  197.113   65.977
  492.500   17.445    0.327    0.191  194.627   60.303
  492.750   17.777    0.335    0.229  193.636   61.800
  493.000   17.782    0.335    0.218  193.144   64.792
  493.250   17.626    0.342    0.210  193.149   65.094
  493.500   16.836    0.357    0.202  193.154   65.993
  493.750   15.933    0.345    0.180  193.160   66.892
  494.000   14.265    0.293    0.159  193.165   64.206
  494.250   13.010    0.270    0.135  193.170   68.392
  494.500   11.867    0.280    0.121  193.175   77.061
  494.750   11.867    0.316    0.109  193.180   83.040
  495.000   11.340    0.359    0.111  193.186   94.696
  495.250   10.730    0.432    0.124  193.689   94.401
  495.500   10.440    0.421    0.137  193.694   86.037
  495.750   10.253    0.368    0.154  193.699   80.662
  496.000   10.161    0.325    0.162  192.210   80.067
  496.250   10.072    0.318    0.149  194.207   78.875
  496.500   10.169    0.339    0.126  195.706   73.798
  496.750   10.954    0.377    0.111  196.209   67.228
  497.000   11.908    0.396    0.110  195.219   58.566
  497.250   14.870    0.439    0.305  193.233   38.250
  497.500   16.621    0.530    0.365  192.243   35.863
  497.750   16.621    0.402    0.351  192.248   43.934
  498.000   16.331    0.360    0.339  193.249   58.578
  498.250   13.576    0.344    0.324  193.751   68.741
  498.500    8.476    0.480    0.305  194.752   76.513
  498.750    7.731    0.489    0.294  196.750   89.663
  499.000    7.731    0.491    0.280  199.743  100.423
  499.250    7.456    0.486    0.341  198.751   86.681
  499.500    7.121    0.598    0.373  196.267   80.708
  499.750    6.144    0.630    0.409  195.276   70.552
  500.000    5.979    0.616    0.537  196.775   69.061
  500.250    5.926    0.586    0.512  198.275   77.730
  500.500    5.983    0.568    0.321  199.276   83.709
  500.750    5.985    0.557    0.298  200.277   85.505
  501.000    5.987    0.551    0.288  198.789   87.003
  501.250    5.989    0.599    0.276  198.295   89.097
  501.500    6.047    0.577    0.336  198.798   96.271
  501.750    6.219    0.543    0.311  200.795  106.733
  502.000    6.576    0.517    0.274  203.789  104.345
  502.250    7.418    0.478    0.214  200.806   93.591
  502.500    9.011    0.433    0.165  197.325   80.746
  502.750   10.165    0.393    0.174  196.832   72.980
  503.000   10.454    0.371    0.218  195.841   73.880
  503.250    9.535    0.416    0.255  195.349   81.651
  503.500    7.030    0.450    0.270  194.358   96.595
  503.750    7.164    0.460    0.249  193.865  101.379
  504.000    7.861    0.480    0.235  193.870  104.669
  504.250    9.460    0.520    0.222  193.378   94.214
  504.500   13.200    0.493    0.238  193.382   74.496
  504.750   16.638    0.442    0.282  193.388   60.754
  505.000   24.766    0.389    0.312  193.892   48.207
  505.250   34.555    0.369    0.309  194.395   50.899
  505.500   33.934    0.393    0.309  194.898   54.787
  505.750   26.942    0.401    0.297  194.902   61.065
  506.000   21.195    0.396    0.284  194.908   69.136
  506.250   17.952    0.398    0.279  194.914   68.541
  506.500   16.990    0.414    0.265  194.918   71.234
  506.750   17.313    0.431    0.279  194.923   66.157
  507.000   20.453    0.419    0.292  195.427   57.196
  507.250   26.020    0.415    0.306  195.432   52.717
  507.500   30.459    0.404    0.320  195.436   52.421
  507.750   30.190    0.407    0.326  195.442   55.412
  508.000   28.569    0.410    0.326  195.447   61.691
  508.250   25.580    0.398    0.320  195.452   64.085
  508.500   18.009    0.390    0.296  195.458   66.777
  508.750   13.780    0.377    0.271  195.463   72.756
