~VERSION INFORMATION
 VERS.                 2.0:   CWLS LOG ASCII STANDARD -VERSION 2.0
 WRAP.                  NO:   ONE LINE PER DEPTH STEP
~WELL INFORMATION BLOCK
#MNEM.UNIT           DATA                    DESCRIPTION OF MNEMONIC
#---------    -------------------            -------------------------------
# Generated from Intellog Unique Number	CC_88_90/WELL/3679
WELL.         07-18-089-12W4                 : Well_name    - WELL
LOC .         AA/07-18-089-12W4/0            : Location     - LOCATION
UWI .         AA/07-18-089-12W400            : Uwi          - UNIQUE WELL ID
ENTR.         TIM                            : Entered      - ENTERED BY
SRVC.         SCHLUMBERGER                   : Scn          - SERVICE COMPANY
DATE.         01-04-92                       : Date         - LOG DATE
STRT.F        100                            : top_depth    - START DEPTH
STOP.F        689.731                        : bot_depth    - STOP DEPTH
STEP.F        0.82                           : increment    - STEP LENGTH
 NULL. -999.2500:NULL Value
~CURVE INFORMATION BLOCK
#MNEM UNIT       ERCB CURVE CODE    CURVE DESCRIPTION
#-----------   ------------------   ----------------------------------
DEPT.F        00 001 00 00         : DEPTH        - DEPTH
GR  .API      00 310 00 00         : GR           - GAMMA RAY
NPHI.V/V      00 330 00 00         : PHIN         - NEUTRON POROSITY (SANDSTONE)
ILD .OHMM     00 120 00 00         : RESD         - DEEP RESISTIVITY (DIL)
~PARAMETER INFORMATION
#MNEM.UNIT           DATA             DESCRIPTION OF MNEMONIC
#---------         -----------     ------------------------------
GL  .F        1673                 : gl           - GROUND LEVEL ELEVATION
EREF.F        1673                 : kb           - ELEVATION OF DEPTH REFERENCE
DATM.F        1673                 : datum        - DATUM ELEVATION
TDD .F        691                  : tdd          - TOTAL DEPTH DRILLER
RUN .         ONE                  : Run          - RUN NUMBER
ENG .         BILL                 : Engineer     - RECORDING ENGINEER
WIT .         JIM                  : Witness      - WITNESSED BY
MUD .         GEL                  : Mud_type     - MUD TYPE
MATR.         SANDSTONE            : Logunit      - NEUTRON MATRIX
TMAX.F        44                   : BHT          - MAXIMUM RECORDED TEMPERATURE
BHTD.F        691                  : BHTDEP       - MAXIMUM RECORDED TEMPERATURE
MATR.         1                    : LOGUNIT      - NEUTRON MATRIX
RMT .F        62                   : MDTP         - TEMPERATURE OF MUD
NEUT.         1                    : NEUTRON      - NEUTRON TYPE
RESI.         0                    : RESIST       - RESISTIVITY TYPE
RMC .OHMM     6.1                  : RMC          - RESISTIVITY OF MUD CAKE
RMF .OHMM     8.6                  : RMF          - RESISTIVITY OF MUD FILTRATE
SUFT.F        40                   : SUFT         - SURFACE TEMPERATURE
~A  DEPTH       GR     PHIN     RESD
  100.000   70.721    0.455   15.493
  100.820   69.415    0.458   15.418
  101.640   67.663    0.461   17.913
  102.461   64.593    0.468   18.132
  103.281   61.082    0.472   16.442
  104.101   61.099    0.476   15.853
  104.921   62.879    0.475   21.579
  105.741   68.191    0.459   31.123
  106.562   71.294    0.455   33.691
  107.382   73.520    0.458   33.103
  108.202   74.414    0.461   32.147
  109.022   73.116    0.468   32.292
  109.843   73.133    0.472   35.228
  110.663   76.232    0.476   33.318
  111.483   78.457    0.475   27.222
  112.303   77.147    0.459   24.724
  113.123   73.636    0.449   20.758
  113.944   77.184    0.444   14.368
  114.764   78.082    0.438   13.118
  115.584   75.012    0.438   13.557
  116.404   71.942    0.447   16.567
  117.224   67.990    0.450   17.226
  118.045   64.479    0.447   16.637
  118.865   60.968    0.454   15.901
  119.685   58.339    0.458   15.239
  120.505   55.273    0.465   14.577
  121.325   56.612    0.457   13.988
  122.146   60.597    0.400   13.399
  122.966   68.110    0.379   13.031
  123.786   70.340    0.411   13.102
  124.606   68.588    0.448   13.542
  125.427   61.991    0.461   14.422
  126.247   54.952    0.463   14.053
  127.067   47.472    0.463   13.905
  127.887   40.434    0.469   14.197
  128.707   58.970    0.475   14.857
  129.528   59.869    0.481   14.488
  130.348   66.944    0.480   14.046
  131.168   70.047    0.472   13.604
  131.988   72.273    0.472   13.089
  132.808   74.049    0.473   13.602
  133.629   74.952    0.470   14.701
  134.449   76.740    0.464   14.039
  135.269   76.749    0.445   13.451
  136.089   75.446    0.454   14.110
  136.909   74.140    0.465   15.210
  137.730   72.393    0.475   16.824
  138.550   70.209    0.464   17.997
  139.370   71.107    0.461   18.877
  140.190   72.006    0.461   19.830
  141.010   72.018    0.462   20.416
  141.831   72.484    0.452   20.194
  142.651   72.933    0.436   19.900
  143.471   75.163    0.440   19.384
  144.291   77.384    0.457   17.694
  145.112   79.160    0.465   16.958
  145.932   80.058    0.457   18.425
  146.752   73.020    0.437   20.186
  147.572   66.422    0.422   20.258
  148.392   53.651    0.427   19.670
  149.213   45.294    0.437   18.714
  150.033   50.602    0.451   18.125
  150.853   55.032    0.464   17.683
  151.673   58.572    0.467   16.433
  152.493   62.116    0.458   16.138
  153.314   65.664    0.444   15.623
  154.134   68.767    0.448   14.740
  154.954   70.111    0.452   13.637
  155.774   68.364    0.451   13.562
  156.594   66.612    0.448   16.645
  157.415   65.306    0.451   17.965
  158.235   66.217    0.456   22.076
  159.055   67.107    0.463   22.956
  159.875   68.447    0.463   26.258
  160.696   69.786    0.466   28.093
  161.516   71.125    0.465   28.458
  162.336   71.595    0.465   25.520
  163.156   70.726    0.468   22.141
  163.976   70.297    0.476   21.038
  164.797   69.873    0.485   20.156
  165.617   72.094    0.486   19.347
  166.437   75.642    0.474   22.723
  167.257   76.986    0.447   22.575
  168.077   75.675    0.429   20.958
  168.898   69.960    0.412   20.149
  169.718   64.685    0.396   17.724
  170.538   57.205    0.403   18.163
  171.358   46.639    0.415   19.704
  172.178   43.569    0.428   20.731
  172.999   46.231    0.438   19.261
  173.819   53.748    0.448   18.672
  174.639   59.497    0.455   17.201
  175.459   57.749    0.455   16.907
  176.280   56.447    0.450   16.465
  177.100   59.546    0.436   16.169
  177.920   64.418    0.397   16.389
  178.740   64.434    0.383   16.974
  179.560   55.632    0.386   17.634
  180.381   45.947    0.389   18.661
  181.201   39.791    0.376   21.376
  182.021   36.280    0.354   21.521
  182.841   34.973    0.357   21.520
  183.661   35.876    0.371   21.665
  184.482   36.770    0.428   22.105
  185.302   37.673    0.463   22.911
  186.122   36.375    0.476   26.140
  186.942   35.946    0.494   28.122
  187.762   39.927    0.515   32.673
  188.583   53.176    0.528   35.094
  189.403   62.012    0.533   36.121
  190.223   65.997    0.520   37.882
  191.043   64.690    0.493   39.276
  191.864   37.809    0.497   40.229
  192.684   29.893    0.507   40.741
  193.504   33.433    0.516   40.887
  194.324   47.123    0.491   40.885
  195.144   57.281    0.473   40.811
  195.965   54.211    0.457   40.295
  196.785   48.495    0.446   38.532
  197.605   41.457    0.441   34.565
  198.425   41.477    0.438   31.113
  199.245   45.462    0.437   29.055
  200.066   51.211    0.437   28.687
  200.886   50.795    0.435   28.832
  201.706   50.362    0.434   29.198
  202.526   49.938    0.431   29.931
  203.346   49.522    0.429   31.178
  204.167   50.420    0.426   32.351
  204.987   51.760    0.425   33.304
  205.807   52.217    0.423   33.670
  206.627   51.793    0.422   34.109
  207.448   51.809    0.420   34.401
  208.268   52.271    0.420   34.474
  209.088   52.283    0.420   34.472
  209.908   52.745    0.420   34.471
  210.728   52.757    0.429   34.763
  211.549   52.774    0.440   35.202
  212.369   52.799    0.439   35.567
  213.189   53.697    0.420   35.713
  214.009   55.032    0.439   35.785
  214.829   53.285    0.444   35.858
  215.650   52.420    0.435   35.930
  216.470   55.964    0.425   36.002
  217.290   57.307    0.432   36.001
  218.110   57.324    0.438   35.998
  218.930   55.577    0.435   35.924
  219.751   53.830    0.435   35.922
  220.571   50.759    0.438   35.848
  221.391   50.339    0.439   35.846
  222.211   51.687    0.439   35.992
  223.031   52.140    0.436   36.064
  223.852   53.035    0.435   36.356
  224.672   54.378    0.433   36.574
  225.492   54.840    0.430   36.721
  226.312   54.407    0.429   36.940
  227.133   52.668    0.429   37.305
  227.953   53.125    0.427   37.598
  228.773   54.465    0.423   37.890
  229.593   54.481    0.420   37.815
  230.413   52.734    0.417   37.740
  231.234   50.546    0.420   37.812
  232.054   47.917    0.434   38.178
  232.874   46.615    0.428   39.792
  233.694   47.072    0.431   41.112
  234.514   48.411    0.431   41.772
  235.335   49.747    0.432   42.137
  236.155   50.208    0.429   42.356
  236.975   50.225    0.416   42.648
  237.795   51.123    0.406   42.794
  238.615   52.463    0.409   42.866
  239.436   52.038    0.435   42.938
  240.256   50.295    0.455   42.863
  241.076   49.430    0.470   42.788
  241.896   49.887    0.480   42.640
  242.717   53.431    0.488   42.565
  243.537   58.739    0.491   42.417
  244.357   63.606    0.491   42.122
  245.177   67.600    0.488   41.827
  245.997   69.817    0.482   41.458
  246.818   70.719    0.478   41.310
  247.638   71.177    0.469   41.015
  248.458   72.957    0.460   40.720
  249.278   68.123    0.447   39.838
  250.098   63.289    0.433   37.266
  250.919   60.664    0.425   36.163
  251.739   58.476    0.425   34.914
  252.559   57.607    0.425   33.811
  253.379   55.419    0.426   33.222
  254.199   53.230    0.425   33.661
  255.020   51.042    0.423   34.541
  255.840   48.417    0.423   36.082
  256.660   47.111    0.422   36.594
  257.480   46.245    0.425   36.740
  258.301   45.825    0.425   36.665
  259.121   46.724    0.417   36.370
  259.941   48.063    0.407   35.855
  260.761   49.402    0.401   34.238
  261.581   48.978    0.401   33.943
  262.402   48.117    0.401   32.326
  263.222   48.133    0.402   31.957
  264.042   47.713    0.407   30.634
  264.862   47.721    0.415   29.605
  265.682   47.301    0.412   28.502
  266.503   46.436    0.406   27.106
  267.323   45.129    0.412   26.443
  268.143   45.150    0.421   26.001
  268.963   47.371    0.429   25.559
  269.783   49.148    0.437   25.043
  270.604   50.936    0.434   24.822
  271.424   50.520    0.425   24.381
  272.244   50.524    0.413   23.792
  273.064   50.100    0.403   22.983
  273.885   49.679    0.406   22.100
  274.705   49.696    0.417   21.805
  275.525   49.717    0.426   21.583
  276.345   49.733    0.427   21.582
  277.165   49.746    0.427   21.581
