~VERSION INFORMATION
 VERS.                 2.0:   CWLS LOG ASCII STANDARD -VERSION 2.0
 WRAP.                  NO:   ONE LINE PER DEPTH STEP
~WELL INFORMATION BLOCK
#MNEM.UNIT           DATA                    DESCRIPTION OF MNEMONIC
#---------    -------------------            -------------------------------
# Generated from Intellog Unique Number	CN_94_101/WELL/3218
WELL.         01-03-096-07W4                 : Well_name    - WELL
LOC .         AA/01-03-096-07W4/0            : Location     - LOCATION
UWI .         AA/01-03-096-07W400            : Uwi          - UNIQUE WELL ID
ENTR.         JOETTE                         : Entered      - ENTERED BY
SRVC.         SCHLUMBERGER                   : Scn          - SERVICE COMPANY
DATE.         07/20/92                       : Date         - LOG DATE
STRT.M        25                             : top_depth    - START DEPTH
STOP.M        180                            : bot_depth    - STOP DEPTH
STEP.M        0.25                           : increment    - STEP LENGTH
 NULL. -999.2500:NULL Value
~CURVE INFORMATION BLOCK
#MNEM UNIT       ERCB CURVE CODE    CURVE DESCRIPTION
#-----------   ------------------   ----------------------------------
DEPT.M        00 001 00 00         : DEPTH        - DEPTH
ILD .OHMM     00 120 00 00         : RESD         - DEEP RESISTIVITY (DIL)
GR  .API      00 310 00 00         : GR           - GAMMA RAY
NPHI.V/V      00 330 00 00         : PHIN         - NEUTRON POROSITY (SANDSTONE)
DPHI.V/V      00 890 00 00         : PHID         - DENSITY POROSITY (SANDSTONE)
~PARAMETER INFORMATION
#MNEM.UNIT           DATA             DESCRIPTION OF MNEMONIC
#---------         -----------     ------------------------------
GL  .M        438.36               : gl           - GROUND LEVEL ELEVATION
EREF.M        439.66               : kb           - ELEVATION OF DEPTH REFERENCE
DATM.M        439.66               : datum        - DATUM ELEVATION
TDD .M        181                  : tdd          - TOTAL DEPTH DRILLER
RUN .         ONE                  : Run          - RUN NUMBER
ENG .         JO                   : Engineer     - RECORDING ENGINEER
WIT .         TIM                  : Witness      - WITNESSED BY
MUD .         GEL                  : Mud_type     - MUD TYPE
MATR.         SANDSTONE            : Logunit      - NEUTRON MATRIX
TMAX.C        16                   : BHT          - MAXIMUM RECORDED TEMPERATURE
BHTD.M        181                  : BHTDEP       - MAXIMUM RECORDED TEMPERATURE
RMT .C        27.8                 : MDTP         - TEMPERATURE OF MUD
MUDD.KG/M     1110                 : MWT          - MUD DENSITY
NEUT.         1                    : NEUTRON      - NEUTRON TYPE
RESI.         0                    : RESIST       - RESISTIVITY TYPE
RM  .OHMM     16.5                 : RM           - RESISTIVITY OF MUD
RMC .OHMM     16.5                 : RMC          - RESISTIVITY OF MUD CAKE
RMF .OHMM     16.5                 : RMF          - RESISTIVITY OF MUD FILTRATE
SUFT.C        4                    : SUFT         - SURFACE TEMPERATURE
~A  DEPTH     RESD       GR     PHIN     PHID
# ...
   68.500   18.642   64.823    0.366    0.177
   68.750   18.626   62.383    0.349    0.205
   69.000   20.099   58.127    0.351    0.247
   69.250   23.413   55.687    0.345    0.258
   69.500   28.337   56.856    0.341    0.269
   69.750   27.780   60.451    0.338    0.241
   70.000   23.816   63.429    0.329    0.215
   70.250   19.644   63.400    0.313    0.223
   70.500   20.397   61.570    0.294    0.195
   70.750   20.785   62.136    0.281    0.153
   71.000   21.999   63.320    0.281    0.160
   71.250   22.409   64.497    0.286    0.148
   71.500   22.827   65.063    0.294    0.159
   71.750   22.811   65.034    0.292    0.171
   72.000   22.792   65.608    0.288    0.184
   72.250   22.776   67.998    0.286    0.181
   72.500   22.757   69.167    0.286    0.172
   72.750   22.749   67.933    0.291    0.201
   73.000   22.725   66.698    0.296    0.200
   73.250   22.283   67.874    0.296    0.146
   73.500   22.264   69.058    0.295    0.146
   73.750   21.823   69.022    0.299    0.155
   74.000   21.397   68.390    0.309    0.176
   74.250   20.579   65.950    0.315    0.180
   74.500   20.175   62.907    0.315    0.180
   74.750   19.403   61.070    0.316    0.175
   75.000   18.307   59.835    0.317    0.179
   75.250   17.606   61.012    0.322    0.174
   75.500   16.933   62.777    0.326    0.170
   75.750   17.249   61.542    0.325    0.174
   76.000   19.337   59.117    0.321    0.189
   76.250   19.327   55.471    0.326    0.203
   76.500   17.549   51.818    0.325    0.200
   76.750   23.828   51.782    0.296    0.205
   77.000   27.229   51.767    0.270    0.175
   77.250   29.940   49.327    0.265    0.183
   77.500   31.093   46.887    0.272    0.201
   77.750   30.483   46.255    0.286    0.205
   78.000   28.760   48.637    0.289    0.215
   78.250   27.135   52.828    0.278    0.229
   78.500   24.631   57.019    0.283    0.219
   78.750   24.156   62.407    0.298    0.219
   79.000   21.511   65.995    0.327    0.224
   79.250   20.691   70.193    0.372    0.248
   79.500   18.079   76.795    0.420    0.274
   79.750   16.419   84.602    0.422    0.243
   80.000   13.809   88.792    0.462    0.237
   80.250   11.839   92.366    0.475    0.248
   80.500    9.767   92.954    0.486    0.271
   80.750    9.216   92.322    0.491    0.276
   81.000   10.943   89.882    0.495    0.284
   81.250   12.505   90.456    0.502    0.279
   81.500   11.351   94.044    0.494    0.274
   81.750   10.711   95.220    0.479    0.268
   82.000    9.915   93.383    0.481    0.265
   82.250   10.494   87.311    0.486    0.274
   82.500   11.992   87.893    0.473    0.275
   82.750   11.983   87.864    0.459    0.275
   83.000   12.207   85.423    0.468    0.279
   83.250   11.299   82.380    0.508    0.285
   83.500    9.685   85.961    0.550    0.311
   83.750    6.857   84.131    0.586    0.356
   84.000    6.106   79.882    0.594    0.365
   84.250    4.758   77.442    0.594    0.372
   84.500    4.320   76.811    0.592    0.361
   84.750    3.117   78.590    0.578    0.354
   85.000    2.884   80.958    0.544    0.347
   85.250    3.054   82.149    0.540    0.337
   85.500    3.423   83.325    0.539    0.307
   85.750    3.693   83.296    0.538    0.309
   86.000    4.140   83.253    0.524    0.309
   86.250    4.467   83.238    0.501    0.303
   86.500    5.008   84.400    0.488    0.296
   86.750    5.833   84.974    0.492    0.290
   87.000    7.196   85.541    0.498    0.293
   87.250    7.054   85.526    0.510    0.298
   87.500    6.529   84.292    0.517    0.285
   87.750    5.817   79.441    0.534    0.274
   88.000    5.182   76.390    0.505    0.279
   88.250    8.685   76.957    0.482    0.277
   88.500    9.551   78.751    0.476    0.270
   88.750    9.013   81.736    0.489    0.268
   89.000    5.797   82.905    0.501    0.270
   89.250    5.164   82.273    0.512    0.279
   89.500    4.967   84.053    0.505    0.277
   89.750    4.776   84.024    0.494    0.250
   90.000    4.593   84.590    0.495    0.250
   90.250    5.888   87.582    0.503    0.271
   90.500    5.884   90.575    0.512    0.290
   90.750    5.659   94.162    0.521    0.288
   91.000    5.548   96.545    0.527    0.283
   91.250    5.336   99.529    0.545    0.287
   91.500    5.032   98.288    0.542    0.292
   91.750    4.934   97.663    0.554    0.292
   92.000    4.746   95.804    0.582    0.286
   92.250    4.393   94.577    0.585    0.276
   92.500    4.225   93.952    0.573    0.272
   92.750    3.987   92.108    0.575    0.277
   93.000    3.908   90.880    0.580    0.280
   93.250    3.980   88.440    0.587    0.278
   93.500    4.055   84.184    0.535    0.274
   93.750    4.292   82.354    0.505    0.264
   94.000    6.663   86.545    0.503    0.254
   94.250    6.920   85.310    0.507    0.239
   94.500    7.184   84.076    0.522    0.245
   94.750    7.043   87.061    0.527    0.250
   95.000    7.038   86.429    0.492    0.219
   95.250    7.595   80.975    0.444    0.215
   95.500   12.252   73.103    0.391    0.206
   95.750   17.960   67.648    0.332    0.235
   96.000   20.921   62.797    0.383    0.257
   96.250   23.008   58.549    0.382    0.278
   96.500   24.352   58.512    0.380    0.293
   96.750   23.874   60.292    0.388    0.296
   97.000   22.961   61.468    0.397    0.286
   97.250   21.252   62.645    0.409    0.267
   97.500   20.052   65.034    0.404    0.258
   97.750   21.630   70.430    0.403    0.257
   98.000   22.894   71.607    0.405    0.269
   98.250   25.665   69.763    0.396    0.265
   98.500   29.328   69.138    0.369    0.254
   98.750   33.520   70.917    0.363    0.283
   99.000   52.044   69.073    0.373    0.295
   99.250   66.705   66.030    0.370    0.299
   99.500   66.659   63.590    0.364    0.299
   99.750   66.614   63.554    0.358    0.298
  100.000   62.839   65.333    0.358    0.289
  100.250   59.299   66.517    0.363    0.277
  100.500   57.041   69.495    0.372    0.279
  100.750   50.803   71.281    0.376    0.291
  101.000   47.023   73.061    0.380    0.288
  101.250   43.517   72.429    0.390    0.290
  101.500   40.286   71.797    0.400    0.295
  101.750   39.488   73.569    0.397    0.285
  102.000   37.977   76.561    0.394    0.272
  102.250   37.231   77.135    0.394    0.275
  102.500   37.932   73.489    0.401    0.267
  102.750   37.174   69.241    0.403    0.254
  103.000   37.155   72.821    0.400    0.260
  103.250   37.136   74.601    0.389    0.265
  103.500   37.110   73.366    0.379    0.263
  103.750   39.272   72.139    0.387    0.260
  104.000   38.507   74.521    0.393    0.248
  104.250   39.225   76.896    0.397    0.240
  104.500   39.198   76.264    0.397    0.250
  104.750   38.428   76.838    0.391    0.262
  105.000   37.673   78.625    0.386    0.264
  105.250   37.647   82.205    0.379    0.258
  105.500   37.615   82.176    0.377    0.253
  105.750   38.316   80.934    0.379    0.256
  106.000   39.024   79.097    0.381    0.261
  106.250   39.751   76.657    0.389    0.262
  106.500   42.074   74.827    0.393    0.255
  106.750   44.525   76.606    0.388    0.251
  107.000   46.248   77.180    0.389    0.261
  107.250   52.831   75.343    0.394    0.271
  107.500   55.937   75.916    0.389    0.264
  107.750   62.697   77.696    0.375    0.263
  108.000   67.644   75.256    0.377    0.260
  108.250   70.250   72.816    0.384    0.255
  108.500   75.780   68.553    0.392    0.264
  108.750   78.699   67.333    0.397    0.277
  109.000   80.167   63.672    0.395    0.279
  109.250   81.661   60.637    0.387    0.277
  109.500   84.793   55.175    0.384    0.273
  109.750   89.717   50.934    0.384    0.266
  110.000   91.421   47.288    0.384    0.263
  110.250   98.634   44.841    0.383    0.265
  110.500  114.872   47.230    0.385    0.275
  110.750  131.291   45.996    0.389    0.282
  111.000  158.905   42.946    0.400    0.290
  111.250  199.839   43.520    0.405    0.294
  111.500  207.503   46.505    0.395    0.300
  111.750  192.064   48.291    0.390    0.300
