~VERSION INFORMATION
 VERS.                 2.0:   CWLS LOG ASCII STANDARD -VERSION 2.0
 WRAP.                  NO:   ONE LINE PER DEPTH STEP
~WELL INFORMATION BLOCK
#MNEM.UNIT           DATA                    DESCRIPTION OF MNEMONIC
#---------    -------------------            -------------------------------
# Generated from Intellog Unique Number	utf_inj/WELL/927
WELL.         AO-77                          : Well_name    - WELL              
LOC .         AA/07-29-093-13W4/0            : Location     - LOCATION          
UWI .         AA/07-29-093-13W400            : Uwi          - UNIQUE WELL ID    
ENTR.         JHS                            : Entered      - ENTERED BY        
SRVC.         Century                        : Scn          - SERVICE COMPANY   
STRT.M        20                             : top_depth    - START DEPTH       
STOP.M        103                            : bot_depth    - STOP DEPTH        
STEP.M        0.25                           : increment    - STEP LENGTH       
NULL.         -999.250                       : null         - NULL VALUE       
~CURVE INFORMATION BLOCK
#MNEM UNIT       ERCB CURVE CODE    CURVE DESCRIPTION
#-----------   ------------------   ----------------------------------
DEPT.M        00 001 00 00         : DEPTH        - DEPTH                       
GR  .API      00 310 00 00         : GR           - GAMMA RAY                   
DPHI.V/V      00 890 00 00         : PHID         - DENSITY POROSITY (SANDSTONE)
NPHI.V/V      00 330 00 00         : PHIN         - NEUTRON POROSITY (SANDSTONE)
ILD .OHMM     00 120 00 00         : RESD         - DEEP RESISTIVITY (DIL)      
SP  .MV       00 010 00 00         : SP           - SPONTANEOUS POTENTIAL       
CALI.MM       00 280 01 00         : CAL          - CALIPER                     
~PARAMETER INFORMATION       
#MNEM.UNIT           DATA             DESCRIPTION OF MNEMONIC
#---------         -----------     ------------------------------
GL  .M        372.69               : gl           - GROUND LEVEL ELEVATION      
EREF.M        372.69               : kb           - ELEVATION OF DEPTH REFERENCE
DATM.M        372.69               : datum        - DATUM ELEVATION             
TDD .M        107                  : tdd          - TOTAL DEPTH DRILLER         
RUN .         ONE                  : Run          - RUN NUMBER                  
ENG .         BILL                 : Engineer     - RECORDING ENGINEER          
WIT .         JIM                  : Witness      - WITNESSED BY                
MUD .         GEL                  : Mud_type     - MUD TYPE                    
MATR.         SANDSTONE            : Logunit      - NEUTRON MATRIX              
TMAX.C        6.5                  : BHT          - MAXIMUM RECORDED TEMPERATURE
BHTD.M        151.49               : BHTDEP       - MAXIMUM RECORDED TEMPERATURE
MATR.         1                    : LOGUNIT      - NEUTRON MATRIX              
RMT .C        25                   : MDTP         - TEMPERATURE OF MUD          
NEUT.         1                    : NEUTRON      - NEUTRON TYPE                
RESI.         0                    : RESIST       - RESISTIVITY TYPE            
RMC .OHMM     0.25                 : RMC          - RESISTIVITY OF MUD CAKE     
RMF .OHMM     0.25                 : RMF          - RESISTIVITY OF MUD FILTRATE 
SUFT.C        15                   : SUFT         - SURFACE TEMPERATURE         
~A  DEPTH       GR     PHID     PHIN     RESD       SP      CAL
# ...
   82.500   85.593    0.250    0.564   41.198  300.757  160.933
   82.750   84.154    0.252    0.549   40.484  300.819  160.933
   83.000   65.394    0.246    0.538   41.240  300.859  160.994
   83.250   80.398    0.234    0.575   42.782  300.897  161.019
   83.500   81.308    0.229    0.557   41.288  299.743  161.051
   83.750   92.496    0.233    0.629   40.205  296.195  161.084
   84.000   78.727    0.247    0.625   38.450  289.042  161.406
   84.250   44.991    0.252    0.501   42.488  281.893  159.670
   84.500   32.690    0.260    0.441   54.741  290.339  157.063
   84.750   50.043    0.281    0.393   68.646  287.987  158.263
   85.000   40.971    0.265    0.383   75.173  285.642  159.172
   85.250   31.899    0.260    0.407   77.989  292.901  158.324
   85.500   56.004    0.252    0.372   81.628  296.546  156.591
   85.750   62.792    0.157    0.340   93.524  295.391  155.743
   86.000   79.260    0.126    0.306   79.533  290.640  155.775
   86.250   87.509    0.137    0.335  126.134  288.283  156.387
   86.500   84.606    0.219    0.423   46.729  287.148  157.884
   86.750   89.918    0.226    0.444   51.646  288.379  156.448
   87.000   85.250    0.240    0.468   56.041  289.633  156.183
   87.250   97.025    0.245    0.502   62.488  284.885  155.922
   87.500   62.703    0.243    0.537   67.208  287.334  155.954
   87.750   56.566    0.240    0.479   67.243  286.179  155.979
   88.000   85.372    0.256    0.418   74.983  280.224  156.008
   88.250   71.012    0.245    0.405   68.544  288.672  155.754
   88.500   88.956    0.266    0.434   82.900  288.720  155.482
   88.750   73.715    0.266    0.404   89.972  279.177  154.927
   89.000   63.179    0.253    0.396   77.907  284.023  154.927
   89.250   59.681    0.267    0.410  109.868  286.474  154.705
   89.500   84.674    0.282    0.381  296.870  290.118  154.140
   89.750   97.037    0.277    0.370  160.724  291.369  153.875
   90.000   98.529    0.261    0.405   62.859  286.617  154.784
   90.250   63.033    0.195    0.449   61.214  285.470  154.226
   90.500   86.257    0.171    0.479   61.254  280.722  153.964
   90.750   71.901    0.185    0.518   62.394  290.365  154.287
   91.000   97.180    0.262    0.490   68.955  292.814  153.141
   91.250   90.163    0.259    0.458   67.147  291.670  153.760
   91.500   72.284    0.249    0.437   63.634  291.724  154.380
   91.750   91.985    0.238    0.415   58.172  290.572  153.818
   92.000   97.596    0.236    0.411   63.135  290.617  152.672
   92.250   97.041    0.235    0.431   60.379  290.664  152.411
   92.500   89.139    0.231    0.442   54.209  290.707  152.146
   92.750   91.520    0.233    0.450   56.228  291.966  151.881
   93.000  101.530    0.201    0.435   62.137  292.009  153.972
   93.250   94.513    0.186    0.418   62.169  293.266  154.291
   93.500   76.634    0.183    0.419   53.832  293.314  154.327
   93.750   84.593    0.201    0.442   49.215  293.355  155.232
   94.000   98.129    0.228    0.493   49.240  294.598  157.613
   94.250  103.149    0.220    0.491   48.384  293.448  158.816
   94.500  100.242    0.220    0.491   46.275  293.493  157.964
   94.750   89.996    0.213    0.517   46.295  292.351  157.993
   95.000   85.041    0.192    0.509   49.790  292.401  156.854
   95.250  100.926    0.200    0.486   51.190  292.456  157.470
   95.500  103.299    0.221    0.459   48.512  292.489  159.260
   95.750   80.426    0.215    0.488   47.243  291.339  159.293
   96.000   94.843    0.221    0.489   47.699  290.185  158.144
   96.250   96.050    0.211    0.470   49.925  291.434  157.292
   96.500   94.611    0.215    0.509   47.316  292.685  158.795
   96.750   91.117    0.224    0.547   46.499  290.338  159.995
   97.000   84.690    0.221    0.496   47.797  291.591  158.265
   97.250  117.899    0.205    0.468   49.584  292.830  157.711
   97.500   92.091    0.187    0.473   48.284  292.890  159.204
   97.750  108.269    0.203    0.566   46.595  292.944  159.819
   98.000  108.885    0.202    0.553   45.787  292.985  159.268
   98.250  108.033    0.174    0.540   44.993  291.828  159.587
   98.500   92.502    0.155    0.523   44.208  291.881  160.210
   98.750   99.870    0.169    0.511   44.234  291.926  159.941
   99.000   89.624    0.211    0.494   45.885  293.182  159.974
   99.250  112.558    0.224    0.470   52.099  294.441  160.887
   99.500  122.568    0.221    0.492   47.627  294.483  162.383
   99.750  102.634    0.209    0.471   45.136  294.532  162.115
  100.000  113.235    0.198    0.503   44.356  295.769  160.389
  100.250  113.264    0.180    0.537   44.779  295.820  160.418
  100.500   96.266    0.195    0.508   44.816  295.870  160.447
  100.750   88.662    0.203    0.471   45.645  295.924  160.182
  101.000  106.308    0.185    0.468   44.451  294.773  160.214
  101.250   92.539    0.190    0.574   41.376  292.411  161.123
  101.500  107.837    0.193    0.607   37.823  288.872  162.627
  101.750   93.477    0.203    0.603   36.497  285.320  162.946
  102.000   49.760    0.193    0.489   43.352  278.169  162.090
  102.250   14.264    0.013    0.225   89.338  274.611  159.777
  102.500   11.063    0.000    0.143  286.603  273.472  158.041
  102.750   19.315    0.000    0.069  389.815  272.317  157.193
  103.000    8.188    0.000    0.000  676.652    0.000  156.634
