~Version : LASO    vs 4.00 - DATA COPYRIGHT - RILEYS DATASHARE INTERNATIONAL
 VERS.                2.0 :   CWLS Log ASCII Standard -VERSION 2.0
 WRAP.                 NO :   One line per depth step
~Well Information Block
#MNEM.UNIT       Data                        Description of Mnemonic
#----.----      -------------------------- : -----------------------------
 STRT.M             0.0000                 : Start Depth
 STOP.M           204.7500                 : End Depth
 STEP.M             0.1250                 : Depth Increment
 NULL.           -999.25                   : NULL Value
 COMP.                                     : COMPANY
 WELL.    MOBIL CLARKE OV 7-25             : WELL NAME
 FLD .    WILDCAT                          : FIELD NAME
 LOC .    07-25-090-08W4                   : WELL LOCATION
 PROV.    ALBERTA                          : PROVINCE
 SRVC.    DRESSER ATLAS                    : LOGGING SERVICE COMPANY
 DATE.    19-FEB-81                        : DATE LOGGED
 UWI .    AA/07-25-090-08W400              : UNIQUE WELL ID
~Curve Information Block
#MNEM.UNIT        API CODE                   Curve Description
#----.----      LG--CV-CL--M               : -----------------
 DEPT.M          0   1  0  0               : 1 DEPTH
 DT  .US/M      60 520 42  1               : 2 SONIC INTERVAL TRANSIT TIME (COMPENSATED)
 CALI.MM        42 280  1  1               : 3 DENSITY CALIPER
 GR  .GAPI      42 310  1  1               : 4 GAMMA RAY
 NPHI.V/V       42 890  3  1               : 5 NEUTRON POROSITY (SANDSTONE)
 RHOB.K/M3      42 350  1  1               : 6 BULK DENSITY
 IL  .OHMM       5 120 45  1               : 7 INDUCTION
 SFL .OHMM       5 220  6  1               : 8 FOCUSSED RESISTIVITY
 SP  .MV         5  10  1  1               : 9 SPONTANEOUS POTENTIAL
~Parameter Information Block
#MNEM.UNIT       Data                        Description of Mnemonic
#----.----      -------------------------- : -----------------------------
 RUN .                   1                 : Run Number
 GL  .M           449.0000                 : Ground Level Elevation
 DREF.                  KB                 : Depth Reference
 EREF.M           449.0000                 : Elevation of Depth Reference
 TDL .M           202.0000                 : Total Depth Logger
 TDD .M           205.0000                 : Total Depth Driller
 BHT .DEGC         20.0000                 : Bottom Hole Temperature
 BS  .MM          159.0000                 : Bit Size
 DFD .           9999.0000                 : Mud Weight (Density)
 DFV .            150.0000                 : Mud Viscosity
 RM  .OHMM          4.1000                 : Mud Resistivity
 RMT .DEGC         20.0000                 : Mud Resistivity Temperature
 RMF .OHMM          3.9000                 : Mud Filtrate Resistivity
 RMFT.DEGC          8.0000                 : RMF Temperature
 RMC .OHMM          7.8000                 : Mud Cake Resistivity
 RMCT.DEGC          8.0000                 : RMC Temperature
~Asc DEPTH      DT         CALI       GR         NPHI       RHOB       IL         SFL        SP   
# ...
   50.6250   629.1600   202.6750    41.4150     0.4612  1644.8000    19.3950    23.1000  -144.0000
   50.7500   642.4800   230.5750    40.1250     0.4586  1668.7000    20.1950    24.3850  -143.8050
   50.8750   653.2000   274.6750    39.3900     0.4348  1676.1001    21.4800    22.6100  -143.8050
   51.0000   603.3600   327.0750    39.9450     0.4226  1677.9000    23.2600    20.7100  -143.8050
   51.1250   499.7600   331.0500    40.6800     0.4112  1683.4000    24.3050    20.2800  -143.8050
   51.2500   357.2800   293.0750    41.7900     0.3947  1690.8000    24.7350    20.7100  -144.0000
   51.3750   290.9200   223.8250    43.0800     0.3804  1698.7000    24.9800    21.5650  -143.8050
   51.5000   278.1600   223.8250    43.9950     0.3672  1717.7000    25.2250    23.2800  -143.4450
   51.6250   218.2000   256.0000    44.7300     0.3539  1748.4000    25.5900    26.2850  -142.8900
   51.7500   190.2000   312.6750    46.5750     0.3433  1809.6001    25.9000    28.5500  -142.3350
   51.8750   248.6800   337.5000    48.9750     0.3132  1888.7000    26.0200    29.5300  -141.7800
   52.0000   344.7200   316.9500    52.2900     0.3011  2022.9000    26.1450    29.5300  -141.0300
   52.1250   410.3200   269.7750    53.5800     0.2905  2154.0000    25.9600    29.1050  -140.2950
   52.2500   441.5600   210.9500    53.9550     0.2846  2198.7000    25.6550    28.1250  -139.5450
   52.3750   477.9200   199.9250    53.0250     0.2754  2207.3000    25.2250    27.3250  -139.5450
   52.5000   502.9200   190.1250    52.8450     0.2754  2236.7000    24.9150    26.0400  -138.9900
   52.6250   323.8400   168.9750    52.4700     0.2813  2272.2000    24.6100    24.8150  -138.9900
   52.7500   385.0400   171.1250    53.2050     0.2860  2291.8999    24.2400    24.2600  -139.3650
   52.8750   485.0400   182.4750    55.0500     0.2952  2284.5000    23.8150    24.3250  -140.1000
   53.0000   530.4800   188.2750    56.1600     0.2992  2261.2000    23.6900    24.5050  -141.2250
   53.1250   559.4800   188.2750    56.5350     0.3040  2234.3000    23.6300    24.8750  -142.8900
   53.2500   559.0000   188.6000    56.7150     0.3088  2208.5000    23.6300    25.7950  -145.4850
   53.3750   557.2800   188.6000    56.7150     0.3151  2165.0000    23.7500    26.4700  -148.4400
   53.5000   553.0800   188.6000    55.2450     0.3146  2095.8000    23.9350    26.2850  -149.9250
   53.6250   531.9600   188.6000    52.2900     0.3095  2040.0000    23.9350    25.9800  -150.8400
   53.7500   507.6400   188.9000    48.0600     0.3092  1976.3000    24.1200    26.1000  -151.3950
   53.8750   500.9600   189.5000    45.2850     0.3110  1918.7000    24.1200    26.6500  -151.3950
   54.0000   511.5600   191.3500    43.9950     0.3117  1886.8000    24.2400    27.2650  -151.3950
   54.1250   521.6400   196.5500    44.1900     0.3088  1893.0000    24.2400    28.0600  -151.2000
   54.2500   519.4400   202.3750    44.7300     0.3059  1921.1001    24.2400    27.7550  -150.8400
   54.3750   523.1200   200.8500    45.2850     0.3088  1968.9000    24.2400    26.7750  -151.0200
   54.5000   530.2400   191.3500    46.2150     0.3128  2071.8999    24.3650    26.1600  -151.0200
   54.6250   508.1200   182.7750    46.3950     0.3158  2160.1001    24.3650    26.2250  -151.0200
   54.7500   490.6800   182.1500    45.8400     0.3161  2177.3000    24.4250    26.4050  -150.4650
   54.8750   482.3200   179.1000    44.1900     0.3202  2157.1001    24.4850    26.2850  -149.5500
   55.0000   472.0000   179.1000    42.9000     0.3202  2136.8000    24.4850    25.9150  -148.6350
   55.1250   498.2800   179.7000    42.5250     0.3187  2119.7000    24.4850    26.1600  -148.2600
   55.2500   515.2400   180.6250    43.2600     0.3169  2122.7000    24.5500    26.7750  -147.8850
   55.3750   543.0000   184.6000    45.1050     0.3154  2135.6001    24.4850    26.5900  -147.7050
   55.5000   552.3600   193.1750    46.3950     0.3099  2156.3999    24.4850    26.0400  -147.5100
   55.6250   511.0800   194.4000    46.9500     0.3070  2196.3000    24.4850    26.1000  -147.5100
   55.7500   514.5200   194.4000    46.5750     0.3040  2254.5000    24.4850    26.1000  -148.0650
   55.8750   522.1200   194.7250    46.2150     0.3117  2255.7000    24.4850    26.4050  -148.9950
   56.0000   521.4000   195.3250    45.2850     0.3128  2240.3999    24.5500    26.4700  -150.6450
   56.1250   451.6000   198.4000    44.7300     0.3154  2218.3000    24.4850    26.7750  -152.3400
   56.2500   294.8400   199.3250    44.1900     0.3176  2174.2000    24.4850    26.7150  -153.4500
   56.3750   186.5200   199.9250    43.4400     0.3305  2138.7000    24.4250    26.7750  -154.1850
   56.5000   198.2800   202.0750    40.8600     0.3341  2100.1001    24.2400    26.9600  -154.7400
   56.6250   321.8800   208.8000    39.0300     0.3326  2085.3999    24.1800    26.2250  -155.1150
   56.7500   513.0400   221.0750    37.5450     0.3323  2084.1001    23.9950    25.7350  -155.2950
   56.8750   589.4400   226.8750    37.5450     0.3279  2082.3000    23.9350    25.9800  -155.6700
   57.0000   601.0000   222.3000    36.2550     0.3334  2068.2000    23.9950    26.7150  -156.0450
   57.1250   596.8400   215.8500    35.3400     0.3444  2048.6001    23.9350    26.1600  -156.2250
   57.2500   583.0800   203.6000    35.8950     0.3496  2043.1000    23.9950    25.4900  -156.7800
   57.3750   584.0400   198.4000    36.6300     0.3536  2049.2000    23.9950    24.5050  -157.1550
   57.5000   587.0000   200.5500    37.3650     0.3473  2049.2000    24.0600    23.8950  -157.5150
   57.6250   587.0000   201.1500    38.2800     0.3411  2052.8999    24.1800    24.3250  -157.8900
   57.7500   585.0400   202.0750    39.2100     0.3415  2058.3999    24.2400    25.7950  -158.0700
   57.8750   579.3600   202.6750    39.3900     0.3411  2060.8999    24.2400    26.5900  -158.2650
   58.0000   559.4800   202.6750    38.2800     0.3330  2064.5000    24.4250    26.7150  -158.4450
   58.1250   427.8000   203.0000    38.2800     0.3158  2067.0000    24.6700    27.0800  -158.6250
   58.2500   442.2800   204.2250    38.8350     0.3125  2059.6001    24.7950    27.8150  -158.2650
   58.3750   493.1600   209.7250    38.6550     0.3113  2054.1001    24.7950    28.0000  -157.3350
   58.5000   516.0000   211.5750    39.0300     0.3095  2059.0000    24.9800    27.3250  -155.6700
   58.6250   470.8000   215.5500    40.6800     0.3092  2070.7000    25.0400    26.2850  -153.4500
   58.7500   465.8800   219.8500    42.7050     0.3077  2089.7000    24.9800    26.2850  -151.0200
   58.8750   461.2000   216.1750    44.7300     0.3033  2140.5000    24.8550    26.7150  -149.1900
   59.0000   464.6400   204.8250    46.5750     0.3022  2200.6001    24.7350    27.1400  -148.6350
   59.1250   487.2400   206.0500    48.0600     0.2959  2244.7000    24.6700    26.4700  -148.4400
   59.2500   501.4400   205.7500    50.6250     0.2941  2230.6001    24.6100    25.6100  -148.9950
   59.3750   515.2400   195.0250    51.5550     0.3011  2193.2000    24.4850    24.3850  -149.7450
   59.5000   515.2400   185.8250    50.6250     0.3040  2146.0000    24.2400    23.9550  -150.8400
   59.6250   481.6000   186.4500    48.0600     0.3088  2087.8000    23.8150    25.0000  -151.3950
   59.7500   432.4400   187.9750    45.4800     0.3161  2016.7000    23.3200    27.0800  -151.5900
   59.8750   430.7200   191.9500    44.3700     0.3217  1969.6001    22.8900    28.2450  -150.8400
   60.0000   500.9600   193.8000    43.0800     0.3184  1985.5000    22.4650    26.9600  -149.5500
   60.1250   572.5200   193.5000    42.3450     0.3113  2038.8000    22.2200    25.3650  -148.2600
   60.2500   581.6000   195.6250    42.3450     0.3088  2101.8999    22.0350    23.5900  -148.6350
   60.3750   581.8400   197.7750    43.6350     0.3110  2111.1001    21.9100    22.7900  -149.1900
   60.5000   580.6000   195.9500    45.1050     0.3099  2092.7000    21.7900    22.3650  -150.2850
   60.6250   564.6400   196.2500    44.3700     0.3088  2070.0000    21.7900    23.1000  -151.3950
