~VERSION INFORMATION
 VERS.                 2.0:   CWLS LOG ASCII STANDARD -VERSION 2.0
 WRAP.                  NO:   ONE LINE PER DEPTH STEP
~WELL INFORMATION BLOCK
#MNEM.UNIT           DATA                    DESCRIPTION OF MNEMONIC
#---------    -------------------            -------------------------------
# Generated from Intellog Unique Number	CC_84_87/WELL/1048
NULL.         -999.25                        : NULL_VALUE
WELL.         ARCO ACI MCMURRAY              : Well_name    - WELL
LOC .         02-35-084-09W4                 : Location     - LOCATION          
UWI .         AA/02-35-084-09W400            : Uwi          - UNIQUE WELL ID    
ENTR.         JHS                            : Entered      - ENTERED BY        
SRVC.         DRESSER ATLAS                  : Scn          - SERVICE COMPANY   
DATE.         12 JAN 76                      : Date         - LOG DATE
STRT.M        243.84                         : top_depth    - START DEPTH       
STOP.M        493.783                        : bot_depth    - STOP DEPTH        
STEP.M        0.305                          : increment    - STEP LENGTH       
~CURVE INFORMATION BLOCK
#MNEM UNIT       ERCB CURVE CODE    CURVE DESCRIPTION
#-----------   ------------------   ----------------------------------
DEPT.M        00 001 00 00         : DEPTH        - DEPTH                       
DPHI.V/V      00 890 00 00         : PHID         - DENSITY POROSITY (LIMESTONE)
GR  .API      00 310 00 00         : GR           - GAMMA RAY                   
ILD .OHMM     00 120 00 00         : RESD         - DEEP RESISTIVITY (DIL)      
~PARAMETER INFORMATION       
#MNEM.UNIT           DATA             DESCRIPTION OF MNEMONIC
#---------         -----------     ------------------------------
GL  .M        726.034              : gl           - GROUND LEVEL ELEVATION      
EREF.M        729.082              : kb           - ELEVATION OF DEPTH REFERENCE
DATM.M        729.082              : datum        - DATUM ELEVATION             
TDD .M        496.214              : tdd          - TOTAL DEPTH DRILLER         
RUN .         ONE                  : Run          - RUN NUMBER                  
ENG .         BILL                 : Engineer     - RECORDING ENGINEER          
WIT .         JIM                  : Witness      - WITNESSED BY                
MUD .         GEL                  : Mud_type     - MUD TYPE                    
MATR.         LIMESTONE            : Logunit      - NEUTRON MATRIX              
TMAX.C        60                   : BHT          - MAXIMUM RECORDED TEMPERATURE
BHTD.M        496.214              : BHTDEP       - MAXIMUM RECORDED TEMPERATURE
MATR.         1                    : LOGUNIT      - NEUTRON MATRIX              
RMT .C        25                   : MDTP         - TEMPERATURE OF MUD          
NEUT.         1                    : NEUTRON      - NEUTRON TYPE                
RESI.         0                    : RESIST       - RESISTIVITY TYPE            
RMC .OHMM     0.25                 : RMC          - RESISTIVITY OF MUD CAKE     
RMF .OHMM     0.25                 : RMF          - RESISTIVITY OF MUD FILTRATE 
SUFT.C        15                   : SUFT         - SURFACE TEMPERATURE         
~A  DEPTH     PHID       GR     RESD
# ...
  309.983    0.406  103.168    5.078
  310.288    0.406  109.189    4.895
  310.593    0.406  109.211    4.633
  310.897    0.407  104.435    4.635
  311.202    0.399  103.257    4.637
  311.507    0.390   99.680    4.812
  311.812    0.389   96.103    5.088
  312.117    0.389   95.521    5.480
  312.422    0.389   94.946    6.238
  312.726    0.388   93.765    6.844
  313.031    0.387   91.991    7.104
  313.336    0.378   93.811    6.976
  313.641    0.380   92.633    6.726
  313.946    0.388   91.452    6.484
  314.250    0.395   92.079    6.486
  314.555    0.395   90.899    6.609
  314.860    0.394   87.922    6.612
  315.165    0.389   84.340    6.863
  315.470    0.375   84.363    7.530
  315.774    0.368   84.387    7.672
  316.079    0.372   82.611    7.675
  316.384    0.378   80.229    7.678
  316.689    0.376   76.651    7.680
  316.994    0.375   72.475    7.683
  317.298    0.375   69.498    7.975
  317.603    0.378   64.117    8.431
  317.908    0.381   52.139    9.081
  318.213    0.377   45.562    9.781
  318.518    0.371   44.388   10.152
  318.823    0.364   43.809   10.735
  319.127    0.361   43.227   10.938
  319.432    0.359   42.054   11.146
  319.737    0.355   41.474   11.358
  320.042    0.351   39.696   11.789
  320.347    0.344   37.919   12.238
  320.651    0.335   37.939   12.469
  320.956    0.324   37.365   13.184
  321.261    0.309   37.382   13.685
  321.566    0.279   37.406   13.691
  321.871    0.241   39.825   13.197
  322.175    0.244   42.250   12.037
  322.480    0.322   41.670   11.184
  322.785    0.352   40.497   10.782
  323.090    0.355   39.318   10.786
  323.395    0.355   39.340   10.591
  323.699    0.356   39.360   10.211
  324.004    0.358   39.983    9.664
  324.309    0.364   40.602    8.979
  324.614    0.369   41.227    8.656
  324.919    0.375   40.648    8.659
  325.224    0.370   40.667    9.155
  325.528    0.357   40.692    9.861
  325.833    0.347   40.714   10.427
  326.138    0.351   40.739   11.024
  326.443    0.354   41.358   11.027
  326.748    0.355   41.977   10.829
  327.052    0.360   43.803   10.635
  327.357    0.367   44.422   10.444
  327.662    0.368   45.044   10.447
  327.967    0.368   45.066   10.451
  328.272    0.366   45.694   10.454
  328.576    0.366   47.510   10.458
  328.881    0.372   48.736   10.656
  329.186    0.381   49.359   10.660
  329.491    0.386   49.374   10.663
  329.796    0.390   48.797   10.667
  330.100    0.396   47.623   10.670
  330.405    0.400   47.043   10.479
  330.710    0.406   46.465   10.291
  331.015    0.407   45.885   10.294
  331.320    0.403   45.310   10.299
  331.625    0.397   45.331   10.302
  331.929    0.395   44.757   10.304
  332.234    0.398   45.376   10.500
  332.539    0.392   46.597   10.504
  332.844    0.386   48.417   10.508
  333.149    0.384   47.838   10.512
  333.453    0.385   47.261   10.322
  333.758    0.387   47.286   10.325
  334.063    0.387   47.906   10.329
  334.368    0.384   47.928   10.333
  334.673    0.385   47.350   10.336
  334.977    0.392   46.174   10.340
  335.282    0.396   44.992   10.344
  335.587    0.396   43.816   10.347
  335.892    0.394   43.236   10.350
  336.197    0.392   42.065   10.353
  336.501    0.391   41.481   10.357
  336.806    0.387   41.503   10.360
  337.111    0.379   41.525   10.558
  337.416    0.380   41.546   10.560
  337.721    0.381   40.969   10.565
  338.026    0.387   40.391   10.568
  338.330    0.394   41.018   10.572
  338.635    0.396   41.634   10.772
  338.940    0.395   42.863   10.579
  339.245    0.397   43.478   10.582
  339.550    0.388   44.702   10.586
  339.854    0.373   44.725   10.589
  340.159    0.373   45.344   10.593
  340.464    0.381   45.969   10.598
  340.769    0.383   45.989   10.601
  341.074    0.376   46.614   10.604
  341.378    0.372   46.634   10.607
  341.683    0.373   47.261   10.611
  341.988    0.377   47.881   10.421
  342.293    0.378   48.499   10.425
  342.598    0.379   49.122   10.427
  342.902    0.381   49.746   10.431
  343.207    0.374   50.370   10.243
  343.512    0.372   50.991   10.247
  343.817    0.371   51.610   10.063
  344.122    0.371   52.234   10.066
  344.427    0.368   53.452   10.070
  344.731    0.367   54.674    9.889
  345.036    0.366   57.696    9.533
  345.341    0.367   59.517    9.022
  345.646    0.368   58.340    8.698
  345.951    0.374   57.163    8.701
  346.255    0.374   56.584    8.867
  346.560    0.374   56.007    9.203
  346.865    0.373   56.028   10.285
  347.170    0.372   56.649   10.480
  347.475    0.375   57.271   10.292
  347.779    0.375   58.498   10.107
  348.084    0.374   59.118    9.925
  348.389    0.374   59.743    9.747
  348.694    0.374   59.765    9.572
  348.999    0.375   59.785    9.400
  349.303    0.375   59.804    9.403
  349.608    0.374   59.825    9.406
  349.913    0.371   60.448    9.585
  350.218    0.366   61.675    9.767
  350.523    0.365   62.893    9.591
  350.828    0.366   65.915    8.748
  351.132    0.370   69.534    7.549
  351.437    0.378   71.962    6.278
  351.742    0.400   71.378    5.418
  352.047    0.422   68.399    5.127
  352.352    0.418   67.228    5.129
  352.656    0.407   69.647    5.226
  352.961    0.407   73.265    5.425
  353.266    0.419   76.288    5.230
  353.571    0.421   76.314    4.950
  353.876    0.415   75.735    4.861
  354.180    0.414   77.560    4.863
  354.485    0.415   78.179    4.955
  354.790    0.410   77.597    5.048
  355.095    0.402   75.226    5.241
  355.400    0.393   73.447    5.440
  355.704    0.388   71.671    5.752
  356.009    0.389   70.493    5.970
  356.314    0.391   69.906    6.312
  356.619    0.387   69.933    6.674
  356.924    0.386   71.751    6.800
  357.229    0.388   75.375    6.803
  357.533    0.394   77.794    6.558
  357.838    0.408   79.619    6.093
  358.143    0.414   80.841    5.558
  358.448    0.418   83.865    5.260
  358.753    0.420   85.086    5.166
  359.057    0.427   85.107    5.073
  359.362    0.438   82.729    4.981
  359.667    0.443   79.151    4.802
  359.972    0.432   77.971    4.630
  360.277    0.418   78.593    4.382
  360.581    0.419   78.617    4.147
  360.886    0.428   77.439    4.072
  361.191    0.421   76.258    4.000
  361.496    0.415   75.083    4.001
  361.801    0.404   74.505    4.152
  362.105    0.403   76.926    4.472
  362.410    0.403   80.549    5.091
  362.715    0.408   82.972    5.904
  363.020    0.414   84.190    5.798
  363.325    0.427   87.212    4.822
  363.630    0.451   92.035    3.524
  363.934    0.477   93.256    2.772
  364.239    0.496   91.482    2.437
  364.544    0.496   90.905    2.393
  364.849    0.500   90.921    2.439
  365.154    0.499   90.946    2.627
  365.458    0.490   90.366    2.726
  365.763    0.490   88.589    2.628
  366.068    0.489   86.810    2.488
  366.373    0.484   85.032    2.443
  366.678    0.484   83.855    2.489
  366.982    0.483   82.078    2.584
  367.287    0.474   79.701    2.732
  367.592    0.459   76.722    3.287
  367.897    0.441   73.143    4.104
  368.202    0.398   68.366    5.124
  368.507    0.372   68.388    6.166
  368.811    0.376   70.809    7.150
  369.116    0.379   75.032    7.845
  369.421    0.378   78.052    8.607
  369.726    0.374   78.678    9.100
  370.031    0.368   78.095    9.446
  370.335    0.362   73.919    9.625
  370.640    0.360   64.339    9.628
  370.945    0.361   61.367    9.456
  371.250    0.366   61.385    9.285
  371.555    0.373   62.010    8.951
  371.859    0.379   63.227    8.791
  372.164    0.384   64.452    8.632
  372.469    0.393   62.673    8.636
  372.774    0.393   60.894    8.639
  373.079    0.387   59.719    8.803
  373.383    0.379   58.537    8.806
  373.688    0.374   57.964    8.973
  373.993    0.372   57.982    8.976
  374.298    0.371   56.203    8.979
  374.603    0.369   53.828    8.817
  374.908    0.362   52.651    8.985
  375.212    0.348   51.472    9.677
  375.517    0.340   50.293   10.617
  375.822    0.306   49.114   11.648
