~VERSION INFORMATION
 VERS.                 2.0:   CWLS LOG ASCII STANDARD -VERSION 2.0
 WRAP.                  NO:   ONE LINE PER DEPTH STEP
~WELL INFORMATION BLOCK
#MNEM.UNIT           DATA                    DESCRIPTION OF MNEMONIC
#---------    -------------------            -------------------------------
# Generated from Intellog Unique Number	CX_WELLS/WELL/1071
WELL.         07-20-088-07W4                 : Well_name    - WELL
LOC .         AA/07-20-088-07W4/0            : Location     - LOCATION
UWI .         AA/07-20-088-07W400            : Uwi          - UNIQUE WELL ID
ENTR.         DW                             : Entered      - ENTERED BY
SRVC.         SCHLUMBERGER                   : Scn          - SERVICE COMPANY
STRT.M        20                             : top_depth    - START DEPTH
STOP.M        134                            : bot_depth    - STOP DEPTH
STEP.M        0.25                           : increment    - STEP LENGTH
 NULL. -999.2500:NULL Value
~CURVE INFORMATION BLOCK
#MNEM UNIT       ERCB CURVE CODE    CURVE DESCRIPTION
#-----------   ------------------   ----------------------------------
DEPT.M        00 001 00 00         : DEPTH        - DEPTH
GR  .API      00 310 00 00         : GR           - GAMMA RAY
NPHI.V/V      00 330 00 00         : PHIN         - NEUTRON POROSITY (SANDSTONE)
DPHI.V/V      00 890 00 00         : PHID         - DENSITY POROSITY (SANDSTONE)
ILD .OHMM     00 120 00 00         : RESD         - DEEP RESISTIVITY (DIL)
~PARAMETER INFORMATION
#MNEM.UNIT           DATA             DESCRIPTION OF MNEMONIC
#---------         -----------     ------------------------------
GL  .M        377.24               : gl           - GROUND LEVEL ELEVATION
EREF.M        378.77               : kb           - ELEVATION OF DEPTH REFERENCE
DATM.M        378.77               : datum        - DATUM ELEVATION
TDD .M        132                  : tdd          - TOTAL DEPTH DRILLER
RUN .         ONE                  : Run          - RUN NUMBER
ENG .         BILL                 : Engineer     - RECORDING ENGINEER
WIT .         JIM                  : Witness      - WITNESSED BY
MUD .         GEL                  : Mud_type     - MUD TYPE
MATR.         SANDSTONE            : Logunit      - NEUTRON MATRIX
TMAX.C        25                   : BHT          - MAXIMUM RECORDED TEMPERATURE
BHTD.M        134                  : BHTDEP       - MAXIMUM RECORDED TEMPERATURE
MATR.         1                    : LOGUNIT      - NEUTRON MATRIX
RMT .C        25                   : MDTP         - TEMPERATURE OF MUD
NEUT.         1                    : NEUTRON      - NEUTRON TYPE
RESI.         0                    : RESIST       - RESISTIVITY TYPE
RMC .OHMM     0.25                 : RMC          - RESISTIVITY OF MUD CAKE
RMF .OHMM     0.25                 : RMF          - RESISTIVITY OF MUD FILTRATE
SUFT.C        15                   : SUFT         - SURFACE TEMPERATURE
~A  DEPTH       GR     PHIN     PHID     RESD
   20.000   68.748    0.557    0.297   11.219
   20.250   69.512    0.556    0.297   12.626
   20.500   70.276    0.532    0.294   13.670
   20.750   69.795    0.513    0.299   14.521
   21.000   68.728    0.514    0.317   15.721
   21.250   68.211    0.520    0.335   17.034
   21.500   67.695    0.508    0.345   17.421
   21.750   65.969    0.491    0.315   18.157
   22.000   63.657    0.502    0.322   19.288
   22.250   63.176    0.509    0.329   20.103
   22.500   62.695    0.501    0.343   20.155
   22.750   62.214    0.504    0.350   21.447
   23.000   62.978    0.516    0.348   23.199
   23.250   64.365    0.515    0.341   23.279
   23.500   66.996    0.527    0.334   22.065
   23.750   69.005    0.523    0.320   19.757
   24.000   72.258    0.523    0.304   16.697
   24.250   73.680    0.526    0.295   13.089
   24.500   74.444    0.531    0.286    9.148
   24.750   75.901    0.537    0.284    7.886
   25.000   75.972    0.545    0.290    6.798
   25.250   76.114    0.561    0.295    6.444
   25.500   76.255    0.581    0.292    6.471
   25.750   76.432    0.596    0.289    6.618
   26.000   76.538    0.610    0.296    7.030
   26.250   76.128    0.605    0.292    7.468
   26.500   74.954    0.578    0.299    7.926
   26.750   73.851    0.587    0.307    8.753
   27.000   70.916    0.577    0.325    9.852
   27.250   68.568    0.547    0.333   10.656
   27.500   67.394    0.515    0.330   12.469
   27.750   65.668    0.510    0.325   14.009
   28.000   64.600    0.511    0.312   15.180
   28.250   65.987    0.512    0.300   13.841
   28.500   69.898    0.509    0.290    9.329
   28.750   74.361    0.511    0.276    8.997
   29.000   77.028    0.543    0.278    7.610
   29.250   78.450    0.560    0.293    6.436
   29.500   78.556    0.576    0.312    5.758
   29.750   78.768    0.594    0.314    5.156
   30.000   78.216    0.599    0.316    4.620
   30.250   77.806    0.596    0.321    4.297
   30.500   77.877    0.598    0.333    3.918
   30.750   78.019    0.602    0.340    3.714
   31.000   78.783    0.606    0.349    3.660
   31.250   80.169    0.618    0.346    3.740
   31.500   80.969    0.628    0.343    3.824
   31.750   81.146    0.613    0.335    3.993
   32.000   80.629    0.598    0.326    4.076
   32.250   80.806    0.583    0.315    4.338
   32.500   80.948    0.572    0.319    4.517
   32.750   81.054    0.559    0.314    4.899
   33.000   81.196    0.549    0.305    5.102
   33.250   81.373    0.541    0.293    5.313
   33.500   81.514    0.539    0.296    6.099
   33.750   80.446    0.531    0.297    6.485
   34.000   80.517    0.520    0.292    6.747
   34.250   80.694    0.514    0.282    7.039
   34.500   81.458    0.514    0.276    7.204
   34.750   82.257    0.535    0.261    7.368
   35.000   83.644    0.523    0.253    7.679
   35.250   84.443    0.496    0.241    7.854
   35.500   84.514    0.481    0.237    8.193
   35.750   84.033    0.465    0.236    8.524
   36.000   81.721    0.462    0.232    9.229
   36.250   78.679    0.467    0.229   10.191
   36.500   74.464    0.475    0.223   11.680
   36.750   70.249    0.476    0.213   14.733
   37.000   66.069    0.462    0.202   17.539
   37.250   64.895    0.393    0.184   21.316
   37.500   67.561    0.348    0.158   20.987
   37.750   72.682    0.279    0.084   20.645
   38.000   74.691    0.304    0.145   19.961
   38.250   75.526    0.386    0.228   18.549
   38.500   75.632    0.470    0.264   16.296
   38.750   75.844    0.502    0.274   13.772
   39.000   75.915    0.500    0.269   10.602
   39.250   76.127    0.490    0.255    9.493
   39.500   76.856    0.497    0.237    8.837
   39.750   76.962    0.505    0.229    8.685
   40.000   78.419    0.516    0.236    8.233
   40.250   78.490    0.523    0.255    7.804
   40.500   80.570    0.530    0.258    7.539
   40.750   81.956    0.538    0.248    7.422
   41.000   81.475    0.546    0.240    8.043
   41.250   79.750    0.555    0.246    8.375
   41.500   77.989    0.525    0.257    9.067
   41.750   75.018    0.482    0.276    9.817
   42.000   73.880    0.463    0.285   10.249
   42.250   79.071    0.467    0.299   10.091
   42.500   80.422    0.472    0.307    9.927
   42.750   81.186    0.486    0.318    9.418
   43.000   81.950    0.510    0.325    9.090
   43.250   82.714    0.516    0.364    8.295
   43.500   82.269    0.523    0.356    7.715
   43.750   81.753    0.530    0.336    7.175
   44.000   80.720    0.548    0.333    6.801
   44.250   80.204    0.554    0.330    6.691
   44.500   80.310    0.556    0.322    6.347
   44.750   80.522    0.556    0.313    6.364
   45.000   81.251    0.551    0.291    6.391
   45.250   81.428    0.539    0.254    6.408
   45.500   82.850    0.528    0.249    6.812
   45.750   82.921    0.545    0.273    6.967
   46.000   81.853    0.559    0.286    6.991
   46.250   80.749    0.553    0.289    6.626
   46.500   81.513    0.541    0.296    6.052
   46.750   82.242    0.534    0.313    5.424
   47.000   82.384    0.540    0.319    5.226
   47.250   81.280    0.544    0.307    4.683
   47.500   80.835    0.550    0.292    5.372
   47.750   80.354    0.531    0.275    5.923
   48.000   80.496    0.499    0.264    6.788
   48.250   80.050    0.477    0.254    7.935
   48.500   79.499    0.469    0.251    8.598
   48.750   77.808    0.468    0.261    8.628
   49.000   75.460    0.471    0.281    8.665
   49.250   73.735    0.473    0.285    8.680
   49.500   72.596    0.473    0.283    8.546
   49.750   72.773    0.474    0.274    8.583
   50.000   72.292    0.481    0.263    8.605
   50.250   69.286    0.492    0.270    8.650
   50.500   70.050    0.501    0.301    8.679
   50.750   72.130    0.516    0.311    8.876
   51.000   72.859    0.526    0.333    9.085
   51.250   73.035    0.526    0.313    9.275
   51.500   72.519    0.494    0.256    9.486
   51.750   71.451    0.479    0.214    9.701
   52.000   70.900    0.448    0.203    9.203
   52.250   71.041    0.454    0.257    8.247
   52.500   70.596    0.496    0.318    7.804
   52.750   68.248    0.511    0.381    6.856
   53.000   64.620    0.531    0.412    5.799
   53.250   59.159    0.525    0.492    4.995
   53.500   55.567    0.505    0.517    4.225
   53.750   56.295    0.507    0.488    3.858
   54.000   59.620    0.474    0.471    3.799
   54.250   61.664    0.449    0.428    3.885
   54.500   62.979    0.429    0.351    4.127
   54.750   67.513    0.392    0.330    4.468
   55.000   66.445    0.344    0.353    4.934
   55.250   63.475    0.377    0.396    5.337
   55.500   62.301    0.538    0.409    5.458
   55.750   60.611    0.538    0.412    5.477
   56.000   60.717    0.557    0.436    5.501
   56.250   62.209    0.586    0.471    5.630
   56.500   62.938    0.601    0.504    5.748
   56.750   63.666    0.592    0.511    6.228
   57.000   65.088    0.590    0.464    6.872
   57.250   65.817    0.589    0.309    7.300
   57.500   66.029    0.528    0.325    8.069
   57.750   66.135    0.524    0.338    8.403
   58.000   66.277    0.525    0.260    7.815
   58.250   66.419    0.505    0.279    7.262
   58.500   68.427    0.565    0.343    6.627
   58.750   71.681    0.584    0.337    6.053
   59.000   76.250    0.568    0.344    5.732
   59.250   78.259    0.552    0.345    5.231
   59.500   77.778    0.541    0.342    4.684
   59.750   77.955    0.549    0.347    4.440
   60.000   77.404    0.568    0.369    4.212
   60.250   76.923    0.594    0.371    4.147
   60.500   75.820    0.615    0.391    4.161
   60.750   75.374    0.615    0.402    4.097
   61.000   74.271    0.614    0.371    4.111
   61.250   73.825    0.617    0.355    4.201
   61.500   73.274    0.624    0.356    4.303
   61.750   72.793    0.610    0.380    4.393
   62.000   72.312    0.587    0.401    4.497
   62.250   71.867    0.567    0.416    4.691
   62.500   71.350    0.576    0.432    4.889
   62.750   71.527    0.576    0.403    5.000
   63.000   73.536    0.563    0.326    5.013
   63.250   75.510    0.547    0.300    5.131
