~VERSION INFORMATION
 VERS.                 2.0:   CWLS LOG ASCII STANDARD -VERSION 2.0
 WRAP.                  NO:   ONE LINE PER DEPTH STEP
~WELL INFORMATION BLOCK
#MNEM.UNIT           DATA                    DESCRIPTION OF MNEMONIC
#---------    -------------------            -------------------------------
# Generated from Intellog Unique Number	CC_84_87/WELL/1047
NULL.         -999.25                        : NULL_VALUE
WELL.         ARCO ACI MCMURRAY              : Well_name    - WELL              
LOC .         02-26-084-10W4                 : Location     - LOCATION          
UWI .         AA/02-26-084-10W400            : Uwi          - UNIQUE WELL ID    
ENTR.         JHS                            : Entered      - ENTERED BY        
SRVC.         SCHLUMBERGER                   : Scn          - SERVICE COMPANY   
DATE.         08 FEB 74                      : Date         - LOG DATE
STRT.M        170.688                        : top_depth    - START DEPTH       
STOP.M        392.083                        : bot_depth    - STOP DEPTH        
STEP.M        0.3                            : increment    - STEP LENGTH       
~CURVE INFORMATION BLOCK
#MNEM UNIT       ERCB CURVE CODE    CURVE DESCRIPTION
#-----------   ------------------   ----------------------------------
DEPT.M        00 001 00 00         : DEPTH        - DEPTH                       
RHOB.KG/M3    00 350 00 00         : DENS         - BULK DENSITY                
GR  .API      00 310 00 00         : GR           - GAMMA RAY                   
NPHI.V/V      00 330 00 00         : PHIN         - NEUTRON POROSITY (LIMESTONE)
ILD .OHMM     00 120 00 00         : RESD         - DEEP RESISTIVITY (DIL)      
~PARAMETER INFORMATION       
#MNEM.UNIT           DATA             DESCRIPTION OF MNEMONIC
#---------         -----------     ------------------------------
GL  .M        643.829              : gl           - GROUND LEVEL ELEVATION      
EREF.M        646.877              : kb           - ELEVATION OF DEPTH REFERENCE
DATM.M        646.877              : datum        - DATUM ELEVATION             
TDD .M        390.449              : tdd          - TOTAL DEPTH DRILLER         
RUN .         ONE                  : Run          - RUN NUMBER                  
ENG .         BILL                 : Engineer     - RECORDING ENGINEER          
WIT .         JIM                  : Witness      - WITNESSED BY                
MUD .         GEL                  : Mud_type     - MUD TYPE                    
MATR.         LIMESTONE            : Logunit      - NEUTRON MATRIX              
TMAX.C        60                   : BHT          - MAXIMUM RECORDED TEMPERATURE
BHTD.M        390.449              : BHTDEP       - MAXIMUM RECORDED TEMPERATURE
MATR.         1                    : LOGUNIT      - NEUTRON MATRIX              
RMT .C        25                   : MDTP         - TEMPERATURE OF MUD          
NEUT.         1                    : NEUTRON      - NEUTRON TYPE                
RESI.         0                    : RESIST       - RESISTIVITY TYPE            
RMC .OHMM     0.25                 : RMC          - RESISTIVITY OF MUD CAKE     
RMF .OHMM     0.25                 : RMF          - RESISTIVITY OF MUD FILTRATE 
SUFT.C        15                   : SUFT         - SURFACE TEMPERATURE         
~A  DEPTH     DENS       GR     PHIN     RESD
# ...
  222.889 2317.050   84.487    0.312   14.070
  223.189 2261.880   95.723    0.362   13.321
  223.489 2192.900  112.276    0.358   12.162
  223.789 2202.820  122.333    0.355   11.105
  224.089 2226.540  132.980    0.359    9.957
  224.389 2224.620  138.312    0.354    8.767
  224.689 2258.210  135.379    0.371    7.861
  224.989 2222.760  142.481    0.373    7.578
  225.289 2236.610  141.320    0.362    7.714
  225.589 2236.670  133.656    0.351    8.444
  225.889 2228.840  123.045    0.341    9.584
  226.189 2153.940  111.251    0.365   12.127
  226.489 2112.580  102.408    0.378   17.739
  226.789 2104.740   97.702    0.362   19.772
  227.089 2128.460  104.217    0.343   18.718
  227.389 2150.210  114.863    0.339   15.329
  227.689 2229.160  134.958    0.357   12.553
  227.989 2231.190  129.071    0.365   11.256
  228.289 2209.540  122.001    0.355   10.657
  228.589 2217.480  122.018    0.359   10.653
  228.889 2185.980  124.987    0.362   11.042
  229.189 2203.790  117.327    0.345   11.868
  229.489 2142.690  109.081    0.324   12.757
  229.789 2136.830  107.323    0.318   13.467
  230.089 2130.970  110.294    0.334   14.475
  230.389 2119.190  106.769    0.340   15.278
  230.689 2133.060  107.964    0.351   15.274
  230.989 2148.890  106.800    0.361   14.459
  231.289 2156.820  109.771    0.347   13.941
  231.589 2168.710  110.971    0.332   13.686
  231.889 2194.410  113.350    0.315   13.681
  232.189 2214.190  102.737    0.314   14.441
  232.489 2182.680   66.138    0.305   15.807
  232.789 2117.650   54.935    0.314   17.618
  233.089 2143.340   61.447    0.318   19.994
  233.389 2086.190   60.285    0.323   21.491
  233.689 2058.630   60.894    0.338   23.100
  233.989 2072.510   56.776    0.353   23.944
  234.289 2068.610   55.611    0.364   23.937
  234.589 2052.880   51.497    0.354   23.499
  234.889 2029.260   52.106    0.362   23.492
  235.189 2047.070   55.663    0.352   23.482
  235.489 2066.850   56.275    0.343   23.476
  235.789 2051.120   55.108    0.370   23.048
  236.089 2055.120   56.304    0.369   23.038
  236.389 2076.870   59.275    0.367   22.617
  236.689 2086.790   56.931    0.356   21.806
  236.989 2067.120   51.632    0.347   21.407
  237.289 2045.470   48.106    0.342   21.790
  237.589 2041.580   49.896    0.357   22.181
  237.889 2069.250   57.588    0.374   21.776
  238.189 2083.110   71.188    0.363   19.882
  238.489 2071.330   77.705    0.380   16.884
  238.789 2116.750   91.892    0.394   13.334
  239.089 2191.750  117.895    0.379   10.531
  239.389 2256.900  120.865    0.377    9.442
  239.689 2278.650  113.207    0.370    8.939
  239.989 2262.920  107.315    0.373    8.936
  240.289 2253.120   91.979    0.364    9.097
  240.589 2276.840  119.161    0.353    9.093
  240.889 2276.890  133.942    0.364    8.767
  241.189 2274.970  132.189    0.359    8.607
  241.489 2296.720  124.529    0.372    8.002
  241.789 2243.520  118.049    0.374    7.714
  242.089 2231.740  108.618    0.381    7.712
  242.389 2290.970  115.132    0.382    7.710
  242.689 2279.190  128.140    0.396    7.569
  242.989 2251.620  117.526    0.399    7.705
  243.289 2180.670   90.380    0.393    8.281
  243.589 2135.360   78.584    0.353    8.901
  243.889 2109.780   79.195    0.338   10.476
  244.189 2135.470   85.115    0.372   12.106
  244.489 2169.050   90.448    0.369   13.012
  244.789 2135.580   76.292    0.367   13.489
  245.089 2131.680   68.633    0.346   14.238
  245.389 2321.090   65.697    0.285   16.455
  245.689 2492.740   63.943    0.133   22.389
  245.989 2473.070   59.825    0.109   33.351
  246.289 2344.920   56.890    0.181   37.850
  246.589 2214.790   61.631    0.228   39.235
  246.889 2057.060   64.600    0.354   35.177
  247.189 2063.030   61.666    0.389   32.121
  247.489 2047.300   62.272    0.372   27.774
  247.789 2065.110   59.929    0.349   22.746
  248.089 2033.600   56.402    0.368   21.145
  248.389 2051.420   50.514    0.352   21.140
  248.689 2063.300   52.305    0.355   21.517
  248.989 2071.240   55.273    0.382   21.511
  249.289 2045.660   54.110    0.364   21.504
  249.589 2039.800   53.534    0.366   21.499
  249.889 2051.680   56.506    0.360   21.490
  250.189 2073.430   53.569    0.366   21.485
  250.489 2079.410   53.587    0.365   21.869
  250.789 2069.590   55.965    0.341   21.864
  251.089 2061.750   55.391    0.355   21.855
  251.389 2063.790   51.867    0.381   21.846
  251.689 2055.960   53.070    0.347   21.842
  251.989 2056.020   55.445    0.365   21.833
  252.289 2060.010   58.416    0.372   21.826
  252.589 2064.010   59.024    0.358   21.820
  252.889 2064.060   56.680    0.371   21.813
  253.189 2058.180   59.648    0.377   21.411
  253.489 2056.270   60.844    0.396   21.404
  253.789 2064.210   59.091    0.377   21.400
  254.089 2062.310   56.746    0.384   21.392
  254.389 2064.320   59.719    0.377   21.383
  254.689 2070.290   56.189    0.363   21.376
  254.989 2086.130   59.159    0.364   20.986
  255.289 2098.020   63.311    0.362   20.981
  255.589 2092.150   63.329    0.350   20.973
  255.889 2088.260   67.479    0.338   20.588
  256.189 2104.090   65.726    0.349   20.584
  256.489 2086.390   66.923    0.377   20.206
  256.789 2084.470   66.939    0.385   20.198
  257.089 2102.280   72.863    0.365   19.829
  257.389 2072.750   72.288    0.362   19.822
  257.689 2098.440   63.447    0.376   19.816
  257.989 2122.170   65.827    0.370   19.811
  258.289 2141.950   71.749    0.345   19.450
  258.589 2104.520   66.452    0.364   19.092
  258.889 2124.290   64.107    0.385   19.086
  259.189 2150.000   65.305    0.377   18.738
  259.489 2153.990   72.408    0.345   18.395
  259.789 2120.510   73.019    0.368   18.725
  260.089 2089.010   68.311    0.386   18.381
  260.389 2106.830   70.099    0.358   17.403
  260.689 2098.990   77.793    0.358   15.891
  260.989 2112.840   85.488    0.381   13.494
  261.289 2114.880   80.190    0.361   11.881
  261.589 2126.750   83.751    0.357   10.653
  261.889 2152.450   89.672    0.376    9.552
  262.189 2184.060   98.549    0.379    8.721
  262.489 2186.110   97.975    0.393    8.109
  262.789 2174.310   97.993    0.404    7.677
  263.089 2166.470   99.189    0.373    7.009
  263.389 2176.390   96.847    0.351    6.757
  263.689 2178.410   86.822    0.340    6.755
  263.989 2284.970   79.164    0.337    7.807
  264.289 2249.530   84.496    0.353    9.022
  264.589 2190.400   91.602    0.392    9.184
  264.889 2182.570   91.617    0.397    9.017
  265.189 2158.950   81.594    0.368    8.852
  265.488 2166.900   80.438    0.352    9.343
  265.788 2178.790   83.405    0.359    9.863
  266.088 2224.210   85.779    0.373   10.601
  266.388 2180.870   86.979    0.375   11.190
  266.688 2139.500   90.538    0.361   11.390
  266.988 2165.200   97.643    0.351   10.982
  267.288 2198.780  110.650    0.368    8.673
  267.588 2190.960  102.990    0.360    7.918
  267.888 2192.970  102.420    0.334    7.633
  268.188 2232.470  107.750    0.349    7.359
  268.488 2218.720  103.632    0.364    7.095
  268.788 2185.250  106.604    0.397    6.840
  269.088 2183.320  111.936    0.381    6.360
  269.388 2201.130  113.724    0.380    5.499
  269.688 2195.280  116.102    0.404    4.843
  269.988 2169.680  112.576    0.412    4.840
  270.288 2165.790   99.603    0.369    5.110
  270.588 2144.140   83.674    0.359    5.695
  270.888 2134.340   80.739    0.357    6.825
  271.188 2219.200   78.394    0.345    8.179
  271.488 2284.350   87.860    0.330    9.452
  271.788 2288.350   92.601    0.339    9.977
  272.088 2168.090  111.516    0.390    7.599
  272.388 2185.900  119.210    0.424    5.191
  272.688 2197.780  113.324    0.445    4.408
  272.988 2191.920  119.837    0.450    3.545
  273.288 2178.160  115.128    0.425    3.237
  273.588 2176.240  110.422    0.408    3.236
  273.888 2160.520  115.164    0.419    3.294
  274.188 2162.540  119.904    0.426    3.477
  274.488 2172.450  111.657    0.415    3.604
  274.788 2178.430  113.445    0.451    3.538
