~VERSION INFORMATION
 VERS.                 2.0:   CWLS LOG ASCII STANDARD -VERSION 2.0
 WRAP.                  NO:   ONE LINE PER DEPTH STEP
~WELL INFORMATION BLOCK
#MNEM.UNIT           DATA                    DESCRIPTION OF MNEMONIC
#---------    -------------------            -------------------------------
# Generated from Intellog Unique Number	CC_80_83/WELL/2318
NULL.         -999.25                        : NULL_VALUE
WELL.         DOME DIVIDE OV                 : Well_name    - WELL              
LOC .         09-11-082-13W4                 : Location     - LOCATION          
UWI .         AA/09-11-082-13W400            : Uwi          - UNIQUE WELL ID    
ENTR.         RJA                            : Entered      - ENTERED BY        
SRVC.         COMPUTALOG                     : Scn          - SERVICE COMPANY   
DATE.         26 FEB 81                      : Date         - LOG DATE
STRT.M        190                            : top_depth    - START DEPTH       
STOP.M        459.992                        : bot_depth    - STOP DEPTH        
STEP.M        0.3                            : increment    - STEP LENGTH       
~CURVE INFORMATION BLOCK
#MNEM UNIT       ERCB CURVE CODE    CURVE DESCRIPTION
#-----------   ------------------   ----------------------------------
DEPT.M        00 001 00 00         : DEPTH        - DEPTH                       
DPHI.V/V      00 890 00 00         : PHID         - DENSITY POROSITY (LIMESTONE)
NPHI.V/V      00 330 00 00         : PHIN         - NEUTRON POROSITY (LIMESTONE)
GR  .API      00 310 00 00         : GR           - GAMMA RAY                   
ILD .OHMM     00 120 00 00         : RESD         - DEEP RESISTIVITY (DIL)      
~PARAMETER INFORMATION       
#MNEM.UNIT           DATA             DESCRIPTION OF MNEMONIC
#---------         -----------     ------------------------------
GL  .M        659                  : gl           - GROUND LEVEL ELEVATION      
EREF.M        663.5                : kb           - ELEVATION OF DEPTH REFERENCE
DATM.M        663.5                : datum        - DATUM ELEVATION             
TDD .M        465                  : tdd          - TOTAL DEPTH DRILLER         
RUN .         ONE                  : Run          - RUN NUMBER                  
ENG .         BILL                 : Engineer     - RECORDING ENGINEER          
WIT .         JIM                  : Witness      - WITNESSED BY                
MUD .         GEL                  : Mud_type     - MUD TYPE                    
MATR.         LIMESTONE            : Logunit      - NEUTRON MATRIX              
TMAX.C        24                   : BHT          - MAXIMUM RECORDED TEMPERATURE
BHTD.M        465                  : BHTDEP       - MAXIMUM RECORDED TEMPERATURE
MATR.         1                    : LOGUNIT      - NEUTRON MATRIX              
RMT .C        25                   : MDTP         - TEMPERATURE OF MUD          
NEUT.         1                    : NEUTRON      - NEUTRON TYPE                
RESI.         0                    : RESIST       - RESISTIVITY TYPE            
RMC .OHMM     0.25                 : RMC          - RESISTIVITY OF MUD CAKE     
RMF .OHMM     0.25                 : RMF          - RESISTIVITY OF MUD FILTRATE 
SUFT.C        15                   : SUFT         - SURFACE TEMPERATURE         
~A  DEPTH     PHID     PHIN       GR     RESD
  190.000    0.255    0.410   71.011   11.801
  190.300    0.284    0.414   64.028   12.705
  190.600    0.346    0.397   53.481   14.777
  190.900    0.353    0.375   43.128   16.986
  191.200    0.359    0.322   37.015   18.860
  191.500    0.335    0.242   45.645   20.114
  191.800    0.175    0.249   46.837   17.556
  192.100    0.071    0.269   46.598   12.189
  192.400    0.204    0.441   54.667    8.444
  192.700    0.364    0.373   77.234    7.025
  193.000    0.280    0.367   90.981    6.300
  193.300    0.305    0.363   84.683    5.860
  193.600    0.318    0.353   81.825    5.740
  193.900    0.261    0.395   94.692    5.582
  194.200    0.229    0.426   98.767    5.094
  194.500    0.218    0.437  102.513    4.302
  194.800    0.222    0.445  104.598    4.136
  195.100    0.231    0.415  106.226    3.999
  195.400    0.232    0.441  104.744    3.940
  195.700    0.226    0.446  106.758    3.905
  196.000    0.210    0.426  113.325    3.877
  196.300    0.206    0.422  113.024    3.924
  196.600    0.214    0.411  109.601    3.860
  196.900    0.219    0.406  109.049    3.829
  197.200    0.227    0.411  110.304    3.801
  197.500    0.220    0.405  104.192    3.759
  197.800    0.217    0.467  108.883    3.771
  198.100    0.217    0.472  117.015    3.811
  198.400    0.222    0.464  117.031    3.864
  198.700    0.222    0.457  116.106    3.943
  199.000    0.229    0.441  114.927    4.069
  199.300    0.236    0.448  115.563    4.215
  199.600    0.225    0.428  110.947    4.275
  199.900    0.214    0.422  107.028    4.280
  200.200    0.216    0.420  108.155    4.284
  200.500    0.221    0.398  110.105    4.205
  200.800    0.218    0.401  112.061    3.962
  201.100    0.220    0.394  113.379    3.915
  201.400    0.234    0.389  113.693    3.777
  201.700    0.244    0.379  111.778    3.644
  202.000    0.238    0.393  116.849    3.536
  202.300    0.231    0.445  119.845    3.473
  202.600    0.215    0.478  120.175    3.376
  202.900    0.182    0.499  113.565    3.320
  203.200    0.186    0.474  115.131    3.273
  203.500    0.220    0.368  120.771    3.223
  203.800    0.230    0.347  120.782    3.195
  204.100    0.218    0.378  114.104    3.248
  204.400    0.217    0.389  114.933    3.346
  204.700    0.212    0.416  115.447    3.414
  205.000    0.205    0.463  110.831    3.358
  205.300    0.199    0.414  110.024    3.284
  205.600    0.206    0.488  115.346    3.222
  205.900    0.227    0.475  116.790    3.202
  206.200    0.231    0.501  113.873    3.143
  206.500    0.222    0.501  111.569    3.164
  206.800    0.221    0.509  113.383    3.178
  207.100    0.218    0.505  113.031    3.205
  207.400    0.217    0.498  107.726    3.282
  207.700    0.229    0.470  106.741    3.637
  208.000    0.236    0.462  108.186    4.038
  208.300    0.232    0.411  105.449    4.282
  208.600    0.226    0.390  101.593    4.437
  208.900    0.219    0.391  101.658    4.468
  209.200    0.219    0.366  101.360    4.327
  209.500    0.220    0.384  102.123    3.971
  209.800    0.219    0.348  107.560    3.706
  210.100    0.217    0.368  112.258    3.459
  210.400    0.222    0.382  110.024    3.425
  210.700    0.224    0.430  104.723    3.317
  211.000    0.222    0.452  107.982    3.300
  211.300    0.223    0.458  111.933    3.336
  211.600    0.230    0.464  112.681    3.416
  211.900    0.227    0.446  111.010    3.431
  212.200    0.227    0.470  106.010    3.356
  212.500    0.216    0.454  105.915    3.182
  212.800    0.207    0.435  108.971    3.036
  213.100    0.217    0.424  112.352    2.873
  213.400    0.235    0.450  113.240    2.750
  213.700    0.251    0.480  112.703    2.735
  214.000    0.263    0.517  112.835    2.796
  214.300    0.254    0.495  114.655    2.902
  214.600    0.243    0.481  116.416    2.980
  214.900    0.247    0.492  114.933    3.166
  215.200    0.248    0.464  114.318    3.312
  215.500    0.231    0.458  110.582    3.464
  215.800    0.148    0.448   99.468    3.521
  216.100    0.110    0.431   97.548    3.578
  216.400    0.199    0.442  107.112    3.700
  216.700    0.214    0.444  108.178    3.789
  217.000    0.202    0.460  109.631    3.843
  217.300    0.205    0.456  110.270    3.854
  217.600    0.211    0.455  110.960    3.880
  217.900    0.215    0.436  113.291    3.868
  218.200    0.214    0.415  118.420    3.804
  218.500    0.205    0.414  117.290    3.895
  218.800    0.208    0.413  115.498    3.996
  219.100    0.214    0.449  113.331    4.040
  219.400    0.198    0.431  111.782    4.082
  219.700    0.193    0.428  112.600    4.039
  220.000    0.199    0.425  111.798    4.003
  220.300    0.217    0.406  109.063    3.975
  220.600    0.221    0.419  109.632    3.971
  220.900    0.213    0.394  111.022    4.043
  221.200    0.212    0.421  109.468    4.149
  221.500    0.219    0.405  105.917    4.177
  221.800    0.216    0.432  105.056    4.037
  222.100    0.220    0.463  107.001    3.933
  222.400    0.222    0.426  108.452    4.521
  222.700    0.222    0.435   99.404    5.614
  223.000    0.242    0.316   89.973    8.224
  223.300    0.244    0.266   86.117   10.670
  223.600    0.231    0.250   76.449   12.085
  223.900    0.274    0.295   71.339   14.976
  224.200    0.308    0.384   76.661   15.100
  224.500    0.301    0.403   76.292   14.294
  224.800    0.298    0.388   73.108   14.415
  225.100    0.309    0.357   74.810   13.960
  225.400    0.303    0.353   80.007   13.999
  225.700    0.284    0.406   83.396   13.715
  226.000    0.287    0.446   80.844   13.209
  226.300    0.301    0.450   74.048   12.358
  226.600    0.297    0.429   76.181   12.156
  226.900    0.282    0.367   79.438   11.285
  227.200    0.266    0.371   83.258    9.945
  227.500    0.235    0.360   93.705    9.652
  227.800    0.213    0.368  101.513    9.367
  228.100    0.201    0.335   89.538    8.051
  228.400    0.132    0.326   82.368    7.042
  228.700    0.083    0.363   98.673    6.340
  229.000    0.100    0.418  106.250    5.640
  229.300    0.211    0.403  102.070    5.186
  229.600    0.225    0.369   89.771    4.994
  229.900    0.220    0.392   93.473    5.440
  230.200    0.234    0.446   99.290    6.500
  230.500    0.260    0.469   98.802    7.662
  230.800    0.316    0.460   96.569    9.401
  231.100    0.324    0.410  106.878   10.442
  231.400    0.314    0.428  113.639   11.179
  231.700    0.289    0.411  116.589   11.166
  232.000    0.263    0.416  111.163   11.175
  232.300    0.241    0.419   88.871   11.823
  232.600    0.236    0.345   76.767   12.605
  232.900    0.252    0.340   69.843   12.767
  233.200    0.221    0.303   77.349   13.326
  233.500    0.155    0.319   82.175   14.156
  233.800    0.113    0.322   57.756   15.992
  234.100    0.059    0.335   52.276   17.591
  234.400    0.187    0.346   52.913   17.952
  234.700    0.310    0.378   59.654   16.698
  235.000    0.312    0.385   63.422   14.943
  235.300    0.303    0.368   66.873   12.765
  235.600    0.284    0.371   71.756   12.159
  235.900    0.241    0.340   86.003   10.211
  236.200    0.219    0.358   96.691    9.034
  236.500    0.194    0.351   98.010    8.371
  236.800    0.173    0.357  102.902    8.079
  237.100    0.180    0.350  107.967    8.732
  237.400    0.208    0.391  107.917    9.921
  237.700    0.222    0.379  103.619   11.779
  238.000    0.238    0.416   95.759   12.352
  238.300    0.263    0.401   85.397   13.794
  238.600    0.260    0.418   83.351   14.399
  238.900    0.243    0.378   83.232   13.867
  239.201    0.237    0.402   85.558   13.456
  239.501    0.251    0.419   84.881   13.832
  239.801    0.272    0.438   83.891   14.092
  240.101    0.285    0.408   84.214   15.142
  240.401    0.290    0.395   81.975   16.299
  240.701    0.295    0.387   79.618   17.177
  241.001    0.294    0.384   80.311   17.403
  241.301    0.298    0.359   83.064   17.688
  241.601    0.303    0.333   84.639   17.872
  241.901    0.301    0.345   83.523   18.061
