~VERSION INFORMATION
 VERS.                 2.0:   CWLS LOG ASCII STANDARD -VERSION 2.0
 WRAP.                  NO:   ONE LINE PER DEPTH STEP
~WELL INFORMATION BLOCK
#MNEM.UNIT           DATA                    DESCRIPTION OF MNEMONIC
#---------    -------------------            -------------------------------
# Generated from Intellog Unique Number	CN_94_101/WELL/4993
WELL.         08-33-098-12W4                 : Well_name    - WELL
LOC .         AA/08-33-098-12W4/0            : Location     - LOCATION
UWI .         AA/08-33-098-12W400            : Uwi          - UNIQUE WELL ID
ENTR.         TIM                            : Entered      - ENTERED BY
SRVC.         SCHLUMBERGER                   : Scn          - SERVICE COMPANY
DATE.         08/11/92                       : Date         - LOG DATE
STRT.M        60.96                          : top_depth    - START DEPTH
STOP.M        267.71                         : bot_depth    - STOP DEPTH
STEP.M        0.25                           : increment    - STEP LENGTH
 NULL. -999.2500:NULL Value
~CURVE INFORMATION BLOCK
#MNEM UNIT       ERCB CURVE CODE    CURVE DESCRIPTION
#-----------   ------------------   ----------------------------------
DEPT.M        00 001 00 00         : DEPTH        - DEPTH
GR  .API      00 310 00 00         : GR           - GAMMA RAY
ILD .OHMM     00 120 00 00         : RESD         - DEEP RESISTIVITY (DIL)
NPHI.V/V      00 330 00 00         : PHIN         - NEUTRON POROSITY (SANDSTONE)
RHOB.KG/M3    00 350 00 00         : DENS         - BULK DENSITY
~PARAMETER INFORMATION
#MNEM.UNIT           DATA             DESCRIPTION OF MNEMONIC
#---------         -----------     ------------------------------
GL  .M        499.872              : gl           - GROUND LEVEL ELEVATION
EREF.M        502.92               : kb           - ELEVATION OF DEPTH REFERENCE
DATM.M        502.92               : datum        - DATUM ELEVATION
TDD .M        267.614              : tdd          - TOTAL DEPTH DRILLER
RUN .         ONE                  : Run          - RUN NUMBER
ENG .         JO                   : Engineer     - RECORDING ENGINEER
WIT .         TIM                  : Witness      - WITNESSED BY
MUD .         GEL                  : Mud_type     - MUD TYPE
MATR.         SANDSTONE            : Logunit      - NEUTRON MATRIX
TMAX.C        10                   : BHT          - MAXIMUM RECORDED TEMPERATURE
BHTD.M        267.614              : BHTDEP       - MAXIMUM RECORDED TEMPERATURE
RMT .C        10                   : MDTP         - TEMPERATURE OF MUD
MUDD.KG/M     1000                 : MWT          - MUD DENSITY
NEUT.         1                    : NEUTRON      - NEUTRON TYPE
RESI.         0                    : RESIST       - RESISTIVITY TYPE
RM  .OHMM     13.8                 : RM           - RESISTIVITY OF MUD
RMC .OHMM     13.8                 : RMC          - RESISTIVITY OF MUD CAKE
RMF .OHMM     13.8                 : RMF          - RESISTIVITY OF MUD FILTRATE
SUFT.C        4                    : SUFT         - SURFACE TEMPERATURE
~A  DEPTH       GR     RESD     PHIN     DENS
# ...
  234.960   63.132   10.322    0.314 2157.980
  235.210   64.706    8.741    0.314 2163.980
  235.460   70.993    8.269    0.311 2223.840
  235.710  114.470    7.971    0.298 2275.710
  235.960  118.140    8.273    0.295 2309.630
  236.210  118.667    8.428    0.295 2327.600
  236.460  105.051    9.247    0.298 2247.840
  236.710   79.388   10.145    0.301 2203.980
  236.960   70.486   11.130    0.304 2178.070
  237.210   64.203   13.395    0.304 2164.120
  237.460   61.063   14.695    0.304 2170.120
  237.710   61.066   16.424    0.308 2172.140
  237.960   62.117   17.364    0.311 2172.160
  238.210   62.642   17.691    0.314 2172.170
  238.460   64.216   17.694    0.314 2170.200
  238.710   65.791   17.698    0.314 2172.210
  238.960   66.316   17.701    0.314 2174.230
  239.210   66.843   17.703    0.314 2174.240
  239.460   67.370   17.381    0.314 2174.260
  239.710   66.848   15.558    0.311 2170.290
  239.960   65.803   15.274    0.308 2168.310
  240.210   62.664   14.188    0.308 2168.320
  240.460   59.000   13.424    0.308 2168.340
  240.710   59.526   12.701    0.304 2172.350
  240.960   62.148   12.241    0.304 2184.340
  241.210   67.912   11.582    0.304 2218.260
  241.460   72.629   11.162    0.298 2224.260
  241.710   73.155   10.759    0.298 2224.280
  241.960   70.015   11.166    0.285 2222.300
  242.210   71.067   11.806    0.279 2220.330
  242.460   73.687   12.482    0.275 2236.300
  242.710   74.214   12.483    0.272 2254.280
  242.960   72.121   12.257    0.272 2250.300
  243.210   68.980   12.036    0.275 2238.350
  243.460   67.413   11.599    0.275 2224.400
  243.710   71.081   10.975    0.275 2206.480
  243.960   84.702   10.775    0.272 2214.480
  244.210   81.562   10.579    0.272 2218.480
  244.460   78.946   10.580    0.269 2220.490
  244.710   77.377   10.982    0.266 2226.490
  244.960   77.380   11.189    0.266 2240.470
  245.210   75.811   11.612    0.269 2280.380
  245.460   69.528   12.507    0.269 2288.370
  245.710   65.341   13.223    0.272 2228.560
  245.960   61.153   13.979    0.272 2198.650
  246.210   50.681   14.780    0.272 2206.650
  246.460   41.255   15.627    0.279 2236.590
  246.710   37.068   16.218    0.279 2242.590
  246.960   33.404   16.833    0.288 2202.710
  247.210   31.311   17.149    0.295 2194.760
  247.460   29.219   17.473    0.295 2190.780
  247.710   29.744   17.155    0.298 2188.800
  247.960   33.938   16.535    0.298 2194.810
  248.210   40.749   15.645    0.301 2188.840
  248.460   45.990   15.359    0.304 2174.900
  248.710   50.707   14.803    0.304 2166.930
  248.960   53.853   14.807    0.308 2176.930
  249.210   55.425   14.809    0.304 2188.910
  249.460   57.001   14.811    0.301 2202.900
  249.710   54.384   14.814    0.295 2210.890
  249.960   49.673   15.093    0.295 2198.940
  250.210   52.294   15.377    0.295 2181.010
  250.460   52.820   15.960    0.295 2191.000
  250.710   40.775   16.564    0.298 2200.990
  250.960   23.494   18.172    0.298 2214.960
  251.210   20.354   20.309    0.311 2203.010
  251.460   21.928   23.994    0.327 2171.120
  251.710   22.454   24.902    0.340 2131.250
  251.960   25.076   22.290    0.337 2117.300
  252.210   27.173   20.323    0.333 2119.320
  252.460   31.367   19.588    0.333 2129.310
  252.710   31.893   19.592    0.330 2139.300
  252.960   32.419   19.960    0.327 2143.300
  253.210   32.422   20.337    0.327 2143.320
  253.460   31.901   21.107    0.320 2155.310
  253.710   29.809   22.316    0.343 2169.290
  253.960   27.192   24.033    0.349 2129.420
  254.210   25.624   26.368    0.353 2113.470
  254.460   25.102   28.928    0.353 2093.550
  254.710   25.629   30.583    0.353 2095.560
  254.960   26.679   31.162    0.349 2099.570
  255.210   28.777   30.595    0.349 2103.580
  255.460   32.969   29.488    0.343 2109.570
  255.710   37.687   28.953    0.340 2119.570
  255.960   39.784   28.425    0.337 2127.560
  256.210   41.882   27.909    0.333 2131.570
  256.460   42.932   27.915    0.333 2143.560
  256.710   44.507   27.918    0.337 2149.560
  256.960   46.081   27.411    0.340 2149.570
  257.210   48.179   27.416    0.343 2147.600
  257.460   48.704   26.916    0.343 2147.610
  257.710   49.231   26.428    0.343 2141.650
  257.960   45.043   25.948    0.343 2135.690
  258.210   39.808   25.953    0.340 2127.720
  258.460   36.668   25.957    0.337 2113.780
  258.710   39.814   25.960    0.333 2113.790
  258.960   43.482   25.490    0.333 2115.810
  259.210   44.532   25.492    0.333 2119.820
  259.460   37.202   25.029    0.333 2125.820
  259.710   29.872   24.124    0.333 2129.820
  259.960   40.350   22.826    0.337 2135.820
  260.210   44.543   22.000    0.333 2143.820
  260.460   47.689   21.599    0.333 2147.820
  260.710   49.263   20.437    0.333 2151.830
  260.960   48.218   20.066    0.330 2153.850
  261.210   47.697   19.701    0.327 2157.860
  261.460   48.224   19.343    0.327 2153.880
  261.710   49.274   18.991    0.327 2147.910
  261.960   46.657   18.304    0.330 2137.960
  262.210   44.041   17.319    0.330 2135.980
  262.460   44.568   16.693    0.333 2136.010
  262.710   45.617   16.695    0.333 2136.010
  262.960   48.239   16.391    0.333 2138.040
  263.210   48.243   16.093    0.333 2140.050
  263.460   47.720   16.095    0.337 2146.050
  263.710   46.153   15.803    0.337 2136.090
  263.960   45.107   15.517    0.337 2128.130
  264.210   42.492   15.520    0.333 2122.170
  264.460   40.398   15.521    0.333 2130.170
  264.710   39.353   15.525    0.333 2136.160
  264.960   37.261   15.526    0.330 2144.160
  265.210   36.216   14.964    0.327 2150.160
  265.460   35.695   13.900    0.324 2170.120
  265.710   35.175   13.902    0.320 2210.030
  265.960   34.653   13.904    0.317 2281.850
  266.210   34.131   14.430    0.308 2311.790
  266.460   33.086   14.976    0.295 2357.680
  266.710   33.090   16.130    0.291 2662.850
  266.960   33.616   19.412    0.248 2744.650
  267.210   34.666   24.696    0.259 2772.590
  267.460   35.192   25.631    0.273 2786.570
  267.710   36.242   26.603    0.278 2796.560
