~VERSION INFORMATION
 VERS.                 2.0:   CWLS LOG ASCII STANDARD -VERSION 2.0
 WRAP.                  NO:   ONE LINE PER DEPTH STEP
~WELL INFORMATION BLOCK
#MNEM.UNIT           DATA                    DESCRIPTION OF MNEMONIC
#---------    -------------------            -------------------------------
# Generated from Intellog Unique Number	CC_80_83/WELL/2325
NULL.         -999.25                        : NULL_VALUE
WELL.         ARCO ACI McMURRAY              : Well_name    - WELL              
LOC .         09-29-083-12W4                 : Location     - LOCATION          
UWI .         AA/09-29-083-12W400            : Uwi          - UNIQUE WELL ID    
ENTR.         RJA                            : Entered      - ENTERED BY        
SRVC.         SCHLUMBERGER                   : Scn          - SERVICE COMPANY   
DATE.         15 FEB 74                      : Date         - LOG DATE
STRT.M        85.344                         : top_depth    - START DEPTH       
STOP.M        329.184                        : bot_depth    - STOP DEPTH        
STEP.M        0.3048                         : increment    - STEP LENGTH       
~CURVE INFORMATION BLOCK
#MNEM UNIT       ERCB CURVE CODE    CURVE DESCRIPTION
#-----------   ------------------   ----------------------------------
DEPT.M        00 001 00 00         : DEPTH        - DEPTH                       
DPHI.V/V      00 890 00 00         : PHID         - DENSITY POROSITY (LIMESTONE)
GR  .API      00 310 00 00         : GR           - GAMMA RAY                   
NPHI.V/V      00 330 00 00         : PHIN         - NEUTRON POROSITY (LIMESTONE)
ILD .OHMM     00 120 00 00         : RESD         - DEEP RESISTIVITY (DIL)      
~PARAMETER INFORMATION       
#MNEM.UNIT           DATA             DESCRIPTION OF MNEMONIC
#---------         -----------     ------------------------------
GL  .M        566.227              : gl           - GROUND LEVEL ELEVATION      
EREF.M        567.903              : kb           - ELEVATION OF DEPTH REFERENCE
DATM.M        567.903              : datum        - DATUM ELEVATION             
TDD .M        332.232              : tdd          - TOTAL DEPTH DRILLER         
RUN .         ONE                  : Run          - RUN NUMBER                  
ENG .         BILL                 : Engineer     - RECORDING ENGINEER          
WIT .         JIM                  : Witness      - WITNESSED BY                
MUD .         GEL                  : Mud_type     - MUD TYPE                    
MATR.         LIMESTONE            : Logunit      - NEUTRON MATRIX              
TMAX.C        18.3333              : BHT          - MAXIMUM RECORDED TEMPERATURE
BHTD.M        332.232              : BHTDEP       - MAXIMUM RECORDED TEMPERATURE
MATR.         1                    : LOGUNIT      - NEUTRON MATRIX              
RMT .C        25                   : MDTP         - TEMPERATURE OF MUD          
NEUT.         1                    : NEUTRON      - NEUTRON TYPE                
RESI.         0                    : RESIST       - RESISTIVITY TYPE            
RMC .OHMM     0.25                 : RMC          - RESISTIVITY OF MUD CAKE     
RMF .OHMM     0.25                 : RMF          - RESISTIVITY OF MUD FILTRATE 
SUFT.C        4                    : SUFT         - SURFACE TEMPERATURE         
~A  DEPTH     PHID       GR     PHIN     RESD
# ...
  297.484    0.224   79.274    0.322   12.133
  297.789    0.235   77.555    0.309   10.446
  298.094    0.239   82.462    0.300   10.056
  298.398    0.229   80.146    0.305   10.428
  298.703    0.219   77.184    0.312   10.816
  299.008    0.227   79.676    0.317   11.424
  299.313    0.213   77.355    0.319   11.632
  299.618    0.223   79.251    0.327   11.197
  299.922    0.232   84.760    0.316   11.188
  300.227    0.217   87.262    0.292   11.389
  300.532    0.234   81.892    0.285   11.380
  300.837    0.214   77.151    0.303   10.954
  301.142    0.227   78.443    0.307   10.947
  301.447    0.241   77.335    0.318   11.564
  301.751    0.248   79.800    0.321   11.132
  302.056    0.217   91.393    0.327   10.720
  302.361    0.211   93.868    0.353    9.401
  302.666    0.229   87.305    0.358    8.093
  302.971    0.269   77.722    0.331    7.651
  303.275    0.268   76.572    0.336   11.296
  303.580    0.277   81.490    0.323   14.646
  303.885    0.287   85.201    0.327   18.294
  304.190    0.278   90.724    0.334   19.330
  304.495    0.256   95.653    0.323   17.594
  304.799    0.237   88.477    0.315   16.322
  305.104    0.223   76.456    0.296   15.714
  305.409    0.215   66.859    0.300   15.997
  305.714    0.201   69.380    0.286   16.285
  306.019    0.162   76.098    0.263   15.965
  306.323    0.199   85.857    0.289   15.958
  306.628    0.231   85.322    0.290   15.075
  306.933    0.231   91.458    0.311   14.517
  307.238    0.222   89.740    0.320   12.730
  307.543    0.232   86.780    0.312   12.259
  307.848    0.238   72.344    0.309   12.709
  308.152    0.245   67.603    0.326   14.200
  308.457    0.263   73.112    0.313   15.572
  308.762    0.231   81.051    0.282   15.853
  309.067    0.208   84.154    0.287   14.978
  309.372    0.216   73.358    0.315   13.893
  309.676    0.261   68.004    0.339   14.143
  309.981    0.268   70.492    0.328   15.506
  310.286    0.244   77.838    0.321   16.085
  310.591    0.227   83.971    0.315   15.483
  310.896    0.220   84.643    0.312   14.362
  311.200    0.237   78.679    0.334   13.074
  311.505    0.253   81.800    0.312   11.900
  311.810    0.232   84.898    0.288   11.460
  312.115    0.238   80.752    0.271   11.034
  312.420    0.256   78.450    0.325   12.098
  312.724    0.284   78.471    0.351   13.770
  313.029    0.273   79.159    0.353   15.100
  313.334    0.229   84.690    0.331   14.534
  313.639    0.198   91.404    0.319   13.485
  313.944    0.203   90.883    0.308   11.610
  314.249    0.213   76.473    0.282   10.571
  314.553    0.161   71.095    0.264   10.175
  314.858    0.155   85.086    0.285   10.553
  315.163    0.223  105.710    0.359   11.572
  315.468    0.210  106.398    0.345   11.777
  315.773    0.201   87.142    0.320   10.924
  316.077    0.215   67.876    0.319   10.325
  316.382    0.293   49.208    0.344   10.316
  316.687    0.319   52.315    0.356   11.742
  316.992    0.307   69.923    0.357   14.666
  317.297    0.262   82.724    0.365   16.691
  317.601    0.235   91.257    0.369   15.484
  317.906    0.236   91.946    0.373   12.147
  318.211    0.225   93.218    0.363   10.856
  318.516    0.201   99.364    0.330   10.067
  318.821    0.189  101.250    0.307    9.515
  319.125    0.193   95.879    0.300    8.825
  319.430    0.208   83.874    0.307    8.816
  319.735    0.237   85.164    0.324    9.317
  320.040    0.253   94.307    0.310   10.603
  320.345    0.227   88.354    0.292   11.627
  320.650    0.223   79.965    0.282   12.283
  320.954    0.229   86.105    0.274   12.741
  321.259    0.214   90.412    0.285   12.968
  321.564    0.210   80.827    0.302   13.197
  321.869    0.274   73.650    0.312   13.690
  322.174    0.279   73.713    0.321   15.011
  322.478    0.266   81.657    0.353   16.772
  322.783    0.258   83.573    0.345   19.085
  323.088    0.252   83.644    0.339   20.168
  323.393    0.240   84.935    0.323   20.529
  323.698    0.231   85.604    0.313   19.765
  324.002    0.224   84.474    0.319   18.332
  324.307    0.211   78.508    0.312   17.002
  324.612    0.198   23.580    0.268   16.068
  324.917    0.188   12.178    0.220   14.904
  325.222    0.167    9.855    0.165   15.172
  325.526    0.083    9.312    0.142   17.269
  325.831    0.077    5.775    0.137   25.028
  326.136    0.068    3.434    0.125   38.368
  326.441    0.062    2.299    0.109   73.515
  326.746    0.051    1.780    0.109   95.316
  327.051    0.049    1.259    0.115   93.462
  327.355    0.056    1.371    0.125   86.700
  327.660    0.060    1.433    0.131   80.420
  327.965    0.046    1.493    0.126   74.593
  328.270    0.042    1.574    0.133   71.801
  328.575    0.045    1.673    0.134   69.126
  328.879    0.048    2.357    0.132   67.791
  329.184    0.055    2.434    0.128   67.748
