~Version : LASO    vs 4.00
VERS.                2.00:   CWLS Log ASCII Standard -VERSION 2.0
WRAP.                  NO:
~Well Information Block
#MNEM.UNIT       Data                        Description of Mnemonic
#----.----      -------------------------- : -----------------------------
STRT.M            13.0000:
STOP.M           191.0000:
STEP.M             0.2000:
NULL.           -999.2500:
COMP.  MOBIL OIL OF CANADA          :COMPANY
WELL.  MOBIL CLARKE OV 4-1          :WELL
FLD.                                :FIELD
LOC.   04-01-091-08W4               :LOCATION
CTRY.  CANADA                       :COUNTRY
PROV.  ALBERTA                      :PROVINCE
SRVC.  SCHLUMBERGER                 :SERVICE COMPANY
DATE.  12-FEB-81                    :LOG DATE
UWI.   AA/04-01-091-08W400          :UNIQUE WELL ID
~Parameter Information Block
#MNEM.UNIT       Data                        Description of Mnemonic
#----.----      -------------------------- : -----------------------------
RUN .                   1                 : Run Number
GL  .M           444.1000                 : Ground Level Elevation
DREF.                  GD                 : Depth Reference
EREF.M           444.1000                 : Elevation of Depth Reference
TDL .M           191.5000                 : Total Depth Logger
TDD .M           192.0000                 : Total Depth Driller
CSGL.M            15.0000                 : Casing Bottom Logger
CSGD.M            15.0000                 : Casing Bottom Driller
CSGS.MM          179.0000                 : Casing Size
CSGW.KG/M          0.0000                 : Casing Weight
BHT .DEGC         12.0000                 : Bottom Hole Temperature
BS  .MM          158.0000                 : Bit Size
DFD .           1080.0000                 : Mud Weight (Density)
DFV .             85.0000                 : Mud Viscosity
DFPH.             12.6000                 : Mud pH
~Curve Information Block
#MNEM.UNIT        API CODE    Curve Description
#---------    ------------    -------------------------------------------
DEPT.M                    :   DEPTH
CALI.MM       42 280  1  1:   3 DENSITY CALIPER
DPHI.V/V                  :   DPHI
DT  .US/M     60 520  0  1:   2 SONIC INTERVAL TRANSIT TIME (COMPENSATED)
GR  .GAPI     42 310  1  1:   4 GAMMA RAY
ILD .OHMM      5 120 46  1:   7 DEEP INDUCTION
ILM .OHMM      5 120 44  1:   8 MEDIUM INDUCTION
NPHI.V/V      42 890  3  1:   5 NEUTRON POROSITY (SANDSTONE)
RHOB.K/M3     42 350  1  1:   6 BULK DENSITY
SFLU.OHMM      5 220  1  1:   9 FOCUSSED RESISTIVITY
SP  .MV        5  10  1  1:   10 SPONTANEOUS POTENTIAL
~A  Depth           CALI        DPHI          DT          GR         ILD         ILM        NPHI        RHOB        SFLU          SP
# ...
25.2000         178.4250      0.1244    429.2400     51.9000     33.7466    391.7689      0.2687   2508.8999     97.2366    -69.7350
25.4000         178.4250      0.1349    441.9600     54.5100     34.3740    410.2324      0.2881   2433.6001     90.3296    -71.7450
25.6000         184.6000      0.1352    450.1200     58.4100     34.3740    406.4713      0.3051   2431.6001     90.3296    -71.9850
25.8000         190.8000      0.1321    471.3600     62.5050     34.3740    402.7448      0.3136   2442.5000     87.0623    -71.7450
26.0000         185.8500      0.0999    484.2400     65.1150     34.0588    406.4713      0.2959   2453.3999     86.2641    -70.7400
26.2000         199.4750      0.0742    499.4800     64.8150     33.7466    410.2324      0.2790   2553.3999     80.8779    -69.4800
26.4000         189.5750      0.0703    499.9600     64.4100     33.7466    417.8592      0.2675   2546.5000     79.4017    -69.4800
26.6000         184.6000      0.0796    480.8000     66.5100     33.7466    395.3939      0.2679   2530.6001     92.8603    -69.7350
26.8000         174.7000      0.1073    443.6000     71.1150     33.4372    384.6183      0.3076   2449.5000     89.5014    -71.7450
27.0000         174.7000      0.1220    435.0800     69.7200     32.8269    399.0524      0.3271   2421.7000     79.4017    -71.9850
27.2000         175.9250      0.1369    455.9200     66.8100     32.2277    410.2324      0.3238   2398.0000     85.4732    -71.4900
27.4000         175.9250      0.1433    490.8400     65.4150     30.4951    402.7448      0.2942   2439.6001     77.9525    -68.2350
27.6000         179.6500      0.1311    494.4000     66.3150     29.9385    399.0524      0.2802   2441.5000     64.8381    -65.9700
27.8000         182.1250      0.1189    490.1600     67.3200     29.6640    388.1771      0.2718   2479.2000     50.5627    -63.4650
28.0000         183.3750      0.0962    462.8800     62.0100     28.5910    421.7256      0.2588   2520.7000     42.4453    -61.9650
28.2000         184.6000      0.0839    446.9200     58.7100     28.0692    410.2324      0.2471   2541.5000     52.4602    -62.7150
28.4000         180.9000      0.0782    433.8800     58.7100     27.0539    395.3939      0.2407   2546.5000     66.0435    -62.9700
28.6000         190.8000      0.0686    416.6800     61.6050     26.5601    377.5982      0.2677   2538.6001     54.4289    -62.2200
28.8000         189.5750      0.0691    412.7600     63.4050     26.0753    384.6183      0.2996   2544.5000     43.6345    -62.2200
29.0000         180.9000      0.0780    413.2400     65.5200     25.3647    406.4713      0.3275   2544.5000     38.3557    -62.9700
29.2000         175.9250      0.1012    425.6400     66.9150     24.4472    406.4713      0.3469   2475.2000     38.3557    -63.2100
29.4000         177.1750      0.1130    460.8800     66.3150     22.7107    406.4713      0.3337   2457.3999     33.4064    -61.9650
29.6000         180.9000      0.1316    463.8400     63.9150     22.0917    406.4713      0.3218   2502.8999     29.9109    -61.4550
29.8000         180.9000      0.1184    460.6000     64.0050     22.0917    410.2324      0.3185   2479.2000     27.0290    -61.4550
30.0000         200.7250      0.1031    439.1200     64.9200     22.0917    417.8592      0.3088   2498.0000     28.8290    -61.2150
30.2000         203.2000      0.0952    445.1600     65.1150     22.2962    406.4713      0.3152   2493.0000     31.9029    -60.9600
30.4000         200.7250      0.0937    450.0400     62.9100     22.2962    410.2324      0.3168   2516.8000     34.9808    -60.9600
30.6000         190.8000      0.0903    438.8400     59.6100     23.1329    395.3939      0.2842   2515.8000     42.0562    -60.9600
30.8000         190.8000      0.0887    429.6800     60.7050     23.5630    410.2324      0.2856   2523.7000     39.4303    -60.7050
31.0000         189.5750      0.0874    421.9200     62.4150     23.7810    410.2324      0.2924   2534.6001     35.6312    -60.7050
31.2000         190.8000      0.0846    416.2400     61.8150     24.0010    395.3939      0.2823   2511.8000     37.6556    -60.4650
31.4000         190.8000      0.0856    418.1200     62.3100     24.0010    388.1771      0.2809   2537.6001     39.4303    -60.2100
31.6000         190.8000      0.0831    421.8800     64.3200     23.7810    402.7448      0.2891   2518.8000     39.0688    -60.2100
31.8000         199.4750      0.0775    421.5200     65.6100     23.5630    406.4713      0.3127   2530.6001     35.3045    -60.4650
32.0000         197.0000      0.0853    419.9600     67.8150     23.5630    399.0524      0.3195   2552.3999     33.4064    -60.4650
32.2000         193.2750      0.0921    422.0000     70.0200     23.3469    402.7448      0.3156   2528.7000     32.4960    -60.4650
32.4000         197.0000      0.0738    426.4800     70.1250     23.1329    381.0921      0.3022   2532.6001     34.3423    -60.4650
32.6000         190.8000      0.0739    445.3600     67.2150     22.9208    406.4713      0.2823   2540.5000     38.0041    -60.7050
32.8000         189.5750      0.0711    441.1600     65.4150     22.9208    406.4713      0.2881   2548.5000     36.2936    -60.9600
33.0000         187.0750      0.0744    433.8800     64.0050     22.9208    402.7448      0.2987   2522.7000     35.3045    -60.9600
33.2000         177.1750      0.0848    427.0400     63.1050     22.9208    402.7448      0.2909   2520.7000     33.7155    -60.7050
33.4000         175.9250      0.0930    423.2800     62.5050     22.9208    406.4713      0.2872   2540.5000     33.7155    -60.7050
33.6000         175.9250      0.0952    431.4400     62.2050     22.9208    421.7256      0.2915   2535.6001     34.9808    -60.7050
33.8000         184.6000      0.0957    445.6800     65.7150     22.7107    402.7448      0.2927   2497.0000     37.6556    -60.7050
34.0000         187.0750      0.0797    448.6800     65.8200     22.7107    406.4713      0.2930   2461.3000     36.9683    -60.7050
34.2000         183.3750      0.1142    447.6000     66.7200     22.7107    377.5982      0.3016   2433.6001     34.0275    -60.4650
34.4000         201.9500      0.1275    434.6800     72.0150     22.2962    410.2324      0.3154   2436.6001     32.1981    -60.4650
34.6000         204.4250      0.1326    430.1600     73.2150     22.0917    402.7448      0.3263   2471.2000     29.6367    -60.7050
34.8000         180.9000      0.1325    420.4800     72.9150     22.0917    402.7448      0.3251   2516.8000     29.9109    -60.7050
35.0000         185.8500      0.1182    407.6400     68.8200     21.4897    406.4713      0.3236   2437.6001     31.9029    -60.9600
35.2000         197.0000      0.1008    412.0000     67.5150     21.0974    410.2324      0.3312   2389.1001     30.7489    -61.2150
35.4000         205.6750      0.1050    410.0000     65.4150     20.9040    425.6277      0.3359   2394.0000     28.3028    -61.2150
35.6000         206.9000      0.1368    404.4400     63.2100     20.7124    406.4713      0.3398   2421.7000     26.5357    -60.9600
35.8000         206.9000      0.1543    422.2400     61.7100     20.3343    410.2324      0.3362   2435.6001     28.0434    -60.7050
36.0000         206.9000      0.1545    421.8000     64.4100     19.9632    381.0921      0.3224   2468.3000     29.0958    -60.4650
36.2000         209.4000      0.1324    407.5200     68.6100     19.7802    395.3939      0.3109   2449.5000     29.0958    -60.4650
36.4000         210.6250      0.1270    300.6400     70.5150     19.5988    410.2324      0.3292   2457.3999     26.0513    -60.2100
36.6000         213.1000      0.1230    334.8800     71.0250     19.7802    406.4713      0.3343   2471.2000     25.1090    -60.2100
36.8000         223.0250      0.1158    363.5600     70.3200     19.7802    402.7448      0.3436   2483.1001     23.7591    -60.2100
37.0000         199.4750      0.1072    440.9600     69.9150     20.9040    406.4713      0.3325   2497.0000     26.0513    -60.2100
37.2000         194.5250      0.0985    454.9600     69.0150     21.0974    417.8592      0.3158   2516.8000     29.9109    -60.2100
