~VERSION INFORMATION
 VERS.                 2.0:   CWLS LOG ASCII STANDARD -VERSION 2.0
 WRAP.                  NO:   ONE LINE PER DEPTH STEP
~WELL INFORMATION BLOCK
#MNEM.UNIT           DATA                    DESCRIPTION OF MNEMONIC
#---------    -------------------            -------------------------------
# Generated from Intellog Unique Number	CX_WELLS/WELL/3784
WELL.         BIT SAND                       : Well_name    - WELL
LOC .         AA/08-28-086-15W4/0            : Location     - LOCATION
UWI .         AA/08-28-086-15W400            : Uwi          - UNIQUE WELL ID
ENTR.         T                              : Entered      - ENTERED BY
SRVC.         SCHLUMBERGER                   : Scn          - SERVICE COMPANY
STRT.F        200                            : top_depth    - START DEPTH
STOP.F        679.823                        : bot_depth    - STOP DEPTH
STEP.F        0.82                           : increment    - STEP LENGTH
 NULL. -999.2500:NULL Value
~CURVE INFORMATION BLOCK
#MNEM UNIT       ERCB CURVE CODE    CURVE DESCRIPTION
#-----------   ------------------   ----------------------------------
DEPT.F        00 001 00 00         : DEPTH        - DEPTH
GR  .API      00 310 00 00         : GR           - GAMMA RAY
NPHI.V/V      00 330 00 00         : PHIN         - NEUTRON POROSITY (SANDSTONE)
ILD .OHMM     00 120 00 00         : RESD         - DEEP RESISTIVITY (DIL)
~PARAMETER INFORMATION
#MNEM.UNIT           DATA             DESCRIPTION OF MNEMONIC
#---------         -----------     ------------------------------
GL  .F        1631                 : gl           - GROUND LEVEL ELEVATION
EREF.F        1631                 : kb           - ELEVATION OF DEPTH REFERENCE
DATM.F        1631                 : datum        - DATUM ELEVATION
TDD .F        681                  : tdd          - TOTAL DEPTH DRILLER
RUN .         ONE                  : Run          - RUN NUMBER
ENG .         BILL                 : Engineer     - RECORDING ENGINEER
WIT .         JIM                  : Witness      - WITNESSED BY
MUD .         GEL                  : Mud_type     - MUD TYPE
MATR.         SANDSTONE            : Logunit      - NEUTRON MATRIX
TMAX.F        53                   : BHT          - MAXIMUM RECORDED TEMPERATURE
BHTD.F        682                  : BHTDEP       - MAXIMUM RECORDED TEMPERATURE
MATR.         1                    : LOGUNIT      - NEUTRON MATRIX
RMT .F        53                   : MDTP         - TEMPERATURE OF MUD
NEUT.         1                    : NEUTRON      - NEUTRON TYPE
RESI.         10                   : RESIST       - RESISTIVITY TYPE
RMC .OHMM     2                    : RMC          - RESISTIVITY OF MUD CAKE
RMF .OHMM     3.9                  : RMF          - RESISTIVITY OF MUD FILTRATE
SUFT.F        39.2                 : SUFT         - SURFACE TEMPERATURE
~A  DEPTH       GR     PHIN     RESD
# ...
  555.971  110.962    0.426   25.317
  556.791   99.802    0.421   23.291
  557.612   91.013    0.409   21.434
  558.432   75.782    0.397   20.590
  559.252   67.671    0.404   25.834
  560.072   63.965    0.417   30.062
  560.892   63.651    0.422   35.305
  561.713   63.332    0.415   39.872
  562.533   63.352    0.413   41.058
  563.353   63.711    0.412   41.736
  564.173   64.747    0.415   41.231
  564.993   69.182    0.414   40.557
  565.814   69.192    0.409   40.223
  566.634   68.873    0.408   39.886
  567.454   69.570    0.408   39.550
  568.274   72.640    0.411   39.215
  569.094   74.020    0.414   39.216
  569.915   73.696    0.416   39.218
  570.735   73.387    0.417   38.714
  571.555   73.746    0.418   37.025
  572.375   74.783    0.421   33.984
  573.196   76.163    0.424   28.746
  574.016   77.533    0.423   23.677
  574.836   78.231    0.424   25.538
  575.656   78.246    0.426   29.260
  576.476   78.615    0.425   29.769
  577.297   82.356    0.427   24.192
  578.117   86.781    0.437   15.235
  578.937   90.528    0.450   10.841
  579.757   97.329    0.464    8.815
  580.577  107.174    0.479    7.465
  581.398  114.652    0.492    6.453
  582.218  112.640    0.489    5.948
  583.038  112.998    0.484    5.613
  583.858  113.357    0.477    5.615
  584.678  114.060    0.473    5.786
  585.499  114.419    0.466    6.126
  586.319  113.761    0.459    6.298
  587.139  109.716    0.462    6.299
  587.959  103.293    0.467    6.132
  588.780   98.231    0.474    5.967
  589.600   97.913    0.478    6.307
  590.420  108.779    0.480    6.647
  591.240  112.187    0.481    7.157
  592.060  113.562    0.476    7.835
  592.881  106.468    0.450    8.682
  593.701  104.455    0.444   10.037
  594.521   97.699    0.434   11.560
  595.341   93.653    0.427   14.775
  596.161   90.286    0.428   17.313
  596.982   89.289    0.432   15.963
  597.802   87.276    0.434   14.105
  598.622   83.909    0.439   14.445
  599.442   81.218    0.443   16.814
  600.262   78.528    0.440   20.705
  601.083   76.859    0.429   27.470
  601.903   73.491    0.419   23.753
  602.723   71.817    0.412   22.572
  603.543   71.498    0.415   23.419
  604.364   70.163    0.418   29.338
  605.184   68.828    0.424   33.228
  606.004   69.520    0.428   41.177
  606.824   68.529    0.404   58.253
  607.644   66.516    0.396   58.425
  608.465   64.504    0.386   58.427
  609.285   62.830    0.384   58.768
  610.105   64.549    0.384   59.108
  610.925   71.006    0.378   59.449
  611.745   72.037    0.376   59.619
  612.566   78.843    0.379   58.100
  613.386   81.569    0.381   54.552
  614.206   87.348    0.385   50.666
  615.026   91.778    0.389   38.496
  615.846   95.186    0.392   31.060
  616.667  100.288    0.364   35.796
  617.487  103.023    0.348   48.139
  618.307   97.284    0.341   56.425
  619.127   94.588    0.341   58.963
  619.948   88.171    0.341   59.473
  620.768   80.060    0.346   60.151
  621.588   72.965    0.352   61.844
  622.408   66.892    0.377   62.184
  623.228   67.928    0.404   57.961
  624.049   69.976    0.429   51.200
  624.869   77.793    0.434   44.947
  625.689   90.688    0.418   31.933
  626.509  111.379    0.388   34.978
  627.329  103.273    0.369   40.221
  628.150   97.195    0.350   49.859
  628.970   91.451    0.349   56.792
  629.790   89.776    0.351   60.007
  630.610   86.747    0.354   59.334
  631.430   82.029    0.358   56.630
  632.251   83.404    0.370   54.773
  633.071   84.102    0.377   51.563
  633.891   84.122    0.382   41.760
  634.711   84.147    0.347   37.705
  635.531   84.835    0.337   42.441
  636.352   86.554    0.349   47.514
  637.172   88.950    0.375   56.646
  637.992   89.648    0.390   50.900
  638.812   89.329    0.397   45.831
  639.633   89.005    0.374   39.916
  640.453   88.353    0.376   38.228
  641.273   88.039    0.400   37.385
  642.093   87.710    0.403   36.035
  642.913   87.053    0.391   34.685
  643.734   88.099    0.371   34.180
  644.554   90.486    0.375   33.336
  645.374   95.588    0.388   32.662
  646.194  107.132    0.401   31.650
  647.014  105.119    0.418   29.962
  647.835   97.008    0.446   28.443
  648.655   92.280    0.467   26.924
  649.475   92.983    0.403   26.250
  650.295   95.713    0.379   25.407
  651.115   99.121    0.369   24.902
  651.936   99.824    0.350   24.227
  652.756   93.406    0.357   24.906
  653.576   92.066    0.373   26.937
  654.396   86.327    0.376   36.407
  655.217   85.335    0.376   55.343
  656.037   83.662    0.373   60.755
  656.857   81.305    0.371   47.740
  657.677   80.991    0.376   39.627
  658.497   89.142    0.380   30.839
  659.318   91.534    0.374   28.813
  660.138   93.931    0.371   28.138
  660.958   95.645    0.369   26.957
  661.778   98.041    0.361   26.453
  662.598   99.750    0.384   25.949
  663.419   98.754    0.368   25.781
  664.239   92.337    0.337   25.614
  665.059   91.340    0.329   26.799
  665.879   82.557    0.326   28.661
  666.699   80.873    0.338   32.213
  667.520   77.844    0.351   48.445
  668.340   75.836    0.354   53.350
  669.160   74.501    0.347   53.690
  669.980   75.198    0.343   52.678
  670.801   77.934    0.338   51.498
  671.621   80.998    0.331   50.654
  672.441   86.444    0.303   42.203
  673.261   85.114    0.273   38.825
  674.081   84.112    0.203   36.122
  674.902   79.055    0.132   34.941
  675.722   78.731    0.100   33.422
  676.542   77.401    0.058   30.719
  677.362   76.405    0.045   28.862
  678.182   75.409    0.027   27.850
  679.003   74.073    0.012   26.838
  679.823   72.733    0.004   26.332
