~VERSION INFORMATION
 VERS.                 2.0:   CWLS LOG ASCII STANDARD -VERSION 2.0
 WRAP.                  NO:   ONE LINE PER DEPTH STEP
~WELL INFORMATION BLOCK
#MNEM.UNIT           DATA                    DESCRIPTION OF MNEMONIC
#---------    -------------------            -------------------------------
# Generated from Intellog Unique Number	CN_94_101/WELL/3616
WELL.         07-24-096-13W4                 : Well_name    - WELL
LOC .         AA/07-24-096-13W4/0            : Location     - LOCATION
UWI .         AA/07-24-096-13W400            : Uwi          - UNIQUE WELL ID
ENTR.         JOETTE                         : Entered      - ENTERED BY
SRVC.         SCHLUMBERGER                   : Scn          - SERVICE COMPANY
DATE.         08\04\92                       : Date         - LOG DATE
STRT.F        50                             : top_depth    - START DEPTH
STOP.F        674.18                         : bot_depth    - STOP DEPTH
STEP.F        0.8202                         : increment    - STEP LENGTH
 NULL. -999.2500:NULL Value
~CURVE INFORMATION BLOCK
#MNEM UNIT       ERCB CURVE CODE    CURVE DESCRIPTION
#-----------   ------------------   ----------------------------------
DEPT.F        00 001 00 00         : DEPTH        - DEPTH
ILD .OHMM     00 120 00 00         : RESD         - DEEP RESISTIVITY (DIL)
GR  .API      00 310 00 00         : GR           - GAMMA RAY
DPHI.V/V      00 890 00 00         : PHID         - DENSITY POROSITY (SANDSTONE)
~PARAMETER INFORMATION
#MNEM.UNIT           DATA             DESCRIPTION OF MNEMONIC
#---------         -----------     ------------------------------
GL  .M        413.309              : gl           - GROUND LEVEL ELEVATION
EREF.M        414.528              : kb           - ELEVATION OF DEPTH REFERENCE
DATM.M        414.528              : datum        - DATUM ELEVATION
TDD .M        209.55               : tdd          - TOTAL DEPTH DRILLER
RUN .         ONE                  : Run          - RUN NUMBER
ENG .         JO                   : Engineer     - RECORDING ENGINEER
WIT .         TIM                  : Witness      - WITNESSED BY
MUD .         GEL                  : Mud_type     - MUD TYPE
MATR.         SANDSTONE            : Logunit      - NEUTRON MATRIX
TMAX.F        89.6                 : BHT          - MAXIMUM RECORDED TEMPERATURE
BHTD.F        687.5                : BHTDEP       - MAXIMUM RECORDED TEMPERATURE
RMT .F        66.2                 : MDTP         - TEMPERATURE OF MUD
MUDD.LB/G     9                    : MWT          - MUD DENSITY
NEUT.         1                    : NEUTRON      - NEUTRON TYPE
RESI.         0                    : RESIST       - RESISTIVITY TYPE
RM  .OHMM     5.3                  : RM           - RESISTIVITY OF MUD
RMC .OHMM     5.3                  : RMC          - RESISTIVITY OF MUD CAKE
RMF .OHMM     5.3                  : RMF          - RESISTIVITY OF MUD FILTRATE
SUFT.F        39.2                 : SUFT         - SURFACE TEMPERATURE
~A  DEPTH     RESD       GR     PHID
# ...
  227.986   13.106   79.746    0.211
  228.806   11.976   79.790    0.188
  229.626    9.450   79.835    0.174
  230.446   10.375   80.686    0.164
  231.266   10.778   80.730    0.139
  232.087   10.216   66.017    0.035
  232.907    9.683   52.521    0.011
  233.727   11.024   45.784   -0.011
  234.547   18.107   51.017   -0.021
  235.367   25.696   55.043   -0.006
  236.188   59.811   59.479    0.013
  237.008  141.795   67.897    0.148
  237.828   15.446   67.941    0.252
  238.648   11.972   70.772    0.233
  239.469   11.553   73.217    0.216
  240.289   10.556   75.252    0.204
  241.109    9.298   76.093    0.207
  241.929    8.656   74.544    0.208
  242.749    8.992   77.397    0.223
  243.570    9.338   80.229    0.224
  244.390    9.524   81.457    0.229
  245.210    9.194   79.510    0.237
  246.030    9.210   76.777    0.225
  246.850    9.925   76.821    0.219
  247.671   10.501   77.264    0.225
  248.491    7.561   76.909    0.239
  249.311    5.544   74.166    0.243
  250.131    8.463   72.219    0.238
  250.951    9.289   75.050    0.235
  251.772   10.582   79.099    0.230
  252.592   10.030   78.734    0.225
  253.412    9.162   75.592    0.225
  254.232    8.684   74.850    0.214
  255.052    8.386   76.875    0.205
  255.873    8.248   81.310    0.204
  256.693    8.257   82.162    0.197
  257.513    7.974   81.808    0.199
  258.333    7.701   81.044    0.229
  259.154    7.709   79.495    0.237
  259.974    7.717   77.946    0.241
  260.794    7.731   78.400    0.221
  261.614    7.882   80.833    0.222
  262.434    8.191   82.072    0.237
  263.255    9.156   80.523    0.198
  264.075   11.216   75.390    0.168
  264.895   11.867   79.018    0.165
  265.715    5.922   85.445    0.249
  266.535    4.263   85.091    0.238
  267.356    3.184   83.155    0.257
  268.176    3.188   81.595    0.243
  268.996    5.241   77.269    0.237
  269.816    7.572   77.712    0.228
  270.636    8.313   74.160    0.231
  271.457    7.876   71.417    0.260
  272.277    8.804   78.242    0.255
  273.097    6.000   82.279    0.256
  273.917    3.531   83.518    0.263
  274.738    2.786   81.173    0.262
  275.558    2.690   79.226    0.254
  276.378    2.846   77.677    0.254
  277.198    3.183   76.935    0.249
  278.018    3.827   75.785    0.232
  278.839    5.140   73.827    0.228
  279.659    7.162   69.888    0.195
  280.479    8.153   76.315    0.201
  281.299    9.114   80.740    0.207
  282.119    9.296   85.574    0.219
  282.940    7.609   86.016    0.232
  283.760    6.464   83.272    0.213
  284.580    7.091   82.929    0.188
  285.400    8.223   86.967    0.172
  286.220    9.715   84.599    0.206
  287.041   11.060   82.663    0.227
  287.861   13.308   83.105    0.194
  288.681   11.939   78.769    0.191
  289.501   11.111   79.211    0.196
  290.322   11.973   84.831    0.187
  291.142   13.384   85.693    0.165
  291.962   14.422   82.540    0.150
  292.782   12.028   77.396    0.139
  293.602   13.942   78.646    0.115
  294.423   16.173   81.887    0.150
  295.243   12.998   80.338    0.183
  296.063   11.877   77.982    0.208
  296.883   13.776   76.046    0.214
  297.703   14.840   79.685    0.187
  298.524   15.416   81.322    0.186
  299.344   14.893   82.173    0.188
  300.164   14.377   81.819    0.205
  300.984   14.136   83.047    0.178
  301.804   13.646   87.472    0.175
  302.625   13.169   86.719    0.175
  303.445   12.948   84.772    0.180
  304.265   12.504   83.223    0.177
  305.085   12.071   80.479    0.182
  305.906   11.868   84.915    0.192
  306.726   12.333   89.749    0.186
  307.546   12.351   87.393    0.186
  308.366   12.144   82.658    0.194
  309.186   12.156   79.118    0.199
  310.007   12.399   79.560    0.199
  310.827   13.361   83.996    0.214
  311.647   13.884   83.243    0.212
  312.467   11.575   78.508    0.199
  313.287   10.772   76.163    0.191
  314.108   11.397   72.225    0.196
  314.928   12.509   72.269    0.226
  315.748   12.762   65.543    0.253
  316.568   13.012   72.755    0.242
  317.388   14.820   77.191    0.217
  318.209   13.295   78.441    0.212
  319.029   11.928   76.493    0.228
  319.849   11.736   74.933    0.235
  320.669   11.748   76.570    0.241
  321.490   11.761   81.404    0.215
  322.310   11.781   82.245    0.226
  323.130   12.021   77.112    0.219
  323.950   12.256   72.775    0.223
  324.770   13.460   68.439    0.222
  325.591   14.231   64.102    0.221
  326.411   15.619   61.359    0.240
  327.231   17.789   59.013    0.256
  328.051   16.254   63.040    0.172
  328.871   12.364   67.486    0.135
  329.692   12.166   64.732    0.128
  330.512   13.100   61.192    0.159
  331.332   15.477   68.802    0.196
  332.152   15.212   80.406    0.188
  332.972   12.456   85.638    0.184
  333.793   10.769   84.100    0.219
  334.613    8.344   80.959    0.238
  335.433    6.464   79.399    0.223
  336.253    6.018   79.841    0.225
  337.073    6.249   81.489    0.218
  337.894    7.249   83.933    0.213
  338.714    7.670   86.378    0.209
  339.534    7.822   87.197    0.184
  340.354    8.429   88.856    0.175
  341.175    9.083   85.692    0.183
  341.995    7.858   80.957    0.155
  342.815    8.468   79.021    0.141
  343.635   10.004   87.029    0.133
  344.455    8.809   91.067    0.159
  345.276    6.827   90.713    0.188
  346.096    6.123   92.350    0.190
  346.916    5.911   90.812    0.209
  347.736    5.207   86.863    0.212
  348.556    4.503   87.316    0.213
  349.377    3.823   87.758    0.232
  350.197    3.431   85.004    0.208
  351.017    3.564   85.855    0.223
  351.837    3.840   87.890    0.211
  352.657    4.793   87.536    0.188
  353.478    5.557   87.182    0.228
  354.298    7.329   85.633    0.252
  355.118    8.979   81.296    0.242
  355.938    9.854   82.933    0.233
  356.759    9.177   85.776    0.224
  357.579    8.853   85.433    0.206
  358.399    8.549   83.873    0.191
  359.219    8.723   85.510    0.205
  360.039    9.400   90.764    0.192
  360.860   10.125   89.990    0.162
  361.680   11.318   87.656    0.138
  362.500   10.927   85.310    0.098
  363.320   10.360   82.157    0.029
  364.140   12.013   75.431    0.003
  364.961   17.042   67.898    0.070
  365.781   26.994   81.095    0.134
  366.601   11.211   88.716    0.145
  367.421    9.177   91.559    0.139
  368.241    9.713   90.818    0.182
  369.062   10.277   89.258    0.195
  369.882    9.921   83.328    0.184
  370.702    9.065   84.965    0.179
  371.522    7.697   86.215    0.208
  372.343    6.782   87.454    0.219
  373.163    6.666   90.684    0.233
  373.983    7.876   91.535    0.198
  374.803    8.330   88.382    0.188
  375.623    7.898   84.444    0.190
  376.444    7.219   84.886    0.166
  377.264    6.840   86.125    0.152
  378.084    6.252   86.578    0.185
  378.904    5.924   86.224    0.181
  379.724    5.719   88.270    0.162
  380.545    5.833   86.710    0.200
  381.365    6.285   87.551    0.165
  382.185    7.028   87.197    0.170
  383.005    6.785   88.458    0.204
  383.825    6.431   83.314    0.205
  384.646    6.681   78.966    0.187
  385.466    7.606   79.419    0.216
  386.286    8.505   85.039    0.239
  387.106    7.219   89.087    0.239
  387.927    5.802   90.326    0.227
  388.747    4.578   89.175    0.220
  389.567    4.340   86.830    0.210
  390.387    5.222   84.872    0.211
  391.207    5.731   82.128    0.213
  392.028    5.434   82.969    0.210
  392.848    5.244   82.216    0.215
  393.668    5.062   81.873    0.215
  394.488    4.979   81.121    0.206
  395.308    4.807   84.351    0.174
  396.129    5.180   87.581    0.175
  396.949    5.899   89.240    0.185
  397.769    6.239   87.281    0.168
  398.589    5.597   82.148    0.192
  399.409    4.417   76.606    0.290
  400.230    3.616   65.898    0.298
  401.050    3.128   59.172    0.309
  401.870    2.858   60.422    0.313
  402.690    2.758   59.271    0.304
  403.510    2.568   60.897    0.299
  404.331    2.619   68.120    0.275
  405.151    2.671   68.164    0.263
