~VERSION INFORMATION
 VERS.                 2.0:   CWLS LOG ASCII STANDARD -VERSION 2.0
 WRAP.                  NO:   ONE LINE PER DEPTH STEP
~WELL INFORMATION BLOCK
#MNEM.UNIT           DATA                    DESCRIPTION OF MNEMONIC
#---------    -------------------            -------------------------------
# Generated from Intellog Unique Number	CC_84_87/WELL/1164
NULL.         -999.25                        : NULL_VALUE
WELL.         SUN CHEECHAM CH 25             : Well_name    - WELL              
LOC .         07-23-086-07W4                 : Location     - LOCATION          
UWI .         AA/07-23-086-07W400            : Uwi          - UNIQUE WELL ID    
ENTR.         RJA                            : Entered      - ENTERED BY        
SRVC.         SCHLUMBERGER                   : Scn          - SERVICE COMPANY   
DATE.         18 MAR 80                      : Date         - LOG DATE
STRT.M        55                             : top_depth    - START DEPTH       
STOP.M        240.102                        : bot_depth    - STOP DEPTH        
STEP.M        0.3                            : increment    - STEP LENGTH       
~CURVE INFORMATION BLOCK
#MNEM UNIT       ERCB CURVE CODE    CURVE DESCRIPTION
#-----------   ------------------   ----------------------------------
DEPT.M        00 001 00 00         : DEPTH        - DEPTH                       
DPHI.V/V      00 890 00 00         : PHID         - DENSITY POROSITY (LIMESTONE)
NPHI.V/V      00 330 00 00         : PHIN         - NEUTRON POROSITY (LIMESTONE)
GR  .API      00 310 00 00         : GR           - GAMMA RAY                   
ILD .OHMM     00 120 00 00         : RESD         - DEEP RESISTIVITY (DIL)      
~PARAMETER INFORMATION       
#MNEM.UNIT           DATA             DESCRIPTION OF MNEMONIC
#---------         -----------     ------------------------------
GL  .M        481.7                : gl           - GROUND LEVEL ELEVATION      
EREF.M        483.76               : kb           - ELEVATION OF DEPTH REFERENCE
DATM.M        483.76               : datum        - DATUM ELEVATION             
TDD .M        245                  : tdd          - TOTAL DEPTH DRILLER         
RUN .         ONE                  : Run          - RUN NUMBER                  
ENG .         BILL                 : Engineer     - RECORDING ENGINEER          
WIT .         JIM                  : Witness      - WITNESSED BY                
MUD .         GEL                  : Mud_type     - MUD TYPE                    
MATR.         LIMESTONE            : Logunit      - NEUTRON MATRIX              
TMAX.C        18                   : BHT          - MAXIMUM RECORDED TEMPERATURE
BHTD.M        245                  : BHTDEP       - MAXIMUM RECORDED TEMPERATURE
MATR.         1                    : LOGUNIT      - NEUTRON MATRIX              
RMT .C        25                   : MDTP         - TEMPERATURE OF MUD          
NEUT.         1                    : NEUTRON      - NEUTRON TYPE                
RESI.         0                    : RESIST       - RESISTIVITY TYPE            
RMC .OHMM     0.25                 : RMC          - RESISTIVITY OF MUD CAKE     
RMF .OHMM     0.25                 : RMF          - RESISTIVITY OF MUD FILTRATE 
SUFT.C        15                   : SUFT         - SURFACE TEMPERATURE         
~A  DEPTH     PHID     PHIN       GR     RESD
# ...
  107.200    0.308    0.340   85.092   11.490
  107.500    0.291    0.333   80.382   14.622
  107.800    0.280    0.350   84.470   18.062
  108.100    0.269    0.382   87.946   20.251
  108.400    0.322    0.394   87.087   20.491
  108.700    0.281    0.390   86.042   19.463
  109.000    0.228    0.347   76.873   17.245
  109.300    0.201    0.328   72.956   16.195
  109.600    0.257    0.330   76.128   15.908
  109.900    0.287    0.348   76.856   17.345
  110.200    0.318    0.355   81.739   20.442
  110.500    0.306    0.377   86.743   21.871
  110.800    0.294    0.385   87.104   21.560
  111.100    0.264    0.394   79.890   20.786
  111.400    0.230    0.407   72.492   19.775
  111.700    0.220    0.410   84.521   18.927
  112.000    0.282    0.437   89.771   18.285
  112.300    0.277    0.445   88.361   17.555
  112.600    0.290    0.451   80.961   16.238
  112.900    0.298    0.471   77.108   14.911
  113.200    0.280    0.453   80.708   13.539
  113.500    0.278    0.457   80.886   13.136
  113.800    0.272    0.476   75.626   12.037
  114.100    0.207    0.454   72.198   11.888
  114.400    0.145    0.391   76.287   12.145
  114.700    0.205    0.416   87.891   12.566
  115.000    0.279    0.469   99.433   13.241
  115.300    0.253    0.459   91.362   13.529
  115.601    0.243    0.449   86.042   13.361
  115.901    0.275    0.459   84.875   12.954
  116.201    0.272    0.444   85.237   12.652
  116.501    0.273    0.421   84.131   12.516
  116.801    0.296    0.420   80.521   12.733
  117.101    0.278    0.440   77.582   12.906
  117.401    0.262    0.397   79.899   13.176
  117.701    0.218    0.428   87.653   13.370
  118.001    0.283    0.475   91.253   13.527
  118.301    0.274    0.488   92.470   13.287
  118.601    0.271    0.492   91.730   11.712
  118.901    0.226    0.474   88.671    8.146
  119.201    0.166    0.432   91.109    7.114
  119.501    0.164    0.413   96.907    6.728
  119.801    0.214    0.446   97.880    7.090
  120.101    0.235    0.480  102.151    7.220
  120.401    0.256    0.500  103.613    7.443
  120.701    0.249    0.486  108.190    7.589
  121.001    0.224    0.523  101.647    6.443
  121.301    0.233    0.540   95.776    5.410
  121.601    0.275    0.520   91.982    4.815
  121.901    0.240    0.487   91.976    4.521
  122.201    0.205    0.460   94.110    4.669
  122.501    0.186    0.378  101.681    5.333
  122.801    0.213    0.476  106.747    6.184
  123.101    0.256    0.504  104.420    7.810
  123.401    0.272    0.486  101.970    8.742
  123.701    0.265    0.514  108.686    8.584
  124.001    0.279    0.525  108.741    7.400
  124.301    0.268    0.522  105.865    6.076
  124.601    0.257    0.534  106.775    5.121
  124.901    0.250    0.549  106.708    4.523
  125.201    0.274    0.551  107.498    4.031
  125.501    0.294    0.547  108.653    3.807
  125.801    0.311    0.573  104.861    3.548
  126.101    0.318    0.609  111.209    3.307
  126.401    0.312    0.589  112.547    3.124
  126.701    0.311    0.601  110.832    2.803
  127.001    0.298    0.583  106.000    2.729
  127.301    0.269    0.556  102.206    2.586
  127.601    0.259    0.519  102.934    2.644
  127.901    0.277    0.494  106.961    2.839
  128.201    0.285    0.489  107.384    3.416
  128.501    0.277    0.484  107.867    4.156
  128.801    0.256    0.532  106.211    4.278
  129.101    0.252    0.484  101.134    5.365
  129.401    0.269    0.478   98.991    6.081
  129.701    0.277    0.524   97.398    6.506
  130.001    0.282    0.503   99.835    6.655
  130.301    0.270    0.522  103.497    6.794
  130.601    0.278    0.468  107.524    6.868
  130.901    0.278    0.455  110.329    7.068
  131.201    0.237    0.448  110.568    7.576
  131.501    0.230    0.439  105.675    7.665
  131.801    0.240    0.422   94.549    7.932
  132.101    0.175    0.334   85.930    8.405
  132.401    0.016    0.231   80.548    8.622
  132.701    0.040    0.238   86.408    9.330
  133.001    0.065    0.269   98.683   11.808
  133.301    0.183    0.394  101.427   16.010
  133.601    0.250    0.433  102.338   19.268
  133.901    0.264    0.463  104.471   20.276
  134.201    0.274    0.474  104.771   18.445
  134.501    0.271    0.483  104.337   13.196
  134.801    0.277    0.496  105.004   10.794
  135.101    0.259    0.508  104.632    9.410
  135.401    0.265    0.518  107.316    8.310
  135.701    0.256    0.524  118.614    7.310
  136.001    0.280    0.500  112.254    6.662
  136.301    0.278    0.428  106.139    6.189
  136.601    0.302    0.354  100.268    6.158
  136.901    0.315    0.341   98.308    7.577
  137.201    0.310    0.357   99.647    9.239
  137.501    0.268    0.432  100.863   10.814
  137.801    0.270    0.447  104.524   12.394
  138.101    0.243    0.464  107.756   12.590
  138.401    0.258    0.479  106.529   11.563
  138.701    0.241    0.508  107.379    9.097
  139.001    0.252    0.510  105.662    7.440
  139.301    0.267    0.504  103.824    6.594
  139.601    0.293    0.530  115.489    6.000
  139.901    0.281    0.542  113.833    5.553
  140.201    0.276    0.545  106.802    5.157
  140.501    0.288    0.521  105.758    4.943
  140.801    0.266    0.521  112.779    4.826
  141.101    0.270    0.519  111.307    4.839
  141.401    0.268    0.525  108.430    4.996
  141.701    0.260    0.508  110.380    5.102
  142.001    0.257    0.469  109.520    5.300
  142.301    0.249    0.441  102.183    5.576
  142.601    0.256    0.437  103.766    6.045
  142.901    0.274    0.392  103.088    6.618
  143.201    0.299    0.377  100.456    7.673
  143.501    0.294    0.385  106.255    9.080
  143.801    0.267    0.415  110.649   10.144
  144.101    0.247    0.448  110.765   10.956
  144.401    0.248    0.466  110.881   10.621
  144.701    0.242    0.469  110.998    9.168
  145.001    0.233    0.455  106.043    7.916
  145.301    0.244    0.452  100.907    7.019
  145.601    0.258    0.457  104.568    6.717
  145.901    0.255    0.510  105.173    6.536
  146.201    0.289    0.514  108.406    6.057
  146.501    0.255    0.505  112.493    5.699
  146.801    0.259    0.493  109.555    5.070
  147.101    0.236    0.494  110.528    4.728
  147.401    0.249    0.498  106.917    4.540
  147.701    0.233    0.510  103.001    4.610
  148.001    0.256    0.506   99.695    4.905
  148.301    0.290    0.490   97.003    5.150
  148.601    0.285    0.481   92.904    5.244
  148.901    0.281    0.481   92.349    5.610
  149.201    0.297    0.453   94.116    6.022
  149.501    0.283    0.443  100.953    6.306
  149.801    0.296    0.513  104.920    6.674
  150.101    0.270    0.558  108.340    4.103
  150.401    0.256    0.524  109.275    3.170
  150.701    0.270    0.505  107.286    3.048
  151.001    0.263    0.486  103.214    3.834
  151.301    0.265    0.457   98.960    4.995
  151.601    0.265    0.439   95.384    6.282
  151.901    0.267    0.435   95.834    6.875
  152.201    0.266    0.478   99.327    7.092
  152.501    0.263    0.485   94.346    7.077
  152.801    0.248    0.471   90.950    6.792
  153.101    0.261    0.487   87.799    6.470
  153.401    0.229    0.475   93.314    6.302
  153.701    0.176    0.462   94.797    6.334
  154.001    0.107    0.419   89.144    6.793
  154.301    0.151    0.364   90.142    7.561
  154.601    0.225    0.426  100.050    8.370
  154.901    0.252    0.444  100.006    8.714
  155.201    0.242    0.464  100.092    8.598
  155.501    0.255    0.444  101.387    8.146
  155.801    0.224    0.460  102.508    7.033
  156.101    0.236    0.468  102.159    6.374
  156.401    0.250    0.464  102.674    6.347
  156.701    0.272    0.559  100.198    6.286
  157.001    0.311    0.598   89.778    5.675
  157.301    0.312    0.611   84.612    4.057
  157.601    0.296    0.573   90.915    3.164
  157.901    0.276    0.544   90.633    2.575
  158.201    0.255    0.514   92.489    2.333
  158.501    0.272    0.494   96.048    2.526
  158.801    0.266    0.466   92.094    2.960
  159.101    0.256    0.456   92.301    3.241
