~VERSION INFORMATION
 VERS.                 2.0:   CWLS LOG ASCII STANDARD -VERSION 2.0
 WRAP.                  NO:   ONE LINE PER DEPTH STEP
~WELL INFORMATION BLOCK
#MNEM.UNIT           DATA                    DESCRIPTION OF MNEMONIC
#---------    -------------------            -------------------------------
# Generated from Intellog Unique Number	CN_94_101/WELL/3668
WELL.         03-28-096-16W4                 : Well_name    - WELL
LOC .         AA/03-28-096-16W4/0            : Location     - LOCATION
UWI .         AA/03-28-096-16W400            : Uwi          - UNIQUE WELL ID
ENTR.         J                              : Entered      - ENTERED BY
SRVC.         SCHLUMBERGER                   : Scn          - SERVICE COMPANY
DATE.         08/05/92                       : Date         - LOG DATE
STRT.M        200                            : top_depth    - START DEPTH
STOP.M        410                            : bot_depth    - STOP DEPTH
STEP.M        0.25                           : increment    - STEP LENGTH
 NULL. -999.2500:NULL Value
~CURVE INFORMATION BLOCK
#MNEM UNIT       ERCB CURVE CODE    CURVE DESCRIPTION
#-----------   ------------------   ----------------------------------
DEPT.M        00 001 00 00         : DEPTH        - DEPTH
GR  .API      00 310 00 00         : GR           - GAMMA RAY
NPHI.V/V      00 330 00 00         : PHIN         - NEUTRON POROSITY (SANDSTONE)
DPHI.V/V      00 890 00 00         : PHID         - DENSITY POROSITY (SANDSTONE)
ILD .OHMM     00 120 00 00         : RESD         - DEEP RESISTIVITY (DIL)
~PARAMETER INFORMATION
#MNEM.UNIT           DATA             DESCRIPTION OF MNEMONIC
#---------         -----------     ------------------------------
GL  .M        655.42               : gl           - GROUND LEVEL ELEVATION
EREF.M        658.17               : kb           - ELEVATION OF DEPTH REFERENCE
DATM.M        658.17               : datum        - DATUM ELEVATION
TDD .M        416.5                : tdd          - TOTAL DEPTH DRILLER
RUN .         ONE                  : Run          - RUN NUMBER
ENG .         JO                   : Engineer     - RECORDING ENGINEER
WIT .         TIM                  : Witness      - WITNESSED BY
MUD .         GEL                  : Mud_type     - MUD TYPE
MATR.         SANDSTONE            : Logunit      - NEUTRON MATRIX
TMAX.C        41.5                 : BHT          - MAXIMUM RECORDED TEMPERATURE
BHTD.M        416                  : BHTDEP       - MAXIMUM RECORDED TEMPERATURE
RMT .C        14                   : MDTP         - TEMPERATURE OF MUD
MUDD.KG/M     1130                 : MWT          - MUD DENSITY
NEUT.         1                    : NEUTRON      - NEUTRON TYPE
RESI.         0                    : RESIST       - RESISTIVITY TYPE
RM  .OHMM     0.523                : RM           - RESISTIVITY OF MUD
RMC .OHMM     0.523                : RMC          - RESISTIVITY OF MUD CAKE
RMF .OHMM     0.723                : RMF          - RESISTIVITY OF MUD FILTRATE
SUFT.C        4                    : SUFT         - SURFACE TEMPERATURE
~A  DEPTH       GR     PHIN     PHID     RESD
  200.000   34.219    0.318    0.231   24.446
  200.250   30.614    0.339    0.189   32.788
  200.500   28.209    0.364    0.232   36.863
  200.750   27.606    0.379    0.308   39.076
  201.000   27.604    0.392    0.337   40.618
  201.250   30.002    0.393    0.343   43.050
  201.500   33.600    0.385    0.324   45.629
  201.750   37.199    0.380    0.324   46.520
  202.000   40.798    0.377    0.325   47.410
  202.250   44.997    0.376    0.325   48.330
  202.500   47.396    0.373    0.317   48.298
  202.750   60.600    0.372    0.312   46.410
  203.000   64.799    0.377    0.298   42.054
  203.250   69.600    0.381    0.281   37.371
  203.500   68.396    0.391    0.276   29.520
  203.750   70.194    0.407    0.288   19.545
  204.000   76.795    0.425    0.294   12.690
  204.250   83.395    0.421    0.260    9.638
  204.500   85.793    0.433    0.241    9.083
  204.750   85.190    0.455    0.218    8.902
  205.000   82.786    0.493    0.220    8.897
  205.250   80.382    0.495    0.225    9.247
  205.500   83.981    0.496    0.230    9.802
  205.750   88.780    0.496    0.239    9.607
  206.000   89.978    0.498    0.251    8.705
  206.250   91.776    0.506    0.237    7.584
  206.500   92.974    0.529    0.239    6.354
  206.750   92.971    0.558    0.239    5.220
  207.000   94.168    0.559    0.234    4.547
  207.250   94.766    0.558    0.232    4.726
  207.500   95.363    0.567    0.231    4.818
  207.750   95.361    0.573    0.221    5.209
  208.000   95.357    0.570    0.170    5.971
  208.250   95.954    0.555    0.190    6.583
  208.500   95.952    0.547    0.263    6.977
  208.750   95.949    0.534    0.275    6.705
  209.000   96.546    0.533    0.278    6.572
  209.250   96.544    0.539    0.278    6.073
  209.500   96.540    0.545    0.278    5.952
  209.750   96.538    0.549    0.277    5.720
  210.000   96.535    0.552    0.274    5.831
  210.250   95.931    0.539    0.269    5.944
  210.500   95.929    0.527    0.264    6.300
  210.750   94.724    0.525    0.263    6.548
  211.000   93.522    0.527    0.263    6.546
  211.250   90.515    0.523    0.266    6.415
  211.500   88.111    0.524    0.263    6.287
  211.750   86.909    0.515    0.254    5.925
  212.000   83.904    0.498    0.240    5.920
  212.250   82.100    0.465    0.230    6.155
  212.500   84.499    0.455    0.220    6.398
  212.750   85.696    0.438    0.189    6.650
  213.000   86.293    0.446    0.164    6.911
  213.250   88.091    0.495    0.185    6.909
  213.500   88.689    0.507    0.230    6.769
  213.750   89.885    0.523    0.238    6.636
  214.000   91.085    0.527    0.222    6.503
  214.250   91.682    0.513    0.217    6.374
  214.500   91.679    0.526    0.219    6.371
  214.750   92.276    0.532    0.248    6.244
  215.000   92.873    0.523    0.250    6.240
  215.250   93.471    0.507    0.251    6.115
  215.500   93.468    0.513    0.252    5.877
  215.750   94.066    0.519    0.253    5.760
  216.000   92.262    0.527    0.257    5.535
  216.250   86.255    0.527    0.258    5.425
  216.500   83.851    0.522    0.258    5.317
  216.750   80.246    0.503    0.253    5.314
  217.000   79.642    0.482    0.241    5.311
  217.250   79.639    0.469    0.219    5.629
  217.500   79.636    0.463    0.202    5.968
  217.750   78.433    0.480    0.231    6.711
  218.000   77.229    0.475    0.237    7.694
  218.250   76.025    0.465    0.264    8.649
  218.500   77.824    0.457    0.276    8.814
  218.750   80.222    0.458    0.288    8.473
  219.000   80.819    0.460    0.286    7.382
  219.250   80.817    0.472    0.286    6.432
  219.500   81.415    0.488    0.288    5.603
  219.750   81.412    0.459    0.288    5.385
  220.000   83.209    0.445    0.289    5.075
  220.250   84.407    0.437    0.294    5.275
  220.500   86.205    0.493    0.294    5.930
  220.750   88.003    0.508    0.276    6.164
  221.000   89.801    0.522    0.271    6.407
  221.250   87.997    0.521    0.266    6.530
  221.500   84.992    0.514    0.260    6.400
  221.750   81.988    0.486    0.255    6.397
  222.000   77.783    0.476    0.249    6.147
  222.250   74.778    0.454    0.239    6.265
  222.500   76.576    0.437    0.222    6.643
  222.750   77.774    0.436    0.207    7.323
  223.000   80.172    0.444    0.239    7.916
  223.250   81.970    0.457    0.264    7.913
  223.500   83.168    0.457    0.277    7.603
  223.750   84.365    0.460    0.287    7.307
  224.000   84.963    0.472    0.282    6.752
  224.250   84.960    0.504    0.282    6.239
  224.500   84.357    0.518    0.278    5.881
  224.750   83.754    0.557    0.276    5.433
  225.000   83.750    0.606    0.273    5.021
  225.250   84.348    0.596    0.277    4.639
  225.500   85.545    0.574    0.283    4.459
  225.750   87.343    0.563    0.287    4.370
  226.000   87.340    0.547    0.290    4.454
  226.250   84.936    0.530    0.288    4.629
  226.500   81.931    0.523    0.286    4.812
  226.750   82.529    0.513    0.280    4.905
  227.000   83.727    0.510    0.277    4.903
  227.250   83.723    0.512    0.272    4.997
  227.500   81.918    0.523    0.269    4.995
  227.750   81.316    0.527    0.266    5.090
  228.000   78.310    0.525    0.265    5.087
  228.250   76.507    0.525    0.266    4.987
  228.500   74.104    0.527    0.270    5.390
  228.750   69.297    0.524    0.272    5.714
  229.000   65.692    0.517    0.271    5.824
  229.250   66.890    0.502    0.251    6.053
  229.500   67.488    0.492    0.229    6.291
  229.750   68.686    0.541    0.213    6.541
  230.000   66.281    0.553    0.239    7.071
  230.250   62.076    0.556    0.262    6.664
  230.500   55.470    0.551    0.280    5.693
  230.750   49.463    0.412    0.276    6.154
  231.000   46.459    0.393    0.266    7.339
  231.250   47.055    0.343    0.251    8.751
  231.500   47.654    0.364    0.222    9.837
  231.750   49.451    0.395    0.241   10.225
  232.000   50.649    0.411    0.274   10.420
  232.250   54.247    0.425    0.308   10.418
  232.500   56.647    0.424    0.310   10.617
  232.750   60.846    0.421    0.310   10.822
  233.000   66.246    0.424    0.309   10.817
  233.250   72.847    0.433    0.305   10.600
  233.500   76.445    0.458    0.299   10.390
  233.750   77.043    0.482    0.294    9.985
  234.000   77.039    0.487    0.293    9.595
  234.250   77.037    0.498    0.293    9.221
  234.500   75.833    0.497    0.293    8.863
  234.750   74.030    0.491    0.293    8.188
  235.000   68.023    0.471    0.290    8.026
  235.250   63.218    0.463    0.289    8.021
  235.500   59.613    0.462    0.289    8.015
  235.750   57.208    0.458    0.293    8.012
  236.000   58.406    0.447    0.299    8.009
  236.250   60.203    0.433    0.304    7.847
  236.500   60.802    0.429    0.304    7.692
  236.750   61.399    0.434    0.302    7.688
  237.000   63.197    0.466    0.299    7.685
  237.250   65.596    0.480    0.294    7.531
  237.500   74.598    0.486    0.288    7.236
  237.750   79.397    0.499    0.282    7.093
  238.000   77.594    0.517    0.273    6.683
  238.250   74.589    0.530    0.269    6.681
  238.500   70.984    0.541    0.274    6.809
  238.750   65.578    0.530    0.284    7.219
  239.000   61.373    0.507    0.293    8.116
  239.250   66.172    0.443    0.307    9.304
  239.500   76.975    0.429    0.315    9.670
  239.750   80.574    0.433    0.301    9.859
  240.000   78.769    0.436    0.283    9.852
  240.250   78.166    0.438    0.271    9.847
  240.500   76.963    0.442    0.259    9.842
  240.750   76.360    0.447    0.255    9.837
  241.000   76.357    0.450    0.257    9.831
  241.250   76.354    0.453    0.262    9.826
  241.500   76.352    0.452    0.266    9.820
  241.750   75.748    0.450    0.273    9.816
  242.000   75.745    0.445    0.278    9.621
  242.250   76.343    0.438    0.285    9.428
  242.500   76.939    0.436    0.291    9.242
  242.750   76.936    0.435    0.290    9.055
  243.000   76.334    0.440    0.288    8.876
  243.250   73.929    0.454    0.287    8.528
