~VERSION INFORMATION
 VERS.                 2.0:   CWLS LOG ASCII STANDARD -VERSION 2.0
 WRAP.                  NO:   ONE LINE PER DEPTH STEP
~WELL INFORMATION BLOCK
#MNEM.UNIT           DATA                    DESCRIPTION OF MNEMONIC
#---------    -------------------            -------------------------------
# Generated from Intellog Unique Number	CS_73_76/WELL/3227
WELL.         09-28-076-06W4                 : Well_name    - WELL
LOC .         AA/09-28-076-06W4/0            : Location     - LOCATION
UWI .         AA/09-28-076-06W4/0            : Uwi          - UNIQUE WELL ID
ENTR.         SP                             : Entered      - ENTERED BY
SRVC.         SCHLUMBERGER                   : Scn          - SERVICE COMPANY
STRT.M        145                            : top_depth    - START DEPTH
STOP.M        365                            : bot_depth    - STOP DEPTH
STEP.M        0.25                           : increment    - STEP LENGTH
 NULL. -999.2500:NULL Value
~CURVE INFORMATION BLOCK
#MNEM UNIT       ERCB CURVE CODE    CURVE DESCRIPTION
#-----------   ------------------   ----------------------------------
DEPT.M        00 001 00 00         : DEPTH        - DEPTH
ILD .OHMM     00 120 00 00         : RESD         - DEEP RESISTIVITY (DIL)
GR  .API      00 310 00 00         : GR           - GAMMA RAY
DPHI.V/V      00 890 00 00         : PHID         - DENSITY POROSITY (LIMESTONE)
NPHI.V/V      00 330 00 00         : PHIN         - NEUTRON POROSITY (LIMESTONE)
~PARAMETER INFORMATION
#MNEM.UNIT           DATA             DESCRIPTION OF MNEMONIC
#---------         -----------     ------------------------------
GL  .M        555.14               : gl           - GROUND LEVEL ELEVATION
EREF.M        558.14               : kb           - ELEVATION OF DEPTH REFERENCE
DATM.M        555.14               : datum        - DATUM ELEVATION
TDD .M        366                  : tdd          - TOTAL DEPTH DRILLER
RUN .         ONE                  : Run          - RUN NUMBER
ENG .         BILL                 : Engineer     - RECORDING ENGINEER
WIT .         JIM                  : Witness      - WITNESSED BY
MUD .         GEL                  : Mud_type     - MUD TYPE
MATR.         LIMESTONE            : Logunit      - NEUTRON MATRIX
TMAX.C        22                   : BHT          - MAXIMUM RECORDED TEMPERATURE
BHTD.M        366                  : BHTDEP       - MAXIMUM RECORDED TEMPERATURE
MATR.         1                    : LOGUNIT      - NEUTRON MATRIX
RMT .C        25                   : MDTP         - TEMPERATURE OF MUD
NEUT.         1                    : NEUTRON      - NEUTRON TYPE
RESI.         0                    : RESIST       - RESISTIVITY TYPE
RMC .OHMM     0.25                 : RMC          - RESISTIVITY OF MUD CAKE
RMF .OHMM     0.25                 : RMF          - RESISTIVITY OF MUD FILTRATE
SUFT.C        15                   : SUFT         - SURFACE TEMPERATURE
~A  DEPTH     RESD       GR     PHID     PHIN
# ...
  232.000    9.051   82.648    0.286    0.375
  232.250    9.224   83.260    0.287    0.365
  232.500    9.224   83.253    0.287    0.350
  232.750    9.400   82.017    0.287    0.352
  233.000    9.400   84.467    0.287    0.377
  233.250    9.401   85.693    0.288    0.403
  233.500    9.225   87.530    0.289    0.402
  233.750    9.225   88.140    0.289    0.388
  234.000    9.225   89.362    0.291    0.364
  234.250    9.225   90.584    0.291    0.371
  234.500    9.052   89.965    0.289    0.355
  234.750    9.053   89.344    0.285    0.348
  235.000    8.883   90.567    0.282    0.338
  235.250    8.553   93.633    0.278    0.350
  235.500    7.930   95.474    0.277    0.340
  235.750    7.352  100.384    0.266    0.346
  236.000    7.214  104.067    0.254    0.357
  236.250    6.816  105.905    0.248    0.403
  236.500    6.689  102.826    0.249    0.444
  236.750    6.689  104.048    0.250    0.439
  237.000    6.564  107.727    0.250    0.449
  237.250    6.441  108.339    0.249    0.444
  237.500    6.202  103.415    0.248    0.417
  237.750    6.085  101.564    0.245    0.395
  238.000    5.859  100.943    0.248    0.382
  238.250    5.536  104.623    0.240    0.366
  238.500    5.331  108.922    0.232    0.379
  238.750    5.231  115.063    0.228    0.398
  239.000    4.850  114.441    0.222    0.408
  239.250    4.670  115.052    0.223    0.398
  239.500    4.412  114.428    0.233    0.393
  239.750    4.090  110.736    0.252    0.398
  240.000    3.721  105.196    0.291    0.417
  240.250    3.322  104.575    0.322    0.364
  240.500    3.022  105.183    0.323    0.348
  240.750    2.802  106.406    0.301    0.349
  241.000    2.597  106.401    0.289    0.402
  241.250    2.454  109.468    0.289    0.431
  241.500    2.408  112.536    0.289    0.442
  241.750    2.408  114.373    0.285    0.415
  242.000    2.501  114.367    0.273    0.397
  242.250    2.856  115.591    0.271    0.389
  242.500    3.022  117.428    0.281    0.404
  242.750    3.322  112.504    0.292    0.462
  243.000    3.517  108.809    0.307    0.442
  243.250    4.092  105.730    0.290    0.415
  243.500    4.851  103.879    0.281    0.357
  243.750    5.645   98.954    0.265    0.364
  244.000    8.560   90.341    0.252    0.283
  244.250   12.737   81.113    0.256    0.242
  244.500   15.685   77.419    0.328    0.172
  244.750   17.242   79.255    0.372    0.159
  245.000   20.061   82.939    0.389    0.163
  245.250   22.474   89.694    0.353    0.180
  245.500   24.706   93.377    0.361    0.199
  245.750   27.158   99.519    0.383    0.170
  246.000   31.006  105.660    0.407    0.153
  246.250   37.467  113.031    0.419    0.138
  246.500   47.020  120.402    0.417    0.127
  246.750   54.707  111.174    0.425    0.120
  247.000   59.011  102.561    0.438    0.111
  247.250   62.460   90.260    0.443    0.106
  247.500   62.461   81.031    0.450    0.105
  247.750   62.462   75.492    0.451    0.106
  248.000   61.293   75.485    0.446    0.106
  248.250   59.017   75.479    0.446    0.111
  248.500   54.715   73.012    0.448    0.120
  248.750   52.684   71.778    0.456    0.129
  249.000   50.729   71.156    0.462    0.132
  249.250   48.846   71.766    0.461    0.139
  249.500   47.931   71.143    0.453    0.137
  249.750   47.033   71.754    0.445    0.131
  250.000   46.153   72.362    0.436    0.124
  250.250   45.288   72.355    0.435    0.120
  250.500   44.440   72.961    0.440    0.119
  250.750   43.608   72.957    0.447    0.121
  251.000   41.989   73.565    0.452    0.132
  251.250   39.673   72.945    0.446    0.135
  251.500   39.673   72.322    0.446    0.140
  251.750   39.674   71.089    0.453    0.142
  252.000   39.675   69.852    0.449    0.145
  252.250   39.676   69.232    0.435    0.141
  252.500   40.435   70.455    0.428    0.135
  252.750   40.436   68.605    0.424    0.126
  253.000   39.679   68.597    0.435    0.120
  253.250   38.935   66.132    0.444    0.121
  253.500   37.490   68.586    0.446    0.124
  253.750   35.422   72.880    0.443    0.134
  254.000   34.758   73.488    0.434    0.139
  254.250   32.840   73.484    0.429    0.141
  254.500   31.621   72.862    0.422    0.139
  254.750   31.029   74.701    0.417    0.134
  255.000   29.317   75.925    0.410    0.133
  255.250   27.700   77.147    0.401    0.151
  255.500   25.199   80.216    0.393    0.167
  255.750   20.855   83.283    0.386    0.187
  256.000   17.259   77.743    0.376    0.218
  256.250   14.284   69.744    0.362    0.241
  256.500   11.382   67.280    0.345    0.322
  256.750   10.160   67.889    0.325    0.346
  257.000    9.420   66.037    0.317    0.353
  257.250    8.900   64.187    0.312    0.351
  257.500    8.570   64.182    0.309    0.348
  257.750    8.734   67.249    0.309    0.340
  258.000    8.734   70.316    0.313    0.333
  258.250    8.734   72.154    0.312    0.380
  258.500    8.570   72.762    0.312    0.411
  258.750    8.571   73.369    0.319    0.438
  259.000    8.410   73.980    0.323    0.432
  259.250    8.410   75.204    0.322    0.407
  259.500    8.253   75.811    0.327    0.397
  259.750    8.411   77.035    0.332    0.401
  260.000    8.411   77.642    0.331    0.395
  260.250    8.902   76.408    0.324    0.381
  260.500    9.603   72.098    0.312    0.366
  260.750    9.973   69.017    0.303    0.384
  261.000   10.556   65.936    0.300    0.394
  261.250   11.387   63.470    0.294    0.386
  261.500   13.759   61.005    0.258    0.231
  261.750   15.414   59.155    0.110    0.136
  262.000   16.627   57.306    0.034    0.111
  262.250   16.009   54.226    0.048    0.143
  262.500   14.023   54.219    0.201    0.204
  262.750   12.758   61.588    0.249    0.264
  263.000   11.828   66.499    0.317    0.352
  263.250   11.389   68.341    0.316    0.400
  263.500   11.175   70.793    0.313    0.394
  263.750   10.966   73.860    0.316    0.378
  264.000   10.761   72.624    0.325    0.375
  264.250   10.559   68.315    0.323    0.381
  264.500   10.361   65.849    0.320    0.369
  264.750    9.790   63.384    0.317    0.344
  265.000    9.606   65.221    0.320    0.335
  265.250    9.076   67.674    0.326    0.346
  265.500    8.739   68.898    0.332    0.351
  265.750    8.576   67.659    0.327    0.349
  266.000    8.576   65.811    0.315    0.356
  266.250    8.740   63.961    0.303    0.368
  266.500    8.740   65.183    0.305    0.373
  266.750    8.740   67.022    0.312    0.359
  267.000    8.741   69.475    0.315    0.330
  267.250    8.908   71.313    0.316    0.347
  267.500    8.908   69.463    0.327    0.353
  267.750    9.078   68.226    0.330    0.372
  268.000    9.252   68.834    0.326    0.374
  268.250    9.079   71.903    0.317    0.383
  268.500    9.252   74.356    0.315    0.385
  268.750    9.429   71.890    0.315    0.408
  269.000   10.171   68.811    0.315    0.418
  269.250   10.366   66.958    0.310    0.405
  269.500   11.181   61.420    0.276    0.106
  269.750   11.835   57.725    0.069    0.090
  270.000   12.061   60.177    0.044    0.089
  270.250   12.526   62.631    0.137    0.098
  270.500   12.527   65.084    0.210    0.140
  270.750   10.973   65.077    0.274    0.253
  271.000    9.795   65.686    0.303    0.360
  271.250    9.255   70.596    0.314    0.381
  271.500    9.081   73.051    0.321    0.371
  271.750    8.911   75.504    0.328    0.395
  272.000    8.911   69.963    0.326    0.400
  272.250    8.912   66.883    0.328    0.387
  272.500    8.912   64.418    0.334    0.392
  272.750    9.082   63.796    0.331    0.377
  273.000    9.256   63.790    0.323    0.398
  273.250    9.256   63.167    0.315    0.371
  273.500    9.433   63.163    0.308    0.382
  273.750    9.257   65.002    0.303    0.351
  274.000    9.083   68.683    0.305    0.331
  274.250    8.913   70.522    0.313    0.320
  274.500    8.746   68.672    0.317    0.334
  274.750    8.264   69.279    0.319    0.348
  275.000    8.109   70.504    0.323    0.382
  275.250    7.957   72.340    0.319    0.396
