~VERSION INFORMATION
 VERS.                 2.0:   CWLS LOG ASCII STANDARD -VERSION 2.0
 WRAP.                  NO:   ONE LINE PER DEPTH STEP
~WELL INFORMATION BLOCK
#MNEM.UNIT           DATA                    DESCRIPTION OF MNEMONIC
#---------    -------------------            -------------------------------
# Generated from Intellog Unique Number	CN_94_101/WELL/3192
WELL.         04-04-097-08W4                 : Well_name    - WELL
LOC .         AA/04-04-097-08W4/0            : Location     - LOCATION
UWI .         AA/04-04-097-08W400            : Uwi          - UNIQUE WELL ID
ENTR.         T                              : Entered      - ENTERED BY
SRVC.         SCHLUMBERGER                   : Scn          - SERVICE COMPANY
DATE.         08/11/92                       : Date         - LOG DATE
STRT.M        0                              : top_depth    - START DEPTH
STOP.M        65                             : bot_depth    - STOP DEPTH
STEP.M        0.25                           : increment    - STEP LENGTH
 NULL. -999.2500:NULL Value
~CURVE INFORMATION BLOCK
#MNEM UNIT       ERCB CURVE CODE    CURVE DESCRIPTION
#-----------   ------------------   ----------------------------------
DEPT.M        00 001 00 00         : DEPTH        - DEPTH
DPHI.V/V      00 890 00 00         : PHID         - DENSITY POROSITY (SANDSTONE)
ILD .OHMM     00 120 00 00         : RESD         - DEEP RESISTIVITY (DIL)
NPHI.V/V      00 330 00 00         : PHIN         - NEUTRON POROSITY (SANDSTONE)
RHOB.KG/M3    00 350 00 00         : DENS         - BULK DENSITY
GR  .API      00 310 00 00         : GR           - GAMMA RAY
~PARAMETER INFORMATION
#MNEM.UNIT           DATA             DESCRIPTION OF MNEMONIC
#---------         -----------     ------------------------------
GL  .M        294.57               : gl           - GROUND LEVEL ELEVATION
EREF.M        294.57               : kb           - ELEVATION OF DEPTH REFERENCE
DATM.M        294.57               : datum        - DATUM ELEVATION
TDD .M        68                   : tdd          - TOTAL DEPTH DRILLER
RUN .         ONE                  : Run          - RUN NUMBER
ENG .         JO                   : Engineer     - RECORDING ENGINEER
WIT .         TIM                  : Witness      - WITNESSED BY
MUD .         GEL                  : Mud_type     - MUD TYPE
MATR.         SANDSTONE            : Logunit      - NEUTRON MATRIX
TMAX.C        5                    : BHT          - MAXIMUM RECORDED TEMPERATURE
BHTD.M        68                   : BHTDEP       - MAXIMUM RECORDED TEMPERATURE
RMT .C        5                    : MDTP         - TEMPERATURE OF MUD
MUDD.KG/M     1000                 : MWT          - MUD DENSITY
NEUT.         1                    : NEUTRON      - NEUTRON TYPE
RESI.         0                    : RESIST       - RESISTIVITY TYPE
RM  .OHMM     5.8                  : RM           - RESISTIVITY OF MUD
RMC .OHMM     5.8                  : RMC          - RESISTIVITY OF MUD CAKE
RMF .OHMM     5.8                  : RMF          - RESISTIVITY OF MUD FILTRATE
SUFT.C        4                    : SUFT         - SURFACE TEMPERATURE
~A  DEPTH     PHID     RESD     PHIN     DENS       GR
# ...
   36.500    0.225    2.240    0.424 2279.200  112.900
   36.750    0.262    1.579    0.499 2218.300  142.263
   37.000    0.295    0.889    0.535 2163.560  126.401
   37.250    0.308    0.784    0.543 2141.430  115.858
   37.500    0.365    0.787    0.541 2047.880  116.486
   37.750    0.303    0.805    0.537 2150.340  127.220
   38.000    0.317    0.840    0.532 2126.210  132.114
   38.250    0.435    0.892    0.526 1932.640  129.550
   38.500    0.152    1.079    0.503 2398.490  122.187
   38.750    0.231    1.306    0.491 2268.120  138.784
   39.000    0.286    1.068    0.506 2178.650  144.754
   39.250    0.201    0.890    0.521 2317.850  141.127
   39.500    0.153    0.878    0.513 2397.830  143.858
   39.750    0.139    0.968    0.493 2420.630  146.613
   40.000    0.142    1.107    0.488 2414.910  154.179
   40.250    0.160    1.221    0.502 2386.650  163.305
   40.500    0.184    0.999    0.512 2346.200  134.666
   40.750    0.201    0.948    0.508 2317.990  111.877
   41.000    0.164    0.953    0.496 2379.600  121.027
   41.250    0.141    0.956    0.484 2416.730  132.825
   41.500    0.128    0.943    0.478 2439.490  115.367
   41.750    0.068    0.929    0.467 2537.830   96.302
   42.000    0.101    1.104    0.452 2483.090   81.504
   42.250    0.178    1.337    0.448 2356.850   75.748
   42.500    0.169    1.587    0.443 2371.530   81.163
   42.750    0.182    1.783    0.442 2349.440   79.131
   43.000    0.252    1.790    0.443 2233.450   72.323
   43.250    0.302    1.765    0.442 2152.140   70.291
   43.500    0.263    1.840    0.441 2215.750   83.673
   43.750    0.178    1.847    0.440 2357.030   90.695
   44.000    0.182    1.788    0.441 2349.230   87.067
   44.250    0.224    1.796    0.442 2280.160   80.768
   44.500    0.277    1.871    0.441 2192.730   77.140
   44.750    0.242    1.881    0.441 2250.220   70.865
   45.000    0.209    1.890    0.442 2305.800   72.036
   45.250    0.264    2.044    0.442 2214.210   70.524
   45.500    0.306    2.052    0.441 2145.140   71.151
   45.750    0.253    2.101    0.440 2233.370   69.651
   46.000    0.257    2.109    0.440 2225.480   69.759
   46.250    0.247    2.118    0.440 2242.200   76.769
   46.500    0.214    2.127    0.440 2297.690   82.184
   46.750    0.285    2.096    0.439 2179.610   79.088
   47.000    0.282    2.029    0.440 2184.050   73.320
   47.250    0.285    2.077    0.440 2180.320   71.820
   47.500    0.304    2.163    0.440 2148.030   66.065
   47.750    0.318    2.254    0.442 2125.990   60.853
   48.000    0.285    2.265    0.443 2179.400   60.937
   48.250    0.265    2.110    0.441 2212.400   71.151
   48.500    0.224    1.930    0.440 2280.130   78.693
   48.750    0.207    2.051    0.439 2309.060   84.143
   49.000    0.199    2.138    0.439 2321.700   86.343
   49.250    0.253    2.031    0.437 2232.280   86.970
   49.500    0.253    1.857    0.441 2232.590   79.607
   49.750    0.200    1.764    0.443 2320.730   83.970
   50.000    0.222    1.807    0.437 2284.350   85.673
   50.250    0.176    1.779    0.432 2360.250   89.480
   50.500    0.156    1.786    0.439 2393.260   94.895
   50.750    0.306    1.830    0.443 2144.540   72.118
   51.000    0.309    1.871    0.439 2140.860   54.117
   51.250    0.306    2.025    0.436 2145.300   50.489
   51.500    0.313    2.152    0.437 2133.360   58.043
   51.750    0.339    2.160    0.438 2090.870   60.810
   52.000    0.298    2.129    0.439 2158.610   63.553
   52.250    0.279    2.060    0.440 2189.610   66.840
   52.500    0.281    1.920    0.443 2185.890   66.936
   52.750    0.291    2.077    0.450 2169.880   63.840
   53.000    0.365    1.974    0.457 2047.760   60.224
   53.250    0.377    1.614    0.468 2027.710   56.584
   53.500    0.324    1.746    0.453 2115.850   51.373
   53.750    0.310    1.960    0.425 2138.650   47.213
   54.000    0.307    2.163    0.409 2143.130   43.065
   54.250    0.304    2.054    0.409 2147.610   39.957
   54.500    0.294    1.949    0.413 2164.290   37.381
   54.750    0.303    1.957    0.416 2150.320   36.945
   55.000    0.304    2.043    0.417 2148.640   40.232
   55.250    0.300    1.904    0.418 2155.160   39.795
   55.500    0.294    1.806    0.415 2165.670   39.891
   55.750    0.296    1.883    0.406 2161.950   39.467
   56.000    0.313    1.963    0.406 2133.830   40.614
   56.250    0.313    2.008    0.400 2134.090   46.573
   56.500    0.300    2.136    0.396 2154.850   70.616
   56.750    0.281    2.225    0.421 2185.860   70.712
   57.000    0.359    2.112    0.433 2057.620   42.072
   57.250    0.376    1.283    0.437 2029.370   43.243
   57.500    0.423    1.263    0.436 1952.190   49.722
   57.750    0.403    1.877    0.434 1985.230   48.742
   58.000    0.394    1.920    0.431 1999.830   45.658
   58.250    0.348    1.825    0.420 2075.730   43.082
   58.500    0.314    1.764    0.409 2131.220   41.581
   58.750    0.262    1.675    0.405 2217.320   40.625
   59.000    0.217    1.397    0.402 2291.180   41.785
   59.250    0.325    1.279    0.408 2114.010   46.667
   59.500    0.311    1.283    0.421 2136.720   51.550
   59.750    0.211    1.288    0.470 2302.450   70.275
   60.000    0.142    0.908    0.489 2415.070  142.214
   60.250    0.111    0.816    0.494 2466.490  142.310
   60.500    0.040    0.819    0.478 2583.240  120.065
   60.750   -0.054    0.869    0.452 2738.710  116.437
   61.000   -0.016    0.996    0.430 2675.810  100.043
   61.250    0.010    1.182    0.400 2633.280   98.531
   61.500   -0.009    1.353    0.404 2664.280  102.362
   61.750   -0.015    1.284    0.408 2674.840  104.041
   62.000    0.003    1.315    0.415 2644.590  103.617
   62.250   -0.001    1.272    0.419 2651.070  104.776
   62.500   -0.010    1.230    0.422 2665.710  104.872
   62.750   -0.013    1.258    0.422 2672.180  104.447
   63.000   -0.016    1.264    0.417 2676.620  107.723
   63.250   -0.005    1.201    0.413 2658.660  107.830
   63.500   -0.004    1.162    0.414 2656.970  112.169
   63.750    0.005    1.124    0.418 2640.960  104.298
   64.000   -0.001    1.087    0.398 2651.520  108.649
   64.250   -0.005    1.053    0.342 2658.080  102.881
   64.500   -0.022    1.076    0.310 2686.960   89.679
   64.750   -0.036    1.081    0.257 2709.810   80.744
   65.000   -0.054    1.066    0.199 2738.770   76.040
