~VERSION INFORMATION
 VERS.                 2.0:   CWLS LOG ASCII STANDARD -VERSION 2.0
 WRAP.                  NO:   ONE LINE PER DEPTH STEP
~WELL INFORMATION BLOCK
#MNEM.UNIT           DATA                    DESCRIPTION OF MNEMONIC
#---------    -------------------            -------------------------------
# Generated from Intellog Unique Number	CC_88_90/WELL/1054
WELL.         MOBIL CLARKE OV 4-11           : Well_name    - WELL
LOC .         04-11-090-08W4                 : Location     - LOCATION
UWI .         AA/04-11-090-08W400            : Uwi          - UNIQUE WELL ID
ENTR.         DW                             : Entered      - ENTERED BY
SRVC.         SCHLUMBERGER                   : Scn          - SERVICE COMPANY
STRT.M        25                             : top_depth    - START DEPTH
STOP.M        201.75                         : bot_depth    - STOP DEPTH
STEP.M        0.25                           : increment    - STEP LENGTH
 NULL. -999.2500:NULL Value
~CURVE INFORMATION BLOCK
#MNEM UNIT       ERCB CURVE CODE    CURVE DESCRIPTION
#-----------   ------------------   ----------------------------------
DEPT.M        00 001 00 00         : DEPTH        - DEPTH
GR  .API      00 310 00 00         : GR           - GAMMA RAY
DPHI.V/V      00 890 00 00         : PHID         - DENSITY POROSITY (SANDSTONE)
NPHI.V/V      00 330 00 00         : PHIN         - NEUTRON POROSITY (SANDSTONE)
ILD .OHMM     00 120 00 00         : RESD         - DEEP RESISTIVITY (DIL)
~PARAMETER INFORMATION
#MNEM.UNIT           DATA             DESCRIPTION OF MNEMONIC
#---------         -----------     ------------------------------
GL  .M        434.2                : gl           - GROUND LEVEL ELEVATION
EREF.M        0                    : kb           - ELEVATION OF DEPTH REFERENCE
DATM.M        434.2                : datum        - DATUM ELEVATION
TDD .M        207                  : tdd          - TOTAL DEPTH DRILLER
RUN .         ONE                  : Run          - RUN NUMBER
ENG .         BILL                 : Engineer     - RECORDING ENGINEER
WIT .         JIM                  : Witness      - WITNESSED BY
MUD .         GEL                  : Mud_type     - MUD TYPE
MATR.         SANDSTONE            : Logunit      - NEUTRON MATRIX
TMAX.C        16                   : BHT          - MAXIMUM RECORDED TEMPERATURE
BHTD.M        206                  : BHTDEP       - MAXIMUM RECORDED TEMPERATURE
MATR.         1                    : LOGUNIT      - NEUTRON MATRIX
RMT .C        25                   : MDTP         - TEMPERATURE OF MUD
NEUT.         1                    : NEUTRON      - NEUTRON TYPE
RESI.         0                    : RESIST       - RESISTIVITY TYPE
RMC .OHMM     0.25                 : RMC          - RESISTIVITY OF MUD CAKE
RMF .OHMM     0.25                 : RMF          - RESISTIVITY OF MUD FILTRATE
SUFT.C        4                    : SUFT         - SURFACE TEMPERATURE
~A  DEPTH       GR     PHID     PHIN     RESD
# ...
  112.000  110.407    0.234    0.533    4.336
  112.250  109.883    0.234    0.536    4.325
  112.500  109.721    0.226    0.532    4.297
  112.750  109.756    0.226    0.518    4.272
  113.000  109.849    0.225    0.500    4.320
  113.250  110.583    0.213    0.492    4.514
  113.500  111.602    0.210    0.503    4.863
  113.750  111.627    0.223    0.517    5.529
  114.000  111.424    0.228    0.515    6.289
  114.250  109.364    0.209    0.496    7.502
  114.500  104.161    0.198    0.470    8.838
  114.750   96.123    0.220    0.436   11.383
  115.000   87.368    0.242    0.396   15.355
  115.250   82.267    0.228    0.380   15.223
  115.500   80.947    0.191    0.379   13.879
  115.750   79.203    0.130    0.362   12.888
  116.000   77.933    0.096    0.346   12.087
  116.250   79.831    0.144    0.354   11.754
  116.500   83.602    0.228    0.372   11.934
  116.750   88.651    0.243    0.394   12.142
  117.000   94.527    0.256    0.405   17.396
  117.250   99.005    0.279    0.395   36.009
  117.500  102.247    0.275    0.390   49.468
  117.750  105.130    0.270    0.339   47.069
  118.000  102.170    0.313    0.189   46.105
  118.250   85.392    0.352    0.140   43.045
  118.500   70.600    0.361    0.178   36.463
  118.750   68.132    0.348    0.227   32.703
  119.000   70.252    0.331    0.263   31.531
  119.250   68.899    0.315    0.293   29.739
  119.500   68.008    0.287    0.319   28.359
  119.750   69.541    0.245    0.345   25.939
  120.000   70.596    0.208    0.358   23.752
  120.250   72.558    0.190    0.362   22.452
  120.500   76.594    0.205    0.358   21.967
  120.750   80.266    0.237    0.356   22.456
  121.000   82.232    0.234    0.370   23.901
  121.250   86.252    0.172    0.379   33.826
  121.500   90.285    0.153    0.370   83.313
  121.750   90.160    0.180    0.365  133.673
  122.000   87.116    0.209    0.372  192.753
  122.250   77.992    0.241    0.329  255.135
  122.500   58.617    0.296    0.223  263.566
  122.750   43.558    0.320    0.204  254.124
  123.000   33.931    0.331    0.213  232.265
  123.250   31.317    0.328    0.228  197.855
  123.500   32.034    0.316    0.252  163.307
  123.750   30.962    0.307    0.277  141.239
  124.000   30.033    0.299    0.305  137.951
  124.250   32.484    0.287    0.336  166.581
  124.500   35.249    0.275    0.376  227.845
  124.750   37.580    0.277    0.372  257.835
  125.000   37.545    0.297    0.331  254.638
  125.250   35.204    0.317    0.295  252.793
  125.500   33.723    0.323    0.262  253.295
  125.750   31.568    0.329    0.251  271.956
  126.000   30.649    0.336    0.262  298.167
  126.250   30.517    0.331    0.285  412.225
  126.500   30.821    0.321    0.304  509.891
  126.750   32.171    0.306    0.314  504.416
  127.000   33.669    0.287    0.319  507.744
  127.250   33.227    0.297    0.320  506.315
  127.500   32.383    0.296    0.319  502.006
  127.750   30.427    0.295    0.327  492.037
  128.000   29.180    0.293    0.336  474.719
  128.250   30.139    0.286    0.327  445.743
  128.500   31.145    0.295    0.308  403.128
  128.750   31.775    0.305    0.318  367.807
  129.000   31.264    0.299    0.349  332.749
  129.250   31.522    0.273    0.372  276.078
  129.500   32.974    0.265    0.374  213.919
  129.750   34.508    0.276    0.362  177.338
  130.000   35.445    0.272    0.347  169.405
  130.250   34.927    0.288    0.333  183.951
  130.500   34.782    0.301    0.324  221.418
  130.750   34.717    0.306    0.313  256.478
  131.000   35.152    0.306    0.290  283.641
  131.250   37.164    0.301    0.269  307.246
  131.500   39.740    0.292    0.270  315.876
  131.750   40.483    0.286    0.285  311.170
  132.000   39.220    0.308    0.304  301.871
  132.250   37.524    0.330    0.305  286.625
  132.500   36.013    0.326    0.303  258.793
  132.750   34.444    0.308    0.314  216.702
  133.000   32.886    0.296    0.320  177.960
  133.250   31.311    0.294    0.327  174.038
  133.500   30.041    0.313    0.328  182.624
  133.750   29.745    0.321    0.333  198.643
  134.000   31.194    0.310    0.341  217.030
  134.250   34.056    0.300    0.339  221.998
  134.500   36.551    0.301    0.331  204.025
  134.750   37.246    0.310    0.339  170.433
  135.000   36.239    0.312    0.337  146.734
  135.250   33.401    0.314    0.326  126.194
  135.500   30.813    0.302    0.327  102.900
  135.750   30.362    0.289    0.342   83.596
  136.000   31.544    0.311    0.352   70.074
  136.250   34.514    0.322    0.356   59.004
  136.500   38.641    0.325    0.371   53.739
  136.750   44.965    0.281    0.407   52.892
  137.000   53.863    0.246    0.412   57.930
  137.250   58.868    0.268    0.379   69.755
  137.500   55.711    0.283    0.370   83.509
  137.750   56.945    0.274    0.360   97.204
  138.000   58.745    0.282    0.351  110.976
  138.250   52.947    0.308    0.330  124.079
  138.500   46.992    0.327    0.310  134.299
  138.750   48.907    0.322    0.307  139.348
  139.000   51.933    0.303    0.310  138.689
  139.250   51.197    0.295    0.329  133.711
  139.500   48.644    0.306    0.353  124.773
  139.750   48.853    0.294    0.368  109.995
  140.000   50.513    0.273    0.378   90.963
  140.250   50.616    0.284    0.390   75.407
  140.500   50.039    0.309    0.400   69.195
  140.750   48.991    0.309    0.397   68.278
  141.000   48.418    0.304    0.395   75.081
  141.250   50.256    0.295    0.397   85.357
  141.500   54.055    0.282    0.406  100.783
  141.750   56.308    0.279    0.418  122.604
  142.000   54.348    0.289    0.421  140.855
  142.250   50.197    0.282    0.421  147.077
  142.500   46.514    0.284    0.412  142.647
  142.750   42.379    0.297    0.397  129.684
  143.000   37.504    0.310    0.386  107.466
  143.250   34.001    0.325    0.388   78.092
  143.500   33.201    0.344    0.406   52.790
  143.750   33.563    0.355    0.443   43.823
  144.000   35.371    0.373    0.467   39.454
  144.250   37.809    0.342    0.455   35.780
  144.500   45.290    0.291    0.434   32.794
  144.750   56.803    0.276    0.426   29.680
  145.000   62.919    0.273    0.413   26.928
  145.250   65.126    0.294    0.408   24.282
  145.500   66.584    0.272    0.427   22.041
  145.750   68.603    0.252    0.430   20.250
  146.000   74.903    0.244    0.424   18.900
  146.250   81.378    0.239    0.437   17.621
  146.500   80.877    0.255    0.455   16.228
  146.750   84.140    0.231    0.453   15.815
  147.000   83.710    0.235    0.449   15.785
  147.250   82.399    0.261    0.445   16.704
  147.500   89.266    0.254    0.442   18.703
  147.750   96.504    0.225    0.448   21.253
  148.000   89.558    0.222    0.462   23.808
  148.250   81.327    0.228    0.465   25.162
  148.500   71.373    0.252    0.459   25.046
  148.750   56.744    0.282    0.436   24.541
  149.000   50.061    0.302    0.403   24.332
  149.250   54.954    0.307    0.384   24.731
  149.500   57.212    0.300    0.392   26.819
  149.750   59.987    0.294    0.407   31.300
  150.000   59.896    0.289    0.418   35.810
  150.250   57.707    0.291    0.434   45.931
  150.500   56.065    0.305    0.452   59.614
  150.750   53.114    0.318    0.457   67.530
  151.000   47.270    0.318    0.444   64.507
  151.250   45.409    0.326    0.433   53.357
  151.500   45.392    0.320    0.434   49.829
  151.750   45.266    0.313    0.432   40.337
  152.000   45.688    0.313    0.436   28.690
  152.250   46.779    0.315    0.452   25.435
  152.500   47.824    0.316    0.456   21.875
  152.750   50.616    0.310    0.437   20.112
  153.000   56.277    0.300    0.414   19.899
  153.250   62.974    0.285    0.409   20.862
  153.500   71.341    0.265    0.419   21.917
  153.750   79.288    0.244    0.429   23.570
  154.000   81.287    0.233    0.441   27.358
  154.250   78.544    0.229    0.453   30.331
  154.500   67.582    0.234    0.459   31.135
  154.750   60.159    0.274    0.460   30.887
  155.000   59.567    0.302    0.459   29.882
  155.250   60.447    0.283    0.455   27.907
