~VERSION INFORMATION
 VERS.                 2.0:   CWLS LOG ASCII STANDARD -VERSION 2.0
 WRAP.                  NO:   ONE LINE PER DEPTH STEP
~WELL INFORMATION BLOCK
#MNEM.UNIT           DATA                    DESCRIPTION OF MNEMONIC
#---------    -------------------            -------------------------------
# Generated from Intellog Unique Number	CN_94_101/WELL/2377
WELL.         02-06-099-12W4                 : Well_name    - WELL
LOC .         AA/02-06-099-12W4/0            : Location     - LOCATION
UWI .         AA/02-06-099-12W400            : Uwi          - UNIQUE WELL ID
ENTR.         TOP                            : Entered      - ENTERED BY
SRVC.         SCHLUMBERGER                   : Scn          - SERVICE COMPANY
DATE.         08/11/92                       : Date         - LOG DATE
STRT.M        360                            : top_depth    - START DEPTH
STOP.M        585                            : bot_depth    - STOP DEPTH
STEP.M        0.25                           : increment    - STEP LENGTH
 NULL. -999.2500:NULL Value
~CURVE INFORMATION BLOCK
#MNEM UNIT       ERCB CURVE CODE    CURVE DESCRIPTION
#-----------   ------------------   ----------------------------------
DEPT.M        00 001 00 00         : DEPTH        - DEPTH
DPHI.V/V      00 890 00 00         : PHID         - DENSITY POROSITY (SANDSTONE)
NPHI.V/V      00 330 00 00         : PHIN         - NEUTRON POROSITY (SANDSTONE)
ILD .OHMM     00 120 00 00         : RESD         - DEEP RESISTIVITY (DIL)
GR  .API      00 310 00 00         : GR           - GAMMA RAY
~PARAMETER INFORMATION
#MNEM.UNIT           DATA             DESCRIPTION OF MNEMONIC
#---------         -----------     ------------------------------
GL  .M        823.03               : gl           - GROUND LEVEL ELEVATION
EREF.M        826.26               : kb           - ELEVATION OF DEPTH REFERENCE
DATM.M        826.26               : datum        - DATUM ELEVATION
TDD .M        590                  : tdd          - TOTAL DEPTH DRILLER
RUN .         ONE                  : Run          - RUN NUMBER
ENG .         JO                   : Engineer     - RECORDING ENGINEER
WIT .         TIM                  : Witness      - WITNESSED BY
MUD .         GEL                  : Mud_type     - MUD TYPE
MATR.         SANDSTONE            : Logunit      - NEUTRON MATRIX
TMAX.C        25                   : BHT          - MAXIMUM RECORDED TEMPERATURE
BHTD.M        590                  : BHTDEP       - MAXIMUM RECORDED TEMPERATURE
RMT .C        25                   : MDTP         - TEMPERATURE OF MUD
MUDD.KG/M     1050                 : MWT          - MUD DENSITY
NEUT.         1                    : NEUTRON      - NEUTRON TYPE
RESI.         0                    : RESIST       - RESISTIVITY TYPE
RM  .OHMM     9                    : RM           - RESISTIVITY OF MUD
RMC .OHMM     9                    : RMC          - RESISTIVITY OF MUD CAKE
RMF .OHMM     9                    : RMF          - RESISTIVITY OF MUD FILTRATE
SUFT.C        4                    : SUFT         - SURFACE TEMPERATURE
~A  DEPTH     PHID     PHIN     RESD       GR
# ...
  403.500    0.369    0.403    9.797   52.141
  403.750    0.369    0.413    9.624   51.575
  404.000    0.372    0.423    9.636   51.611
  404.250    0.374    0.431   10.021   52.869
  404.500    0.376    0.438   10.620   54.737
  404.750    0.381    0.432   11.256   56.614
  405.000    0.383    0.421   11.266   57.242
  405.250    0.382    0.425   10.655   59.119
  405.500    0.374    0.431    9.340   61.589
  405.750    0.371    0.434    7.589   66.518
  406.000    0.362    0.443    5.938   70.820
  406.250    0.356    0.456    5.204   79.413
  406.500    0.350    0.470    4.562   84.334
  406.750    0.350    0.491    4.233   89.263
  407.000    0.354    0.512    4.081   92.343
  407.250    0.368    0.527    4.087   94.822
  407.500    0.384    0.549    4.093   96.699
  407.750    0.397    0.549    4.018   97.336
  408.000    0.417    0.549    3.802   96.771
  408.250    0.435    0.551    3.733   96.188
  408.500    0.446    0.557    3.667   93.790
  408.750    0.442    0.568    3.535   91.384
  409.000    0.420    0.590    3.344   88.978
  409.250    0.390    0.593    3.412   92.669
  409.500    0.344    0.577    3.548   99.421
  409.750    0.373    0.567    3.761  101.289
  410.000    0.396    0.572    3.987  101.334
  410.250    0.389    0.585    4.067  100.751
  410.500    0.364    0.599    4.231   99.584
  410.750    0.354    0.591    4.314   98.992
  411.000    0.351    0.576    4.321   97.196
  411.250    0.347    0.563    4.326   94.790
  411.500    0.348    0.543    4.170   92.393
  411.750    0.359    0.543    3.944   91.208
  412.000    0.386    0.549    3.592   91.253
  412.250    0.398    0.559    3.396   90.050
  412.500    0.409    0.562    3.211   88.254
  412.750    0.420    0.568    3.341   85.866
  413.000    0.433    0.574    3.472   84.672
  413.250    0.442    0.579    4.125   82.868
  413.500    0.453    0.571    4.717   78.630
  413.750    0.463    0.552    5.603   71.950
  414.000    0.458    0.515    7.044   61.606
  414.250    0.393    0.456    8.209   53.705
  414.500    0.358    0.395    8.867   49.467
  414.750    0.346    0.390    9.398   47.681
  415.000    0.330    0.390   10.749   47.708
  415.250    0.303    0.385   12.527   48.355
  415.500    0.279    0.320   15.163   51.453
  415.750    0.156    0.276   16.071   52.090
  416.000    0.144    0.260   15.491   52.737
  416.250    0.185    0.310   13.073   53.393
  416.500    0.228    0.371   10.034   54.031
  416.750    0.326    0.410    7.004   56.509
  417.000    0.348    0.416    6.138   62.660
  417.250    0.322    0.448    6.146   68.182
  417.500    0.313    0.453    6.515   73.103
  417.750    0.327    0.484    7.452   72.529
  418.000    0.345    0.447    8.359   68.300
  418.250    0.360    0.406    9.202   64.663
  418.500    0.368    0.402   10.130   61.036
  418.750    0.366    0.410   10.534   59.869
  419.000    0.364    0.411   10.348   60.507
  419.250    0.363    0.407   10.169   61.163
  419.500    0.362    0.402    9.799   61.801
  419.750    0.360    0.406    8.757   62.438
  420.000    0.353    0.411    7.974   64.926
  420.250    0.350    0.435    7.262   68.634
  420.500    0.345    0.439    6.864   72.325
  420.750    0.343    0.447    6.136   77.856
  421.000    0.342    0.465    5.800   83.998
  421.250    0.346    0.497    5.486   88.919
  421.500    0.366    0.530    5.190   88.955
  421.750    0.382    0.546    5.398   86.549
  422.000    0.377    0.537    5.611   82.311
  422.250    0.360    0.531    6.176   75.020
  422.500    0.339    0.531    7.063   61.023
  422.750    0.330    0.526    8.882   57.395
  423.000    0.313    0.433    9.969   56.210
  423.250    0.300    0.428   10.565   56.237
  423.500    0.326    0.427   10.984   56.274
  423.750    0.333    0.427   11.211   58.151
  424.000    0.365    0.424   11.224   59.399
  424.250    0.370    0.420   10.822   61.877
  424.500    0.371    0.415    9.851   64.975
  424.750    0.376    0.415    9.139   66.843
  425.000    0.382    0.425    8.165   68.091
  425.250    0.386    0.432    7.579   68.091
  425.500    0.388    0.438    7.033   75.509
  425.750    0.388    0.446    6.777   78.589
  426.000    0.389    0.455    6.289   82.279
  426.250    0.389    0.512    5.948   87.820
  426.500    0.395    0.542    5.520   91.519
  426.750    0.404    0.563    5.124   94.617
  427.000    0.413    0.568    4.937   95.884
  427.250    0.408    0.547    4.669   96.512
  427.500    0.390    0.533    4.417   96.549
  427.750    0.390    0.541    4.337   97.815
  428.000    0.406    0.572    4.027   99.072
  428.250    0.418    0.577    3.954   97.887
  428.500    0.415    0.583    3.812   98.534
  428.750    0.407    0.587    3.606  101.614
  429.000    0.393    0.580    3.542  105.313
  429.250    0.378    0.572    3.479  104.739
  429.500    0.366    0.566    3.482  102.953
  429.750    0.355    0.558    3.487  102.378
  430.000    0.343    0.547    3.494  102.414
  430.250    0.332    0.547    3.497  102.460
  430.500    0.327    0.555    3.500  102.478
  430.750    0.336    0.564    3.506  101.912
  431.000    0.347    0.575    3.509  100.727
  431.250    0.361    0.587    3.512   98.932
  431.500    0.367    0.592    3.516   98.977
  431.750    0.373    0.596    3.522   99.624
  432.000    0.379    0.597    3.525  100.863
  432.250    0.386    0.588    3.599  102.129
  432.500    0.388    0.580    3.601  102.785
  432.750    0.393    0.572    3.605  103.432
  433.000    0.397    0.559    3.610  103.459
  433.250    0.389    0.552    3.614  103.495
  433.500    0.384    0.555    3.688  103.540
  433.750    0.386    0.565    3.693  102.975
  434.000    0.392    0.569    3.697  102.993
  434.250    0.401    0.571    3.700  103.029
  434.500    0.381    0.575    3.705  102.455
  434.750    0.350    0.573    3.709  100.058
  435.000    0.335    0.573    3.715   97.643
  435.250    0.331    0.580    3.718   93.405
  435.500    0.351    0.587    3.722   92.220
  435.750    0.353    0.584    3.390   92.876
  436.000    0.348    0.570    3.146   93.531
  436.250    0.349    0.563    2.920   93.558
  436.500    0.380    0.568    2.867   92.993
  436.750    0.442    0.578    2.764   93.020
  437.000    0.474    0.586    2.715   93.056
  437.250    0.493    0.597    2.667   93.084
  437.500    0.473    0.598    2.571   93.138
  437.750    0.486    0.611    2.527   93.165
  438.000    0.502    0.620    2.528   93.201
  438.250    0.511    0.625    2.532   93.228
  438.500    0.519    0.617    2.535   93.282
  438.750    0.520    0.616    2.538   93.911
  439.000    0.514    0.623    2.540   93.947
  439.250    0.502    0.629    2.545   95.205
  439.500    0.484    0.633    2.546   95.861
  439.750    0.468    0.625    2.550   96.498
  440.000    0.457    0.620    2.602   97.764
  440.250    0.455    0.618    2.707   97.792
  440.500    0.451    0.612    2.761   98.438
  440.750    0.444    0.596    2.819   99.705
  441.000    0.431    0.580    2.876  100.361
  441.250    0.418    0.565    2.935  100.998
  441.500    0.391    0.549    2.993  101.636
  441.750    0.372    0.544    2.998  101.681
  442.000    0.364    0.549    3.000  101.708
  442.250    0.367    0.554    3.005  101.152
  442.500    0.372    0.556    3.008   99.949
  442.750    0.371    0.556    3.013   98.162
  443.000    0.373    0.559    3.014   96.367
  443.250    0.378    0.567    3.076   94.571
  443.500    0.386    0.584    3.200   93.997
  443.750    0.386    0.628    3.455   93.431
  444.000    0.378    0.623    3.951   92.848
  444.250    0.365    0.619    4.605   92.265
  444.500    0.363    0.620    4.975   91.089
  444.750    0.364    0.620    5.175   90.505
  445.000    0.364    0.610    5.279   87.498
  445.250    0.354    0.578    5.286   84.481
  445.500    0.322    0.545    5.293   83.296
  445.750    0.312    0.511    5.299   83.332
  446.000    0.328    0.535    5.109   82.758
  446.250    0.354    0.550    5.016   82.785
  446.500    0.363    0.572    4.928   82.821
  446.750    0.378    0.589    4.841   84.689
