~VERSION INFORMATION
 VERS.                 2.0:   CWLS LOG ASCII STANDARD -VERSION 2.0
 WRAP.                  NO:   ONE LINE PER DEPTH STEP
~WELL INFORMATION BLOCK
#MNEM.UNIT           DATA                    DESCRIPTION OF MNEMONIC
#---------    -------------------            -------------------------------
# Generated from Intellog Unique Number	CC_80_83/WELL/2324
NULL.         -999.25                        : NULL_VALUE
WELL.         ARCO ACI McMURRAY              : Well_name    - WELL              
LOC .         09-26-083-12W4                 : Location     - LOCATION          
UWI .         AA/09-26-083-12W400            : Uwi          - UNIQUE WELL ID    
ENTR.         DW                             : Entered      - ENTERED BY        
SRVC.         SCHLUMBERGER                   : Scn          - SERVICE COMPANY   
DATE.         06 FEB 74                      : Date         - LOG DATE
STRT.M        137.16                         : top_depth    - START DEPTH       
STOP.M        366.98                         : bot_depth    - STOP DEPTH        
STEP.M        0.305                          : increment    - STEP LENGTH       
~CURVE INFORMATION BLOCK
#MNEM UNIT       ERCB CURVE CODE    CURVE DESCRIPTION
#-----------   ------------------   ----------------------------------
DEPT.M        00 001 00 00         : DEPTH        - DEPTH                       
DPHI.V/V      00 890 00 00         : PHID         - DENSITY POROSITY (LIMESTONE)
GR  .API      00 310 00 00         : GR           - GAMMA RAY                   
NPHI.V/V      00 330 00 00         : PHIN         - NEUTRON POROSITY (LIMESTONE)
ILD .OHMM     00 120 00 00         : RESD         - DEEP RESISTIVITY (DIL)      
~PARAMETER INFORMATION       
#MNEM.UNIT           DATA             DESCRIPTION OF MNEMONIC
#---------         -----------     ------------------------------
GL  .M        609.6                : gl           - GROUND LEVEL ELEVATION      
EREF.M        611.124              : kb           - ELEVATION OF DEPTH REFERENCE
DATM.M        611.124              : datum        - DATUM ELEVATION             
TDD .M        369.113              : tdd          - TOTAL DEPTH DRILLER         
RUN .         ONE                  : Run          - RUN NUMBER                  
ENG .         BILL                 : Engineer     - RECORDING ENGINEER          
WIT .         JIM                  : Witness      - WITNESSED BY                
MUD .         GEL                  : Mud_type     - MUD TYPE                    
MATR.         LIMESTONE            : Logunit      - NEUTRON MATRIX              
TMAX.C        18.3333              : BHT          - MAXIMUM RECORDED TEMPERATURE
BHTD.M        369.113              : BHTDEP       - MAXIMUM RECORDED TEMPERATURE
MATR.         1                    : LOGUNIT      - NEUTRON MATRIX              
RMT .C        25                   : MDTP         - TEMPERATURE OF MUD          
NEUT.         1                    : NEUTRON      - NEUTRON TYPE                
RESI.         0                    : RESIST       - RESISTIVITY TYPE            
RMC .OHMM     0.25                 : RMC          - RESISTIVITY OF MUD CAKE     
RMF .OHMM     0.25                 : RMF          - RESISTIVITY OF MUD FILTRATE 
SUFT.C        4                    : SUFT         - SURFACE TEMPERATURE         
~A  DEPTH     PHID       GR     PHIN     RESD
# ...
  243.228    0.353   85.663    0.565    3.596
  243.533    0.348   88.895    0.569    3.161
  243.838    0.355   90.916    0.570    2.832
  244.143    0.379   87.241    0.569    2.783
  244.448    0.379   84.380    0.562    2.893
  244.752    0.394   81.521    0.525    3.119
  245.057    0.401   69.309    0.470    3.763
  245.362    0.324   67.261    0.455    4.455
  245.667    0.313   69.281    0.476    5.474
  245.972    0.282   76.986    0.508    6.247
  246.276    0.304   76.566    0.565    6.491
  246.581    0.347   76.139    0.570    5.922
  246.886    0.347   78.973    0.550    5.403
  247.191    0.352   83.834    0.491    5.116
  247.496    0.368   79.755    0.464    5.220
  247.800    0.341   67.545    0.451    5.631
  248.105    0.322   57.367    0.435    5.961
  248.410    0.331   52.471    0.413    6.551
  248.715    0.344   59.369    0.414    7.335
  249.020    0.334   60.574    0.440    7.911
  249.324    0.343   56.083    0.461    9.024
  249.629    0.349   55.666    0.448    9.210
  249.934    0.350   57.681    0.454    9.052
  250.239    0.354   61.729    0.431    9.062
  250.543    0.364   69.846    0.427    9.077
  250.848    0.371   69.423    0.426    8.922
  251.153    0.371   63.309    0.436    8.767
  251.458    0.366   56.384    0.414    8.615
  251.763    0.357   59.620    0.420    8.314
  252.067    0.353   58.387    0.407    8.174
  252.372    0.358   57.964    0.396    8.181
  252.677    0.352   55.511    0.368    9.161
  252.982    0.335   61.185    0.284   10.448
  253.287    0.314   52.632    0.106   12.603
  253.591    0.285   45.302    0.091   14.917
  253.896    0.017   38.782    0.088   21.275
  254.201    0.008   40.392    0.092   24.726
  254.506    0.021   40.783    0.097   25.694
  254.811    0.028   40.361    0.106   23.880
  255.115    0.043   48.882    0.181   18.092
  255.420    0.077   55.779    0.280   13.453
  255.725    0.156   58.199    0.433   11.185
  256.030    0.303   57.777    0.436   10.203
  256.335    0.331   59.389    0.443    9.662
  256.639    0.345   62.218    0.428    9.497
  256.944    0.353   58.133    0.439    9.162
  257.249    0.344   56.089    0.455    9.176
  257.554    0.354   57.700    0.451    9.189
  257.859    0.359   60.938    0.440    9.200
  258.163    0.350   60.917    0.451    9.213
  258.468    0.349   60.499    0.442    9.579
  258.773    0.352   60.077    0.396    9.950
  259.078    0.336   55.995    0.281   10.937
  259.383    0.323   54.356    0.236   12.243
  259.688    0.281   54.342    0.255   15.047
  259.992    0.150   57.578    0.343   17.165
  260.297    0.165   54.311    0.461   16.870
  260.602    0.317   51.043    0.434   13.767
  260.907    0.358   56.307    0.427   11.658
  261.212    0.371   58.326    0.447   10.252
  261.516    0.375   58.312    0.430    9.889
  261.821    0.359   59.518    0.424    9.721
  262.126    0.348   61.128    0.398    9.551
  262.431    0.335   57.047    0.347   10.117
  262.736    0.338   55.811    0.229   10.709
  263.040    0.315   46.438    0.100   12.445
  263.345    0.060   43.180    0.096   16.167
  263.650    0.018   41.130    0.098   20.619
  263.955    0.028   42.338    0.111   23.520
  264.260    0.034   41.914    0.106   26.826
  264.564    0.033   43.931    0.089   28.405
  264.869    0.038   43.917    0.084   28.977
  265.174    0.009   40.242    0.105   28.484
  265.479    0.011   45.919    0.160   24.127
  265.784    0.054   48.342    0.268   18.966
  266.089    0.130   51.578    0.375   14.637
  266.393    0.194   54.813    0.420   12.397
  266.698    0.318   56.829    0.403   10.697
  267.003    0.330   60.473    0.414    9.760
  267.308    0.322   58.833    0.427    9.078
  267.613    0.322   56.377    0.427    8.921
  267.917    0.337   60.022    0.383    8.765
  268.222    0.352   56.754    0.364    9.109
  268.527    0.341   60.799    0.316   10.785
  268.832    0.321   54.687    0.241   13.502
  269.137    0.249   47.765    0.181   15.689
  269.441    0.165   52.627    0.377   16.612
  269.746    0.150   62.366    0.451   14.879
  270.051    0.258   66.008    0.450   11.698
  270.356    0.335   65.180    0.464    9.026
  270.661    0.358   75.734    0.454    7.098
  270.965    0.358   77.345    0.426    6.847
  271.270    0.327   80.174    0.426    6.733
  271.575    0.306   75.281    0.429    6.868
  271.880    0.298   80.545    0.440    7.139
  272.185    0.294   87.443    0.445    7.282
  272.490    0.281   89.864    0.441    7.291
  272.794    0.282   89.853    0.458    7.300
  273.099    0.295   82.517    0.451    7.308
  273.404    0.266   78.847    0.472    7.183
  273.709    0.292   80.050    0.450    6.931
  274.014    0.251   78.404    0.466    6.443
  274.318    0.292   79.609    0.536    5.771
  274.623    0.310   85.695    0.540    5.073
  274.928    0.299   92.589    0.530    4.715
  275.233    0.324   89.729    0.494    4.635
  275.538    0.358   81.175    0.449    4.907
  275.842    0.369   86.847    0.438    5.100
  276.147    0.371   86.837    0.425    5.501
  276.452    0.297   76.248    0.402    5.934
  276.757    0.283   73.798    0.282    6.521
  277.062    0.259   70.938    0.234    8.015
  277.366    0.171   55.476    0.169    9.490
  277.671    0.069   50.176    0.276   10.045
  277.976    0.065   70.892    0.358   10.058
  278.281    0.161   80.631    0.426    9.008
  278.586    0.262   81.835    0.421    7.774
  278.891    0.307   76.941    0.424    7.093
  279.195    0.318   74.486    0.437    6.846
  279.500    0.308   76.910    0.421    6.727
  279.805    0.291   76.893    0.447    6.862
  280.110    0.298   80.130    0.422    6.870
  280.415    0.316   76.454    0.407    7.142
  280.719    0.284   76.037    0.402    7.285
  281.024    0.259   82.524    0.451    7.431
  281.329    0.263   86.574    0.538    7.440
  281.634    0.297   88.588    0.497    7.180
  281.939    0.340   82.883    0.475    6.676
  282.243    0.338   85.308    0.479    6.321
  282.548    0.316   80.817    0.539    6.211
  282.853    0.325   78.364    0.496    6.222
  283.158    0.344   80.381    0.451    6.229
  283.463    0.366   81.993    0.479    5.789
  283.767    0.285   86.449    0.516    5.089
  284.072    0.319   90.500    0.523    4.474
  284.377    0.305   91.703    0.529    3.861
  284.682    0.289   90.871    0.506    3.656
  284.987    0.289   85.167    0.549    3.871
  285.292    0.306   86.779    0.530    4.501
  285.596    0.332   83.510    0.492    4.852
  285.901    0.346   95.690    0.466    6.193
  286.206    0.345   95.675    0.483    6.553
  286.511    0.261   91.595    0.455    6.092
  286.816    0.260   93.609    0.472    5.556
  287.120    0.269   98.473    0.494    5.361
  287.425    0.286   89.106    0.494    5.572
  287.730    0.299   83.810    0.461    6.357
  288.035    0.311   87.453    0.462    7.251
  288.340    0.329  101.257    0.433    7.970
  288.644    0.271  102.459    0.369    8.436
  288.949    0.301  102.446    0.356    9.447
  289.254    0.271   93.895    0.375    9.636
  289.559    0.250   88.593    0.385    9.648
  289.864    0.247   93.453    0.404    9.485
  290.168    0.238   95.472    0.389    9.677
  290.473    0.230   97.488    0.389    9.691
  290.778    0.248   93.003    0.418    9.702
  291.083    0.256   93.800    0.428    9.017
  291.388    0.268   93.377    0.501    8.076
  291.693    0.292   88.486    0.524    7.369
  291.997    0.268   91.719    0.473    6.849
  292.302    0.280   95.365    0.452    6.608
  292.607    0.263   96.162    0.436    6.618
  292.912    0.261   86.392    0.395    7.549
  293.217    0.276   82.312    0.405    8.297
  293.521    0.272   92.052    0.391    8.950
  293.826    0.268   96.508    0.384    9.473
  294.131    0.257   93.240    0.427    9.311
  294.436    0.274   90.377    0.444    8.822
  294.741    0.326   77.763    0.451    8.508
  295.045    0.273   79.372    0.374    8.212
  295.350    0.241   84.643    0.383    8.218
  295.655    0.115   80.966    0.337    8.542
  295.960    0.074   72.007    0.260    9.933
