~Version : LASO    vs 4.00
VERS.                2.00:   CWLS Log ASCII Standard -VERSION 2.0
WRAP.                  NO:
~Well Information Block
#MNEM.UNIT       Data                        Description of Mnemonic
#----.----      -------------------------- : -----------------------------
STRT.M            11.0000:
STOP.M           176.0000:
STEP.M             0.1000:
NULL.           -999.2500:
COMP.  MOBIL OIL CANADA LTD.  :COMPANY
WELL.  MOBIL CLARKE OV 5-32   :WELL
FLD.   CLARKE                 :FIELD
LOC.   05-32-089-08W4         :LOCATION
CTRY.  CANADA                 :COUNTRY
PROV.  ALBERTA                :PROVINCE
SRVC.  SCHLUMBERGER           :SERVICE COMPANY
DATE.  04-MAR-81              :LOG DATE
UWI.   AA/05-32-089-08W400    :UNIQUE WELL ID
~Parameter Information Block
#MNEM.UNIT       Data                        Description of Mnemonic
#----.----      -------------------------- : -----------------------------
RUN .                   1                 : Run Number
GL  .M           391.1000                 : Ground Level Elevation
DREF.                  KB                 : Depth Reference
EREF.M           394.5000                 : Elevation of Depth Reference
TDL .M           176.5000                 : Total Depth Logger
TDD .M           174.0000                 : Total Depth Driller
CSGL.M            16.0000                 : Casing Bottom Logger
CSGD.M            14.6000                 : Casing Bottom Driller
CSGS.MM          219.0000                 : Casing Size
CSGW.KG/M          0.0000                 : Casing Weight
BHT .DEGC         23.0000                 : Bottom Hole Temperature
BS  .MM          159.0000                 : Bit Size
DFD .           1110.0000                 : Mud Weight (Density)
DFV .             90.0000                 : Mud Viscosity
DFPH.             10.0000                 : Mud pH
RM  .OHMM          1.9600                 : Mud Resistivity
RMT .DEGC         20.0000                 : Mud Resistivity Temperature
~Curve Information Block
#MNEM.UNIT        API CODE    Curve Description
#---------    ------------    -------------------------------------------
DEPT.M                    :   DEPTH
CALI.MM       42 280  1  1:   3 DENSITY CALIPER
DPHI.V/V                  :   DPHI
DT  .US/M     60 520  0  1:   2 SONIC INTERVAL TRANSIT TIME (COMPENSATED)
GR  .GAPI     42 310  1  1:   4 GAMMA RAY
ILD .OHMM      5 120 46  1:   6 DEEP INDUCTION
ILM .OHMM      5 120 44  1:   7 MEDIUM INDUCTION
NPHI.V/V                  :   NPHI
RHOB.K/M3     42 350  1  1:   5 BULK DENSITY
SFLU.OHMM      5 220  1  1:   8 FOCUSSED RESISTIVITY
SP  .MV        5  10  1  1:   9 SPONTANEOUS POTENTIAL
~A  Depth           CALI        DPHI          DT          GR         ILD         ILM        NPHI        RHOB        SFLU          SP
# ...
169.6000        162.1750      0.0100    295.0800   -999.2500     14.8535     15.6975      0.2600   2662.0000     21.6686    -80.2500
169.7000        162.1750      0.0169    298.9200   -999.2500     14.8535     15.6975      0.2667   2662.0000     21.6686    -80.2500
169.8000        162.1750      0.0240    306.0000   -999.2500     14.3163     14.4487      0.2728   2644.0000     24.2008    -80.5050
169.9000        162.1750      0.0245    327.9600   -999.2500     14.3163     14.4487      0.2791   2644.0000     24.2008    -80.5050
170.0000        162.1750      0.0226    388.4400   -999.2500     14.1850     13.4224   -999.2500   2624.0000     19.4013    -80.2500
170.1000        162.1750      0.0141    413.3600   -999.2500     14.1850     13.4224   -999.2500   2624.0000     19.4013    -80.2500
170.2000        162.1750      0.0083    400.2000   -999.2500     13.7984     12.9369   -999.2500   2653.0000     13.2993    -79.2600
170.3000        162.1750      0.0058    373.9200   -999.2500     13.7984     12.9369   -999.2500   2653.0000     13.2993    -79.2600
170.4000        162.1750      0.0069    356.6400   -999.2500     13.4224     12.8183   -999.2500   2612.0000     12.9369    -78.7500
170.5000        162.1750      0.0127    350.2400   -999.2500     13.4224     12.8183   -999.2500   2612.0000     12.9369    -78.7500
170.6000        162.1750      0.0115    348.0800   -999.2500     12.9369     12.7008   -999.2500   2612.0000     14.3163    -78.2550
170.7000        162.1750      0.0122    349.2000   -999.2500     12.9369     12.7008   -999.2500   2612.0000     14.3163    -78.2550
170.8000        162.1750      0.0158    351.4400   -999.2500     12.7008     12.4690   -999.2500   2663.0000     17.6942    -77.5050
170.9000        162.1750      0.0231    353.3200   -999.2500     12.7008     12.4690   -999.2500   2663.0000     17.6942    -77.5050
171.0000        162.1750      0.0259    354.6400   -999.2500     12.7008     12.2414   -999.2500   2630.0000     16.7429    -77.2500
171.1000        162.1750      0.0295    355.4400   -999.2500     12.7008     12.2414   -999.2500   2630.0000     16.7429    -77.2500
171.2000        162.1750      0.0331    354.6000   -999.2500     12.8183     12.3546   -999.2500   2628.0000     15.4110    -77.2500
171.3000        162.1750      0.0303    354.0000   -999.2500     12.8183     12.3546   -999.2500   2628.0000     15.4110    -77.2500
171.4000        162.1750      0.0257    353.4000   -999.2500     12.9369     12.4690   -999.2500   2634.0000     14.9910    -76.5000
171.5000        162.1750      0.0176    352.7200   -999.2500     12.9369     12.4690   -999.2500   2634.0000     14.9910    -76.5000
171.6000        162.1750      0.0103    351.7600   -999.2500     13.0566     12.3546   -999.2500   2637.0000     14.4487    -76.5000
171.7000        162.1750      0.0094    352.6800   -999.2500     13.0566     12.3546   -999.2500   2637.0000     14.4487    -76.5000
171.8000        162.1750      0.0065    354.2400   -999.2500     13.4224     12.3546   -999.2500   2599.0000     13.9261    -76.2600
171.9000        162.1750      0.0092    349.9200   -999.2500     13.4224     12.3546   -999.2500   2599.0000     13.9261    -76.2600
172.0000        162.1750      0.0082    343.4800   -999.2500     14.0550     12.8183   -999.2500   2609.0000     13.4224    -76.0050
172.1000        162.1750      0.0080    328.4400   -999.2500     14.0550     12.8183   -999.2500   2609.0000     13.4224    -76.0050
172.2000        162.1750      0.0068    318.4800   -999.2500     15.5536     14.9910   -999.2500   2618.0000     12.9369    -75.5100
172.3000        162.1750      0.0083    309.7600   -999.2500     15.5536     14.9910   -999.2500   2618.0000     12.9369    -75.5100
172.4000        160.9000      0.0089    302.5200   -999.2500     16.4373     16.7429   -999.2500   2645.0000     15.5536    -75.0000
172.5000        160.9000      0.0070    297.5600   -999.2500     16.4373     16.7429   -999.2500   2645.0000     15.5536    -75.0000
172.6000        162.1750      0.0050    292.9200   -999.2500     17.3712     18.1899   -999.2500   2654.0000     23.3254    -74.7600
172.7000        162.1750      0.0051    292.9200   -999.2500     17.3712     18.1899   -999.2500   2654.0000     23.3254    -74.7600
172.8000        160.9000      0.0043    402.5200   -999.2500     19.4013     19.5808   -999.2500   2648.0000     30.1877    -74.2500
172.9000        160.9000      0.0050    467.6800   -999.2500     19.4013     19.5808   -999.2500   2648.0000     30.1877    -74.2500
173.0000        160.9000      0.0032    470.0000   -999.2500     20.5036     20.3156   -999.2500   2665.0000     26.5357    -73.5000
173.1000        160.9000      0.0043   -999.2500   -999.2500     20.5036     20.3156   -999.2500   2665.0000     26.5357    -73.5000
173.2000        159.6250      0.0077   -999.2500   -999.2500     20.8848     20.6933   -999.2500   2669.0000     24.6507    -72.5100
173.3000        159.6250      0.0121   -999.2500   -999.2500     20.8848     20.6933   -999.2500   2669.0000     24.6507    -72.5100
173.4000        160.9000      0.0171   -999.2500   -999.2500     20.5036     20.1294   -999.2500   2644.0000     27.5315    -70.0050
173.5000        160.9000      0.0194   -999.2500   -999.2500     20.5036     20.1294   -999.2500   2644.0000     27.5315    -70.0050
173.6000        160.9000      0.0150   -999.2500   -999.2500     20.1294     20.1294   -999.2500   2652.0000     26.2924    -69.5100
173.7000        160.9000      0.0090   -999.2500   -999.2500     20.1294     20.1294   -999.2500   2652.0000     26.2924    -69.5100
173.8000        159.6250      0.0046   -999.2500   -999.2500     20.1294     20.1294   -999.2500   2642.0000     24.2008    -69.0000
173.9000        159.6250      0.0035   -999.2500   -999.2500     20.1294     20.1294    -999.2500   2642.0000     24.2008    -69.0000
174.0000        160.9000      0.0025   -999.2500   -999.2500     20.3156     20.8848    -999.2500   2629.0000     27.5315    -66.5100
174.1000        160.9000      0.0021   -999.2500   -999.2500     20.3156     20.8848    -999.2500   2629.0000     27.5315    -66.5100
174.2000        160.9000      0.0011   -999.2500   -999.2500     25.4818     21.8691    -999.2500   2647.0000     32.0797     33.5850
174.3000        160.9000      0.0009   -999.2500   -999.2500     25.4818     21.8691    -999.2500   2647.0000     32.0797     33.5850
174.4000        160.9000      0.0007   -999.2500   -999.2500     25.4818     23.7591    -999.2500   2663.0000     32.6761     33.3300
174.5000        160.9000      0.0007   -999.2500   -999.2500     25.4818     23.7591    -999.2500   2663.0000     32.6761     33.3300
174.6000        160.9000      0.0013   -999.2500   -999.2500   -999.2500   -999.2500    -999.2500   2651.0000   -999.2500   -999.2500
174.7000        160.9000      0.0016   -999.2500   -999.2500   -999.2500   -999.2500    -999.2500   2651.0000   -999.2500   -999.2500
174.8000        160.9000      0.0017   -999.2500   -999.2500   -999.2500   -999.2500    -999.2500   2665.0000   -999.2500   -999.2500
174.9000        160.9000      0.0036   -999.2500   -999.2500   -999.2500   -999.2500    -999.2500   2665.0000   -999.2500   -999.2500
175.0000        160.9000      0.0062   -999.2500   -999.2500   -999.2500   -999.2500    -999.2500   2679.0000   -999.2500   -999.2500
175.1000        160.9000      0.0104   -999.2500   -999.2500   -999.2500   -999.2500    -999.2500   2679.0000   -999.2500   -999.2500
175.2000        159.6250      0.0118   -999.2500   -999.2500   -999.2500   -999.2500    -999.2500   2680.0000   -999.2500   -999.2500
175.3000        159.6250      0.0135   -999.2500   -999.2500   -999.2500   -999.2500    -999.2500   2680.0000   -999.2500   -999.2500
175.4000        159.6250      0.0136   -999.2500   -999.2500   -999.2500   -999.2500    -999.2500   2631.0000   -999.2500   -999.2500
175.5000        159.6250      0.0170   -999.2500   -999.2500   -999.2500   -999.2500    -999.2500   2631.0000   -999.2500   -999.2500
175.6000        159.6250      0.0207   -999.2500   -999.2500   -999.2500   -999.2500    -999.2500   2624.0000   -999.2500   -999.2500
