~VERSION INFORMATION
 VERS.                 2.0:   CWLS LOG ASCII STANDARD -VERSION 2.0
 WRAP.                  NO:   ONE LINE PER DEPTH STEP
~WELL INFORMATION BLOCK
#MNEM.UNIT           DATA                    DESCRIPTION OF MNEMONIC
#---------    -------------------            -------------------------------
# Generated from Intellog Unique Number	CN_91_93/WELL/2951
WELL.         01-24-092-12W4                 : Well_name    - WELL
LOC .         AA/01-24-092-12W4/0            : Location     - LOCATION
UWI .         AA/01-24-092-12W400            : Uwi          - UNIQUE WELL ID
ENTR.         JOETTE                         : Entered      - ENTERED BY
SRVC.         SCHLUMBERGER                   : Scn          - SERVICE COMPANY
DATE.         03/31/92                       : Date         - LOG DATE
STRT.F        0                              : top_depth    - START DEPTH
STOP.F        379.757                        : bot_depth    - STOP DEPTH
STEP.F        0.82021                        : increment    - STEP LENGTH
 NULL. -999.2500:NULL Value
~CURVE INFORMATION BLOCK
#MNEM UNIT       ERCB CURVE CODE    CURVE DESCRIPTION
#-----------   ------------------   ----------------------------------
DEPT.F        00 001 00 00         : DEPTH        - DEPTH
CALI.IN       00 280 01 00         : CAL          - CALIPER
GR  .API      00 310 00 00         : GR           - GAMMA RAY
NPHI.V/V      00 330 00 00         : PHIN         - NEUTRON POROSITY (SANDSTONE)
DPHI.V/V      00 890 00 00         : PHID         - DENSITY POROSITY (SANDSTONE)
ILD .OHMM     00 120 00 00         : RESD         - DEEP RESISTIVITY (DIL)
~PARAMETER INFORMATION
#MNEM.UNIT           DATA             DESCRIPTION OF MNEMONIC
#---------         -----------     ------------------------------
GL  .M        370.881              : gl           - GROUND LEVEL ELEVATION
EREF.M        370.881              : kb           - ELEVATION OF DEPTH REFERENCE
DATM.M        370.881              : datum        - DATUM ELEVATION
TDD .M        120.396              : tdd          - TOTAL DEPTH DRILLER
RUN .         ONE                  : Run          - RUN NUMBER
ENG .         BILL                 : Engineer     - RECORDING ENGINEER
WIT .         JIM                  : Witness      - WITNESSED BY
MUD .         GEL                  : Mud_type     - MUD TYPE
MATR.         SANDSTONE            : Logunit      - NEUTRON MATRIX
TMAX.F        55                   : BHT          - MAXIMUM RECORDED TEMPERATURE
BHTD.F        395                  : BHTDEP       - MAXIMUM RECORDED TEMPERATURE
RMT .F        55                   : MDTP         - TEMPERATURE OF MUD
MUDD.LB/G     1.1                  : MWT          - MUD DENSITY
NEUT.         1                    : NEUTRON      - NEUTRON TYPE
RESI.         0                    : RESIST       - RESISTIVITY TYPE
RM  .OHMM     6.49                 : RM           - RESISTIVITY OF MUD
RMC .OHMM     6.49                 : RMC          - RESISTIVITY OF MUD CAKE
RMF .OHMM     6.49                 : RMF          - RESISTIVITY OF MUD FILTRATE
SUFT.F        4                    : SUFT         - SURFACE TEMPERATURE
~A  DEPTH      CAL       GR     PHIN     PHID     RESD
# ...
  239.501    5.997   92.005    0.396    0.231    8.912
  240.322    6.020   94.427    0.402    0.254    9.166
  241.142    6.022   96.262    0.414    0.261   10.876
  241.962    6.056   90.385    0.428    0.247   13.613
  242.782    6.075   83.018    0.411    0.254   16.594
  243.602    6.078   79.814    0.409    0.251   14.925
  244.423    6.065   79.865    0.403    0.246   15.487
  245.243    6.069   77.840    0.389    0.257   19.045
  246.063    6.040   79.083    0.378    0.262   15.668
  246.883    6.026   77.058    0.377    0.251   18.262
  247.703    6.028   76.226    0.395    0.236   15.713
  248.524    6.048   78.351    0.380    0.251   18.315
  249.344    6.066   79.594    0.378    0.264   18.014
  250.164    6.053   82.015    0.387    0.269   17.246
  250.984    6.025   79.991    0.384    0.264   13.940
  251.804    6.027   82.419    0.391    0.237   13.112
  252.625    6.046   86.329    0.403    0.236   13.365
  253.445    6.051   86.083    0.412    0.252   16.438
  254.265    6.068   83.466    0.417    0.263   18.317
  255.085    6.054   79.366    0.412    0.263   25.984
  255.906    6.041   75.563    0.414    0.266   32.821
  256.726    6.060   70.581    0.399    0.267   25.140
  257.546    6.062   73.898    0.363    0.257   17.613
  258.366    6.066   78.988    0.377    0.244   18.279
  259.186    6.069   81.113    0.400    0.242   19.657
  260.007    6.069   78.508    0.399    0.242   21.714
  260.827    6.075   75.002    0.389    0.258   22.738
  261.647    6.061   72.082    0.388    0.249   22.367
  262.467    6.064   70.650    0.377    0.260   25.377
  263.287    6.067   68.935    0.375    0.267   23.662
  264.108    6.067   66.015    0.374    0.270   24.996
  264.928    6.074   60.730    0.374    0.278   34.521
  265.748    6.075   51.888    0.361    0.262   33.953
  266.568    6.078   47.788    0.360    0.276   86.838
  267.388    6.080   48.141    0.383    0.292  192.532
  268.209    6.068   44.629    0.392    0.329  158.398
  269.029    6.070   43.203    0.408    0.340   67.296
  269.849    6.070   47.113    0.386    0.302   57.378
  270.669    6.077   51.610    0.367    0.272   55.444
  271.490    6.063   55.823    0.365    0.251   38.149
  272.310    6.082   52.310    0.360    0.262   56.093
  273.130    6.085   53.559    0.365    0.271  122.145
  273.950    6.088   49.749    0.388    0.287  458.684
  274.770    6.091   50.986    0.355    0.298  150.395
  275.591    6.091   55.192    0.343    0.287   47.159
  276.411    6.081   68.588    0.358    0.256   39.147
  277.231    6.067   77.241    0.371    0.241   29.455
  278.051    6.038   85.004    0.376    0.248   29.502
  278.871    6.026   83.276    0.387    0.263   29.800
  279.692    5.997   77.997    0.378    0.233   29.843
  280.512    6.000   72.113    0.370    0.232   36.366
  281.332    6.000   63.864    0.384    0.242   42.387
  282.152    6.021   60.969    0.392    0.275   53.539
  282.972    6.008   59.228    0.376    0.284   38.872
  283.793    6.011   63.429    0.373    0.293   34.967
  284.613    6.014   69.414    0.369    0.274   26.546
  285.433    6.048   73.917    0.371    0.256   28.294
  286.253    6.099   77.234    0.383    0.265   27.829
  287.073    6.086   75.802    0.388    0.255   24.155
  287.894    6.057   72.599    0.397    0.252   29.704
  288.714    6.044   76.509    0.402    0.248   30.023
  289.534    6.030   77.442    0.395    0.274   32.566
  290.354    6.018   73.343    0.400    0.271   34.407
  291.175    5.989   69.843    0.392    0.269   28.312
  291.995    5.991   71.671    0.386    0.259   24.791
  292.815    6.011   76.767    0.373    0.269   23.738
  293.635    6.060   80.085    0.387    0.256   24.641
  294.455    6.079   81.926    0.373    0.244   27.953
  295.276    6.051   80.778    0.372    0.264   24.921
  296.096    6.022   81.138    0.377    0.250   19.090
  296.916    6.024   83.257    0.361    0.242   17.959
  297.736    6.059   85.981    0.343    0.226   20.743
  298.556    6.094   88.706    0.360    0.222   19.337
  299.377    6.094   89.059    0.362    0.219   20.614
  300.197    6.115   85.849    0.373    0.201   31.128
  301.017    6.134   81.453    0.386    0.231   54.231
  301.837    6.136   73.494    0.393    0.249   69.734
  302.657    6.136   65.838    0.409    0.274 1008.620
  303.478    6.142   51.950    0.427    0.299  752.180
  304.298    6.161   39.847    0.409    0.316  260.201
  305.118    6.163   35.748    0.398    0.316  194.045
  305.938    6.151   34.026    0.376    0.328  386.513
  306.759    6.138   34.669    0.373    0.330  770.007
  307.579    6.138   31.163    0.368    0.328  467.484
  308.399    6.128   29.738    0.367    0.326  459.795
  309.219    6.130   30.683    0.358    0.313  139.119
  310.039    6.134   31.920    0.374    0.329  255.712
  310.860    6.136   34.341    0.404    0.348  382.704
  311.680    6.154   38.258    0.416    0.349  268.110
  312.500    6.154   38.895    0.411    0.350  107.966
  313.320    6.177   38.352    0.397    0.347  136.350
  314.140    6.179   39.601    0.379    0.346  890.779
  314.961    6.181   41.720    0.388    0.342  284.353
  315.781    6.184   43.259    0.391    0.327  130.917
  316.601    6.187   41.537    0.374    0.337   48.649
  317.421    6.175   43.373    0.373    0.318   94.326
  318.241    6.178   44.899    0.372    0.297  137.461
  319.062    6.180   48.513    0.386    0.288   84.972
  319.882    6.167   51.533    0.399    0.278  109.262
  320.702    6.138   50.997    0.379    0.293   51.211
  321.522    6.141   54.018    0.387    0.303   79.442
  322.343    6.141   57.027    0.387    0.293   97.676
  323.163    6.132   63.012    0.425    0.287   31.742
  323.983    6.134   59.802    0.437    0.304   71.007
  324.803    6.134   58.679    0.408    0.311 1055.080
  325.623    6.139   60.804    0.429    0.330  713.113
  326.444    6.174   54.624    0.452    0.342   85.992
  327.264    6.176   40.143    0.399    0.337  104.806
  328.084    6.211   40.793    0.399    0.334  171.530
  328.904    6.230   45.889    0.418    0.334  122.314
  329.724    6.233   50.682    0.369    0.323   59.413
  330.545    6.235   58.446    0.360    0.305   51.569
  331.365    6.239   65.320    0.420    0.283   68.122
  332.185    6.226   73.973    0.423    0.279   47.724
  333.005    6.226   71.368    0.408    0.288   26.264
  333.825    6.231   74.080    0.396    0.284   19.586
  334.646    6.203   78.583    0.427    0.264   98.767
  335.466    6.173   77.151    0.443    0.279  111.064
  336.286    6.176   73.348    0.449    0.278   85.075
  337.106    6.274   68.360    0.416    0.297  371.840
  337.927    6.277   59.227    0.363    0.296  282.296
  338.747    6.311   66.392    0.404    0.270   20.829
  339.567    6.330   56.957    0.448    0.305   55.218
  340.387    6.301   56.118    0.388    0.300   43.445
  341.207    6.256   62.696    0.392    0.278   66.192
  342.028    6.244   60.968    0.467    0.292  115.302
  342.848    6.244   55.090    0.455    0.322  115.467
  343.668    6.251   51.590    0.433    0.348   32.528
  344.488    6.252   50.757    0.420    0.357   42.962
  345.308    6.270   51.394    0.406    0.341  105.083
  346.129    6.273   54.119    0.408    0.308   73.618
  346.949    6.260   59.511    0.451    0.316   27.597
  347.769    6.263   56.011    0.460    0.337   38.114
  348.589    6.266   55.462    0.401    0.334   29.721
  349.409    6.253   67.079    0.409    0.307   16.213
  350.230    6.256   68.618    0.426    0.296   12.871
  351.050    6.275   60.962    0.401    0.292   17.152
  351.870    6.294   57.751    0.380    0.305   21.092
  352.690    6.296   61.662    0.415    0.317   23.091
  353.510    6.315   61.416    0.443    0.331   18.828
  354.331    6.302   52.574    0.449    0.346   11.034
  355.151    6.302   46.992    0.415    0.358    8.603
  355.971    6.292   43.189    0.385    0.349    9.336
  356.791    6.278   50.063    0.361    0.332   12.112
  357.612    6.265   64.052    0.364    0.280    8.410
  358.432    6.265   72.408    0.401    0.292   16.749
