~Version : LASO    vs 4.00 - DATA COPYRIGHT - RILEYS DATASHARE INTERNATIONAL
 VERS.                2.0 :   CWLS Log ASCII Standard -VERSION 2.0
 WRAP.                 NO :   One line per depth step
~Well Information Block
#MNEM.UNIT       Data                        Description of Mnemonic
#----.----      -------------------------- : -----------------------------
 STRT.M             0.0000                 : Start Depth
 STOP.M           204.7500                 : End Depth
 STEP.M             0.1250                 : Depth Increment
 NULL.           -999.25                   : NULL Value
 COMP.                                     : COMPANY
 WELL.    MOBIL CLARKE OV 7-25             : WELL NAME
 FLD .    WILDCAT                          : FIELD NAME
 LOC .    07-25-090-08W4                   : WELL LOCATION
 PROV.    ALBERTA                          : PROVINCE
 SRVC.    DRESSER ATLAS                    : LOGGING SERVICE COMPANY
 DATE.    19-FEB-81                        : DATE LOGGED
 UWI .    AA/07-25-090-08W400              : UNIQUE WELL ID
~Curve Information Block
#MNEM.UNIT        API CODE                   Curve Description
#----.----      LG--CV-CL--M               : -----------------
 DEPT.M          0   1  0  0               : 1 DEPTH
 DT  .US/M      60 520 42  1               : 2 SONIC INTERVAL TRANSIT TIME (COMPENSATED)
 CALI.MM        42 280  1  1               : 3 DENSITY CALIPER
 GR  .GAPI      42 310  1  1               : 4 GAMMA RAY
 NPHI.V/V       42 890  3  1               : 5 NEUTRON POROSITY (SANDSTONE)
 RHOB.K/M3      42 350  1  1               : 6 BULK DENSITY
 IL  .OHMM       5 120 45  1               : 7 INDUCTION
 SFL .OHMM       5 220  6  1               : 8 FOCUSSED RESISTIVITY
 SP  .MV         5  10  1  1               : 9 SPONTANEOUS POTENTIAL
~Parameter Information Block
#MNEM.UNIT       Data                        Description of Mnemonic
#----.----      -------------------------- : -----------------------------
 RUN .                   1                 : Run Number
 GL  .M           449.0000                 : Ground Level Elevation
 DREF.                  KB                 : Depth Reference
 EREF.M           449.0000                 : Elevation of Depth Reference
 TDL .M           202.0000                 : Total Depth Logger
 TDD .M           205.0000                 : Total Depth Driller
 BHT .DEGC         20.0000                 : Bottom Hole Temperature
 BS  .MM          159.0000                 : Bit Size
 DFD .           9999.0000                 : Mud Weight (Density)
 DFV .            150.0000                 : Mud Viscosity
 RM  .OHMM          4.1000                 : Mud Resistivity
 RMT .DEGC         20.0000                 : Mud Resistivity Temperature
 RMF .OHMM          3.9000                 : Mud Filtrate Resistivity
 RMFT.DEGC          8.0000                 : RMF Temperature
 RMC .OHMM          7.8000                 : Mud Cake Resistivity
 RMCT.DEGC          8.0000                 : RMC Temperature
~Asc DEPTH      DT         CALI       GR         NPHI       RHOB       IL         SFL        SP   
# ...
   10.1250   421.4000   187.3750    55.7850     0.2666  2280.2000  1254.4999    33.4550  -124.5450
   10.2500   576.9200   189.5000    54.3150     0.2636  2264.3000  1254.4999    32.7800  -126.7650
   10.3750   609.2800   191.3500    52.8450     0.2592  2279.0000  1254.4999    32.0450  -128.6250
   10.5000   584.2800   191.6500    52.6650     0.2629  2247.7000  1089.4999    33.2700  -130.4700
   10.6250   338.8400   191.0500    52.2900     0.2692  2187.7000   100.9500    35.1700  -131.4000
   10.7500   156.7600   191.6500    51.5550     0.2725  2107.3999    28.6600    36.3950  -132.3300
   10.8750   158.7600   193.8000    51.3750     0.2692  2021.0000    26.6950    36.6400  -133.0650
   11.0000   163.1600   195.6250    51.1800     0.2658  2022.9000    27.6800    37.1900  -133.9950
   11.1250   153.8400   195.3250    51.3750     0.2625  2143.6001    28.8450    37.0050  -134.3700
   11.2500   261.9200   195.3250    50.8200     0.2611  2343.3000    29.3350    36.6400  -134.5500
   11.3750   483.5600   195.6250    50.4450     0.2647  2385.0000    31.9700    34.8000  -134.3700
   11.5000   628.2800   195.0250    50.4450     0.2588  2395.3999   134.9500    30.9400  -133.8150
   11.6250   636.1200   195.6250    49.8900     0.2563  2405.2000   696.4999    30.7550  -133.6200
   11.7500   584.2800   195.0250    49.3350     0.2566  2406.3999  1220.4999    34.7400  -133.6200
   11.8750   537.3600   196.2500    48.7950     0.2658  2374.0000   466.2500    35.3550  -133.9950
   12.0000   541.0400   198.1000    50.0850     0.2673  2347.0000    31.6650    35.6000  -134.3700
   12.1250   581.6000   199.0000    51.0000     0.2725  2323.7000    25.1000    35.5350  -134.3700
   12.2500   566.3600   197.7750    49.3350     0.2758  2306.0000    25.1600    33.7000  -134.5500
   12.3750   487.0000   197.4750    48.9750     0.2768  2288.2000    25.3450    30.6950  -134.3700
   12.5000   294.1200   196.8750    48.4200     0.2783  2269.8000    25.5300    35.7800  -133.9950
   12.6250   226.8000   193.8000    48.9750     0.2824  2254.5000    25.5900    51.4000  -133.6200
   12.7500   380.1200   196.8750    51.3750     0.2765  2220.2000    25.3450    38.2950  -133.4400
   12.8750   448.4400   196.5500    54.4950     0.2600  2218.3000    23.9350    36.7000  -133.8150
   13.0000   522.6400   194.1000    56.8950     0.2570  2262.5000    21.2350    36.2700  -134.3700
   13.1250   590.2000   191.6500    58.9200     0.2526  2329.2000    20.1300    34.5550  -135.2850
   13.2500   602.9600   195.9500    60.9450     0.2427  2324.3000    20.8050    33.4550  -136.0350
   13.3750   593.6400   196.2500    61.6950     0.2328  2311.5000    21.6050    34.7400  -135.4800
   13.5000   542.7600   197.1750    63.3450     0.2431  2311.5000    22.6450    38.6600  -134.5500
   13.6250   248.6800   196.2500    63.1650     0.2486  2299.8000    24.9150    39.4600  -133.9950
   13.7500   323.8400   193.1750    58.5600     0.2497  2309.6001    27.3700    40.0100  -133.8150
   13.8750   481.3600   191.9500    54.3150     0.2486  2368.5000    25.5900    40.3750  -134.1750
   14.0000   513.5200   190.7250    51.3750     0.2497  2403.3999    22.6450    40.8050  -134.9250
   14.1250   413.5200   189.8250    51.0000     0.2512  2402.8000    23.4450    40.7450  -135.8400
   14.2500   481.6000   186.1500    50.6250     0.2504  2401.5000    25.3450    40.5000  -136.5900
   14.3750   485.2800   187.3750    49.1550     0.2522  2400.3000    27.3700    40.3150  -137.1450
   14.5000   295.6000   187.3750    48.6000     0.2541  2394.8000    28.0450    40.6250  -137.5200
   14.6250    57.2800   187.9750    48.2400     0.2512  2385.0000    29.1500    40.9900  -137.8800
   14.7500   122.1200   188.6000    47.5050     0.2533  2381.3000    31.9700    40.9900  -138.2550
   14.8750   242.5200   188.6000    45.4800     0.2633  2377.6001    33.5650    40.5600  -138.4350
   15.0000   454.5600   188.2750    43.8150     0.2636  2375.8000    33.9950    40.1950  -138.6300
   15.1250   594.6000   187.9750    43.8150     0.2658  2371.5000    34.2400    40.8050  -138.8100
   15.2500   600.2800   187.9750    43.0800     0.2647  2362.8999    34.1200    40.9300  -138.9900
   15.3750   576.6800   186.4500    43.4400     0.2633  2345.8000    33.7500    40.2550  -138.9900
   15.5000   543.5200   185.8250    44.1900     0.2629  2322.5000    33.5050    39.0900  -139.1850
   15.6250   542.2800   186.1500    45.4800     0.2618  2313.3000    33.1400    38.9050  -139.1850
   15.7500   531.4800   185.2250    46.0200     0.2603  2312.7000    32.5250    39.5800  -139.5450
   15.8750   514.2800   184.0000    46.3950     0.2633  2318.8000    32.4000    39.9500  -140.1000
   16.0000   516.0000   182.7750    46.5750     0.2636  2317.0000    32.7100    39.5200  -140.6700
   16.1250   558.4800   180.6250    46.9500     0.2614  2306.6001    32.8300    38.2950  -141.4050
   16.2500   541.5600   179.7000    46.5750     0.2588  2297.3999    32.5250    38.2350  -141.7800
   16.3750   524.8400   179.1000    47.5050     0.2680  2293.7000    32.3400    38.8450  -141.5850
   16.5000   525.0800   178.4750    48.4200     0.2692  2290.0000    32.2200    39.3350  -141.0300
   16.6250   423.8400   179.7000    48.7950     0.2699  2293.1001    32.2800    39.3950  -140.8500
   16.7500   242.5200   184.6000    48.0600     0.2669  2304.7000    32.1550    39.6400  -140.8500
   16.8750   167.3600   186.7500    47.3100     0.2570  2326.8000    31.9700    40.6250  -140.8500
   17.0000   161.4400   185.5250    46.7700     0.2559  2331.7000    32.2200    41.4200  -141.0300
   17.1250   160.2000   185.2250    46.3950     0.2552  2313.3000    31.9700    41.1150  -141.0300
   17.2500   156.7600   184.6000    45.8400     0.2541  2288.8000    32.2200    39.1500  -141.4050
   17.3750   141.0400   183.3750    47.1300     0.2530  2257.5000    32.2200    36.4550  -141.4050
   17.5000   116.7200   182.7750    46.9500     0.2530  2229.3999    31.9700    37.1300  -141.2250
   17.6250   108.8800   182.7750    46.5750     0.2537  2201.8000    31.9700    38.9050  -141.0300
   17.7500   116.2400   183.0750    47.5050     0.2566  2187.1001    31.9100    40.9900  -141.0300
   17.8750   136.6400   184.3000    48.0600     0.2581  2190.1001    32.0350    40.1950  -141.2250
   18.0000   139.0800   184.0000    48.6000     0.2570  2222.0000    32.1550    39.6400  -141.4050
   18.1250   161.4400   183.7000    49.8900     0.2570  2308.3999    32.0950    38.9050  -141.2250
   18.2500   304.6800   183.3750    49.7100     0.2545  2361.7000    32.0950    38.3550  -141.2250
   18.3750   515.4800   183.3750    48.9750     0.2441  2348.2000    32.4000    38.6000  -141.4050
   18.5000   566.3600   183.3750    48.4200     0.2412  2347.6001    32.6450    39.5800  -141.4050
   18.6250   601.8000   183.7000    47.5050     0.2431  2351.3000    32.8300    40.4400  -141.5850
   18.7500   607.0000   183.7000    48.2400     0.2460  2350.7000    33.0150    40.0100  -141.4050
   18.8750   605.6000   183.7000    49.7100     0.2412  2345.8000    33.3200    39.8250  -141.4050
   19.0000   617.4400   184.3000    51.0000     0.2375  2342.1001    33.5050    40.5000  -141.4050
   19.1250   616.6000   184.3000    51.7350     0.2375  2340.8999    33.6300    41.6650  -141.4050
   19.2500   579.6400   184.6000    52.6650     0.2354  2343.3000    33.7500    42.8300  -141.4050
   19.3750   532.2000   184.0000    54.4950     0.2339  2355.0000    33.8750    43.3200  -141.2250
   19.5000   450.8800   183.3750    55.9800     0.2332  2367.8000    33.8750    43.0750  -141.0300
   19.6250   283.0800   181.8500    56.1600     0.2306  2370.8999    33.9950    42.8300  -140.8500
   19.7500   259.9600   181.8500    56.3400     0.2276  2368.5000    34.2400    42.5200  -141.0300
   19.8750   352.1200   181.2500    55.9800     0.2210  2367.2000    34.1800    42.2750  -141.0300
   20.0000   424.0800   181.2500    55.2450     0.2218  2368.5000    33.8750    42.2150  -141.2250
   20.1250   345.7200   180.9250    56.1600     0.2221  2366.6001    33.6900    41.9700  -141.4050
