~VERSION INFORMATION
 VERS.                 2.0:   CWLS LOG ASCII STANDARD -VERSION 2.0
 WRAP.                  NO:   ONE LINE PER DEPTH STEP
~WELL INFORMATION BLOCK
#MNEM.UNIT           DATA                    DESCRIPTION OF MNEMONIC
#---------    -------------------            -------------------------------
# Generated from Intellog Unique Number	CN_94_101/WELL/1066
WELL.         09-10-094-07W4                 : Well_name    - WELL
LOC .         AA/09-10-094-07W4/0            : Location     - LOCATION
UWI .         AA/09-10-094-07W400            : Uwi          - UNIQUE WELL ID
ENTR.         JOETTE                         : Entered      - ENTERED BY
SRVC.         WESTERN ATLAS                  : Scn          - SERVICE COMPANY
DATE.         04/12/92                       : Date         - LOG DATE
STRT.M        30.48                          : top_depth    - START DEPTH
STOP.M        246.98                         : bot_depth    - STOP DEPTH
STEP.M        0.25                           : increment    - STEP LENGTH
 NULL. -999.2500:NULL Value
~CURVE INFORMATION BLOCK
#MNEM UNIT       ERCB CURVE CODE    CURVE DESCRIPTION
#-----------   ------------------   ----------------------------------
DEPT.M        00 001 00 00         : DEPTH        - DEPTH
DPHI.V/V      00 890 00 00         : PHID         - DENSITY POROSITY (SANDSTONE)
ILD .OHMM     00 120 00 00         : RESD         - DEEP RESISTIVITY (DIL)
GR  .API      00 310 00 00         : GR           - GAMMA RAY
CALI.MM       00 280 01 00         : CAL          - CALIPER
~PARAMETER INFORMATION
#MNEM.UNIT           DATA             DESCRIPTION OF MNEMONIC
#---------         -----------     ------------------------------
GL  .M        524.134              : gl           - GROUND LEVEL ELEVATION
EREF.M        525.658              : kb           - ELEVATION OF DEPTH REFERENCE
DATM.M        525.658              : datum        - DATUM ELEVATION
TDD .M        249.326              : tdd          - TOTAL DEPTH DRILLER
RUN .         ONE                  : Run          - RUN NUMBER
ENG .         BILL                 : Engineer     - RECORDING ENGINEER
WIT .         JIM                  : Witness      - WITNESSED BY
MUD .         GEL                  : Mud_type     - MUD TYPE
MATR.         SANDSTONE            : Logunit      - NEUTRON MATRIX
TMAX.C        7.77778              : BHT          - MAXIMUM RECORDED TEMPERATURE
BHTD.M        249.326              : BHTDEP       - MAXIMUM RECORDED TEMPERATURE
RMT .C        5.55556              : MDTP         - TEMPERATURE OF MUD
MUDD.KG/M     1100                 : MWT          - MUD DENSITY
NEUT.         1                    : NEUTRON      - NEUTRON TYPE
RESI.         0                    : RESIST       - RESISTIVITY TYPE
RM  .OHMM     9                    : RM           - RESISTIVITY OF MUD
RMC .OHMM     9                    : RMC          - RESISTIVITY OF MUD CAKE
RMF .OHMM     9                    : RMF          - RESISTIVITY OF MUD FILTRATE
SUFT.C        -15                  : SUFT         - SURFACE TEMPERATURE
~A  DEPTH     PHID     RESD       GR      CAL
# ...
  204.480    0.214   17.398   91.199  184.643
  204.730    0.213   17.957   91.171  184.608
  204.980    0.212   18.244   91.731  184.561
  205.230    0.212   18.247   92.306  184.502
  205.480    0.211   18.251   93.462  184.443
  205.730    0.211   18.255   94.618  184.408
  205.980    0.211   18.258   95.787  185.357
  206.230    0.212   18.260   96.362  185.321
  206.480    0.212   18.264   95.136  185.262
  206.730    0.212   18.268   92.734  185.227
  206.980    0.211   18.271   89.723  184.148
  207.230    0.213   18.273   88.497  183.105
  207.480    0.215   18.277   89.065  183.046
  207.730    0.216   18.279   90.235  181.991
  207.980    0.217   18.282   92.581  180.947
  208.230    0.216   18.286   93.737  180.877
  208.480    0.214   18.005   94.311  179.822
  208.730    0.214   18.009   94.879  179.775
  208.980    0.213   18.011   95.446  179.727
  209.230    0.213   17.733   96.595  179.692
  209.480    0.215   17.460   97.170  179.621
  209.730    0.219   17.191   98.339  178.590
  209.980    0.225   16.925   99.495  178.531
  210.230    0.225   16.405   98.872  177.476
  210.480    0.224   15.901   97.654  177.417
  210.730    0.224   15.657   94.642  177.370
  210.980    0.224   15.658   97.003  176.314
  211.230    0.227   15.177   99.951  176.279
  211.480    0.230   14.482  102.893  174.180
  211.730    0.234   14.036  102.872  174.157
  211.980    0.235   13.605  102.845  174.086
  212.230    0.236   13.394   99.238  174.063
  212.480    0.237   13.188   97.424  175.012
  212.730    0.238   13.399   96.801  174.977
  212.980    0.239   13.829   97.362  174.918
  213.230    0.239   14.050   97.936  174.859
  213.480    0.237   14.965   99.092  174.812
  213.730    0.234   15.204   99.652  174.776
  213.980    0.234   15.691   99.624  172.689
  214.230    0.235   16.196  100.199  171.658
  214.480    0.238   16.981  100.164  169.571
  214.730    0.238   17.251   98.357  167.496
  214.980    0.236   17.805   98.323  165.444
  215.230    0.236   18.669   98.295  165.397
  215.480    0.235   19.267   97.672  164.354
  215.730    0.235   20.200   96.446  164.283
  215.980    0.236   21.514   94.037  163.240
  216.230    0.237   22.913   91.628  163.181
  216.480    0.235   25.988   85.052  162.114
  216.730    0.229   27.245   75.499  161.082
  216.980    0.222   30.417   60.588  158.011
  217.230    0.212   32.908   49.838  156.944
  217.480    0.288   37.912   42.659  155.877
  217.730    0.297   39.128   42.631  155.830
  217.980    0.292   38.525   43.199  155.795
  218.230    0.287   37.343   45.552  155.736
  218.480    0.284   39.152   40.755  155.689
  218.730    0.301   41.696   37.757  155.653
  218.980    0.307   45.829   34.753  155.594
  219.230    0.308   47.295   35.916  155.535
  219.480    0.309   49.586   38.858  154.492
  219.730    0.309   52.817   40.020  154.433
  219.980    0.309   53.660   41.183  154.398
  220.230    0.309   54.517   41.751  154.339
  220.480    0.309   57.160   42.318  153.296
  220.730    0.308   58.072   42.886  153.213
  220.980    0.308   61.854   34.502  153.166
  221.230    0.308   62.838   34.489  153.131
  221.480    0.308   65.890   34.454  153.060
  221.730    0.307   66.939   34.419  153.025
  221.980    0.309   70.184   35.000  153.001
  222.230    0.312   71.304   34.973  154.946
  222.480    0.313   73.593   35.533  154.899
  222.730    0.316   77.160   36.703  156.868
  222.980    0.315   80.897   39.042  156.833
  223.230    0.314   84.815   41.403  156.762
  223.480    0.311   90.335   44.940  156.715
  223.730    0.307   94.714   44.324  156.680
  223.980    0.310   96.221   35.961  156.609
  224.230    0.324   97.761   33.538  156.574
  224.480    0.325   90.396   35.892  157.523
  224.730    0.325   70.319   35.269  157.499
  224.980    0.325   60.109   35.241  157.429
  225.230    0.329   55.576   37.006  157.405
  225.480    0.329   47.505   41.734  156.326
  225.730    0.322   40.606   44.675  154.275
  225.980    0.315   43.247   46.448  154.216
  226.230    0.305   56.495   49.389  154.181
  226.480    0.290   69.308   54.712  154.110
  226.730    0.303   79.850   57.668  154.075
  226.980    0.322   86.389   56.450  154.016
  227.230    0.333   92.007   48.087  153.981
  227.480    0.338   96.459   43.885  153.922
  227.730    0.343  107.698   41.476  153.886
  227.980    0.345  112.914   40.258  153.816
  228.230    0.345  112.934   40.216  153.792
  228.480    0.343  106.074   40.202  153.733
  228.730    0.341   99.627   40.770  153.662
  228.980    0.335   83.832   43.123  152.619
  229.230    0.328   75.115   46.065  152.584
  229.480    0.321   60.297   49.007  153.533
  229.730    0.316   52.359   51.956  154.506
  229.980    0.310   43.371   57.285  156.451
  230.230    0.291   39.477   62.027  157.424
  230.480    0.267   39.485   67.953  159.369
  230.730    0.237   40.752   70.299  160.342
  230.980    0.221   43.400   67.897  160.283
  231.230    0.273   60.374   57.749  160.260
  231.480    0.306   66.352   46.998  160.201
  231.730    0.323   58.529   51.131  160.165
  231.980    0.320   50.027   53.491  159.098
  232.230    0.302   37.125   57.623  158.031
  232.480    0.278   35.984   60.579  156.976
  232.730    0.251   36.558   68.290  156.929
  232.980    0.231   40.182   43.848  156.870
  233.230    0.291   44.161   36.676  155.815
  233.480    0.309   47.775   31.872  154.760
  233.730    0.319   54.184   31.858  154.713
  233.980    0.321   58.621   33.014  151.630
  234.230    0.322   63.422   35.367  150.598
  234.480    0.322   68.616   37.125  149.543
  234.730    0.322   75.413   37.679  148.476
  234.980    0.327   84.197   37.665  149.425
  235.230    0.330   92.526   35.851  149.390
  235.480    0.327  111.739   32.826  151.347
  235.730    0.325  117.155   32.812  151.311
  235.980    0.328  120.920   33.373  151.264
  236.230    0.326  120.935   34.535  154.218
  236.480    0.321  115.388   35.103  156.199
  236.730    0.314  108.380   35.663  160.172
  236.980    0.303   91.201   36.245  162.141
  237.230    0.293   92.660   38.584  163.090
  237.480    0.282   92.676   40.938  164.075
  237.730    0.265   91.251   43.298  164.028
  237.980    0.254   85.705   35.531  163.969
  238.230    0.246   78.009   32.527  163.922
  238.480    0.219   75.613   31.301  163.875
  238.730    0.224   78.043   30.664  163.816
  238.980    0.243   79.285   30.055  162.760
  239.230    0.272   80.554   30.020  161.705
  239.480    0.299   78.082   30.020  161.658
  239.730    0.306   74.501   29.951  160.591
  239.980    0.304   72.206   30.518  160.556
  240.230    0.299   68.897   31.100  160.485
  240.480    0.298   64.712   31.072  160.450
  240.730    0.294   61.744   31.639  160.414
  240.980    0.290   57.993   32.795  161.375
  241.230    0.287   53.627   33.370  162.336
  241.480    0.286   51.165   35.121  163.274
  241.730    0.285   48.059   37.474  163.227
  241.980    0.287   45.852   42.209  164.176
  242.230    0.288   41.737   46.944  164.140
  242.480    0.288   40.450   55.250  164.082
  242.730    0.283   36.819   63.557  164.046
  242.980    0.276   34.044   76.626  163.987
  243.230    0.259   33.519   77.789  163.928
  243.480    0.225   38.014   77.166  162.885
  243.730    0.132   46.634   64.041  162.838
  243.980    0.047   57.211   56.869  162.803
  244.230    0.041   60.929   55.637  162.720
  244.480    0.036   63.888   57.388  162.708
  244.730    0.034   64.905   57.962  162.649
  244.980    0.033   63.905   58.537  162.590
  245.230    0.033   60.973   59.104  162.555
  245.480    0.033   58.181   59.070  162.484
  245.730    0.034   56.387   59.049  162.449
  245.980    0.037   52.964   59.014  162.390
  246.230    0.048   48.972   58.986  162.343
  246.480    0.059   48.217   59.554  162.284
  246.730    0.062   46.733   61.907  163.269
  246.980    0.063   45.298   63.665  163.222
