~VERSION INFORMATION
 VERS.                 2.0:   CWLS LOG ASCII STANDARD -VERSION 2.0
 WRAP.                  NO:   ONE LINE PER DEPTH STEP
~WELL INFORMATION BLOCK
#MNEM.UNIT           DATA                    DESCRIPTION OF MNEMONIC
#---------    -------------------            -------------------------------
# Generated from Intellog Unique Number	CN_94_101/WELL/3661
WELL.         08-18-096-16W4                 : Well_name    - WELL
LOC .         AA/08-18-096-16W4/0            : Location     - LOCATION
UWI .         AA/08-18-096-16W400            : Uwi          - UNIQUE WELL ID
ENTR.         J                              : Entered      - ENTERED BY
SRVC.         SCHLUMBERGER                   : Scn          - SERVICE COMPANY
DATE.         08/05/92                       : Date         - LOG DATE
STRT.M        200                            : top_depth    - START DEPTH
STOP.M        395                            : bot_depth    - STOP DEPTH
STEP.M        0.25                           : increment    - STEP LENGTH
 NULL. -999.2500:NULL Value
~CURVE INFORMATION BLOCK
#MNEM UNIT       ERCB CURVE CODE    CURVE DESCRIPTION
#-----------   ------------------   ----------------------------------
DEPT.M        00 001 00 00         : DEPTH        - DEPTH
GR  .API      00 310 00 00         : GR           - GAMMA RAY
NPHI.V/V      00 330 00 00         : PHIN         - NEUTRON POROSITY (SANDSTONE)
DPHI.V/V      00 890 00 00         : PHID         - DENSITY POROSITY (SANDSTONE)
ILD .OHMM     00 120 00 00         : RESD         - DEEP RESISTIVITY (DIL)
~PARAMETER INFORMATION
#MNEM.UNIT           DATA             DESCRIPTION OF MNEMONIC
#---------         -----------     ------------------------------
GL  .M        647.9                : gl           - GROUND LEVEL ELEVATION
EREF.M        651.5                : kb           - ELEVATION OF DEPTH REFERENCE
DATM.M        651.5                : datum        - DATUM ELEVATION
TDD .M        397                  : tdd          - TOTAL DEPTH DRILLER
RUN .         ONE                  : Run          - RUN NUMBER
ENG .         JO                   : Engineer     - RECORDING ENGINEER
WIT .         TIM                  : Witness      - WITNESSED BY
MUD .         GEL                  : Mud_type     - MUD TYPE
MATR.         SANDSTONE            : Logunit      - NEUTRON MATRIX
TMAX.C        27.8                 : BHT          - MAXIMUM RECORDED TEMPERATURE
BHTD.M        397                  : BHTDEP       - MAXIMUM RECORDED TEMPERATURE
RMT .C        10                   : MDTP         - TEMPERATURE OF MUD
MUDD.KG/M     1160                 : MWT          - MUD DENSITY
NEUT.         1                    : NEUTRON      - NEUTRON TYPE
RESI.         0                    : RESIST       - RESISTIVITY TYPE
RM  .OHMM     0.77                 : RM           - RESISTIVITY OF MUD
RMC .OHMM     0.77                 : RMC          - RESISTIVITY OF MUD CAKE
RMF .OHMM     0.78                 : RMF          - RESISTIVITY OF MUD FILTRATE
SUFT.C        4                    : SUFT         - SURFACE TEMPERATURE
~A  DEPTH       GR     PHIN     PHID     RESD
# ...
  287.000  106.865    0.546    0.244    6.419
  287.250  105.030    0.531    0.246    6.538
  287.500  101.960    0.512    0.251    6.911
  287.750  100.103    0.506    0.249    7.172
  288.000   98.861    0.503    0.177    7.441
  288.250   98.232    0.499    0.157    7.720
  288.500   97.589    0.492    0.139    7.860
  288.750   98.174    0.477    0.141    7.558
  289.000   99.358    0.443    0.168    7.273
  289.250  101.142    0.448    0.188    6.996
  289.500  103.547    0.478    0.227    6.859
  289.750  106.552    0.486    0.249    6.851
  290.000  106.515    0.497    0.267    6.844
  290.250  105.887    0.501    0.262    6.839
  290.500  103.430    0.502    0.260    6.833
  290.750  100.360    0.499    0.268    6.699
  291.000   97.305    0.492    0.279    6.567
  291.250   96.055    0.486    0.279    6.318
  291.500   99.673    0.482    0.274    5.742
  291.750  108.139    0.480    0.276    5.319
  292.000  114.784    0.475    0.292    4.745
  292.250  117.174    0.502    0.282    4.314
  292.500  115.325    0.511    0.256    3.775
  292.750  112.876    0.542    0.262    4.067
  293.000  106.779    0.549    0.270    4.552
  293.250   91.574    0.549    0.279    5.598
  293.500   83.051    0.542    0.281    6.264
  293.750   79.981    0.490    0.246    7.418
  294.000   82.386    0.382    0.192    8.143
  294.250   86.597    0.388    0.153    7.834
  294.500   90.208    0.421    0.227    7.397
  294.750   93.826    0.493    0.261    6.722
  295.000   98.644    0.512    0.295    5.883
  295.250  101.049    0.530    0.308    5.662
  295.500  105.260    0.549    0.298    5.244
  295.750  108.265    0.521    0.289    4.949
  296.000  110.662    0.516    0.287    4.761
  296.250  113.068    0.518    0.285    4.669
  296.500  115.465    0.529    0.283    4.577
  296.750  114.829    0.547    0.281    4.486
  297.000  112.980    0.559    0.279    4.482
  297.250  111.737    0.515    0.278    4.564
  297.500  111.708    0.494    0.276    4.647
  297.750  111.679    0.482    0.272    4.821
  298.000  111.650    0.480    0.268    5.096
  298.250  111.007    0.486    0.271    5.188
  298.500  110.378    0.497    0.273    5.383
  298.750  109.136    0.506    0.271    5.480
  299.000  108.492    0.500    0.265    5.581
  299.250  107.257    0.495    0.260    5.682
  299.500  104.801    0.496    0.253    5.781
  299.750  102.951    0.503    0.246    5.778
  300.000  107.776    0.510    0.241    5.883
  300.250  113.800    0.508    0.238    5.878
  300.500  115.606    0.570    0.248    5.871
  300.750  118.610    0.575    0.250    5.543
  301.000  121.608    0.559    0.253    4.943
  301.250  124.620    0.554    0.250    4.667
  301.500  128.838    0.580    0.243    4.407
  301.750  133.662    0.602    0.241    4.081
  302.000  136.060    0.610    0.237    4.002
  302.250  122.076    0.602    0.223    4.151
  302.500  119.620    0.572    0.212    4.228
  302.750  114.737    0.548    0.197    4.555
  303.000  127.449    0.505    0.184    5.002
  303.250  134.094    0.457    0.138    5.389
  303.500  135.279    0.535    0.120    5.282
  303.750  135.242    0.570    0.170    5.179
  304.000  135.820    0.601    0.200    4.888
  304.250  138.218    0.622    0.229    4.976
  304.500  139.409    0.615    0.245    5.361
  304.750  141.200    0.581    0.260    5.779
  305.000  129.022    0.530    0.255    6.590
  305.250  123.539    0.474    0.251    7.514
  305.500  116.836    0.463    0.240    8.096
  305.750  111.346    0.449    0.237    8.396
  306.000  108.276    0.431    0.245    8.713
  306.250  108.853    0.423    0.247    9.215
  306.500  109.431    0.428    0.240    9.034
  306.750  110.016    0.438    0.223    8.364
  307.000  111.800    0.443    0.212    7.750
  307.250  112.991    0.452    0.196    7.179
  307.500  115.989    0.478    0.183    7.171
  307.750  118.394    0.485    0.187    7.299
  308.000  118.971    0.491    0.237    7.433
  308.250  115.908    0.492    0.246    7.857
  308.500  110.419    0.486    0.242    8.003
  308.750  103.708    0.479    0.235    8.460
  309.000  100.038    0.469    0.233    8.944
  309.250  100.002    0.461    0.258    9.282
  309.500  100.579    0.448    0.262   10.192
  309.750  106.011    0.432    0.210   10.982
  310.000  108.416    0.407    0.180   10.971
  310.250  108.380    0.378    0.135   10.163
  310.500  108.343    0.399    0.183    9.415
  310.750  108.329    0.421    0.211    8.558
  311.000  108.292    0.416    0.226    8.388
  311.250  108.270    0.413    0.230    8.378
  311.500  108.227    0.427    0.244    8.374
  311.750  108.812    0.443    0.258    8.362
  312.000  108.790    0.451    0.252    8.356
  312.250  109.353    0.451    0.258    8.346
  312.500  109.338    0.451    0.264    8.184
  312.750  109.916    0.453    0.260    8.179
  313.000  111.100    0.456    0.248    8.018
  313.250  111.678    0.458    0.231    7.860
  313.500  112.248    0.461    0.231    7.704
  313.750  112.212    0.467    0.230    7.551
  314.000  112.190    0.493    0.222    7.546
  314.250  112.168    0.499    0.216    7.540
  314.500  112.131    0.540    0.219    7.673
  314.750  112.709    0.563    0.225    7.670
  315.000  112.080    0.576    0.246    7.662
  315.250  110.838    0.485    0.254    7.510
  315.500  112.629    0.442    0.256    7.221
  315.750  118.667    0.470    0.235    7.081
  316.000  117.425    0.491    0.224    6.944
  316.250  111.321    0.501    0.209    6.680
  316.500  105.224    0.511    0.212    6.426
  316.750  105.802    0.484    0.219    6.300
  317.000  117.908    0.428    0.218    6.293
  317.250  118.478    0.415    0.191    6.287
  317.500  117.235    0.504    0.208    5.608
  317.750  116.607    0.543    0.262    4.910
  318.000  114.757    0.601    0.265    4.217
  318.250  114.121    0.592    0.265    3.907
  318.500  117.119    0.543    0.265    3.758
  318.750  119.524    0.497    0.266    3.755
  319.000  123.742    0.564    0.266    3.477
  319.250  123.713    0.603    0.266    3.283
  319.500  120.036    0.627    0.266    3.040
  319.750  116.973    0.637    0.260    2.980
  320.000  113.910    0.622    0.252    3.035
  320.250  110.840    0.591    0.245    3.594
  320.500  109.005    0.555    0.239    4.098
  320.750  106.549    0.529    0.227    4.674
  321.000  104.699    0.491    0.222    5.641
  321.250  103.457    0.465    0.213    6.555
  321.500  104.641    0.468    0.203    7.474
  321.750  109.466    0.469    0.189    8.053
  322.000  120.951    0.447    0.158    7.895
  322.250  122.149    0.414    0.132    7.451
  322.500  121.514    0.424    0.151    6.903
  322.750  116.024    0.508    0.186    6.516
  323.000  112.347    0.469    0.222    6.633
  323.250  112.910    0.443    0.242    7.016
  323.500  113.495    0.432    0.242    7.849
  323.750  113.473    0.417    0.236    7.271
  324.000  113.429    0.419    0.211    6.864
  324.250  113.414    0.417    0.217    7.121
  324.500  112.779    0.416    0.223    7.388
  324.750  111.521    0.414    0.225    7.810
  325.000  110.893    0.410    0.223    8.103
  325.250  110.871    0.408    0.218    8.407
  325.500  110.834    0.404    0.211    8.561
  325.750  111.412    0.398    0.201    8.882
  326.000  111.990    0.388    0.189    9.216
  326.250  113.167    0.378    0.170    9.382
  326.500  113.759    0.389    0.153    9.024
  326.750  114.337    0.402    0.154    8.847
  327.000  114.300    0.409    0.183    8.509
  327.250  114.264    0.411    0.209    8.345
  327.500  114.242    0.412    0.213    8.181
  327.750  115.426    0.416    0.212    8.174
  328.000  117.824    0.427    0.204    8.166
  328.250  122.656    0.432    0.205    8.314
  328.500  123.234    0.436    0.208    8.458
  328.750  120.763    0.438    0.209    8.454
  329.000  119.528    0.432    0.208    8.448
  329.250  117.686    0.431    0.203    8.599
  329.500  114.016    0.456    0.192    8.593
  329.750  106.699    0.486    0.182    8.747
  330.000  106.662    0.496    0.155    9.073
  330.250  109.060    0.342    0.127    9.418
