~VERSION INFORMATION
 VERS.                 2.0:   CWLS LOG ASCII STANDARD -VERSION 2.0
 WRAP.                  NO:   ONE LINE PER DEPTH STEP
~WELL INFORMATION BLOCK
#MNEM.UNIT           DATA                    DESCRIPTION OF MNEMONIC
#---------    -------------------            -------------------------------
# Generated from Intellog Unique Number	CX_WELLS/WELL/3566
WELL.         AMOCO GREGOIRE                 : Well_name    - WELL
LOC .         AA/03-08-085-08W4/0            : Location     - LOCATION
UWI .         AA/03-08-085-08W400            : Uwi          - UNIQUE WELL ID
ENTR.         T                              : Entered      - ENTERED BY
SRVC.         SCHLUMBERGER                   : Scn          - SERVICE COMPANY
STRT.F        1150                           : top_depth    - START DEPTH
STOP.F        1569.95                        : bot_depth    - STOP DEPTH
STEP.F        0.82                           : increment    - STEP LENGTH
 NULL. -999.2500:NULL Value
~CURVE INFORMATION BLOCK
#MNEM UNIT       ERCB CURVE CODE    CURVE DESCRIPTION
#-----------   ------------------   ----------------------------------
DEPT.F        00 001 00 00         : DEPTH        - DEPTH
GR  .API      00 310 00 00         : GR           - GAMMA RAY
DPHI.V/V      00 890 00 00         : PHID         - DENSITY POROSITY (SANDSTONE)
ILD .OHMM     00 120 00 00         : RESD         - DEEP RESISTIVITY (OTHER)
~PARAMETER INFORMATION
#MNEM.UNIT           DATA             DESCRIPTION OF MNEMONIC
#---------         -----------     ------------------------------
GL  .F        2337.6               : gl           - GROUND LEVEL ELEVATION
EREF.F        2347.6               : kb           - ELEVATION OF DEPTH REFERENCE
DATM.F        2347.6               : datum        - DATUM ELEVATION
TDD .F        1602                 : tdd          - TOTAL DEPTH DRILLER
RUN .         ONE                  : Run          - RUN NUMBER
ENG .         BILL                 : Engineer     - RECORDING ENGINEER
WIT .         JIM                  : Witness      - WITNESSED BY
MUD .         GEL                  : Mud_type     - MUD TYPE
MATR.         SANDSTONE            : Logunit      - NEUTRON MATRIX
TMAX.F        77                   : BHT          - MAXIMUM RECORDED TEMPERATURE
BHTD.F        1602                 : BHTDEP       - MAXIMUM RECORDED TEMPERATURE
MATR.         1                    : LOGUNIT      - NEUTRON MATRIX
RMT .F        77                   : MDTP         - TEMPERATURE OF MUD
NEUT.         1                    : NEUTRON      - NEUTRON TYPE
RESI.         5                    : RESIST       - RESISTIVITY TYPE
RMC .OHMM     4.25                 : RMC          - RESISTIVITY OF MUD CAKE
RMF .OHMM     4.25                 : RMF          - RESISTIVITY OF MUD FILTRATE
SUFT.F        39.2                 : SUFT         - SURFACE TEMPERATURE
~A  DEPTH       GR     PHID     RESD
 1150.000   97.308    0.294   23.649
 1150.820   96.097    0.301   23.657
 1151.640   96.734    0.307   23.261
 1152.460   99.843    0.315   22.054
 1153.280  102.317    0.327   19.635
 1154.100  107.885    0.341   14.589
 1154.920  112.832    0.352   10.149
 1155.740  113.468    0.357    7.730
 1156.560  112.257    0.355    6.928
 1157.380  114.130    0.355    6.532
 1158.200  116.613    0.356    6.337
 1159.020  117.250    0.358    6.141
 1159.840  117.891    0.356    6.148
 1160.660  119.754    0.361    6.561
 1161.480  122.858    0.365    6.970
 1162.300  120.410    0.373    7.381
 1163.120  117.352    0.369    7.387
 1163.940  111.830    0.361    7.596
 1164.760  111.850    0.350    8.815
 1165.580  110.649    0.340    9.833
 1166.400  108.822    0.335   11.864
 1167.220  106.995    0.334   12.879
 1168.040  106.395    0.333   14.503
 1168.860  104.573    0.329   14.511
 1169.690  103.978    0.325   14.316
 1170.510  103.998    0.325   14.321
 1171.330  102.171    0.325   15.340
 1172.150  100.339    0.322   16.156
 1172.970   96.059    0.317   16.566
 1173.790   93.611    0.302   17.384
 1174.610   90.557    0.246   17.994
 1175.430   87.494    0.199   20.224
 1176.250   80.124    0.179   38.220
 1177.070   81.992    0.241   49.749
 1177.890   88.171    0.303   52.181
 1178.710   94.349    0.325   51.178
 1179.530  101.765    0.319   50.173
 1180.350  107.327    0.315   48.765
 1181.170  104.885    0.309   47.761
 1181.990   93.205    0.305   47.161
 1182.810   83.377    0.289   47.776
 1183.630   80.929    0.261   48.795
 1184.450   73.560    0.231   47.993
 1185.270   68.038    0.135   47.593
 1186.090   65.595    0.106   48.004
 1186.910   73.011    0.133   60.139
 1187.730   79.189    0.161   60.146
 1188.550   95.837    0.227   55.706
 1189.370   99.552    0.259   54.500
 1190.190  103.888    0.302   50.062
 1191.010  102.677    0.319   44.812
 1191.830  100.239    0.319   43.202
 1192.650   95.949    0.320   41.593
 1193.470   92.269    0.323   42.206
 1194.290   87.368    0.332   42.818
 1195.110   84.921    0.332   44.038
 1195.930   83.709    0.329   45.258
 1196.750   81.272    0.323   46.479
 1197.570   80.060    0.321   47.092
 1198.390   79.470    0.317   47.703
 1199.210   79.486    0.313   46.699
 1200.030   78.890    0.306   44.887
 1200.850   78.910    0.300   43.681
 1201.670   77.699    0.286   42.477
 1202.490   73.409    0.256   42.483
 1203.310   69.735    0.209   42.894
 1204.130   62.981    0.127   58.868
 1204.950   56.228    0.086   59.885
 1205.770   53.169    0.076   55.245
 1206.590   58.121    0.079   51.611
 1207.410   62.452    0.084   47.576
 1208.230   66.168    0.087   45.359
 1209.060   68.651    0.096   43.143
 1209.880   72.982    0.126   40.522
 1210.700   77.324    0.156   37.699
 1211.520   76.118    0.276   36.292
 1212.340   75.512    0.325   36.703
 1213.160   75.532    0.315   37.724
 1213.980   75.558    0.307   38.333
 1214.800   76.194    0.309   39.148
 1215.620   76.831    0.321   39.761
 1216.440   77.467    0.327   39.768
 1217.260   76.261    0.319   38.970
 1218.080   75.665    0.296   38.572
 1218.900   77.528    0.305   39.992
 1219.720   80.012    0.320   40.606
 1220.540   82.495    0.329   40.209
 1221.360   83.747    0.335   40.418
 1222.180   83.152    0.328   40.627
 1223.000   87.493    0.322   40.229
 1223.820   88.130    0.321   40.033
 1224.640   88.761    0.320   39.638
 1225.460   89.397    0.318   38.836
 1226.280   91.265    0.317   38.438
 1227.100   93.749    0.313   37.230
 1227.920   94.395    0.312   34.205
 1228.740   92.568    0.311   28.957
 1229.560   90.130    0.306   26.538
 1230.380   88.293    0.276   23.513
 1231.200   85.234    0.264   19.478
 1232.020   85.255    0.251   23.730
 1232.840   89.591    0.238   26.161
 1233.660   93.927    0.243   28.392
 1234.480   96.406    0.270   27.390
 1235.300  100.126    0.296   25.578
 1236.120  102.610    0.315   24.370
 1236.940  106.325    0.320   20.740
 1237.760  108.809    0.329   17.511
 1238.580  110.677    0.339   16.307
 1239.400  110.082    0.344   16.112
 1240.220  106.407    0.344   15.512
 1241.040  104.580    0.337   14.710
 1241.860  108.301    0.330   14.921
 1242.680  110.784    0.320   15.530
 1243.500  110.189    0.315   16.953
 1244.320  107.741    0.320   17.768
 1245.140  102.840    0.331   18.584
 1245.960  103.481    0.329   18.998
 1246.780  105.965    0.322   18.799
 1247.600  109.680    0.315   19.413
 1248.430  113.391    0.314   20.230
 1249.250  114.027    0.331   19.430
 1250.070  115.895    0.330   18.827
 1250.890  119.010    0.328   17.823
 1251.710  119.025    0.328   16.617
 1252.530  120.282    0.330   15.615
 1253.350  121.524    0.333   14.609
 1254.170  122.776    0.339   13.605
 1254.990  123.412    0.346   12.399
 1255.810  120.359    0.351   11.395
 1256.630  117.916    0.351   10.191
 1257.450  119.168    0.354    9.389
 1258.270  122.267    0.359    8.387
 1259.090  123.519    0.361    7.989
 1259.910  123.545    0.366    7.792
 1260.730  120.486    0.366    7.801
 1261.550  116.807    0.364    8.211
 1262.370  112.517    0.366    9.229
 1263.190  111.926    0.368   11.053
 1264.010  114.415    0.361   13.284
 1264.830  112.583    0.343   14.101
 1265.650  110.756    0.341   14.512
 1266.470  110.161    0.344   14.517
 1267.290  110.181    0.341   14.726
 1268.110  111.438    0.335   15.745
 1268.930  114.538    0.329   18.582
 1269.750  118.258    0.324   20.004
 1270.570  118.279    0.318   20.213
 1271.390  117.683    0.315   20.015
 1272.210  117.699    0.314   19.421
 1273.030  117.108    0.314   19.020
 1273.850  117.129    0.303   19.229
 1274.670  117.765    0.275   21.054
 1275.490  114.711    0.271   24.699
 1276.310  111.648    0.267   26.324
 1277.130  109.210    0.272   26.329
 1277.950  107.999    0.276   26.336
 1278.770  109.246    0.282   27.759
 1279.590  113.577    0.292   27.969
 1280.410  113.597    0.299   26.561
 1281.230  119.165    0.309   25.354
 1282.050  118.575    0.316   25.360
 1282.870  116.132    0.318   25.569
 1283.690  113.689    0.328   24.767
 1284.510  111.247    0.339   22.350
 1285.330  113.114    0.316   18.313
 1286.150  111.282    0.309   17.713
 1286.980  111.303    0.291   17.518
 1287.800  107.633    0.287   22.579
 1288.620  102.117    0.282   28.851
 1289.440  100.900    0.284   32.293
 1290.260  101.537    0.294   31.896
 1291.080  102.178    0.302   27.257
 1291.900  104.662    0.302   27.060
 1292.720  107.766    0.302   26.258
 1293.540  109.634    0.302   25.458
 1294.360  110.886    0.303   24.656
 1295.180  110.901    0.307   24.459
 1296.000  111.543    0.308   23.455
 1296.820  111.563    0.312   21.441
 1297.640  110.968    0.313   19.831
 1298.460  106.673    0.318   17.816
 1299.280  107.314    0.318   16.610
 1300.100  116.577    0.314   16.212
 1300.920  120.292    0.310   16.827
 1301.740  121.539    0.309   17.440
 1302.560  121.559    0.305   18.861
 1303.380  114.806    0.303   18.264
 1304.200  103.742    0.301   17.057
 1305.020   98.841    0.301   17.669
 1305.840   95.782    0.302   20.303
 1306.660   97.650    0.301   22.942
 1307.480  101.370    0.298   22.743
 1308.300  105.696    0.298   21.941
 1309.120  108.185    0.306   20.533
 1309.940  109.437    0.320   14.476
 1310.760  111.305    0.329   10.239
 1311.580  112.557    0.335    7.822
 1312.400  110.730    0.340    8.029
 1313.220  110.135    0.341    9.854
 1314.040  109.545    0.341   11.276
 1314.860  108.949    0.337   12.901
 1315.680  108.964    0.334   16.344
 1316.500  107.753    0.329   20.393
 1317.320  106.542    0.326   21.614
 1318.140  105.336    0.318   21.420
 1318.960  101.662    0.312   20.818
 1319.780  102.298    0.307   20.018
 1320.600   99.244    0.295   20.225
 1321.420   97.412    0.284   23.870
 1322.240   94.359    0.255   26.100
 1323.060   91.295    0.223   25.904
 1323.880   94.394    0.189   28.136
 1324.700  103.657    0.217   27.942
 1325.520  111.067    0.267   26.736
 1326.350  111.704    0.289   25.731
 1327.170  112.956    0.300   23.716
