~VERSION INFORMATION
 VERS.                 2.0:   CWLS LOG ASCII STANDARD -VERSION 2.0
 WRAP.                  NO:   ONE LINE PER DEPTH STEP
~WELL INFORMATION BLOCK
#MNEM.UNIT           DATA                    DESCRIPTION OF MNEMONIC
#---------    -------------------            -------------------------------
# Generated from Intellog Unique Number	CS_77_79/WELL/908
LOC .         AA/07-26-077-08W4/0            : Location     - LOCATION
UWI .         AA/07-26-077-08W4/0            : Uwi          - UNIQUE WELL ID
ENTR.         SP                             : Entered      - ENTERED BY
SRVC.         SCHLUMBERGER                   : Scn          - SERVICE COMPANY
STRT.M        120                            : top_depth    - START DEPTH
STOP.M        355                            : bot_depth    - STOP DEPTH
STEP.M        0.25                           : increment    - STEP LENGTH
 NULL. -999.2500:NULL Value
~CURVE INFORMATION BLOCK
#MNEM UNIT       ERCB CURVE CODE    CURVE DESCRIPTION
#-----------   ------------------   ----------------------------------
DEPT.M        00 001 00 00         : DEPTH        - DEPTH
ILD .OHMM     00 120 00 00         : RESD         - DEEP RESISTIVITY (DIL)
DPHI.V/V      00 890 00 00         : PHID         - DENSITY POROSITY (LIMESTONE)
NPHI.V/V      00 330 00 00         : PHIN         - NEUTRON POROSITY (LIMESTONE)
GR  .API      00 310 00 00         : GR           - GAMMA RAY
~PARAMETER INFORMATION
#MNEM.UNIT           DATA             DESCRIPTION OF MNEMONIC
#---------         -----------     ------------------------------
GL  .M        551.7                : gl           - GROUND LEVEL ELEVATION
EREF.M        555.2                : kb           - ELEVATION OF DEPTH REFERENCE
DATM.M        551.7                : datum        - DATUM ELEVATION
TDD .M        360                  : tdd          - TOTAL DEPTH DRILLER
RUN .         ONE                  : Run          - RUN NUMBER
ENG .         BILL                 : Engineer     - RECORDING ENGINEER
WIT .         JIM                  : Witness      - WITNESSED BY
MUD .         GEL                  : Mud_type     - MUD TYPE
MATR.         LIMESTONE            : Logunit      - NEUTRON MATRIX
TMAX.C        13                   : BHT          - MAXIMUM RECORDED TEMPERATURE
BHTD.M        360                  : BHTDEP       - MAXIMUM RECORDED TEMPERATURE
MATR.         1                    : LOGUNIT      - NEUTRON MATRIX
RMT .C        25                   : MDTP         - TEMPERATURE OF MUD
NEUT.         1                    : NEUTRON      - NEUTRON TYPE
RESI.         0                    : RESIST       - RESISTIVITY TYPE
RMC .OHMM     0.25                 : RMC          - RESISTIVITY OF MUD CAKE
RMF .OHMM     0.25                 : RMF          - RESISTIVITY OF MUD FILTRATE
SUFT.C        15                   : SUFT         - SURFACE TEMPERATURE
~A  DEPTH     RESD     PHID     PHIN       GR
# ...
  294.000   11.012    0.113    0.276   70.703
  294.250   12.098    0.155    0.274   70.077
  294.500   12.800    0.184    0.263   70.071
  294.750   13.290    0.239    0.254   66.346
  295.000   13.542    0.245    0.248   65.103
  295.250   13.798    0.241    0.250   64.478
  295.500   13.797    0.236    0.259   65.092
  295.750   13.286    0.225    0.257   68.186
  296.000   13.037    0.215    0.264   66.940
  296.250   13.037    0.201    0.270   69.415
  296.500   12.555    0.196    0.271   74.988
  296.750   11.864    0.190    0.299   74.362
  297.000   11.212    0.186    0.321   81.176
  297.250   11.002    0.189    0.330   84.270
  297.500   10.203    0.222    0.334   86.124
  297.750    9.826    0.255    0.343   88.598
  298.000    9.825    0.252    0.334   86.114
  298.250    9.825    0.215    0.326   87.967
  298.500    9.824    0.206    0.310   89.822
  298.750    9.824    0.207    0.314   87.338
  299.000   10.009    0.205    0.322   95.390
  299.250   10.199    0.195    0.327   89.805
  299.500   10.392    0.188    0.325   86.082
  299.750   10.589    0.178    0.300   80.498
  300.000   11.203    0.189    0.293   74.915
  300.250   11.415    0.200    0.290   67.471
  300.500   11.631    0.203    0.286   66.227
  300.750   11.851    0.200    0.289   69.939
  301.000   11.851    0.196    0.278   73.033
  301.250   12.075    0.191    0.282   76.126
  301.500   12.074    0.191    0.293   79.220
  301.750   12.303    0.191    0.298   81.074
  302.000   12.302    0.201    0.301   82.930
  302.250   12.071    0.206    0.310   86.021
  302.500   12.071    0.206    0.315   83.539
  302.750   11.845    0.187    0.296   82.914
  303.000   11.844    0.184    0.289   81.049
  303.250   11.843    0.184    0.283   73.606
  303.500   11.843    0.188    0.280   66.783
  303.750   12.066    0.196    0.284   64.918
  304.000   12.066    0.216    0.285   66.152
  304.250   12.294    0.211    0.290   66.147
  304.500   12.293    0.200    0.301   70.481
  304.750   12.526    0.195    0.309   73.574
  305.000   12.525    0.199    0.306   75.426
  305.250   12.762    0.209    0.299   77.901
  305.500   12.762    0.215    0.302   79.137
  305.750   13.250    0.214    0.305   77.892
  306.000   13.249    0.204    0.295   72.308
  306.250   14.018    0.203    0.294   76.021
  306.500   14.283    0.204    0.315   73.537
  306.750   15.112    0.208    0.324   67.952
  307.000   15.691    0.207    0.326   67.948
  307.250   15.988    0.204    0.324   71.041
  307.500   15.688    0.198    0.302   72.896
  307.750   15.395    0.193    0.309   79.709
  308.000   15.394    0.195    0.328   74.745
  308.250   15.393    0.200    0.319   67.921
  308.500   15.391    0.199    0.319   66.058
  308.750   15.683    0.196    0.307   68.531
  309.000   15.682    0.188    0.308   69.765
  309.250   15.681    0.189    0.313   69.141
  309.500   15.680    0.196    0.331   70.994
  309.750   15.976    0.198    0.318   72.228
  310.000   15.678    0.203    0.313   70.984
  310.250   15.676    0.201    0.310   64.780
  310.500   15.383    0.187    0.303   64.774
  310.750   15.096    0.181    0.297   68.489
  311.000   14.537    0.176    0.301   73.442
  311.250   14.536    0.182    0.324   77.156
  311.500   14.263    0.186    0.322   69.713
  311.750   14.263    0.187    0.313   79.004
  312.000   14.532    0.187    0.306   83.338
  312.250   14.532    0.188    0.306   81.473
  312.500   15.088    0.190    0.307   81.469
  312.750   15.374    0.192    0.304   84.562
  313.000   16.265    0.198    0.304   81.458
  313.250   16.573    0.202    0.308   77.114
  313.500   16.887    0.206    0.307   77.109
  313.750   17.207    0.207    0.301   75.862
  314.000   17.533    0.208    0.307   75.858
  314.250   17.204    0.209    0.312   73.994
  314.500   17.530    0.209    0.314   73.988
  314.750   17.529    0.208    0.304   68.404
  315.000   17.861    0.206    0.309   64.060
  315.250   18.199    0.201    0.304   71.493
  315.500   18.198    0.197    0.306   75.206
  315.750   18.895    0.198    0.303   72.721
  316.000   18.893    0.202    0.300   68.378
  316.250   19.251    0.209    0.297   76.430
  316.500   20.754    0.214    0.300   70.847
  316.750   21.549    0.219    0.303   70.221
  317.000   22.800    0.226    0.312   67.117
  317.250   24.581    0.237    0.334   61.534
  317.500   26.501    0.242    0.335   51.611
  317.750   28.039    0.243    0.326   58.422
  318.000   29.665    0.242    0.322   60.279
  318.250   30.802    0.243    0.319   56.554
  318.500   31.981    0.247    0.316   48.491
  318.750   32.586    0.253    0.321   47.246
  319.000   32.584    0.237    0.310   57.777
  319.250   33.201    0.231    0.306   60.251
  319.500   33.830    0.247    0.310   52.189
  319.750   35.792    0.258    0.324   49.082
  320.000   37.868    0.259    0.324   50.939
  320.250   39.319    0.255    0.321   46.595
  320.500   40.825    0.254    0.329   49.688
  320.750   42.387    0.255    0.328   44.724
  321.000   42.384    0.260    0.324   44.099
  321.250   42.382    0.266    0.323   47.812
  321.500   40.052    0.265    0.328   49.667
  321.750   36.453    0.264    0.337   51.521
  322.000   33.807    0.259    0.338   44.078
  322.250   33.174    0.250    0.329   48.411
  322.500   34.444    0.253    0.325   49.646
  322.750   37.134    0.258    0.326   47.782
  323.000   41.571    0.270    0.326   46.537
  323.250   48.324    0.275    0.337   40.953
  323.500   53.089    0.272    0.337   41.567
  323.750   54.094    0.270    0.332   42.182
  324.000   53.082    0.270    0.338   40.937
  324.250   51.116    0.270    0.339   42.171
  324.500   47.405    0.270    0.337   47.744
  324.750   44.801    0.270    0.337   52.078
  325.000   35.072    0.272    0.323   38.125
  325.250   28.513    0.239    0.322   42.500
  325.500   25.468    0.195    0.316   50.625
  325.750   23.180    0.196    0.310   58.750
  326.000   21.499    0.196    0.311   65.000
  326.250   19.940    0.189    0.316   71.250
  326.500   19.203    0.185    0.309   73.750
  326.750   18.845    0.187    0.302   75.625
  327.000   18.845    0.196    0.294   76.250
  327.250   18.845    0.202    0.301   68.125
  327.500   19.203    0.207    0.301   65.625
  327.750   19.940    0.211    0.293   65.000
  328.000   20.319    0.227    0.294   63.750
  328.250   21.099    0.233    0.306   56.875
  328.500   22.324    0.231    0.300   56.250
  328.750   23.621    0.227    0.302   63.750
  329.000   24.527    0.235    0.305   68.750
  329.250   25.952    0.258    0.315   74.375
  329.500   25.952    0.261    0.328   66.250
  329.750   25.952    0.239    0.320   59.375
  330.000   25.468    0.234    0.305   55.625
  330.250   24.070    0.218    0.309   56.250
  330.500   20.705    0.217    0.307   55.000
  330.750   20.705    0.223    0.311   58.125
  331.000   19.940    0.233    0.322   58.750
  331.250   22.748    0.244    0.328   50.625
  331.500   24.993    0.255    0.331   48.125
  331.750   27.459    0.259    0.331   50.625
  332.000   27.981    0.250    0.333   51.250
  332.250   28.513    0.253    0.333   46.875
  332.500   27.981    0.264    0.338   42.500
  332.750   26.445    0.271    0.348   38.750
  333.000   25.952    0.271    0.357   38.750
  333.250   26.948    0.263    0.365   43.125
  333.500   29.607    0.264    0.369   55.625
  333.750   26.948    0.273    0.349   46.250
  334.000   26.445    0.241    0.342   39.375
  334.250   28.513    0.230    0.337   48.125
  334.500   30.742    0.253    0.347   50.000
  334.750   28.513    0.264    0.336   42.500
  335.000   28.513    0.259    0.322   40.000
  335.250   30.742    0.264    0.327   45.625
  335.500   31.922    0.259    0.338   48.125
  335.750   31.922    0.255    0.344   48.125
  336.000   31.327    0.253    0.344   40.000
  336.250   30.169    0.262    0.347   35.625
  336.500   27.981    0.260    0.353   36.875
  336.750   27.459    0.253    0.344   45.000
  337.000   30.742    0.232    0.348   48.750
  337.250   33.776    0.225    0.354   51.250
