~VERSION INFORMATION
 VERS.                 2.0:   CWLS LOG ASCII STANDARD -VERSION 2.0
 WRAP.                  NO:   ONE LINE PER DEPTH STEP
~WELL INFORMATION BLOCK
#MNEM.UNIT           DATA                    DESCRIPTION OF MNEMONIC
#---------    -------------------            -------------------------------
# Generated from Intellog Unique Number	CN_94_101/WELL/3346
WELL.         03-30-095-09W4                 : Well_name    - WELL
LOC .         AA/03-30-095-09W4/0            : Location     - LOCATION
UWI .         AA/03-30-095-09W400            : Uwi          - UNIQUE WELL ID
ENTR.         JOETTE                         : Entered      - ENTERED BY
SRVC.         SCHLUMBERGER                   : Scn          - SERVICE COMPANY
DATE.         07/24/92                       : Date         - LOG DATE
STRT.F        50                             : top_depth    - START DEPTH
STOP.F        329.692                        : bot_depth    - STOP DEPTH
STEP.F        0.8202                         : increment    - STEP LENGTH
 NULL. -999.2500:NULL Value
~CURVE INFORMATION BLOCK
#MNEM UNIT       ERCB CURVE CODE    CURVE DESCRIPTION
#-----------   ------------------   ----------------------------------
DEPT.F        00 001 00 00         : DEPTH        - DEPTH
GR  .API      00 310 00 00         : GR           - GAMMA RAY
DPHI.V/V      00 890 00 00         : PHID         - DENSITY POROSITY (SANDSTONE)
ILD .OHMM     00 120 00 00         : RESD         - DEEP RESISTIVITY (DIL)
~PARAMETER INFORMATION
#MNEM.UNIT           DATA             DESCRIPTION OF MNEMONIC
#---------         -----------     ------------------------------
GL  .M        282.586              : gl           - GROUND LEVEL ELEVATION
EREF.M        282.586              : kb           - ELEVATION OF DEPTH REFERENCE
DATM.M        282.586              : datum        - DATUM ELEVATION
TDD .M        109.423              : tdd          - TOTAL DEPTH DRILLER
RUN .         ONE                  : Run          - RUN NUMBER
ENG .         JO                   : Engineer     - RECORDING ENGINEER
WIT .         TIM                  : Witness      - WITNESSED BY
MUD .         GEL                  : Mud_type     - MUD TYPE
MATR.         SANDSTONE            : Logunit      - NEUTRON MATRIX
TMAX.F        59                   : BHT          - MAXIMUM RECORDED TEMPERATURE
BHTD.F        359                  : BHTDEP       - MAXIMUM RECORDED TEMPERATURE
RMT .F        59                   : MDTP         - TEMPERATURE OF MUD
MUDD.LB/G     1140                 : MWT          - MUD DENSITY
NEUT.         1                    : NEUTRON      - NEUTRON TYPE
RESI.         0                    : RESIST       - RESISTIVITY TYPE
RM  .OHMM     4.55                 : RM           - RESISTIVITY OF MUD
RMC .OHMM     4.55                 : RMC          - RESISTIVITY OF MUD CAKE
RMF .OHMM     4.55                 : RMF          - RESISTIVITY OF MUD FILTRATE
SUFT.F        39.2                 : SUFT         - SURFACE TEMPERATURE
~A  DEPTH       GR     PHID     RESD
   50.000   74.562    0.268   49.077
   50.820   77.725    0.274   33.850
   51.640   67.413    0.285   24.689
   52.461   66.085    0.257   25.653
   53.281   73.743    0.258   30.946
   54.101   76.007    0.317   35.956
   54.921   72.433    0.345   28.784
   55.742   57.630    0.358   18.775
   56.562   58.547    0.352   17.123
   57.382   60.816    0.344   21.039
   58.202   57.237    0.333   27.335
   59.022   53.218    0.331   28.417
   59.843   57.279    0.323   29.518
   60.663   66.284    0.311   34.297
   61.483   68.993    0.295   31.877
   62.303   73.058    0.289   32.502
   63.123   73.975    0.290   29.096
   63.944   77.137    0.294   25.566
   64.764   80.748    0.299   22.887
   65.584   77.179    0.293   19.018
   66.404   77.192    0.291   13.871
   67.224   79.910    0.304   12.654
   68.045   84.420    0.307   15.543
   68.865   86.689    0.295   15.273
   69.685   88.050    0.297   15.301
   70.505   89.421    0.291   15.309
   71.326   80.457    0.281   16.510
   72.146   81.378    0.272   17.477
   72.966   69.266    0.271   18.501
   73.786   57.603    0.302   18.520
   74.606   47.741    0.334   17.862
   75.427   45.523    0.329   22.785
   76.247   45.097    0.330   27.995
   77.067   33.429    0.338   29.643
   77.887   23.114    0.337   31.371
   78.707   25.831    0.332   44.749
   79.528   29.443    0.335  206.359
   80.348   33.504    0.342   91.028
   81.168   37.569    0.336   62.769
   81.988   34.444    0.336   57.263
   82.808   38.509    0.347   71.679
   83.629   42.115    0.347   64.167
   84.449   41.690    0.339   63.049
   85.269   43.505    0.331   61.951
   86.089   40.379    0.322   55.474
   86.909   38.606    0.336   63.248
   87.730   39.967    0.340   99.025
   88.550   44.477    0.333   88.648
   89.370   44.495    0.331   50.753
   90.190   48.556    0.306   49.869
   91.010   51.723    0.298   46.337
   91.831   51.292    0.297   40.727
   92.651   49.514    0.307   35.777
   93.471   54.024    0.304   37.892
   94.291   53.145    0.304   36.526
   95.112   50.468    0.311   32.103
   95.932   41.954    0.322   30.954
   96.752   15.025    0.334   27.206
   97.572   10.108    0.345   31.602
   98.392    8.330    0.343   61.870
   99.213    8.344    0.339  228.169
  100.033   10.164    0.346  377.766
  100.853   14.224    0.348  260.489
  101.673   19.632    0.324  112.786
  102.493   22.795    0.315   82.262
  103.314   18.771    0.306   87.081
  104.134   15.646    0.306  133.789
  104.954   14.326    0.328  158.412
  105.774   16.137    0.339  149.960
  106.594   20.202    0.336  155.815
  107.415   25.605    0.326   66.202
  108.235   38.203    0.319   37.912
  109.055   52.145    0.312   35.218
  109.875   56.659    0.295   23.403
  110.696   49.038    0.298   19.088
  111.516   29.744    0.324   36.003
  112.336   15.391    0.344   57.413
  113.156   10.470    0.352   95.055
  113.976   16.776    0.344  224.194
  114.797   24.439    0.326  241.788
  115.617   19.063    0.315  110.675
  116.437   13.692    0.322   51.626
  117.257   18.651    0.338   34.951
  118.077   23.161    0.342   38.403
  118.898   25.434    0.332   72.416
  119.718   22.758    0.323   75.243
  120.538   24.573    0.316   44.714
  121.358   26.383    0.316   44.760
  122.178   24.605    0.318   47.382
  122.999   21.031    0.325   48.349
  123.819   20.151    0.318   58.293
  124.639   25.115    0.325   60.585
  125.459   29.175    0.335   54.222
  126.280   26.948    0.332   41.820
  127.100   25.175    0.336   40.334
  127.920   28.782    0.330   53.389
  128.740   29.703    0.330   55.488
  129.560   22.985    0.339   49.673
  130.381   18.961    0.335   55.605
  131.201   22.124    0.331   73.603
  132.021   21.693    0.335   64.674
  132.841   22.161    0.322   54.765
  133.661   25.323    0.326   50.873
  134.482   23.999    0.335   45.554
  135.302   28.509    0.329   44.760
  136.122   30.324    0.317   43.981
  136.942   27.203    0.319   38.645
  137.762   24.527    0.327   35.908
  138.583   22.295    0.331   40.196
  139.403   18.272    0.335   45.854
  140.223   17.397    0.327   43.396
  141.043   21.457    0.317   44.258
  141.864   26.416    0.317   58.600
  142.684   32.722    0.305   76.156
  143.504   33.199    0.303   77.649
  144.324   30.069    0.315   43.636
  145.144   30.537    0.323   34.933
  145.965   33.250    0.309   44.550
  146.785   35.963    0.279   48.949
  147.605   37.334    0.254   40.684
  148.425   39.149    0.257   35.739
  149.245   41.413    0.280   29.697
  150.066   33.347    0.296   24.677
  150.886   29.324    0.294   25.167
  151.706   32.940    0.296   26.648
  152.526   29.810    0.307   22.559
  153.346   24.888    0.312   20.200
  154.167   23.110    0.313   19.482
  154.987   19.087    0.310   22.630
  155.807   10.572    0.314   32.879
  156.627    7.901    0.335   52.445
  157.448   12.860    0.340   60.935
  158.268   13.776    0.341   85.295
  159.088   12.901    0.343  179.904
  159.908   13.364    0.340  126.419
  160.728   24.166    0.331  101.205
  161.549   23.736    0.320  101.311
  162.369   22.407    0.324   60.205
  163.189   28.713    0.338   20.841
  164.009   37.718    0.330   37.174
  164.829   36.389    0.311   24.696
  165.650   26.527    0.318   18.351
  166.470   20.263    0.335   15.827
  167.290   22.527    0.343   31.569
  168.110   19.397    0.349   49.426
  168.930   12.679    0.363   41.070
  169.751    8.207    0.365   77.446
  170.571   16.309    0.351  179.292
  171.391   27.111    0.334  228.649
  172.211   32.968    0.333   98.999
  173.031   33.436    0.321   50.673
  173.852   27.167    0.306   18.554
  174.672   28.986    0.319   20.775
  175.492   25.861    0.334   21.992
  176.312   19.143    0.321   22.429
  177.133   13.328    0.324   20.841
  177.953   16.036    0.313   19.360
  178.773   21.893    0.293   43.180
  179.593   33.144    0.279   60.442
  180.413   46.636    0.260  235.775
  181.234   56.535    0.246   46.667
  182.054   90.242    0.270   18.755
  182.874  101.942    0.296    9.251
  183.694   99.720    0.311    5.498
  184.514   93.446    0.297    7.987
  185.335   71.009    0.282    7.285
  186.155   42.728    0.272    7.158
  186.975   32.417    0.285    8.319
  187.795   25.250    0.312    9.140
  188.615   22.574    0.325    9.497
  189.436   18.550    0.318   18.938
  190.256   14.527    0.307   33.165
  191.076   28.473    0.316   33.191
  191.896   41.965    0.299   43.934
  192.717   49.623    0.285   66.254
  193.537   54.132    0.273   37.932
  194.357   57.744    0.267   27.666
  195.177   62.254    0.267   17.065
  195.997   70.810    0.271   14.995
  196.818   77.116    0.264   16.790
  197.638   76.236    0.261   16.497
  198.458   72.662    0.260   16.514
  199.278   60.105    0.260   16.227
  200.098   51.591    0.262   14.522
  200.919   46.669    0.274   14.273
  201.739   52.077    0.286   14.557
  202.559   70.514    0.291   14.572
  203.379   83.107    0.273   14.054
  204.199   86.274    0.267   15.732
  205.020   83.149    0.258   16.049
  205.840   85.413    0.258   14.908
  206.660   88.580    0.251   13.601
  207.480   90.840    0.257   13.615
  208.301   89.066    0.286   11.963
  209.121   83.246    0.315   11.755
  209.941   71.134    0.332   10.138
  210.761   41.062    0.328    4.907
  211.581   28.954    0.325    5.195
  212.402   25.380    0.288   10.556
  213.222   39.321    0.302   12.970
  214.042   64.495    0.286   12.281
  214.862   74.843    0.271   12.294
  215.682   82.057    0.261   12.538
  216.503   80.274    0.252   11.017
  217.323   79.844    0.229    9.155
  218.143   83.455    0.224    7.061
  218.963   86.173    0.242    8.675
  219.783   77.204    0.276   10.465
  220.604   53.869    0.293    9.904
  221.424   30.983    0.304    8.385
  222.244   25.163    0.311    7.791
  223.064   25.181    0.308    9.941
  223.885   31.038    0.294   10.326
  224.705   44.086    0.256    9.597
  225.525   52.637    0.229   10.942
  226.345   54.452    0.238   15.613
  227.165   53.573    0.259   16.218
