~VERSION INFORMATION
 VERS.                 2.0:   CWLS LOG ASCII STANDARD -VERSION 2.0
 WRAP.                  NO:   ONE LINE PER DEPTH STEP
~WELL INFORMATION BLOCK
#MNEM.UNIT           DATA                    DESCRIPTION OF MNEMONIC
#---------    -------------------            -------------------------------
# Generated from Intellog Unique Number	CN_94_101/WELL/4994
WELL.         09-05-098-13W4                 : Well_name    - WELL
LOC .         00/09-05-098-13W4/0            : Location     - LOCATION
UWI .         00/09-05-098-13W400            : Uwi          - UNIQUE WELL ID
ENTR.         JOETTE                         : Entered      - ENTERED BY
SRVC.         WESTERN ATLAS                  : Scn          - SERVICE COMPANY
DATE.         08/28/92                       : Date         - LOG DATE
STRT.M        275                            : top_depth    - START DEPTH
STOP.M        480                            : bot_depth    - STOP DEPTH
STEP.M        0.25                           : increment    - STEP LENGTH
 NULL. -999.2500:NULL Value
~CURVE INFORMATION BLOCK
#MNEM UNIT       ERCB CURVE CODE    CURVE DESCRIPTION
#-----------   ------------------   ----------------------------------
DEPT.M        00 001 00 00         : DEPTH        - DEPTH
ILD .OHMM     00 120 00 00         : RESD         - DEEP RESISTIVITY (DIL)
GR  .API      00 310 00 00         : GR           - GAMMA RAY
NPHI.V/V      00 330 00 00         : PHIN         - NEUTRON POROSITY (SANDSTONE)
DPHI.V/V      00 890 00 00         : PHID         - DENSITY POROSITY (SANDSTONE)
~PARAMETER INFORMATION
#MNEM.UNIT           DATA             DESCRIPTION OF MNEMONIC
#---------         -----------     ------------------------------
GL  .M        723.4                : gl           - GROUND LEVEL ELEVATION
EREF.M        726.65               : kb           - ELEVATION OF DEPTH REFERENCE
DATM.M        726.65               : datum        - DATUM ELEVATION
TDD .M        491                  : tdd          - TOTAL DEPTH DRILLER
RUN .         ONE                  : Run          - RUN NUMBER
ENG .         JO                   : Engineer     - RECORDING ENGINEER
WIT .         TIM                  : Witness      - WITNESSED BY
MUD .         GEL                  : Mud_type     - MUD TYPE
MATR.         SANDSTONE            : Logunit      - NEUTRON MATRIX
TMAX.C        20                   : BHT          - MAXIMUM RECORDED TEMPERATURE
BHTD.M        491                  : BHTDEP       - MAXIMUM RECORDED TEMPERATURE
RMT .C        15                   : MDTP         - TEMPERATURE OF MUD
MUDD.KG/M     1150                 : MWT          - MUD DENSITY
NEUT.         1                    : NEUTRON      - NEUTRON TYPE
RESI.         0                    : RESIST       - RESISTIVITY TYPE
RM  .OHMM     6.17                 : RM           - RESISTIVITY OF MUD
RMC .OHMM     5.2                  : RMC          - RESISTIVITY OF MUD CAKE
RMF .OHMM     5.01                 : RMF          - RESISTIVITY OF MUD FILTRATE
SUFT.C        4                    : SUFT         - SURFACE TEMPERATURE
~A  DEPTH     RESD       GR     PHIN     PHID
# ...
  362.000    2.728  113.316    0.566    0.242
  362.250    2.840  112.415    0.562    0.240
  362.500    3.012  111.533    0.550    0.240
  362.750    3.195  110.671    0.525    0.241
  363.000    3.452  109.790    0.514    0.241
  363.250    4.184  109.388    0.508    0.241
  363.500    4.436  108.967    0.504    0.239
  363.750    4.436  107.165    0.504    0.235
  364.000    4.721  106.244    0.501    0.235
  364.250    4.557  103.461    0.495    0.240
  364.500    4.747  102.059    0.489    0.237
  364.750    4.847   98.776    0.482    0.227
  365.000    4.860   96.973    0.472    0.219
  365.250    5.057   97.013    0.465    0.217
  365.500    6.008   97.092    0.461    0.214
  365.750    7.268   97.191    0.464    0.212
  366.000    7.571   97.730    0.474    0.226
  366.250    6.912   99.731    0.482    0.242
  366.500    6.189  100.290    0.499    0.261
  366.750    5.341  100.389    0.506    0.267
  367.000    4.971  100.468    0.512    0.271
  367.250    4.886  101.007    0.509    0.273
  367.500    4.637  104.008    0.508    0.265
  367.750    4.647  106.949    0.512    0.258
  368.000    4.570  107.989    0.509    0.255
  368.250    4.497  107.107    0.509    0.255
  368.500    4.509  105.285    0.510    0.251
  368.750    4.525  105.844    0.506    0.245
  369.000    4.537  106.884    0.500    0.240
  369.250    4.546  107.923    0.494    0.241
  369.500    4.394  108.943    0.493    0.242
  369.750    4.327  110.943    0.490    0.245
  370.000    4.255  110.562    0.494    0.250
  370.250    4.267  108.259    0.501    0.255
  370.500    4.124  107.818    0.504    0.256
  370.750    4.053  107.417    0.509    0.251
  371.000    3.991  107.016    0.511    0.249
  371.250    3.999  106.154    0.512    0.249
  371.500    4.010  105.733    0.507    0.251
  371.750    4.097  104.391    0.501    0.247
  372.000    4.355  102.549    0.495    0.234
  372.250    4.444  103.108    0.493    0.221
  372.500    4.717  105.569    0.498    0.208
  372.750    5.008  108.049    0.506    0.195
  373.000    5.110  111.991    0.511    0.168
  373.250    4.935  115.432    0.522    0.152
  373.500    4.505  117.432    0.537    0.145
  373.750    3.890  120.893    0.538    0.152
  374.000    3.552  122.433    0.526    0.172
  374.250    3.362  122.992    0.521    0.176
  374.500    3.129  121.130    0.515    0.182
  374.750    3.080  118.308    0.511    0.178
  375.000    3.144  116.465    0.501    0.178
  375.250    3.153  117.025    0.498    0.178
  375.500    3.168  120.005    0.508    0.178
  375.750    3.230  122.525    0.517    0.181
  376.000    3.241  122.565    0.524    0.183
  376.250    3.252  119.762    0.532    0.197
  376.500    3.259  116.940    0.535    0.191
  376.750    3.328  117.519    0.537    0.190
  377.000    3.467  119.039    0.541    0.195
  377.250    3.609  117.677    0.528    0.195
  377.500    3.829  116.295    0.500    0.196
  377.750    4.217  120.256    0.479    0.203
  378.000    5.198  121.296    0.469    0.218
  378.250    6.657  117.993    0.457    0.215
  378.500    7.909  113.729    0.441    0.206
  378.750    9.390  111.407    0.426    0.201
  379.000   10.948  110.525    0.401    0.196
  379.250   10.767  109.644    0.397    0.201
  379.500    9.653  109.242    0.403    0.209
  379.750   10.826  109.802    0.420    0.212
  380.000   11.069  111.802    0.436    0.215
  380.250   11.516  108.039    0.449    0.218
  380.500   12.456  108.637    0.456    0.218
  380.750   11.587  109.638    0.464    0.218
  381.000   10.578  110.677    0.474    0.220
  381.250    9.840  106.453    0.480    0.221
  381.500    9.333  105.072    0.486    0.221
  381.750    9.178  105.170    0.482    0.222
  382.000    9.045  106.210    0.472    0.219
  382.250    9.063  105.789    0.468    0.220
  382.500    9.082  104.427    0.463    0.222
  382.750    9.273  100.644    0.459    0.221
  383.000    9.305   97.861    0.450    0.217
  383.250    9.324   98.920    0.440    0.218
  383.500    9.356   99.440    0.439    0.222
  383.750    9.559  101.480    0.441    0.223
  384.000    9.952  102.000    0.443    0.220
  384.250   10.961  102.579    0.440    0.216
  384.500   12.080  102.197    0.436    0.213
  384.750   13.057  102.276    0.432    0.216
  385.000   14.124  102.855    0.428    0.218
  385.250   14.431  102.895    0.429    0.216
  385.500   13.156  104.415    0.436    0.224
  385.750    9.229  104.014    0.444    0.240
  386.000    7.528  100.731    0.449    0.250
  386.250    6.501   98.888    0.451    0.259
  386.500    6.768   99.428    0.450    0.265
  386.750    7.590   99.546    0.441    0.266
  387.000    9.012   99.106    0.435    0.261
  387.250   10.312   99.185    0.437    0.260
  387.500   10.536  101.205    0.443    0.244
  387.750    9.440  105.126    0.449    0.234
  388.000    6.383  108.107    0.454    0.230
  388.250    5.937  110.107    0.462    0.224
  388.500    5.839  113.088    0.472    0.223
  388.750    5.758  114.588    0.480    0.223
  389.000    5.654  117.549    0.493    0.220
  389.250    5.678  119.069    0.494    0.216
  389.500    5.801  108.561    0.489    0.217
  389.750    6.035  106.239    0.482    0.224
  390.000    6.402  103.436    0.472    0.229
  390.250    6.920  102.574    0.465    0.219
  390.500    7.622  102.173    0.457    0.216
  390.750    8.086  103.713    0.455    0.226
  391.000    7.239  104.713    0.462    0.227
  391.250    4.987  106.733    0.479    0.232
  391.500    3.990  109.694    0.497    0.247
  391.750    3.511  112.174    0.525    0.257
  392.000    3.028  110.812    0.537    0.255
  392.250    2.468  110.911    0.534    0.256
  392.500    2.341  112.931    0.532    0.255
  392.750    2.392  113.971    0.532    0.251
  393.000    2.490  114.050    0.534    0.247
  393.250    2.592  116.030    0.540    0.245
  393.500    2.457  117.531    0.560    0.253
  393.750    2.079  118.630    0.561    0.259
  394.000    1.936  117.228    0.560    0.255
  394.250    2.130  115.366    0.555    0.251
  394.500    2.482  113.544    0.548    0.248
  394.750    3.303  112.642    0.540    0.247
  395.000    3.774  111.761    0.503    0.241
  395.250    4.569  113.801    0.494    0.233
  395.500    5.225  114.801    0.484    0.218
  395.750    5.979  116.821    0.471    0.217
  396.000    6.585  117.360    0.463    0.218
  396.250    7.123  118.420    0.462    0.204
  396.500    7.137  117.558    0.455    0.203
  396.750    7.292  115.696    0.448    0.204
  397.000    8.989  113.854    0.443    0.205
  397.250   10.279  113.913    0.439    0.208
  397.500   10.115  113.992    0.434    0.211
  397.750    8.729  113.611    0.429    0.214
  398.000    8.753  112.729    0.442    0.219
  398.250    9.285  111.347    0.453    0.220
  398.500    9.138  110.946    0.455    0.221
  398.750    8.500  111.986    0.461    0.222
  399.000    8.371  111.585    0.463    0.218
  399.250    8.547  110.703    0.458    0.213
  399.500    9.773  110.302    0.448    0.207
  399.750   12.055  110.881    0.439    0.200
  400.000   12.317  112.861    0.437    0.192
  400.250   20.903  112.940    0.436    0.191
  400.500   19.458  112.579    0.437    0.191
  400.750   18.100  113.098    0.437    0.196
  401.000   17.156  113.678    0.438    0.198
  401.250   15.959  113.757    0.438    0.204
  401.500   15.402  114.796    0.438    0.210
  401.750   14.866  116.796    0.444    0.216
  402.000   14.367  117.856    0.452    0.220
  402.250   14.396  118.415    0.456    0.227
  402.500   14.729  118.475    0.462    0.231
  402.750   15.335  116.632    0.472    0.232
  403.000   16.267  113.349    0.468    0.232
  403.250   18.256  110.046    0.456    0.234
  403.500   20.474  107.744    0.438    0.228
  403.750   23.412  105.421    0.404    0.208
  404.000   30.003  104.520    0.381    0.216
  404.250   32.431  102.197    0.372    0.216
  404.500   31.322  102.276    0.370    0.213
  404.750   28.044  103.316    0.379    0.223
  405.000   22.450  102.454    0.389    0.235
  405.250   20.101  101.092    0.381    0.221
