~VERSION INFORMATION
 VERS.                 2.0:   CWLS LOG ASCII STANDARD -VERSION 2.0
 WRAP.                  NO:   ONE LINE PER DEPTH STEP
~WELL INFORMATION BLOCK
#MNEM.UNIT           DATA                    DESCRIPTION OF MNEMONIC
#---------    -------------------            -------------------------------
# Generated from Intellog Unique Number	CC_84_87/WELL/1173
NULL.         -999.25                        : NULL_VALUE
LOC .         08-26-085-09W4                 : Location     - LOCATION          
UWI .         AA/08-26-085-09W400            : Uwi          - UNIQUE WELL ID    
ENTR.         DW                             : Entered      - ENTERED BY        
SRVC.         SCHLUMBERGER                   : Scn          - SERVICE COMPANY   
STRT.M        240                            : top_depth    - START DEPTH       
STOP.M        459.892                        : bot_depth    - STOP DEPTH        
STEP.M        0.3                            : increment    - STEP LENGTH       
~CURVE INFORMATION BLOCK
#MNEM UNIT       ERCB CURVE CODE    CURVE DESCRIPTION
#-----------   ------------------   ----------------------------------
DEPT.M        00 001 00 00         : DEPTH        - DEPTH                       
DPHI.V/V      00 890 00 00         : PHID         - DENSITY POROSITY (LIMESTONE)
NPHI.V/V      00 330 00 00         : PHIN         - NEUTRON POROSITY (LIMESTONE)
GR  .API      00 310 00 00         : GR           - GAMMA RAY                   
ILD .OHMM     00 120 00 00         : RESD         - DEEP RESISTIVITY (DIL)      
~PARAMETER INFORMATION       
#MNEM.UNIT           DATA             DESCRIPTION OF MNEMONIC
#---------         -----------     ------------------------------
GL  .M        700.2                : gl           - GROUND LEVEL ELEVATION      
EREF.M        703.4                : kb           - ELEVATION OF DEPTH REFERENCE
DATM.M        703.4                : datum        - DATUM ELEVATION             
TDD .M        470                  : tdd          - TOTAL DEPTH DRILLER         
RUN .         ONE                  : Run          - RUN NUMBER                  
ENG .         BILL                 : Engineer     - RECORDING ENGINEER          
WIT .         JIM                  : Witness      - WITNESSED BY                
MUD .         GEL                  : Mud_type     - MUD TYPE                    
MATR.         LIMESTONE            : Logunit      - NEUTRON MATRIX              
TMAX.C        20                   : BHT          - MAXIMUM RECORDED TEMPERATURE
BHTD.M        470                  : BHTDEP       - MAXIMUM RECORDED TEMPERATURE
MATR.         1                    : LOGUNIT      - NEUTRON MATRIX              
RMT .C        25                   : MDTP         - TEMPERATURE OF MUD          
NEUT.         1                    : NEUTRON      - NEUTRON TYPE                
RESI.         0                    : RESIST       - RESISTIVITY TYPE            
RMC .OHMM     0.25                 : RMC          - RESISTIVITY OF MUD CAKE     
RMF .OHMM     0.25                 : RMF          - RESISTIVITY OF MUD FILTRATE 
SUFT.C        15                   : SUFT         - SURFACE TEMPERATURE         
~A  DEPTH     PHID     PHIN       GR     RESD
# ...
  396.594    0.278    0.500   96.982    4.466
  396.894    0.274    0.510   97.590    4.636
  397.194    0.253    0.517   95.797    4.903
  397.494    0.275    0.501   90.411    5.186
  397.794    0.276    0.490   89.221    5.285
  398.094    0.282    0.512   90.428    5.189
  398.394    0.256    0.499   92.835    4.910
  398.694    0.246    0.471   97.044    4.733
  398.994    0.267    0.463   97.050    4.734
  399.294    0.284    0.454   94.661    4.737
  399.594    0.298    0.471   87.474    4.917
  399.894    0.356    0.472   83.285    5.200
  400.194    0.316    0.449   85.691    5.398
  400.494    0.370    0.488   87.502    5.709
  400.794    0.274    0.410   86.909    6.151
  401.094    0.313    0.407   80.322    6.627
  401.394    0.299    0.388   73.135    6.754
  401.694    0.288    0.364   68.945    6.755
  401.994    0.276    0.351   59.959    6.758
  402.294    0.276    0.367   58.169    6.761
  402.594    0.272    0.360   62.375    6.763
  402.894    0.272    0.355   71.380    6.892
  403.194    0.272    0.350   77.986    7.288
  403.494    0.274    0.350   85.189    8.149
  403.794    0.280    0.361   89.399    8.944
  404.094    0.316    0.399   93.003    9.458
  404.394    0.294    0.390  105.605    9.821
  404.694    0.247    0.394  102.617    9.824
  404.994    0.250    0.402  101.426    9.647
  405.294    0.287    0.431  104.431    9.298
  405.594    0.289    0.458  111.637    8.963
  405.894    0.314    0.478  114.046    8.965
  406.194    0.281    0.480  112.855    9.309
  406.494    0.290    0.456  110.464    9.485
  406.794    0.286    0.392  106.275   10.218
  407.094    0.238    0.400   90.093   11.857
  407.394    0.233    0.335   88.303   13.259
  407.694    0.217    0.340   87.114   13.764
  407.994    0.210    0.367   79.326   14.025
  408.294    0.242    0.350   69.740   14.030
  408.594    0.239    0.340   65.553   14.036
  408.894    0.261    0.344   67.960   14.039
  409.194    0.254    0.346   72.165   14.308
  409.494    0.239    0.351   73.374   15.132
  409.794    0.256    0.361   72.788   16.301
  410.094    0.282    0.375   72.793   17.892
  410.394    0.280    0.392   74.001   19.640
  410.694    0.266    0.390   75.807   20.012
  410.994    0.256    0.375   75.220   19.650
  411.294    0.271    0.401   75.826   17.588
  411.594    0.260    0.406   80.033   16.037
  411.894    0.241    0.380   81.840   15.459
  412.194    0.240    0.364   74.653   15.462
  412.494    0.244    0.398   69.266   16.054
  412.794    0.292    0.438   72.273   16.057
  413.094    0.269    0.456   78.878   16.065
  413.394    0.249    0.388   74.689   15.773
  413.694    0.254    0.369   68.701   16.994
  413.994    0.269    0.380   62.714   22.871
  414.294    0.285    0.385   63.322   38.456
  414.594    0.284    0.381   63.930   55.747
  414.894    0.294    0.380   53.145   60.060
  415.194    0.306    0.372   50.155   55.784
  415.494    0.289    0.366   53.164   49.010
  415.794    0.280    0.383   57.370   45.524
  416.094    0.295    0.381   59.180   47.261
  416.394    0.307    0.382   59.189   48.160
  416.694    0.298    0.381   60.993   44.733
  416.994    0.304    0.395   61.603   35.818
  417.294    0.309    0.388   61.012   34.525
  417.594    0.295    0.398   68.815   50.048
  417.894    0.287    0.414   73.022   61.394
  418.194    0.313    0.414   61.038   63.739
  418.494    0.322    0.401   52.053   59.198
  418.794    0.320    0.395   51.462   45.677
  419.094    0.304    0.393   56.269   33.337
  419.394    0.282    0.378   64.073   24.786
  419.694    0.275    0.359   74.275   17.759
  419.993    0.265    0.348   87.476   16.804
  420.293    0.203    0.373   89.284   16.810
  420.593    0.237    0.382   77.899   17.777
  420.893    0.270    0.385   67.114   19.510
  421.193    0.285    0.375   61.126   22.223
  421.493    0.265    0.362   71.331   25.311
  421.793    0.254    0.385   68.340   28.300
  422.093    0.293    0.411   53.957   36.028
  422.393    0.308    0.396   53.967   45.023
  422.693    0.297    0.383   54.575   42.603
  422.993    0.283    0.391   55.783   32.267
  423.293    0.264    0.368   54.593   25.839
  423.593    0.289    0.365   49.804   27.328
  423.893    0.305    0.367   39.618   30.554
  424.193    0.316    0.372   40.231   38.182
  424.493    0.316    0.377   40.239   54.330
  424.793    0.312    0.378   37.249   77.307
  425.093    0.302    0.399   44.535   79.286
  425.393    0.295    0.388   43.360   76.420
  425.693    0.285    0.358   48.803   63.511
  425.993    0.280    0.351   58.463   43.857
  426.293    0.277    0.358   66.320   27.097
  426.593    0.301    0.380   63.342   17.375
  426.893    0.328    0.387   50.736   17.061
  427.193    0.339    0.392   45.357   20.161
  427.493    0.333    0.396   45.995   26.142
  427.793    0.327    0.402   47.237   32.661
  428.093    0.317    0.399   47.258   38.599
  428.393    0.305    0.411   44.279   44.780
  428.693    0.321    0.400   37.695   50.057
  428.993    0.306    0.377   42.543   59.160
  429.293    0.300    0.372   42.573   67.376
  429.593    0.300    0.373   40.800   72.576
  429.893    0.306    0.380   37.229   76.747
  430.193    0.308    0.402   36.663   78.205
  430.493    0.302    0.398   36.683   78.221
  430.793    0.304    0.399   39.118   67.464
  431.093    0.300    0.402   43.968   59.279
  431.393    0.281    0.422   44.606   59.295
  431.693    0.302    0.409   47.044   65.067
  431.993    0.321    0.397   50.681   70.094
  432.293    0.310    0.399   49.510   75.516
  432.593    0.326    0.398   42.321   79.852
  432.893    0.337    0.393   42.961   81.365
  433.193    0.320    0.398   44.205   78.422
  433.493    0.317    0.406   44.222   67.638
  433.793    0.316    0.417   45.467   58.334
  434.093    0.321    0.412   46.111   51.252
  434.393    0.323    0.409   46.732   49.403
  434.693    0.323    0.431   47.360   45.887
  434.993    0.311    0.420   48.002   39.575
  435.293    0.284    0.420   46.829   32.286
  435.593    0.255    0.429   48.062   24.009
  435.893    0.264    0.440   49.899   17.205
  436.193    0.331    0.416   49.926   13.034
  436.493    0.335    0.400   46.960   14.303
  436.793    0.353    0.419   46.982   21.508
  437.093    0.337    0.443   50.034   25.893
  437.393    0.346    0.451   51.862   24.959
  437.693    0.342    0.426   50.692   22.758
  437.993    0.314    0.378   44.706   19.994
  438.293    0.315    0.375   42.931   17.567
  438.593    0.310    0.381   49.586   16.320
  438.893    0.304    0.391   56.236   16.627
  439.193    0.314    0.400   52.669   20.391
  439.493    0.321    0.395   49.078   25.009
  439.793    0.329    0.400   49.713   26.445
  440.093    0.335    0.407   53.352   26.455
  440.393    0.334    0.426   54.593   24.571
  440.693    0.329    0.445   51.613   21.991
  440.993    0.325    0.390   50.443   18.966
  441.293    0.312    0.365   55.286   16.664
  441.593    0.283    0.391   76.978   15.478
  441.893    0.208    0.421   86.639   16.066
  442.193    0.224    0.439   73.436   19.344
  442.493    0.265    0.454   58.431   21.229
  442.793    0.305    0.438   54.856   22.033
  443.093    0.286    0.418   54.293   22.041
  443.393    0.296    0.415   58.522   19.365
  443.693    0.271    0.386   68.179   17.332
  443.993    0.269    0.396   68.811   16.399
  444.293    0.304    0.407   52.002   21.263
  444.592    0.318    0.413   46.015   27.062
  444.892    0.307    0.421   43.047   30.818
  445.192    0.306    0.401   44.276   32.589
  445.492    0.347    0.397   52.727   23.789
  445.792    0.324    0.397   59.985   16.428
  446.092    0.325    0.407   62.421   14.978
  446.392    0.317    0.420   54.630   18.713
  446.692    0.331    0.420   44.445   22.950
  446.992    0.336    0.398   42.671   25.185
  447.292    0.332    0.394   44.503   25.664
  447.592    0.317    0.397   49.947   26.151
  447.892    0.310    0.405   56.006   29.780
  448.192    0.309    0.420   56.629   35.855
  448.492    0.321    0.440   53.060   40.831
