~VERSION INFORMATION
 VERS.                 2.0:   CWLS LOG ASCII STANDARD -VERSION 2.0
 WRAP.                  NO:   ONE LINE PER DEPTH STEP
~WELL INFORMATION BLOCK
#MNEM.UNIT           DATA                    DESCRIPTION OF MNEMONIC
#---------    -------------------            -------------------------------
# Generated from Intellog Unique Number	CN_94_101/WELL/2800
WELL.         03-25-096-16W4                 : Well_name    - WELL
LOC .         AA/03-25-096-16W4/0            : Location     - LOCATION
UWI .         AA/03-25-096-16W400            : Uwi          - UNIQUE WELL ID
ENTR.         JOETTE                         : Entered      - ENTERED BY
SRVC.         SCHLUMBERGER                   : Scn          - SERVICE COMPANY
DATE.         07/07/92                       : Date         - LOG DATE
STRT.M        140                            : top_depth    - START DEPTH
STOP.M        395                            : bot_depth    - STOP DEPTH
STEP.M        0.25                           : increment    - STEP LENGTH
 NULL. -999.2500:NULL Value
~CURVE INFORMATION BLOCK
#MNEM UNIT       ERCB CURVE CODE    CURVE DESCRIPTION
#-----------   ------------------   ----------------------------------
DEPT.M        00 001 00 00         : DEPTH        - DEPTH
CALI.MM       00 280 01 00         : CAL          - CALIPER
GR  .API      00 310 00 00         : GR           - GAMMA RAY
NPHI.V/V      00 330 00 00         : PHIN         - NEUTRON POROSITY (SANDSTONE)
DPHI.V/V      00 890 00 00         : PHID         - DENSITY POROSITY (SANDSTONE)
ILD .OHMM     00 120 00 00         : RESD         - DEEP RESISTIVITY (DIL)
~PARAMETER INFORMATION
#MNEM.UNIT           DATA             DESCRIPTION OF MNEMONIC
#---------         -----------     ------------------------------
GL  .M        651.2                : gl           - GROUND LEVEL ELEVATION
EREF.M        655                  : kb           - ELEVATION OF DEPTH REFERENCE
DATM.M        655                  : datum        - DATUM ELEVATION
TDD .M        398                  : tdd          - TOTAL DEPTH DRILLER
RUN .         ONE                  : Run          - RUN NUMBER
ENG .         JO                   : Engineer     - RECORDING ENGINEER
WIT .         TIM                  : Witness      - WITNESSED BY
MUD .         GEL                  : Mud_type     - MUD TYPE
MATR.         SANDSTONE            : Logunit      - NEUTRON MATRIX
TMAX.C        20                   : BHT          - MAXIMUM RECORDED TEMPERATURE
BHTD.M        398                  : BHTDEP       - MAXIMUM RECORDED TEMPERATURE
RMT .C        13                   : MDTP         - TEMPERATURE OF MUD
MUDD.KG/M     1120                 : MWT          - MUD DENSITY
NEUT.         1                    : NEUTRON      - NEUTRON TYPE
RESI.         0                    : RESIST       - RESISTIVITY TYPE
RM  .OHMM     0.84                 : RM           - RESISTIVITY OF MUD
RMC .OHMM     0.84                 : RMC          - RESISTIVITY OF MUD CAKE
RMF .OHMM     0.88                 : RMF          - RESISTIVITY OF MUD FILTRATE
SUFT.C        4                    : SUFT         - SURFACE TEMPERATURE
~A  DEPTH      CAL       GR     PHIN     PHID     RESD
# ...
  286.000  171.234   75.802    0.509    0.173    5.441
  286.250  171.389   74.116    0.454    0.144    5.988
  286.500  169.536   75.987    0.413    0.176    6.120
  286.750  168.702   77.210    0.444    0.236    6.123
  287.000  168.825   79.692    0.468    0.246    6.139
  287.250  168.918   80.952    0.474    0.238    5.926
  287.500  169.041   81.638    0.479    0.260    5.826
  287.750  169.134   81.675    0.476    0.277    5.624
  288.000  169.288   81.767    0.453    0.269    5.531
  288.250  169.381   81.823    0.460    0.274    5.647
  288.500  166.571   77.765    0.455    0.291    5.987
  288.750  165.675   79.007    0.436    0.293    6.231
  289.000  163.822   82.045    0.422    0.277    6.241
  289.250  165.984   85.084    0.439    0.261    5.913
  289.500  166.045   88.122    0.473    0.267    4.915
  289.750  169.133   79.303    0.500    0.266    4.244
  290.000  171.233   65.722    0.524    0.255    4.022
  290.250  173.364   58.107    0.528    0.248    4.426
  290.500  172.468   58.774    0.437    0.214    4.776
  290.750  166.693   60.627    0.414    0.204    5.559
  291.000  163.852   62.479    0.426    0.300    6.002
  291.250  162.957   63.165    0.432    0.329    6.477
  291.500  163.111   64.388    0.445    0.324    6.996
  291.750  163.234   66.259    0.455    0.314    7.014
  292.000  163.358   68.723    0.467    0.313    6.764
  292.250  163.512   70.557    0.454    0.288    6.413
  292.500  163.574   74.207    0.461    0.274    5.964
  292.750  164.716   77.838    0.471    0.288    5.547
  293.000  164.840   82.081    0.489    0.282    5.357
  293.250  165.951   84.508    0.504    0.270    5.169
  293.500  168.113   86.954    0.502    0.259    5.087
  293.750  170.182   87.028    0.491    0.261    4.998
  294.000  171.324   84.749    0.491    0.262    4.562
  294.250  172.374   83.619    0.497    0.267    4.489
  294.500  173.516   78.950    0.509    0.269    4.496
  294.750  173.609   79.024    0.518    0.276    4.508
  295.000  173.794   80.876    0.518    0.278    4.600
  295.250  173.856   82.729    0.518    0.263    4.969
  295.500  173.053   81.636    0.520    0.249    5.070
  295.750  173.145   78.134    0.524    0.250    5.583
  296.000  173.238   72.872    0.515    0.246    5.804
  296.250  171.416   72.353    0.467    0.263    5.804
  296.500  170.551   77.763    0.436    0.279    6.404
  296.750  170.675   80.209    0.434    0.232    7.308
  297.000  173.793   82.673    0.459    0.233    6.797
  297.250  175.893   84.526    0.482    0.245    6.437
  297.500  177.005   86.990    0.491    0.246    5.876
  297.750  177.128   88.861    0.499    0.246    5.364
  298.000  176.233   90.084    0.497    0.249    4.546
  298.250  176.387   94.308    0.489    0.251    4.074
  298.500  175.522  100.330    0.483    0.246    3.785
  298.750  175.645  102.220    0.517    0.227    3.268
  299.000  175.769  102.294    0.533    0.215    3.215
  299.250  175.861  102.331    0.542    0.221    3.408
  299.500  175.985  101.237    0.538    0.208    3.476
  299.750  176.108   98.921    0.525    0.208    3.828
  300.000  175.244   96.624    0.531    0.211    4.292
  300.250  175.398   94.326    0.527    0.195    4.629
  300.500  174.502   92.010    0.516    0.149    4.910
  300.750  170.704   83.802    0.478    0.197    4.650
  301.000  168.820   80.301    0.457    0.202    4.404
  301.250  169.932   94.641    0.436    0.191    4.022
  301.500  173.051   97.068    0.534    0.200    3.881
  301.750  177.127   98.328    0.542    0.218    4.271
  302.000  180.245  104.350    0.541    0.213    4.698
  302.250  181.357  104.405    0.513    0.216    5.574
  302.500  180.461  102.701    0.506    0.227    5.901
  302.750  177.620   99.829    0.498    0.244    6.616
  303.000  174.779  101.089    0.474    0.233    7.008
  303.250  173.915  101.737    0.461    0.246    7.566
  303.500  174.038  100.051    0.453    0.262    8.018
  303.750  174.161   96.549    0.440    0.258    8.833
  304.000  173.297   93.084    0.428    0.243    9.014
  304.250  171.475   90.194    0.433    0.253    9.370
  304.500  170.579   87.896    0.439    0.250    9.935
  304.750  169.745   85.025    0.437    0.219   10.148
  305.000  168.850   83.876    0.431    0.206   10.159
  305.250  169.992   81.597    0.421    0.195    9.457
  305.500  171.104   84.024    0.408    0.190    9.125
  305.750  172.184   87.062    0.416    0.224    8.330
  306.000  176.322   87.136    0.428    0.239    7.747
  306.250  177.372   86.025    0.449    0.237    7.913
  306.500  181.448   87.303    0.463    0.230    8.074
  306.750  181.571   87.970    0.464    0.231    8.239
  307.000  177.742   86.247    0.477    0.249    8.416
  307.250  171.968   81.578    0.478    0.301    8.429
  307.500  167.119   81.078    0.424    0.291    8.290
  307.750  161.345   81.744    0.414    0.279    7.710
  308.000  161.468   82.393    0.408    0.262    7.305
  308.250  164.587   83.653    0.404    0.245    7.891
  308.500  165.637   86.728    0.421    0.211    8.204
  308.750  169.713   87.395    0.434    0.214    8.862
  309.000  167.860   84.468    0.429    0.203    9.391
  309.250  166.038   79.836    0.400    0.182    9.593
  309.500  165.173   79.873    0.394    0.175    9.256
  309.750  165.266   81.151    0.384    0.209    8.770
  310.000  164.401   85.412    0.396    0.246    8.161
  310.250  164.555   86.635    0.410    0.265    7.878
  310.500  164.679   90.285    0.420    0.263    7.461
  310.750  164.864   85.597    0.430    0.272    6.946
  311.000  164.926   79.761    0.430    0.282    6.828
  311.250  166.099   81.021    0.420    0.283    6.712
  311.500  166.161   83.467    0.411    0.275    6.729
  311.750  168.260   84.708    0.417    0.267    6.867
  312.000  171.379   86.561    0.415    0.259    7.010
  312.250  175.455   89.006    0.422    0.245    7.295
  312.500  180.519   94.453    0.431    0.230    7.314
  312.750  185.614   93.323    0.435    0.246    7.322
  313.000  182.773   89.821    0.430    0.233    7.201
  313.250  180.890   85.745    0.434    0.203    6.823
  313.500  178.018   87.024    0.434    0.185    6.594
  313.750  174.189   90.062    0.420    0.187    6.604
  314.000  172.336   94.879    0.425    0.227    6.995
  314.250  170.483   99.696    0.471    0.256    7.556
  314.500  181.569  103.346    0.480    0.222    8.158
  314.750  182.618   96.899    0.493    0.254    8.481
  315.000  178.789   89.247    0.496    0.260    8.036
  315.250  171.038   81.002    0.412    0.266    5.244
  315.500  170.174   81.076    0.400    0.209    3.617
  315.750  171.285   87.116    0.368    0.182    3.122
  316.000  173.385   93.119    0.418    0.210    2.696
  316.250  174.466   92.618    0.449    0.223    2.652
  316.500  176.565   92.655    0.487    0.254    2.706
  316.750  177.677   92.136    0.503    0.260    2.762
  317.000  179.807   91.025    0.515    0.267    2.667
  317.250  180.919   87.560    0.512    0.263    2.391
  317.500  182.031   85.244    0.504    0.262    2.222
  317.750  183.111   87.097    0.495    0.261    2.313
  318.000  183.235   91.932    0.504    0.267    2.689
  318.250  183.389   96.768    0.532    0.270    3.309
  318.500  183.543   96.842    0.550    0.258    5.098
  318.750  182.679   96.898    0.567    0.247    5.713
  319.000  181.814   99.955    0.571    0.247    6.520
  319.250  181.906   99.436    0.560    0.251    7.727
  319.500  181.134   93.562    0.552    0.251    7.747
  319.750  181.196   85.910    0.503    0.249    7.205
  320.000  181.289   81.834    0.472    0.205    6.955
  320.250  181.412   82.520    0.436    0.170    7.097
  320.500  180.578   83.780    0.424    0.154    7.390
  320.750  180.702   90.376    0.410    0.145    7.678
  321.000  176.872   97.564    0.437    0.198    8.294
  321.250  181.906   94.081    0.479    0.161    8.631
  321.500  180.084   82.297    0.451    0.149    8.489
  321.750  176.255   77.017    0.423    0.134    8.345
  322.000  175.359   74.719    0.401    0.203    8.056
  322.250  176.501   79.536    0.407    0.216    7.928
