~VERSION INFORMATION
 VERS.                 2.0:   CWLS LOG ASCII STANDARD -VERSION 2.0
 WRAP.                  NO:   ONE LINE PER DEPTH STEP
~WELL INFORMATION BLOCK
#MNEM.UNIT           DATA                    DESCRIPTION OF MNEMONIC
#---------    -------------------            -------------------------------
# Generated from Intellog Unique Number	CN_91_93/WELL/3616
WELL.         03-18-093-09W4                 : Well_name    - WELL
LOC .         AA/03-18-093-09W4/0            : Location     - LOCATION
UWI .         AA/03-18-093-09W400            : Uwi          - UNIQUE WELL ID
ENTR.         JOETTE                         : Entered      - ENTERED BY
SRVC.         SCHLUMBERGER                   : Scn          - SERVICE COMPANY
DATE.         03/18/92                       : Date         - LOG DATE
STRT.M        0                              : top_depth    - START DEPTH
STOP.M        75                             : bot_depth    - STOP DEPTH
STEP.M        0.25                           : increment    - STEP LENGTH
 NULL. -999.2500:NULL Value
~CURVE INFORMATION BLOCK
#MNEM UNIT       ERCB CURVE CODE    CURVE DESCRIPTION
#-----------   ------------------   ----------------------------------
DEPT.M        00 001 00 00         : DEPTH        - DEPTH
ILD .OHMM     00 120 00 00         : RESD         - DEEP RESISTIVITY (DIL)
CALI.MM       00 280 01 00         : CAL          - CALIPER
GR  .API      00 310 00 00         : GR           - GAMMA RAY
NPHI.V/V      00 330 00 00         : PHIN         - NEUTRON POROSITY (SANDSTONE)
DPHI.V/V      00 890 00 00         : PHID         - DENSITY POROSITY (SANDSTONE)
~PARAMETER INFORMATION
#MNEM.UNIT           DATA             DESCRIPTION OF MNEMONIC
#---------         -----------     ------------------------------
GL  .M        331.24               : gl           - GROUND LEVEL ELEVATION
EREF.M        331.24               : kb           - ELEVATION OF DEPTH REFERENCE
DATM.M        331.24               : datum        - DATUM ELEVATION
TDD .M        76.87                : tdd          - TOTAL DEPTH DRILLER
RUN .         ONE                  : Run          - RUN NUMBER
ENG .         JO                   : Engineer     - RECORDING ENGINEER
WIT .         TIM                  : Witness      - WITNESSED BY
MUD .         GEL                  : Mud_type     - MUD TYPE
MATR.         SANDSTONE            : Logunit      - NEUTRON MATRIX
TMAX.C        6                    : BHT          - MAXIMUM RECORDED TEMPERATURE
BHTD.M        76.87                : BHTDEP       - MAXIMUM RECORDED TEMPERATURE
RMT .C        19.5                 : MDTP         - TEMPERATURE OF MUD
MUDD.KG/M     1000                 : MWT          - MUD DENSITY
NEUT.         1                    : NEUTRON      - NEUTRON TYPE
RESI.         0                    : RESIST       - RESISTIVITY TYPE
RM  .OHMM     16.7                 : RM           - RESISTIVITY OF MUD
RMC .OHMM     18.9                 : RMC          - RESISTIVITY OF MUD CAKE
RMF .OHMM     15                   : RMF          - RESISTIVITY OF MUD FILTRATE
SUFT.C        4                    : SUFT         - SURFACE TEMPERATURE
~A  DEPTH     RESD      CAL       GR     PHIN     PHID
# ...
   36.500   21.221  113.333   72.933    0.432    0.278
   36.750   34.975  113.324   68.052    0.439    0.288
   37.000   56.585  113.306   58.905    0.400    0.287
   37.250   28.501  113.289   63.756    0.453    0.280
   37.500   42.027  113.283   57.040    0.461    0.274
   37.750   70.551  112.863   61.895    0.399    0.280
   38.000   46.914  112.445   55.183    0.419    0.287
   38.250   40.431  112.025   52.731    0.431    0.288
   38.500   63.026  111.199   56.974    0.436    0.282
   38.750   61.827  109.561   55.126    0.417    0.276
   39.000   43.468  108.330   58.156    0.423    0.274
   39.250   29.445  107.909   72.741    0.415    0.274
   39.500   42.623  107.900   66.641    0.430    0.277
   39.750   58.364  107.480   55.060    0.438    0.278
   40.000   57.261  107.466   49.566    0.380    0.283
   40.250   26.290  107.860   65.980    0.451    0.280
   40.500   32.815  108.254   65.963    0.460    0.284
   40.750   82.795  109.050   51.339    0.411    0.303
   41.000   34.016  109.847   53.756    0.446    0.318
   41.250   23.039  109.830   67.132    0.419    0.284
   41.500   53.986  109.821   61.637    0.396    0.264
   41.750   26.203  108.998   62.837    0.431    0.266
   42.000   29.814  108.986   69.514    0.466    0.277
   42.250   75.232  108.157   48.195    0.455    0.260
   42.500   80.972  108.143   42.691    0.443    0.315
   42.750   69.783  107.728   48.160    0.419    0.326
   43.000   44.710  107.708   59.097    0.427    0.323
   43.250   30.853  107.702   65.166    0.436    0.308
   43.500   32.000  107.684   55.411    0.424    0.282
   43.750   23.343  107.673   60.262    0.470    0.291
   44.000   24.663  107.661   64.504    0.438    0.279
   44.250   53.666  108.052   47.446    0.435    0.275
   44.500   31.343  108.446   43.168    0.435    0.298
   44.750   62.167  108.429   55.323    0.387    0.302
   45.000   69.436  108.820   57.735    0.411    0.297
   45.250   47.915  109.617   55.897    0.434    0.289
   45.500   43.653  109.608   64.399    0.441    0.284
   45.750   41.271  109.590   68.642    0.424    0.285
   46.000   32.422  109.581   61.930    0.423    0.290
   46.250   43.581  109.570   55.213    0.445    0.292
   46.500   27.414  109.147   60.065    0.410    0.300
   46.750   42.734  108.729   55.183    0.406    0.295
   47.000   83.194  108.715   47.253    0.421    0.290
   47.250   54.307  108.703   41.758    0.450    0.296
   47.500  113.854  108.691   42.958    0.469    0.320
   47.750   47.650  108.679   46.592    0.466    0.321
   48.000   65.248  108.662   49.622    0.485    0.316
   48.250  105.548  109.056   55.082    0.432    0.299
   48.500   58.321  109.041   44.110    0.462    0.277
   48.750   28.836  109.435   66.610    0.483    0.304
   49.000  107.343  109.829   47.726    0.465    0.311
   49.250   46.621  110.623   31.276    0.455    0.304
   49.500   31.002  111.020   53.168    0.454    0.315
   49.750   87.412  111.814   56.194    0.450    0.320
   50.000  126.550  112.208   39.744    0.441    0.314
   50.250  124.159  113.005   40.335    0.486    0.311
   50.500   53.917  114.202   49.447    0.436    0.317
   50.750   87.231  114.196   49.429    0.445    0.320
   51.000  245.958  114.590   37.848    0.455    0.311
   51.250  138.444  114.578   34.179    0.456    0.316
   51.500   42.286  114.967   50.594    0.450    0.320
   51.750   32.610  114.955   58.488    0.450    0.312
   52.000   30.265  114.940   67.595    0.459    0.291
   52.250   31.976  114.926   63.926    0.497    0.286
   52.500   88.518  114.911   63.309    0.507    0.288
   52.750  227.511  115.302   44.420    0.475    0.298
   53.000  235.966  115.296   45.011    0.427    0.306
   53.250  130.382  115.279   38.299    0.451    0.313
   53.500   76.159  115.267   28.544    0.452    0.322
   53.750   26.977  115.253   33.395    0.454    0.329
   54.000   19.318  114.835   51.640    0.416    0.334
   54.250   21.181  114.415   72.924    0.439    0.305
   54.500   25.476  113.995   77.166    0.469    0.267
   54.750   57.526  113.580   69.846    0.488    0.248
   55.000  550.706  112.342   46.093    0.509    0.278
   55.250  465.960  111.522   33.903    0.470    0.322
   55.500  372.895  111.105   25.969    0.439    0.343
   55.750  257.323  111.093   31.434    0.422    0.333
   56.000   47.668  111.078   28.977    0.392    0.334
   56.250  234.304  108.221   35.659    0.400    0.295
   56.500  122.450  106.586   38.076    0.418    0.266
   56.750   99.826  106.572   28.320    0.428    0.291
   57.000  217.182  107.374   28.303    0.443    0.303
   57.250  109.390  108.168   25.847    0.424    0.304
   57.500   90.845  108.159   24.008    0.406    0.282
   57.750  131.501  108.142   27.642    0.401    0.272
   58.000   71.328  107.724   25.794    0.430    0.263
   58.250  280.730  109.336   25.172    0.435    0.269
   58.500  190.167  110.941   23.938    0.442    0.293
   58.750   60.276  111.738   26.963    0.452    0.309
   59.000   92.236  112.941   41.552    0.458    0.313
   59.250  146.490  113.335   40.926    0.469    0.314
   59.500  285.186  113.326   31.779    0.480    0.320
   59.750  108.800  113.311   37.239    0.485    0.335
   60.000  163.435  113.300   46.964    0.457    0.347
   60.250   26.594  112.873   61.553    0.433    0.336
   60.500   20.133  112.865   67.621    0.380    0.320
   60.750   15.816  112.447   60.300    0.409    0.196
   61.000   17.995  112.030   37.764    0.333    0.121
   61.250   24.185  111.609   32.270    0.230    0.089
   61.500   33.121  110.786   29.818    0.211    0.077
   61.750   54.588  109.552   21.888    0.201    0.094
   62.000   49.726  108.725   15.780    0.208    0.087
   62.250   44.477  107.899   15.159    0.201    0.073
   62.500   48.766  106.673   16.358    0.189    0.084
   62.750   84.953  105.033   17.558    0.173    0.081
   63.000   70.551  103.804   17.540    0.178    0.062
   63.250   49.595  102.569   19.349    0.176    0.068
   63.500   48.658  101.752   19.940    0.170    0.073
   63.750   66.627  100.517   19.309    0.173    0.064
   64.000   66.590   99.691   19.296    0.171    0.073
   64.250   57.380   99.274   20.496    0.172    0.082
   64.500   51.324   99.259   20.478    0.176    0.077
   64.750   44.232   99.248   22.282    0.183    0.050
   65.000   43.396   99.236   25.303    0.198    0.051
   65.250   48.469   99.627   27.116    0.228    0.061
   65.500   42.552  100.015   26.494    0.239    0.084
   65.750   29.364  100.412   28.302    0.238    0.094
   66.000   31.020  100.395   30.719    0.230    0.119
   66.250   28.789  100.386   31.315    0.231    0.144
   66.500   26.232  100.374   34.340    0.241    0.116
   66.750   23.460  100.362   41.626    0.232    0.109
   67.000   33.959   98.722   47.086    0.222    0.098
   67.250   14.749   97.087   52.546    0.275    0.022
   67.500    9.808   99.510   82.345    0.318    0.088
   67.750    8.296  102.336   86.592    0.353    0.120
   68.000    6.639  106.781  102.403    0.336    0.127
   68.250    5.722  105.149   88.387    0.272    0.117
   68.500    9.786  101.889   60.978    0.177    0.086
   68.750   46.346  103.094   33.574    0.165    0.074
   69.000   45.464  104.300   25.036    0.167    0.041
   69.250   45.432  104.685   29.887    0.165    0.029
   69.500   45.420  103.048   27.435    0.160    0.041
   69.750   46.237  102.230   31.678    0.160    0.053
   70.000   47.082  100.593   26.792    0.160    0.066
   70.250   47.935   99.767   20.688    0.160    0.064
   70.500   45.313   99.749   24.322    0.161    0.066
   70.750   42.054   99.738   28.565    0.166    0.054
   71.000   41.260  100.135   26.721    0.170    0.061
   71.250   42.805  100.526   27.308    0.168    0.059
   71.500   47.803  100.920   29.121    0.159    0.033
   71.750   50.513  100.905   28.495    0.157    0.028
   72.000   70.460  100.891   21.782    0.153    0.019
   72.250   73.078  100.467   18.722    0.156    0.083
   72.500   59.576  100.053   25.404    0.158    0.100
   72.750   53.273   99.230   34.515    0.165    0.094
