~VERSION INFORMATION
 VERS.                 2.0:   CWLS LOG ASCII STANDARD -VERSION 2.0
 WRAP.                  NO:   ONE LINE PER DEPTH STEP
~WELL INFORMATION BLOCK
#MNEM.UNIT           DATA                    DESCRIPTION OF MNEMONIC
#---------    -------------------            -------------------------------
# Generated from Intellog Unique Number	CN_94_101/WELL/4998
WELL.         09-35-100-14W4                 : Well_name    - WELL
LOC .         AA/09-35-100-14W4/0            : Location     - LOCATION
UWI .         AA/09-35-100-14W400            : Uwi          - UNIQUE WELL ID
ENTR.         TIM                            : Entered      - ENTERED BY
SRVC.         WESTERN ATLAS                  : Scn          - SERVICE COMPANY
DATE.         08/28/92                       : Date         - LOG DATE
STRT.M        289.56                         : top_depth    - START DEPTH
STOP.M        502.81                         : bot_depth    - STOP DEPTH
STEP.M        0.25                           : increment    - STEP LENGTH
 NULL. -999.2500:NULL Value
~CURVE INFORMATION BLOCK
#MNEM UNIT       ERCB CURVE CODE    CURVE DESCRIPTION
#-----------   ------------------   ----------------------------------
DEPT.M        00 001 00 00         : DEPTH        - DEPTH
GR  .API      00 310 00 00         : GR           - GAMMA RAY
ILD .OHMM     00 120 00 00         : RESD         - DEEP RESISTIVITY (DIL)
NPHI.V/V      00 330 00 00         : PHIN         - NEUTRON POROSITY (SANDSTONE)
~PARAMETER INFORMATION
#MNEM.UNIT           DATA             DESCRIPTION OF MNEMONIC
#---------         -----------     ------------------------------
GL  .M        723.29               : gl           - GROUND LEVEL ELEVATION
EREF.M        726.643              : kb           - ELEVATION OF DEPTH REFERENCE
DATM.M        726.643              : datum        - DATUM ELEVATION
TDD .M        506.578              : tdd          - TOTAL DEPTH DRILLER
RUN .         ONE                  : Run          - RUN NUMBER
ENG .         JO                   : Engineer     - RECORDING ENGINEER
WIT .         TIM                  : Witness      - WITNESSED BY
MUD .         GEL                  : Mud_type     - MUD TYPE
MATR.         SANDSTONE            : Logunit      - NEUTRON MATRIX
TMAX.C        32.2222              : BHT          - MAXIMUM RECORDED TEMPERATURE
BHTD.M        506.578              : BHTDEP       - MAXIMUM RECORDED TEMPERATURE
RMT .C        32.2222              : MDTP         - TEMPERATURE OF MUD
MUDD.KG/M     9000                 : MWT          - MUD DENSITY
NEUT.         1                    : NEUTRON      - NEUTRON TYPE
RESI.         0                    : RESIST       - RESISTIVITY TYPE
RM  .OHMM     10.5                 : RM           - RESISTIVITY OF MUD
RMC .OHMM     10.5                 : RMC          - RESISTIVITY OF MUD CAKE
RMF .OHMM     10.5                 : RMF          - RESISTIVITY OF MUD FILTRATE
SUFT.C        4                    : SUFT         - SURFACE TEMPERATURE
~A  DEPTH       GR     RESD     PHIN
# ...
  452.310   58.854    6.951    0.368
  452.560   61.653    6.315    0.407
  452.810   65.241    5.629    0.409
  453.060   68.829    5.417    0.410
  453.310   72.814    4.737    0.424
  453.560   76.803    4.303    0.454
  453.810   81.977    3.690    0.470
  454.060   88.341    3.165    0.502
  454.310   92.723    2.767    0.516
  454.560   98.298    2.328    0.516
  454.810   99.511    1.958    0.516
  455.060   96.352    1.885    0.516
  455.310   91.214    1.885    0.514
  455.560   81.317    1.922    0.512
  455.810   68.644    1.998    0.505
  456.060   60.730    2.287    0.488
  456.310   52.419    2.827    0.451
  456.560   49.269    3.114    0.323
  456.810   49.287    3.496    0.330
  457.060   49.306    3.926    0.349
  457.310   50.915    4.160    0.360
  457.560   52.119    4.948    0.364
  457.810   54.521    5.555    0.363
  458.060   56.518    6.481    0.363
  458.310   58.123    7.709    0.367
  458.560   60.124    8.171    0.374
  458.810   62.928    8.174    0.382
  459.060   64.925    7.867    0.390
  459.310   67.724    7.427    0.399
  459.560   69.721    6.620    0.409
  459.810   72.913    5.787    0.418
  460.060   76.902    4.684    0.426
  460.310   80.886    3.189    0.458
  460.560   85.267    2.390    0.499
  460.810   90.050    1.792    0.498
  461.060   92.845    1.936    0.491
  461.310   94.449    2.091    0.484
  461.560   94.076    2.393    0.481
  461.810   92.503    2.847    0.475
  462.060   88.159    3.587    0.470
  462.310   81.038    4.350    0.445
  462.560   76.297    5.481    0.423
  462.810   71.556    6.907    0.394
  463.060   68.004    8.215    0.363
  463.310   66.044    9.962    0.347
  463.560   64.873   11.623    0.337
  463.810   61.723   14.094    0.327
  464.060   52.614   16.765    0.317
  464.310   41.131   17.427    0.307
  464.560   20.917   18.827    0.301
  464.810   16.572   20.340    0.290
  465.060   16.591   21.974    0.288
  465.310   19.787   23.740    0.294
  465.560   21.788   20.753    0.303
  465.810   24.984   18.497    0.316
  466.060   28.567   16.171    0.340
  466.310   35.333   14.692    0.348
  466.560   42.896   12.844    0.375
  466.810   43.698   11.015    0.391
  467.060   46.890    9.817    0.389
  467.310   51.276    8.258    0.362
  467.560   55.260    7.083    0.357
  467.810   60.038    6.687    0.344
  468.060   64.428    6.314    0.342
  468.310   65.641    6.316    0.354
  468.560   65.650    6.566    0.372
  468.810   65.276    7.094    0.373
  469.060   63.307    7.812    0.362
  469.310   60.549    8.440    0.351
  469.560   58.188    9.118    0.341
  469.810   56.228   10.436    0.331
  470.060   55.854   11.274    0.325
  470.310   57.058   12.657    0.322
  470.560   60.254   14.486    0.318
  470.810   62.250   17.232    0.309
  471.060   67.429   17.237    0.304
  471.310   70.621   16.275    0.316
  471.560   73.415   14.505    0.339
  471.810   77.003   11.517    0.350
  472.060   82.182    8.148    0.356
  472.310   84.585    5.655    0.358
  472.560   85.789    4.490    0.360
  472.810   86.997    4.080    0.372
  473.060   88.219    3.779    0.388
  473.310   88.625    3.637    0.401
  473.560   88.648    3.369    0.416
  473.810   89.067    3.181    0.448
  474.060   89.478    2.890    0.468
  474.310   91.091    2.836    0.501
  474.560   91.899    2.729    0.504
  474.810   92.309    2.678    0.496
  475.060   93.121    2.679    0.491
  475.310   92.742    2.680    0.479
  475.560   90.381    2.630    0.470
  475.810   88.033    2.630    0.463
  476.060   86.853    2.581    0.452
  476.310   86.078    2.582    0.447
  476.560   88.079    2.583    0.448
  476.810   93.650    2.583    0.453
  477.060   94.070    2.535    0.461
  477.310   93.304    2.536    0.471
  477.560   92.525    2.537    0.480
  477.810   91.362    2.537    0.492
  478.060   90.979    2.538    0.499
  478.310   90.592    2.539    0.485
  478.560   90.218    2.540    0.466
  478.810   88.650    2.540    0.445
  479.060   85.491    2.591    0.446
  479.310   84.730    2.592    0.458
  479.560   84.739    2.642    0.473
  479.810   84.365    2.801    0.487
  480.060   83.600    2.856    0.486
  480.310   83.609    2.912    0.480
  480.560   82.834    2.913    0.466
  480.810   82.852    2.970    0.458
  481.060   82.474    2.972    0.444
  481.310   82.898    2.916    0.438
  481.560   82.898    2.917    0.435
  481.810   83.327    2.862    0.424
  482.060   84.134    2.808    0.419
  482.310   84.157    2.756    0.407
  482.560   83.783    2.756    0.393
  482.810   83.405    2.705    0.359
  483.060   83.428    2.705    0.358
  483.310   83.437    2.604    0.364
  483.560   83.455    2.605    0.370
  483.810   83.478    2.508    0.373
  484.060   83.497    2.508    0.372
  484.310   81.532    2.461    0.365
  484.560   79.964    2.462    0.360
  484.810   78.004    2.510    0.356
  485.060   78.027    2.511    0.357
  485.310   78.838    2.561    0.357
  485.560   80.840    2.611    0.355
  485.810   82.048    2.612    0.351
  486.060   82.463    2.613    0.348
  486.310   82.085    2.614    0.349
  486.560   81.314    2.615    0.355
  486.810   81.323    2.615    0.360
  487.060   80.161    2.566    0.369
  487.310   78.990    2.518    0.383
  487.560   77.029    2.519    0.388
  487.810   75.853    2.520    0.389
  488.060   75.074    2.521    0.394
  488.310   74.700    2.521    0.397
  488.560   75.512    2.522    0.405
  488.810   79.100    2.523    0.437
  489.060   81.498    2.524    0.454
  489.310   81.917    2.573    0.438
  489.560   80.345    2.676    0.411
  489.810   75.207    2.676    0.394
  490.060   72.052    2.677    0.392
  490.310   70.484    2.627    0.395
  490.560   68.921    2.528    0.402
  490.810   64.581    2.387    0.391
  491.060   57.852    2.298    0.380
  491.310   55.887    2.170    0.366
  491.560   53.923    2.129    0.355
  491.810   52.355    1.972    0.350
  492.060   50.390    1.935    0.345
  492.310   49.223    1.827    0.329
  492.560   48.840    1.692    0.320
  492.810   48.863    1.629    0.324
  493.060   49.679    1.509    0.325
  493.310   50.892    1.480    0.326
  493.560   51.302    1.425    0.326
  493.810   52.109    1.398    0.325
  494.060   53.714    1.398    0.324
  494.310   56.513    1.399    0.324
  494.560   64.464    1.399    0.328
  494.810   78.765    1.427    0.341
  495.060   83.543    1.455    0.366
  495.310   86.735    1.513    0.404
  495.560   88.344    1.634    0.431
  495.810   88.763    1.699    0.438
  496.060   88.390    1.699    0.450
  496.310   87.606    1.636    0.458
  496.560   83.658    1.544    0.449
  496.810   72.968    1.430    0.400
  497.060   51.961    1.351    0.390
  497.310   40.481    1.275    0.379
  497.560   38.909    1.251    0.349
  497.810   37.737    1.276    0.332
  498.060   41.726    1.352    0.309
  498.310   52.057    1.489    0.298
  498.560   76.274    1.672    0.298
  498.810   78.672    2.148    0.314
  499.060   78.695    2.655    0.326
  499.310   79.110    3.098    0.322
  499.560   80.322    3.829    0.315
  499.810   87.872    4.217    0.289
  500.060   92.654    4.827    0.258
  500.310   94.268    5.116    0.240
  500.560   95.075    5.217    0.232
  500.810   95.094    5.218    0.225
  501.060   93.129    5.220    0.217
  501.310   89.177    5.221    0.209
  501.560   83.246    5.124    0.201
  501.810   79.298    5.027    0.188
  502.060   73.763    4.933    0.166
  502.310   69.816    4.841    0.147
  502.560   68.247    4.842    0.131
  502.810  105.557    4.843    0.124
