~VERSION INFORMATION
 VERS.                 2.0:   CWLS LOG ASCII STANDARD -VERSION 2.0
 WRAP.                  NO:   ONE LINE PER DEPTH STEP
~WELL INFORMATION BLOCK
#MNEM.UNIT           DATA                    DESCRIPTION OF MNEMONIC
#---------    -------------------            -------------------------------
# Generated from Intellog Unique Number	CW_76_78/WELL/2778
WELL.         AMOCO MCULLEN                  : Well_name    - WELL
LOC .         AA/06-23-077-25W4/0            : Location     - LOCATION
UWI .         AA/06-23-077-25W4/0            : Uwi          - UNIQUE WELL ID
ENTR.         JOE                            : Entered      - ENTERED BY
SRVC.         WESTERN ATLAS                  : Scn          - SERVICE COMPANY
STRT.M        435                            : top_depth    - START DEPTH
STOP.M        686                            : bot_depth    - STOP DEPTH
STEP.M        0.25                           : increment    - STEP LENGTH
 NULL. -999.2500:NULL Value
~CURVE INFORMATION BLOCK
#MNEM UNIT       ERCB CURVE CODE    CURVE DESCRIPTION
#-----------   ------------------   ----------------------------------
DEPT.M        00 001 00 00         : DEPTH        - DEPTH
CALI.MM       00 280 01 00         : CAL          - CALIPER
ILD .OHMM     00 120 00 00         : RESD         - DEEP RESISTIVITY (DIL)
DPHI.V/V      00 890 00 00         : PHID         - DENSITY POROSITY (SANDSTONE)
NPHI.V/V      00 330 00 00         : PHIN         - NEUTRON POROSITY (SANDSTONE)
GR  .API      00 310 00 00         : GR           - GAMMA RAY
~PARAMETER INFORMATION
#MNEM.UNIT           DATA             DESCRIPTION OF MNEMONIC
#---------         -----------     ------------------------------
GL  .M        737.31               : gl           - GROUND LEVEL ELEVATION
EREF.M        741                  : kb           - ELEVATION OF DEPTH REFERENCE
DATM.M        741                  : datum        - DATUM ELEVATION
TDD .M        690                  : tdd          - TOTAL DEPTH DRILLER
RUN .         ONE                  : Run          - RUN NUMBER
ENG .         KAWOLSKI             : Engineer     - RECORDING ENGINEER
WIT .         BROWN                : Witness      - WITNESSED BY
MUD .         GEL                  : Mud_type     - MUD TYPE
MATR.         SANDSTONE            : Logunit      - NEUTRON MATRIX
TMAX.C        32                   : BHT          - MAXIMUM RECORDED TEMPERATURE
BHTD.M        687.5                : BHTDEP       - MAXIMUM RECORDED TEMPERATURE
RMT .C        24                   : MDTP         - TEMPERATURE OF MUD
MUDD.KG/M     1130                 : MWT          - MUD DENSITY
NEUT.         1                    : NEUTRON      - NEUTRON TYPE
RESI.         0                    : RESIST       - RESISTIVITY TYPE
RM  .OHMM     3                    : RM           - RESISTIVITY OF MUD
RMC .OHMM     3.2                  : RMC          - RESISTIVITY OF MUD CAKE
RMF .OHMM     2.8                  : RMF          - RESISTIVITY OF MUD FILTRATE
SUFT.C        0                    : SUFT         - SURFACE TEMPERATURE
~A  DEPTH      CAL     RESD     PHID     PHIN       GR
# ...
  544.500  156.674    9.913    0.217    0.340   77.542
  544.750  154.677    9.555    0.226    0.335   79.728
  545.000  154.202    9.210    0.232    0.317   80.995
  545.250  153.745    8.959    0.215    0.316   82.254
  545.500  153.282    8.717    0.174    0.323   86.293
  545.750  153.327    8.559    0.161    0.331   91.560
  546.000  153.897    8.483    0.146    0.337   96.212
  546.250  153.960    8.486    0.147    0.341   96.554
  546.500  154.512    8.491    0.119    0.339   90.419
  546.750  155.082    9.152    0.099    0.333   86.756
  547.000  155.120    9.772    0.061    0.326   92.328
  547.250  156.216   10.533    0.062    0.295   93.287
  547.500  156.774   11.565    0.080    0.192   85.303
  547.750  157.332   12.819    0.098    0.201   71.166
  548.000  157.896   13.187    0.120    0.215   75.198
  548.250  158.466   12.360    0.140    0.245   87.555
  548.500  159.043   11.803    0.144    0.287   96.519
  548.750  159.074   11.376    0.116    0.293  100.862
  549.000  159.645   10.864    0.108    0.303   94.731
  549.250  160.209   11.072    0.101    0.305   90.757
  549.500  160.779   11.497    0.107    0.292   95.412
  549.750  161.863   12.164    0.112    0.293   96.983
  550.000  162.414   12.514    0.117    0.304   95.784
  550.250  162.978   12.404    0.151    0.316   92.426
  550.500  164.068   11.954    0.168    0.339   89.684
  550.750  164.626   10.895    0.173    0.343   87.558
  551.000  165.184   10.307    0.171    0.344   89.132
  551.250  165.748    9.935    0.164    0.341   92.236
  551.500  166.838    9.847    0.152    0.330   96.887
  551.750  167.916    9.852    0.139    0.330  102.466
  552.000  168.473    9.674    0.131    0.334  101.264
  552.250  170.070    9.412    0.139    0.325  104.687
  552.500  170.635    9.155    0.130    0.317  108.723
  552.750  171.205    8.990    0.113    0.330  111.830
  553.000  171.756    8.829    0.098    0.339  110.936
  553.250  171.807    8.832    0.101    0.334  108.810
  553.500  170.831    8.835    0.105    0.325  107.300
  553.750  169.861    8.922    0.109    0.319  107.026
  554.000  169.905    8.681    0.114    0.319  108.600
  554.250  170.488    8.445    0.120    0.322  110.479
  554.500  171.559    8.216    0.126    0.329  112.046
  554.750  172.630    8.219    0.141    0.349  112.693
  555.000  172.174    8.223    0.151    0.350  110.262
  555.250  169.663    8.303    0.152    0.336  105.363
  555.500  168.681    8.703    0.145    0.321  101.077
  555.750  168.218    9.036    0.132    0.310   98.335
  556.000  168.782    9.297    0.121    0.296   95.592
  556.250  168.826    9.301    0.131    0.305   89.465
  556.500  169.910    9.392    0.157    0.330   91.344
  556.750  170.987    9.308    0.162    0.330   94.759
  557.000  172.584    9.141    0.165    0.331   96.950
  557.250  173.149    9.060    0.166    0.331   92.975
  557.500  173.713    8.979    0.166    0.333   91.153
  557.750  173.763    8.819    0.163    0.334   90.571
  558.000  173.807    8.822    0.155    0.336   92.758
  558.250  173.871    8.744    0.149    0.340   96.793
  558.500  173.915    8.666    0.149    0.354   99.597
  558.750  173.452    8.589    0.173    0.376  101.475
  559.000  172.989    8.514    0.189    0.368  100.581
  559.250  172.013    8.360    0.205    0.331   97.839
  559.500  171.043    8.133    0.209    0.326   97.253
  559.750  171.087    8.136    0.201    0.335   93.587
  560.000  170.624    9.018    0.184    0.324   85.607
  560.250  170.161   11.710    0.131    0.295   77.628
  560.500  170.212   19.554    0.031    0.231   72.425
  560.750  169.755   24.462    0.009    0.200   67.830
  561.000  169.800   29.211    0.041    0.150   61.391
  561.250  169.857   32.985    0.065    0.153   57.721
  561.500  169.901   32.091    0.088    0.194   63.608
  561.750  169.958   28.443    0.100    0.241   70.416
  562.000  170.522   19.241    0.116    0.272   76.300
  562.250  171.086   14.969    0.145    0.292   72.945
  562.500  171.650   13.517    0.149    0.310   76.981
  562.750  171.707   12.093    0.146    0.334   82.248
  563.000  171.751   11.126    0.141    0.332   84.743
  563.250  172.328   10.428    0.132    0.335   86.006
  563.500  172.366   10.145    0.142    0.334   89.429
  563.750  172.422   10.055    0.153    0.329   93.464
  564.000  172.993   10.060    0.158    0.327   97.191
  564.250  173.550   10.064    0.152    0.321  100.614
  564.500  174.634   10.068    0.136    0.311   99.416
  564.750  175.205   10.262    0.127    0.303  100.363
  565.000  173.937   11.191    0.116    0.279  101.869
  565.250  172.937   11.319    0.109    0.279  100.969
  565.500  172.935   11.440    0.099    0.290   95.875
  565.750  172.435   11.896    0.083    0.294   91.680
  566.000  171.934   12.368    0.080    0.290   88.683
  566.250  170.934   12.504    0.085    0.291   86.884
  566.500  170.433   12.418    0.094    0.295   84.786
  566.750  170.432   12.324    0.109    0.302   83.886
  567.000  169.431   11.793    0.126    0.313   84.485
  567.250  168.431   11.386    0.143    0.317   87.180
  567.500  167.431   11.093    0.127    0.311   93.472
  567.750  166.931   10.519    0.125    0.307  103.658
  568.000  166.430   10.152    0.136    0.321  104.256
  568.250  166.429    9.804    0.145    0.332  102.158
  568.500  166.427    9.641    0.142    0.325  102.157
  568.750  166.426    9.482    0.124    0.324  103.954
  569.000  166.924    9.328    0.127    0.328  104.852
  569.250  167.422    9.007    0.133    0.331  102.454
  569.500  167.920    8.700    0.140    0.331   97.360
  569.750  168.917    8.472    0.145    0.332   91.666
  570.000  170.413    8.107    0.149    0.332   91.366
  570.250  171.411    7.682    0.160    0.338   93.762
  570.500  171.410    7.216    0.179    0.345   98.255
  570.750  170.909    6.966    0.174    0.361  103.048
  571.000  168.910    6.853    0.177    0.371  105.444
  571.250  167.910    6.864    0.189    0.378  103.346
  571.500  167.409    7.136    0.187    0.370   95.555
  571.750  166.908    7.699    0.168    0.356   89.263
  572.000  167.406    8.308    0.167    0.330   88.663
  572.250  168.404    8.717    0.174    0.321   91.059
  572.500  169.401    8.819    0.179    0.321   93.155
  572.750  170.398    8.750    0.169    0.323   95.252
  573.000  171.395    8.852    0.163    0.326   96.749
  573.250  171.394    9.119    0.157    0.325   94.052
  573.500  171.392    9.655    0.149    0.317   86.860
  573.750  170.892   10.808    0.142    0.305   78.769
  574.000  170.391   12.675    0.013    0.268   70.379
  574.250  170.889   14.723    0.008    0.245   66.483
  574.500  171.886   17.587    0.020    0.222   66.183
  574.750  172.384   20.620    0.051    0.236   66.781
  575.000  172.383   22.045    0.074    0.259   67.680
  575.250  170.883   20.703    0.085    0.279   71.873
  575.500  169.883   18.393    0.066    0.282   79.063
  575.750  169.382   18.259    0.059    0.268   82.058
  576.000  168.882   19.521    0.068    0.273   73.069
  576.250  168.880   19.558    0.080    0.285   68.574
  576.500  168.380   18.031    0.100    0.298   70.671
  576.750  167.879   16.615    0.122    0.302   76.063
  577.000  165.880   14.491    0.156    0.285   82.953
  577.250  162.883   13.360    0.184    0.278   86.847
  577.500  159.885   12.431    0.197    0.297   89.543
  577.750  158.385   11.466    0.189    0.330   90.740
  578.000  157.885   11.168    0.194    0.347   90.740
  578.250  157.384   10.886    0.198    0.351   93.435
  578.500  156.883   10.608    0.195    0.346   95.232
  578.750  156.882   10.431    0.190    0.339   92.235
  579.000  156.880   10.074    0.181    0.329   88.639
  579.250  156.879    9.817    0.170    0.314   86.241
  579.500  157.377   10.491    0.103    0.285   85.341
  579.750  157.875   11.752    0.057    0.233   83.543
  580.000  160.370   12.443    0.063    0.232   76.052
  580.250  161.867   12.817    0.075    0.263   75.452
  580.500  163.364   12.961    0.077    0.313   79.046
  580.750  163.861   12.866    0.059    0.308   83.540
