~Version : LASO    vs 4.00
VERS.                2.00:   CWLS Log ASCII Standard -VERSION 2.0
WRAP.                  NO:
~Well Information Block
#MNEM.UNIT       Data                        Description of Mnemonic
#----.----      -------------------------- : -----------------------------
COMP.                                     : COMPANY
FLD .    WILDCAT                          : FIELD NAME
LOC .    02-32-090-08W4                   : WELL LOCATION
UWI .    AA/02-32-090-08W400              : UNIQUE WELL ID
STRT.M             0.0000:
STOP.M           201.3750:
STEP.M             0.1250:
NULL.           -999.2500:
COMP.  :COMPANY
WELL.  MOBIL CLARKE OV 2-32:WELL
FLD.   :FIELD
LOC.   :LOCATION
CTRY.  :COUNTRY
PROV.  ALBERTA:PROVINCE
SRVC.  DRESSER ATLAS:SERVICE COMPANY
DATE.  17-FEB-81:LOG DATE
UWI.   :UNIQUE WELL ID
~Parameter Information Block
#MNEM.UNIT       Data                        Description of Mnemonic
#----.----      -------------------------- : -----------------------------
RUN .                   1                 : Run Number
GL  .M           431.8000                 : Ground Level Elevation
DREF.                  KB                 : Depth Reference
EREF.M           431.8000                 : Elevation of Depth Reference
TDL .M           202.0000                 : Total Depth Logger
TDD .M           201.6000                 : Total Depth Driller
BHT .DEGC         20.0000                 : Bottom Hole Temperature
BS  .MM          159.0000                 : Bit Size
DFD .             10.3000                 : Mud Weight (Density)
DFV .             85.0000                 : Mud Viscosity
DFPH.             10.0000                 : Mud pH
RM  .OHMM          4.9000                 : Mud Resistivity
RMT .DEGC         20.0000                 : Mud Resistivity Temperature
RMF .OHMM          4.7000                 : Mud Filtrate Resistivity
RMFT.DEGC         10.0000                 : RMF Temperature
RMC .OHMM          9.5000                 : Mud Cake Resistivity
RMCT.DEGC         10.0000                 : RMC Temperature
~Curve Information Block
#MNEM.UNIT        API CODE    Curve Description
#---------    ------------    -------------------------------------------
DEPT.M                    :   DEPTH
CALI.MM       42 280  1  1:   3 DENSITY CALIPER
DPHI.V/V                  :   DPHI
DT  .US/M     60 520 42  1:   2 SONIC INTERVAL TRANSIT TIME (COMPENSATED)
GR  .GAPI     42 310  1  1:   4 GAMMA RAY
IL  .OHMM      5 120 45  1:   7 INDUCTION
NPHI.V/V      42 890  3  1:   5 NEUTRON POROSITY (SANDSTONE)
RHOB.K/M3     42 350  1  1:   6 BULK DENSITY
SFL .OHMM      5 220  6  1:   8 FOCUSSED RESISTIVITY
SP  .MV        5  10  1  1:   9 SPONTANEOUS POTENTIAL
~A  Depth           CALI        DPHI          DT          GR          IL        NPHI        RHOB         SFL          SP
# ...
83.7500         174.1750      0.3115    523.1600     77.1600      9.2050      0.3991   2119.3999     18.2300    -53.4800
83.8750         173.0000      0.3090    523.4400     78.1950      8.7750      0.4019   2121.8000     20.5600    -54.1000
84.0000         170.9250      0.3072    525.4000     77.3250      8.2850      0.3940   2128.3999     21.1100    -53.8600
84.1250         167.9000      0.3051    527.6000     79.0050      7.7950      0.3900   2135.6001     17.0650    -52.1100
84.2500         164.7500      0.3029    532.7600     78.6150      7.4250      0.4001   2147.3999     12.7150    -49.6200
84.3750         162.7750      0.2993    538.6400     80.0400      6.9950      0.3854   2152.3000     10.5700    -47.3800
84.5000         162.7750      0.2957    539.1200     80.1750      6.5700      0.3908   2149.0000     10.5100    -45.5100
84.6250         165.0000      0.2922    540.8400     78.1200      6.0750      0.3989   2153.8999     11.5500    -44.2600
84.7500         167.8250      0.2897    542.3200     78.8100      5.7100      0.4012   2164.8000     12.7750    -43.6400
84.8750         168.7000      0.2862    548.6800     81.8100      5.5250      0.3977   2183.8000     13.4500    -43.2700
85.0000         168.6750      0.2837    562.9200     84.7950      5.4650      0.3986   2182.1001     12.7750    -42.6500
85.1250         171.3250      0.2843    578.6400     84.9000      5.4000      0.4053   2175.3000     11.1200    -42.1500
85.2500         176.9500      0.2874    552.6400     85.2600      5.4650      0.4136   2165.6001     10.2650    -41.5200
85.3750         178.9750      0.2885    546.2400     86.9250      5.4650      0.4100   2158.8000     10.3250    -41.1500
85.5000         179.5750      0.2881    540.8400     88.3200      5.5250      0.4097   2154.6001     10.8150    -40.9000
85.6250         179.5500      0.2861    538.8800     86.9700      5.6450      0.3993   2152.7000     11.1200    -40.7800
85.7500         179.5500      0.2838    536.2000     87.8400      5.8300      0.3970   2162.3999     11.4300    -41.5200
85.8750         178.5250      0.2814    530.8000     87.6000      6.0750      0.4067   2168.8000     12.0400    -42.4000
86.0000         179.3250      0.2816    527.8400     88.5000      6.3200      0.4241   2173.8999     12.7750    -42.1500
86.1250         181.1500      0.2835    523.6801     85.3200      6.6300      0.4297   2169.3999     13.8200    -41.7700
86.2500         182.3250      0.2849    522.2000     87.6600      6.9950      0.4313   2162.2000     14.6150    -42.6500
86.3750         183.4500      0.2844    520.4800     89.1600      7.4900      0.4269   2158.1001     14.0650    -43.6400
86.5000         180.8250      0.2825    520.2400     89.3550      8.0400      0.4192   2167.5000     12.8400    -42.1500
86.6250         178.5500      0.2811    521.4400     86.3550      8.4100      0.4229   2178.1001     11.9800    -41.5200
86.7500         177.4250      0.2798    521.9600     85.8900      8.9000      0.4126   2173.7000     12.9000    -41.9000
86.8750         176.4250      0.2810    519.0000     86.2800      9.3300      0.4146   2173.7000     15.7150    -43.3900
87.0000         175.4750      0.2828    521.2000     87.0150      9.8200      0.4232   2177.1001     17.8000    -44.7600
87.1250         180.0000      0.2852    521.9600     86.1900     10.3100      0.4261   2155.3000     15.7800    -45.2600
87.2500         182.4750      0.2901    520.7200     85.5900     10.7400      0.4061   2150.3000     13.8200    -44.7600
87.3750         182.3500      0.2937    521.9600     87.5400     11.1700      0.4040   2143.6001     14.7350    -44.8900
87.5000         181.1000      0.2998    522.2000     87.5700     11.3550      0.4054   2141.3000     17.8600    -45.6300
87.6250         179.3250      0.3023    522.9200     84.2250     11.4150      0.4012   2142.8999     20.1300    -47.0000
87.7500         178.6250      0.3059    523.1600     81.5550     11.2900      0.3930   2143.3999     17.9850    -47.7500
87.8750         179.0000      0.3059    518.2800     79.9350     10.9850      0.3897   2141.5000     14.9800    -47.3800
88.0000         179.2750      0.3025    514.8400     81.4500     10.4950      0.3992   2138.2000     14.9800    -46.7600
88.1250         178.7500      0.3000    511.6400     82.6500      9.9400      0.4076   2138.0000     16.6350    -46.2600
88.2500         177.9750      0.2955    512.3600     85.0500      9.2650      0.4013   2141.3999     17.2500    -45.7600
88.3750         177.2250      0.2898    517.5200     84.9150      8.5900      0.3924   2147.0000     13.7550    -44.3900
88.5000         177.2250      0.2850    520.0000     84.2100      7.9800      0.3897   2188.3000     11.3050    -42.6500
88.6250         180.2750      0.2783    520.0000     86.2800      7.2450      0.3953   2193.1001     11.0600    -41.6500
88.7500         183.8750      0.2750    517.0400     87.4950      6.6300      0.3961   2188.6001     12.0400    -40.9000
88.8750         185.5250      0.2769    532.7600     88.0350      6.0150      0.3908   2186.0000     12.5900    -40.4000
89.0000         186.9250      0.2811    544.7600     86.7900      5.5850      0.3977   2184.8000     12.2250    -40.4000
89.1250         187.1000      0.2830    528.5600     85.5450      5.1550      0.4126   2171.8000     11.0000    -40.7800
89.2500         182.2500      0.2862    530.5200     86.4000      4.8500      0.4246   2165.0000     10.0800    -40.9000
89.3750         177.1500      0.2897    540.1200     88.9500      4.6050      0.4208   2158.2000      9.3450    -41.1500
89.5000         178.1000      0.2924    541.3200     97.2300      4.3000      0.4126   2156.2000      9.1000    -41.2700
89.6250         173.9500      0.2949    542.5600     98.7750      4.1150      0.4138   2154.6001      9.0400    -41.1500
89.7500         173.5000      0.2973    543.2800     98.3850      3.8700      0.4122   2156.6001      9.2200    -41.0300
89.8750         176.3000      0.2971    541.0800     99.7350      3.6850      0.4133   2156.3000      9.4050    -41.0300
90.0000         176.1250      0.2978    541.0800    104.4900      3.6250      0.4145   2151.3999      9.5300    -41.1500
90.1250         173.6750      0.2998    540.8400    104.0850      3.5000      0.4290   2148.0000      9.3450    -41.2700
90.2500         170.6000      0.3029    541.3200    102.9150      3.3750      0.4507   2146.8000      9.1600    -41.2700
90.3750         169.0250      0.3055    541.0800    101.5650      3.3150      0.4553   2147.7000      9.1000    -41.6500
90.5000         166.4500      0.3114    542.5600    100.7700      3.2550      0.4646   2130.1001      9.1600    -41.7700
90.6250         170.1750      0.3140    545.2800    100.6350      3.1300      0.4748   2122.5000      9.1000    -41.7700
90.7500         175.5500      0.3156    543.2800    103.1100      3.0700      0.4647   2119.3999      9.0400    -41.5200
90.8750         177.9250      0.3160    551.8800    101.0400      3.0100      0.4549   2117.8000      9.1000    -41.1500
91.0000         173.5000      0.3164    554.0800    100.1100      2.9500      0.4394   2131.2000      9.0400    -41.1500
91.1250         171.1500      0.3163    556.0400     99.5850      2.9500      0.4400   2115.8999      8.8550    -40.7800
91.2500         169.9250      0.3163    557.5200     96.4200      2.8850      0.4415   2110.6001      8.5500    -40.5300
91.3750         172.6500      0.3151    558.5200     96.8400      2.8850      0.4321   2112.8000      8.4250    -40.5300
91.5000         178.5000      0.3117    559.7200    100.9650      2.8850      0.4296   2116.1001      8.4250    -40.7800
91.6250         182.6250      0.3092    562.2000    104.2800      2.9500      0.4190   2119.3000      8.6700    -40.9000
91.7500         185.9500      0.3089    574.4800    106.3800      3.0100      0.4201   2122.5000      8.6100    -40.7800
91.8750         182.8000      0.3099    547.9600    105.8250      3.1300      0.4258   2125.8000      8.5500    -40.5300
92.0000         182.8000      0.3090    544.7600    105.7800      3.2550      0.4118   2129.0000      8.4850    -40.4000
