~VERSION INFORMATION
 VERS.                 2.0:   CWLS LOG ASCII STANDARD -VERSION 2.0
 WRAP.                  NO:   ONE LINE PER DEPTH STEP
~WELL INFORMATION BLOCK
#MNEM.UNIT           DATA                    DESCRIPTION OF MNEMONIC
#---------    -------------------            -------------------------------
# Generated from Intellog Unique Number	CX_WELLS/WELL/2909
WELL.         GULF                           : Well_name    - WELL
LOC .         AA/06-08-082-09W4/0            : Location     - LOCATION
UWI .         AA/06-08-082-09W400            : Uwi          - UNIQUE WELL ID
ENTR.         T                              : Entered      - ENTERED BY
SRVC.         SCHLUMBERGER                   : Scn          - SERVICE COMPANY
STRT.F        900                            : top_depth    - START DEPTH
STOP.F        1599.64                        : bot_depth    - STOP DEPTH
STEP.F        0.82                           : increment    - STEP LENGTH
 NULL. -999.2500:NULL Value
~CURVE INFORMATION BLOCK
#MNEM UNIT       ERCB CURVE CODE    CURVE DESCRIPTION
#-----------   ------------------   ----------------------------------
DEPT.F        00 001 00 00         : DEPTH        - DEPTH
GR  .API      00 310 00 00         : GR           - GAMMA RAY
NPHI.V/V      00 330 00 00         : PHIN         - NEUTRON POROSITY (SANDSTONE)
DPHI.V/V      00 890 00 00         : PHID         - DENSITY POROSITY (SANDSTONE)
ILD .OHMM     00 120 00 00         : RESD         - DEEP RESISTIVITY (OTHER)
~PARAMETER INFORMATION
#MNEM.UNIT           DATA             DESCRIPTION OF MNEMONIC
#---------         -----------     ------------------------------
GL  .F        2322                 : gl           - GROUND LEVEL ELEVATION
EREF.F        2335                 : kb           - ELEVATION OF DEPTH REFERENCE
DATM.F        2335                 : datum        - DATUM ELEVATION
TDD .F        1625                 : tdd          - TOTAL DEPTH DRILLER
RUN .         ONE                  : Run          - RUN NUMBER
ENG .         BILL                 : Engineer     - RECORDING ENGINEER
WIT .         JIM                  : Witness      - WITNESSED BY
MUD .         GEL                  : Mud_type     - MUD TYPE
MATR.         SANDSTONE            : Logunit      - NEUTRON MATRIX
TMAX.F        73                   : BHT          - MAXIMUM RECORDED TEMPERATURE
BHTD.F        1625                 : BHTDEP       - MAXIMUM RECORDED TEMPERATURE
MATR.         1                    : LOGUNIT      - NEUTRON MATRIX
RMT .F        68                   : MDTP         - TEMPERATURE OF MUD
NEUT.         1                    : NEUTRON      - NEUTRON TYPE
RESI.         8.52                 : RESIST       - RESISTIVITY TYPE
RMC .OHMM     7.76                 : RMC          - RESISTIVITY OF MUD CAKE
RMF .OHMM     7.76                 : RMF          - RESISTIVITY OF MUD FILTRATE
SUFT.F        37.4                 : SUFT         - SURFACE TEMPERATURE
~A  DEPTH       GR     PHIN     PHID     RESD
# ...
 1470.870  100.008    0.456    0.224   10.194
 1471.690   96.943    0.462    0.229    9.664
 1472.510   90.805    0.458    0.231    9.895
 1473.330   85.282    0.431    0.229   10.292
 1474.150   84.683    0.421    0.225   11.803
 1474.970   85.307    0.418    0.224   13.003
 1475.790   87.783    0.417    0.222   15.473
 1476.610   81.030    0.418    0.223   18.397
 1477.430   69.972    0.424    0.232   23.168
 1478.250   61.374    0.430    0.242   27.053
 1479.070   54.622    0.434    0.272   32.780
 1479.890   46.024    0.423    0.285   41.280
 1480.710   35.581    0.399    0.304   49.083
 1481.530   31.907    0.392    0.308   64.190
 1482.350   31.922    0.389    0.307   73.494
 1483.170   33.158    0.393    0.304   84.214
 1483.990   36.249    0.400    0.298   92.848
 1484.810   41.182    0.407    0.280  108.505
 1485.630   52.264    0.434    0.267   90.050
 1486.450   55.967    0.442    0.254   76.158
 1487.270   60.899    0.417    0.247   56.479
 1488.090   68.298    0.393    0.233   43.463
 1488.910   70.767    0.385    0.224   34.111
 1489.730   70.780    0.375    0.210   28.332
 1490.550   71.407    0.370    0.214   24.457
 1491.370   71.426    0.395    0.224   23.607
 1492.190   72.047    0.418    0.238   23.257
 1493.010   72.066    0.423    0.250   23.757
 1493.830   72.690    0.443    0.267   26.214
 1494.650   72.702    0.454    0.285   29.452
 1495.470   72.721    0.461    0.299   33.090
 1496.290   72.730    0.468    0.312   39.376
 1497.110   72.740    0.467    0.323   45.084
 1497.930   73.370    0.466    0.328   49.706
 1498.750   74.004    0.463    0.327   55.935
 1499.570   74.625    0.462    0.317   53.991
 1500.390   76.486    0.460    0.318   48.361
 1501.210   79.570    0.457    0.325   42.509
 1502.030   82.045    0.453    0.323   35.307
 1502.850   80.831    0.449    0.295   31.009
 1503.670   79.613    0.442    0.271   26.747
 1504.490   79.008    0.433    0.264   21.392
 1505.310   79.023    0.428    0.251   19.161
 1506.140   80.266    0.427    0.254   17.505
 1506.960   80.893    0.400    0.262   17.546
 1507.780   81.527    0.421    0.271   17.952
 1508.600   80.921    0.422    0.277   17.995
 1509.420   79.088    0.416    0.271   18.762
 1510.240   76.029    0.404    0.264   18.807
 1511.060   74.805    0.397    0.265   19.640
 1511.880   72.357    0.404    0.271   20.046
 1512.700   69.295    0.414    0.290   21.316
 1513.520   65.617    0.419    0.293   21.757
 1514.340   63.173    0.420    0.295   23.576
 1515.160   61.346    0.417    0.290   25.030
 1515.980   60.737    0.413    0.281   25.568
 1516.800   60.753    0.391    0.275   22.474
 1517.620   61.380    0.390    0.272   18.317
 1518.440   62.620    0.387    0.269   16.100
 1519.260   66.328    0.385    0.258   14.720
 1520.080   70.028    0.395    0.250   14.468
 1520.900   75.575    0.414    0.244   13.987
 1521.720   81.738    0.420    0.234   13.758
 1522.540   81.135    0.429    0.229   13.052
 1523.360   79.306    0.423    0.223   12.839
 1524.180   78.091    0.405    0.217   12.412
 1525.000   77.485    0.404    0.208   11.990
 1525.820   76.889    0.411    0.200   11.804
 1526.640   76.898    0.436    0.211   12.086
 1527.460   77.529    0.445    0.229   12.105
 1528.280   78.150    0.451    0.238   12.386
 1529.100   80.626    0.448    0.242   12.415
 1529.920   83.716    0.441    0.235   12.241
 1530.740   87.422    0.436    0.230   11.595
 1531.560   88.658    0.436    0.224   10.982
 1532.380   89.900    0.436    0.224   10.224
 1533.200   89.916    0.435    0.229   10.057
 1534.020   89.313    0.429    0.233    9.723
 1534.840   89.326    0.423    0.232    9.754
 1535.660   89.348    0.425    0.227    9.785
 1536.480   89.357    0.431    0.220    9.640
 1537.300   89.363    0.436    0.201    9.663
 1538.120   89.376    0.441    0.195    9.702
 1538.940   89.394    0.444    0.190    9.733
 1539.760   88.177    0.450    0.186    9.764
 1540.580   85.729    0.453    0.215    9.803
 1541.400   82.048    0.460    0.238   10.013
 1542.220   78.371    0.465    0.242   10.045
 1543.040   74.078    0.470    0.247   10.473
 1543.860   69.785    0.470    0.262   10.707
 1544.690   61.188    0.453    0.287   11.584
 1545.510   66.738    0.427    0.288   12.308
 1546.330   75.361    0.437    0.265   11.890
 1547.150   80.908    0.459    0.253   11.695
 1547.970   78.460    0.451    0.240   11.298
 1548.790   77.858    0.442    0.227   11.122
 1549.610   78.485    0.444    0.252   11.166
 1550.430   79.731    0.449    0.258   11.220
 1551.250   79.743    0.454    0.253   11.237
 1552.070   79.756    0.444    0.251   11.497
 1552.890   79.153    0.433    0.254   11.534
 1553.710   76.094    0.434    0.259   11.791
 1554.530   74.258    0.438    0.270   12.294
 1555.350   69.975    0.444    0.274   12.558
 1556.170   68.136    0.450    0.281   13.094
 1556.990   65.073    0.451    0.292   13.641
 1557.810   63.855    0.449    0.284   13.684
 1558.630   63.868    0.446    0.261   13.482
 1559.450   66.955    0.449    0.258   13.514
 1560.270   70.658    0.456    0.261   13.304
 1561.090   66.986    0.459    0.269   13.097
 1561.910   65.151    0.465    0.275   13.149
 1562.730   60.861    0.469    0.281   14.226
 1563.550   57.180    0.469    0.290   15.684
 1564.370   51.658    0.453    0.303   17.621
 1565.190   46.750    0.435    0.300   20.576
 1566.010   52.298    0.461    0.288   21.845
 1566.830   63.383    0.465    0.280   19.941
 1567.650   64.011    0.468    0.276   17.861
 1568.470   58.488    0.452    0.279   16.012
 1569.290   52.350    0.448    0.288   15.455
 1570.110   47.443    0.442    0.297   14.942
 1570.930   41.920    0.436    0.304   15.566
 1571.750   42.547    0.430    0.315   16.526
 1572.570   43.184    0.426    0.322   17.880
 1573.390   41.345    0.422    0.327   19.728
 1574.210   40.128    0.422    0.327   20.152
 1575.030   39.525    0.421    0.325   18.051
 1575.850   37.696    0.413    0.319   15.867
 1576.670   41.395    0.403    0.316   13.697
 1577.490   46.331    0.404    0.313   12.029
 1578.310   51.266    0.404    0.308   10.981
 1579.130   54.351    0.405    0.298    9.471
 1579.950   59.901    0.405    0.280    8.971
 1580.770   63.601    0.404    0.262    8.845
 1581.590   64.843    0.403    0.248    9.050
 1582.410   60.557    0.403    0.234    9.064
 1583.230   53.186    0.402    0.160    9.274
 1584.060   39.056    0.386    0.124    9.481
 1584.880   33.530    0.326    0.078    9.877
 1585.700   29.241    0.269    0.027   10.694
 1586.520   28.638    0.226   -0.007   11.345
 1587.340   28.651    0.172    0.000   13.258
 1588.160   28.045    0.152    0.011   15.180
 1588.980   26.222    0.145    0.016   18.049
 1589.800   26.228    0.138    0.016   24.960
 1590.620   25.625    0.135    0.016   42.587
 1591.440   25.641    0.131    0.015   48.721
 1592.260   27.501    0.141    0.015   54.784
 1593.080   28.738    0.153    0.013   57.074
 1593.900   32.440    0.156    0.015   57.256
 1594.720   36.145    0.165    0.016   57.484
 1595.540   36.161    0.168    0.018   55.574
 1596.360   36.177    0.175    0.020   54.665
 1597.180   36.186    0.184    0.022   53.900
 1598.000   36.195    0.193    0.022   53.986
 1598.820   34.981    0.199    0.023   54.201
 1599.640   28.231    0.203    0.025   54.374
