~VERSION INFORMATION
 VERS.                 2.0:   CWLS LOG ASCII STANDARD -VERSION 2.0
 WRAP.                  NO:   ONE LINE PER DEPTH STEP
~WELL INFORMATION BLOCK
#MNEM.UNIT           DATA                    DESCRIPTION OF MNEMONIC
#---------    -------------------            -------------------------------
# Generated from Intellog Unique Number	CC_84_87/WELL/1171
NULL.         -999.25                        : NULL_VALUE
WELL.         ARCO ACI McMURRAY              : Well_name    - WELL              
LOC .         08-11-084-12W4                 : Location     - LOCATION          
UWI .         AA/08-11-084-12W400            : Uwi          - UNIQUE WELL ID    
ENTR.         RJA                            : Entered      - ENTERED BY        
SRVC.         SCHLUMBERGER                   : Scn          - SERVICE COMPANY   
DATE.         20 FEB 74                      : Date         - LOG DATE
STRT.M        91.44                          : top_depth    - START DEPTH       
STOP.M        321.259                        : bot_depth    - STOP DEPTH        
STEP.M        0.3048                         : increment    - STEP LENGTH       
~CURVE INFORMATION BLOCK
#MNEM UNIT       ERCB CURVE CODE    CURVE DESCRIPTION
#-----------   ------------------   ----------------------------------
DEPT.M        00 001 00 00         : DEPTH        - DEPTH                       
DPHI.V/V      00 890 00 00         : PHID         - DENSITY POROSITY (LIMESTONE)
GR  .API      00 310 00 00         : GR           - GAMMA RAY                   
NPHI.V/V      00 330 00 00         : PHIN         - NEUTRON POROSITY (LIMESTONE)
ILD .OHMM     00 120 00 00         : RESD         - DEEP RESISTIVITY (DIL)      
~PARAMETER INFORMATION       
#MNEM.UNIT           DATA             DESCRIPTION OF MNEMONIC
#---------         -----------     ------------------------------
GL  .M        567.69               : gl           - GROUND LEVEL ELEVATION      
EREF.M        569.366              : kb           - ELEVATION OF DEPTH REFERENCE
DATM.M        569.366              : datum        - DATUM ELEVATION             
TDD .M        321.564              : tdd          - TOTAL DEPTH DRILLER         
RUN .         ONE                  : Run          - RUN NUMBER                  
ENG .         BILL                 : Engineer     - RECORDING ENGINEER          
WIT .         JIM                  : Witness      - WITNESSED BY                
MUD .         GEL                  : Mud_type     - MUD TYPE                    
MATR.         LIMESTONE            : Logunit      - NEUTRON MATRIX              
TMAX.C        21.1111              : BHT          - MAXIMUM RECORDED TEMPERATURE
BHTD.M        321.564              : BHTDEP       - MAXIMUM RECORDED TEMPERATURE
MATR.         1                    : LOGUNIT      - NEUTRON MATRIX              
RMT .C        25                   : MDTP         - TEMPERATURE OF MUD          
NEUT.         0                    : NEUTRON      - NEUTRON TYPE                
RESI.         0                    : RESIST       - RESISTIVITY TYPE            
RMC .OHMM     0.25                 : RMC          - RESISTIVITY OF MUD CAKE     
RMF .OHMM     0.25                 : RMF          - RESISTIVITY OF MUD FILTRATE 
SUFT.C        4                    : SUFT         - SURFACE TEMPERATURE         
~A  DEPTH     PHID       GR     PHIN     RESD
# ...
  250.544    0.296  114.937    0.438    9.234
  250.848    0.321  110.338    0.384    9.161
  251.153    0.336  108.276    0.368    9.123
  251.458    0.320  108.834    0.355    9.320
  251.763    0.249  108.731    0.368    9.470
  252.068    0.249  113.197    0.385    9.550
  252.372    0.260  113.395    0.375    9.564
  252.677    0.266  111.283    0.368    9.596
  252.982    0.253  107.037    0.385    9.434
  253.287    0.234  104.976    0.420    8.959
  253.591    0.245  106.777    0.429    7.564
  253.896    0.284  109.224    0.405    6.774
  254.201    0.318  116.480    0.398    5.935
  254.506    0.302  122.547    0.440    4.523
  254.811    0.302  127.369    0.458    3.615
  255.115    0.316  129.524    0.419    3.407
  255.420    0.312  124.621    0.396    4.098
  255.725    0.286  118.414    0.388    5.057
  256.030    0.329  112.742    0.373    6.689
  256.335    0.345  106.833    0.353    8.703
  256.639    0.190  110.237    0.341    9.568
  256.944    0.232  110.196    0.324   10.252
  257.249    0.229  108.260    0.326   10.552
  257.554    0.202  108.752    0.343   10.683
  257.859    0.225  114.522    0.350   10.407
  258.164    0.248  117.625    0.351   10.138
  258.468    0.241  113.556    0.365   10.041
  258.773    0.236  108.652    0.368    9.871
  259.078    0.256  106.007    0.390    9.510
  259.383    0.283  103.653    0.425    9.420
  259.688    0.302  102.546    0.436    9.381
  259.992    0.318  111.166    0.417    9.273
  260.297    0.308  116.284    0.380    9.134
  260.602    0.229  118.499    0.397    8.850
  260.907    0.243  122.549    0.404    8.160
  261.212    0.269  115.275    0.424    6.583
  261.516    0.279  110.967    0.505    5.026
  261.821    0.303  100.372    0.533    3.619
  262.126    0.320   92.448    0.432    3.381
  262.431    0.278   87.606    0.379    3.792
  262.736    0.275   86.617    0.346    4.943
  263.040    0.294   91.916    0.367    6.539
  263.345    0.286   92.171    0.378    8.446
  263.650    0.257   96.461    0.402    8.319
  263.955    0.275  103.359    0.425    6.748
  264.260    0.272  109.070    0.413    5.354
  264.565    0.266  110.455    0.413    4.955
  264.869    0.274  106.085    0.373    4.679
  265.174    0.262  107.586    0.335    4.781
  265.479    0.252  105.649    0.325    5.728
  265.784    0.248  108.103    0.355    6.533
  266.089    0.263  112.628    0.383    6.898
  266.393    0.314  121.065    0.429    5.364
  266.698    0.315  119.723    0.474    4.149
  267.003    0.297  118.673    0.484    3.595
  267.308    0.306  122.786    0.434    3.476
  267.613    0.263  123.101    0.401    3.671
  267.917    0.244  124.899    0.430    4.141
  268.222    0.263  120.591    0.447    4.478
  268.527    0.259  126.246    0.418    4.754
  268.832    0.250  123.774    0.396    4.830
  269.137    0.236  117.094    0.405    4.819
  269.441    0.218  123.757    0.421    4.687
  269.746    0.216  122.294    0.448    4.377
  270.051    0.262  116.975    0.452    3.912
  270.356    0.294  126.423    0.468    3.756
  270.661    0.332  130.592    0.487    3.740
  270.966    0.291  128.182    0.439    4.104
  271.270    0.241   99.149    0.328    5.360
  271.575    0.268  102.607    0.293    7.436
  271.880    0.236  103.990    0.298    8.764
  272.185    0.236   99.921    0.353    9.087
  272.490    0.289   96.562    0.397    8.348
  272.794    0.287   94.860    0.428    7.544
  273.099    0.332   93.990    0.404    7.652
  273.404    0.304   90.867    0.447    8.678
  273.709    0.349   82.765    0.393   10.247
  274.014    0.332   76.204    0.322   13.679
  274.318    0.290   84.461    0.296   16.399
  274.623    0.279   92.013    0.290   14.950
  274.928    0.269   90.607    0.298   14.165
  275.233    0.282   77.053    0.292   13.822
  275.538    0.299   75.162    0.297   13.912
  275.842    0.296   79.317    0.290   13.930
  276.147    0.283   93.502    0.306   13.919
  276.452    0.280  108.235    0.307   13.808
  276.757    0.252  120.874    0.318   13.621
  277.062    0.254  122.029    0.317   13.761
  277.367    0.276  125.819    0.330   13.778
  277.671    0.266  132.538    0.337   13.369
  277.976    0.243  134.952    0.331   13.191
  278.281    0.239  131.033    0.312   13.473
  278.586    0.256  112.346    0.278   14.733
  278.891    0.275   84.813    0.255   20.636
  279.195    0.268   80.232    0.266   29.224
  279.500    0.305   80.254    0.273   35.342
  279.805    0.335   72.567    0.266   36.711
  280.110    0.324   73.246    0.279   33.836
  280.415    0.300   84.927    0.293   28.558
  280.719    0.276   99.765    0.285   21.741
  281.024    0.255  110.020    0.271   20.685
  281.329    0.244  119.067    0.288   17.651
  281.634    0.238  119.033    0.320   15.599
  281.939    0.216  110.211    0.345   13.986
  282.243    0.251   95.225    0.327   13.596
  282.548    0.318   91.846    0.329   13.841
  282.853    0.322   93.898    0.321   14.693
  283.158    0.289   94.341    0.303   15.289
  283.463    0.251   89.997    0.273   16.112
  283.768    0.233   81.233    0.256   18.107
  284.072    0.218   67.452    0.249   20.498
  284.377    0.194   79.671    0.276   22.008
  284.682    0.265   85.312    0.302   23.930
  284.987    0.285   85.991    0.314   26.258
  285.292    0.312   77.172    0.327   26.972
  285.596    0.312   71.397    0.305   24.009
  285.901    0.276   96.287    0.295   20.488
  286.206    0.233  113.044    0.316   18.240
  286.511    0.223  104.104    0.323   16.147
  286.816    0.266   96.236    0.312   15.900
  287.120    0.285  100.741    0.322   17.837
  287.425    0.294  100.285    0.335   22.175
  287.730    0.304  105.212    0.324   25.476
  288.035    0.307  125.620    0.315   24.360
  288.340    0.272  157.504    0.311   21.805
  288.644    0.242  172.948    0.323   18.404
  288.949    0.234  159.523    0.309   17.154
  289.254    0.212  144.298    0.289   17.913
  289.559    0.204  133.565    0.280   20.240
  289.864    0.221  120.379    0.301   20.869
  290.169    0.238  147.182    0.310   20.326
  290.473    0.263  159.278    0.306   18.732
  290.778    0.237  160.022    0.306   18.382
  291.083    0.234  145.400    0.308   19.694
  291.388    0.281   97.478    0.330   24.396
  291.693    0.318   82.981    0.340   32.699
  291.997    0.331   97.521    0.348   45.715
  292.302    0.319  110.099    0.336   51.101
  292.607    0.318  116.822    0.324   51.247
  292.912    0.316   73.329    0.338   56.759
  293.217    0.325   66.061    0.353   64.018
  293.521    0.334   67.038    0.323   71.297
  293.826    0.331   93.186    0.311   79.680
  294.131    0.308  142.285    0.322   78.905
  294.436    0.282  162.391    0.307   42.089
  294.741    0.255  161.518    0.283   26.632
  295.045    0.232  144.687    0.291   21.985
  295.350    0.251  127.191    0.328   20.720
  295.655    0.263  143.538    0.336   19.451
  295.960    0.244  152.823    0.329   18.530
  296.265    0.257  156.431    0.321   18.384
  296.570    0.273  150.654    0.310   17.840
  296.874    0.269  128.327    0.328   17.057
  297.179    0.279   85.671    0.358   17.619
  297.484    0.310   71.760    0.355   23.060
  297.789    0.331   78.063    0.332   31.885
  298.094    0.343   78.147    0.339   42.900
  298.398    0.325   82.355    0.343   52.459
  298.703    0.307   83.569    0.341   36.380
  299.008    0.298   75.648    0.350   33.537
  299.313    0.311   64.008    0.363   40.629
  299.618    0.326   57.936    0.359   53.476
  299.922    0.344   58.378    0.341   71.148
  300.227    0.360   69.214    0.342   88.126
  300.532    0.363   76.778    0.366  102.188
  300.837    0.354   72.202    0.356  104.199
  301.142    0.356   62.357    0.357   92.415
  301.446    0.351   68.772    0.365   67.213
  301.751    0.332   73.228    0.375   57.900
  302.056    0.324   72.470    0.375   44.172
  302.361    0.335   60.661    0.362   58.556
  302.666    0.334   52.915    0.342   69.791
  302.971    0.360   59.749    0.332   77.015
  303.275    0.354   71.903    0.337   72.439
