~VERSION INFORMATION
 VERS.                 2.0:   CWLS LOG ASCII STANDARD -VERSION 2.0
 WRAP.                  NO:   ONE LINE PER DEPTH STEP
~WELL INFORMATION BLOCK
#MNEM.UNIT           DATA                    DESCRIPTION OF MNEMONIC
#---------    -------------------            -------------------------------
# Generated from Intellog Unique Number	CC_84_87/WELL/1068
NULL.         -999.25                        : NULL_VALUE
WELL.         COSEKA TOTAL #4                : Well_name    - WELL              
LOC .         06-13-087-07W4                 : Location     - LOCATION          
UWI .         AA/06-13-087-07W400            : Uwi          - UNIQUE WELL ID    
ENTR.         RJA                            : Entered      - ENTERED BY        
SRVC.         SCHLUMBERGER                   : Scn          - SERVICE COMPANY   
DATE.         03 FEB 81                      : Date         - LOG DATE
STRT.M        40                             : top_depth    - START DEPTH       
STOP.M        178.001                        : bot_depth    - STOP DEPTH        
STEP.M        0.3                            : increment    - STEP LENGTH       
~CURVE INFORMATION BLOCK
#MNEM UNIT       ERCB CURVE CODE    CURVE DESCRIPTION
#-----------   ------------------   ----------------------------------
DEPT.M        00 001 00 00         : DEPTH        - DEPTH                       
DPHI.V/V      00 890 00 00         : PHID         - DENSITY POROSITY (LIMESTONE)
NPHI.V/V      00 330 00 00         : PHIN         - NEUTRON POROSITY (LIMESTONE)
GR  .API      00 310 00 00         : GR           - GAMMA RAY                   
ILD .OHMM     00 120 00 00         : RESD         - DEEP RESISTIVITY (DIL)      
~PARAMETER INFORMATION       
#MNEM.UNIT           DATA             DESCRIPTION OF MNEMONIC
#---------         -----------     ------------------------------
GL  .M        436.85               : gl           - GROUND LEVEL ELEVATION      
EREF.M        438.38               : kb           - ELEVATION OF DEPTH REFERENCE
DATM.M        438.38               : datum        - DATUM ELEVATION             
TDD .M        185                  : tdd          - TOTAL DEPTH DRILLER         
RUN .         ONE                  : Run          - RUN NUMBER                  
ENG .         BILL                 : Engineer     - RECORDING ENGINEER          
WIT .         JIM                  : Witness      - WITNESSED BY                
MUD .         GEL                  : Mud_type     - MUD TYPE                    
MATR.         LIMESTONE            : Logunit      - NEUTRON MATRIX              
TMAX.C        15                   : BHT          - MAXIMUM RECORDED TEMPERATURE
BHTD.M        185                  : BHTDEP       - MAXIMUM RECORDED TEMPERATURE
MATR.         1                    : LOGUNIT      - NEUTRON MATRIX              
RMT .C        25                   : MDTP         - TEMPERATURE OF MUD          
NEUT.         1                    : NEUTRON      - NEUTRON TYPE                
RESI.         0                    : RESIST       - RESISTIVITY TYPE            
RMC .OHMM     0.25                 : RMC          - RESISTIVITY OF MUD CAKE     
RMF .OHMM     0.25                 : RMF          - RESISTIVITY OF MUD FILTRATE 
SUFT.C        4                    : SUFT         - SURFACE TEMPERATURE         
~A  DEPTH     PHID     PHIN       GR     RESD
   40.000    0.292    0.466   74.068   33.466
   40.300    0.212    0.411   67.893   23.260
   40.600    0.187    0.333   64.198   19.567
   40.900    0.189    0.343   62.364   21.512
   41.200    0.177    0.341   64.901   30.901
   41.500    0.182    0.341   67.426   20.279
   41.800    0.212    0.351   69.332   16.740
   42.100    0.210    0.380   68.141   15.497
   42.400    0.288    0.436   64.435   18.040
   42.700    0.405    0.520   57.005   19.833
   43.000    0.403    0.500   54.559   18.709
   43.300    0.328    0.503   59.594   17.656
   43.600    0.326    0.498   63.981   16.980
   43.900    0.315    0.450   68.991   16.019
   44.200    0.250    0.421   70.280   15.701
   44.500    0.242    0.414   67.835   15.993
   44.800    0.236    0.445   66.640   16.922
   45.100    0.239    0.460   66.683   18.964
   45.400    0.290    0.450   64.850   18.587
   45.700    0.394    0.448   59.287   15.639
   46.000    0.475    0.463   56.204   14.753
   46.300    0.541    0.454   62.480   11.722
   46.600    0.296    0.421   67.495    8.795
   46.900    0.238    0.418   68.163    7.259
   47.200    0.225    0.452   68.196    6.225
   47.500    0.264    0.521   77.574    5.874
   47.800    0.284    0.564   83.846    5.649
   48.100    0.293    0.615   85.122    5.643
   48.400    0.278    0.583   82.063    5.858
   48.700    0.288    0.585   82.721    6.081
   49.000    0.297    0.604   84.004    5.963
   49.300    0.286    0.572   82.802    5.112
   49.600    0.268    0.570   84.079    4.733
   49.900    0.280    0.573   85.988    4.466
   50.200    0.288    0.544   86.034    5.504
   50.500    0.279    0.540   85.444    6.052
   50.800    0.279    0.533   84.243    5.933
   51.100    0.275    0.538   85.533    4.713
   51.400    0.261    0.577   87.433    4.447
   51.700    0.251    0.604   88.100    4.359
   52.000    0.255    0.616   86.891    4.440
   52.300    0.269    0.609   88.818    4.789
   52.600    0.281    0.606   88.225    4.693
   52.900    0.291    0.580   86.403    5.259
   53.200    0.267    0.563   87.061    5.893
   53.500    0.273    0.590   85.853    6.477
   53.800    0.289    0.613   80.916    6.727
   54.100    0.286    0.532   77.842    6.983
   54.400    0.278    0.534   77.278    6.588
   54.700    0.279    0.547   77.307    6.335
   55.000    0.273    0.566   79.210    6.093
   55.300    0.274    0.562   81.738    5.326
   55.600    0.264    0.531   81.162    4.312
   55.900    0.270    0.526   79.328    3.769
   56.200    0.301    0.519   78.136    3.424
   56.500    0.331    0.565   81.913    3.169
   56.800    0.343    0.594   83.805    3.107
   57.100    0.317    0.601   83.845    3.104
   57.400    0.312    0.615   82.020    3.161
   57.700    0.331    0.633   84.556    3.345
   58.000    0.318    0.646   85.221    3.820
   58.300    0.307    0.651   84.015    4.710
   58.600    0.334    0.613   81.565    6.767
   58.900    0.301    0.590   77.874    9.904
   59.200    0.269    0.566   75.421   10.285
   59.500    0.305    0.540   72.351    8.820
   59.800    0.268    0.507   69.280    7.561
   60.100    0.249    0.470   67.452    7.273
   60.400    0.227    0.487   69.356    7.844
   60.700    0.274    0.508   72.513    9.131
   61.000    0.297    0.496   73.799   10.431
   61.300    0.322    0.468   71.348   12.144
   61.600    0.322    0.495   66.413   10.817
   61.900    0.292    0.516   63.965    8.594
   62.200    0.280    0.525   65.864    6.960
   62.500    0.282    0.474   77.726    5.856
   62.800    0.256    0.511   87.110    5.218
   63.100    0.263    0.555   89.026    4.830
   63.400    0.264    0.567   87.812    4.919
   63.700    0.279    0.557   84.741    5.512
   64.000    0.284    0.587   84.162    5.945
   64.300    0.278    0.586   84.828    6.054
   64.600    0.299    0.547   83.616    6.406
   64.900    0.268    0.511   79.921    8.362
   65.200    0.295    0.538   73.124   10.116
   65.500    0.281    0.554   69.428   12.234
   65.800    0.310    0.534   68.219   13.196
   66.100    0.302    0.533   70.122   10.892
   66.400    0.302    0.478   72.036    9.517
   66.700    0.263    0.485   68.959    9.155
   67.000    0.217    0.480   64.649    9.148
   67.300    0.171    0.488   68.441   10.856
   67.600    0.241    0.506   70.332   13.904
   67.900    0.277    0.506   72.247   17.474
   68.200    0.244    0.497   70.424   23.252
   68.500    0.179    0.446   66.711   20.713
   68.800    0.045    0.388   51.819   18.107
   69.100    0.052    0.263   56.221   16.135
   69.400    0.121    0.325   66.856   13.316
   69.700    0.315    0.491   68.129   12.094
   70.000    0.292    0.499   68.800   11.856
   70.300    0.302    0.503   66.954   11.621
   70.600    0.302    0.494   71.358   12.064
   70.900    0.294    0.492   73.269   12.286
   71.200    0.266    0.473   70.810   11.818
   71.500    0.225    0.438   68.368   12.741
   71.800    0.169    0.434   74.016   12.735
   72.100    0.271    0.479   74.050   12.247
   72.400    0.266    0.492   70.364   12.236
   72.700    0.302    0.482   71.022   12.227
   73.000    0.314    0.482   72.300   10.287
   73.300    0.309    0.506   69.856    8.172
   73.600    0.254    0.517   66.784    7.144
   73.900    0.180    0.432   69.323    6.740
   74.200    0.173    0.408   75.587    7.268
   74.500    0.286    0.485   80.611    7.403
   74.800    0.311    0.523   78.782    6.853
   75.100    0.286    0.524   78.194    6.106
   75.400    0.251    0.511   81.966    5.039
   75.700    0.251    0.544   85.114    4.490
   76.000    0.286    0.552   83.907    4.237
   76.300    0.272    0.543   80.229    4.314
   76.600    0.298    0.551   82.139    4.564
   76.900    0.299    0.546   82.799    5.019
   77.200    0.322    0.558   80.337    6.071
   77.500    0.294    0.580   77.885    7.341
   77.800    0.298    0.549   78.571    8.071
   78.100    0.260    0.509   79.212    6.791
   78.400    0.305    0.504   74.282    5.499
   78.700    0.219    0.517   68.102    4.539
   79.000    0.138    0.463   65.645    3.818
   79.300    0.092    0.465   76.265    3.535
   79.600    0.234    0.524   79.428    3.272
   79.900    0.297    0.574   79.460    3.029
   80.200    0.306    0.595   83.233    2.804
   80.500    0.312    0.586   83.895    2.595
   80.800    0.302    0.586   83.320    2.496
   81.100    0.317    0.611   84.596    2.447
   81.400    0.332    0.633   89.631    2.492
   81.700    0.330    0.595   88.436    3.014
   82.000    0.329    0.595   87.832    3.860
   82.300    0.278    0.547   82.268    4.409
   82.600    0.288    0.520   81.079    5.036
   82.900    0.279    0.510   82.360    5.430
   83.200    0.284    0.515   84.260    5.530
   83.500    0.290    0.533   83.684    5.633
   83.800    0.269    0.526   81.225    6.076
   84.100    0.279    0.521   80.034    6.554
   84.400    0.271    0.536   80.073    7.205
   84.700    0.269    0.551   83.216    7.478
   85.000    0.231    0.529   84.502    7.617
   85.300    0.275    0.543   82.674    8.059
   85.600    0.291    0.515   89.560    8.692
   85.900    0.314    0.503   86.500    9.375
   86.200    0.241    0.514   82.811   10.708
   86.500    0.257    0.486   84.706   12.706
   86.800    0.262    0.466   87.242   15.367
   87.100    0.258    0.454   86.043   17.892
   87.400    0.254    0.439   81.721   14.489
   87.700    0.242    0.429   77.402   11.510
   88.000    0.222    0.424   73.081    9.499
   88.300    0.155    0.381   71.259    8.464
   88.600    0.132    0.409   75.663    7.836
   88.900    0.210    0.507   78.803    6.981
   89.200    0.271    0.509   78.847    6.462
   89.500    0.283    0.489   80.129    6.097
   89.800    0.287    0.521   82.667    5.863
   90.100    0.261    0.546   82.710    5.972
   90.400    0.294    0.556   83.365    6.441
   90.700    0.292    0.529   80.923    7.941
   91.000    0.297    0.497   82.831    9.790
   91.300    0.307    0.482   84.115   11.615
   91.600    0.308    0.444   84.160   12.059
   91.900    0.228    0.424   83.569    9.398
