~Version : LASO    vs 4.00
VERS.                2.00:   CWLS Log ASCII Standard -VERSION 2.0
WRAP.                  NO:
~Well Information Block
#MNEM.UNIT       Data                        Description of Mnemonic
#----.----      -------------------------- : -----------------------------
COMP.                                     : COMPANY
FLD .    WILDCAT                          : FIELD NAME
LOC .    02-32-090-08W4                   : WELL LOCATION
UWI .    AA/02-32-090-08W400              : UNIQUE WELL ID
STRT.M             0.0000:
STOP.M           201.3750:
STEP.M             0.1250:
NULL.           -999.2500:
COMP.  :COMPANY
WELL.  MOBIL CLARKE OV 2-32:WELL
FLD.   :FIELD
LOC.   :LOCATION
CTRY.  :COUNTRY
PROV.  ALBERTA:PROVINCE
SRVC.  DRESSER ATLAS:SERVICE COMPANY
DATE.  17-FEB-81:LOG DATE
UWI.   :UNIQUE WELL ID
~Parameter Information Block
#MNEM.UNIT       Data                        Description of Mnemonic
#----.----      -------------------------- : -----------------------------
RUN .                   1                 : Run Number
GL  .M           431.8000                 : Ground Level Elevation
DREF.                  KB                 : Depth Reference
EREF.M           431.8000                 : Elevation of Depth Reference
TDL .M           202.0000                 : Total Depth Logger
TDD .M           201.6000                 : Total Depth Driller
BHT .DEGC         20.0000                 : Bottom Hole Temperature
BS  .MM          159.0000                 : Bit Size
DFD .             10.3000                 : Mud Weight (Density)
DFV .             85.0000                 : Mud Viscosity
DFPH.             10.0000                 : Mud pH
RM  .OHMM          4.9000                 : Mud Resistivity
RMT .DEGC         20.0000                 : Mud Resistivity Temperature
RMF .OHMM          4.7000                 : Mud Filtrate Resistivity
RMFT.DEGC         10.0000                 : RMF Temperature
RMC .OHMM          9.5000                 : Mud Cake Resistivity
RMCT.DEGC         10.0000                 : RMC Temperature
~Curve Information Block
#MNEM.UNIT        API CODE    Curve Description
#---------    ------------    -------------------------------------------
DEPT.M                    :   DEPTH
CALI.MM       42 280  1  1:   3 DENSITY CALIPER
DPHI.V/V                  :   DPHI
DT  .US/M     60 520 42  1:   2 SONIC INTERVAL TRANSIT TIME (COMPENSATED)
GR  .GAPI     42 310  1  1:   4 GAMMA RAY
IL  .OHMM      5 120 45  1:   7 INDUCTION
NPHI.V/V      42 890  3  1:   5 NEUTRON POROSITY (SANDSTONE)
RHOB.K/M3     42 350  1  1:   6 BULK DENSITY
SFL .OHMM      5 220  6  1:   8 FOCUSSED RESISTIVITY
SP  .MV        5  10  1  1:   9 SPONTANEOUS POTENTIAL
~A  Depth           CALI        DPHI          DT          GR          IL        NPHI        RHOB         SFL          SP
# ...
67.0000         157.9500      0.2797    600.2400     40.3800     62.5500      0.3268   2205.3000     67.4000    -65.4400
67.1250         159.9250      0.2841    612.9200     41.2500     62.2000      0.3395   2172.3999     73.6500    -62.9500
67.2500         161.9750      0.3031    581.6000     39.0750     62.3500      0.3455   2139.5000     71.5000    -62.3300
67.3750         166.8250      0.3237    452.0000     37.6800     62.5000      0.3391   2106.6001     58.6500    -62.0800
67.5000         164.6500      0.3363     93.9600     33.3600     62.1500      0.3331   2073.7000     56.6500    -62.0800
67.6250         162.8250      0.3951     73.3600     29.9550     61.9500      0.3307   1987.5000     62.6500    -62.7000
67.7500         160.8250      0.4060     94.7200     31.3800     61.4000      0.3353   1980.8000     70.6500    -62.8200
67.8750         161.9750      0.3989    150.6800     34.8450     61.2000      0.3445   1979.4000     69.9999    -62.9500
68.0000         163.1750      0.3882    374.4800     36.5400     60.4000      0.3380   1978.6001     63.0500    -63.0700
68.1250         164.9750      0.3801    441.7200     34.8600     58.2000      0.3335   2008.1000     62.5000    -63.0700
68.2500         165.7250      0.3796    196.0400     31.9800     55.2500      0.3296   2041.2000     68.9000    -62.9500
68.3750         165.6500      0.3818    430.9200     31.8600     52.5500      0.3377   2013.8000     80.0500    -62.5700
68.5000         163.1000      0.3776     86.1200     32.9700     51.1500      0.3452   2012.1000     80.6500    -62.2000
68.6250         161.7000      0.3740    131.0400     33.7800     50.6500      0.3519   2034.0000     70.9000    -61.8300
68.7500         162.6750      0.3665    355.8000     35.4750     50.3700      0.3576   2064.3999     59.7500    -61.7000
68.8750         160.1250      0.3585    600.2400     34.4250     50.0050      0.3580   2094.8000     51.8500    -61.2000
69.0000         158.6750      0.3530    591.8800     34.7250     48.9600      0.3587   2109.3999     48.3750    -60.8300
69.1250         160.5250      0.3455    443.4400     34.7100     47.8550      0.3615   2115.2000     51.1000    -60.4600
69.2500         162.5500      0.3392     67.9600     33.7050     47.3650      0.3542   2115.6001     57.3500    -60.3300
69.3750         164.5500      0.3324    162.4400     33.0750     47.7950      0.3440   2117.8000     64.5500    -60.7100
69.5000         166.5500      0.3243    200.9600     32.7150     50.3700      0.3277   2117.8000     66.9999    -61.0800
69.6250         171.0250      0.3266    194.8400     33.8550     54.1500      0.3230   2116.1001     65.4000    -61.8300
69.7500         177.5000      0.3278    176.9200     35.0550     58.8000      0.3223   2094.3000     63.8000    -62.8200
69.8750         183.7750      0.3301     83.1600     35.6700     64.4000      0.3244   2088.7000     64.6500    -63.0700
70.0000         185.4000      0.3337     81.4400     35.0100     70.7000      0.3263   2087.0000     68.2500    -63.2000
70.1250         181.2000      0.3397     79.4800     34.6650     76.3000      0.3269   2084.3000     74.2500    -62.9500
70.2500         175.8000      0.3495     73.8400     36.2100     79.2500      0.3334   2055.2000     83.5500    -63.0700
70.3750         166.8000      0.3665     58.8800     35.4600     80.6500      0.3376   2051.5000    100.3000    -63.4500
70.5000         164.8750      0.3805     46.1200     33.5100     79.6000      0.3440   2004.5000    126.9500    -63.7000
70.6250         166.8750      0.3787     35.3200     33.4350     78.1000      0.3501   1990.3000    172.3000    -63.5700
70.7500         173.2750      0.3718     58.8800     35.2350     77.4000      0.3479   1982.2000    204.8000    -63.3200
70.8750         197.3750      0.3594    548.6800     36.1950     77.5500      0.3433   2035.9000    158.8500    -62.9500
71.0000         211.7000      0.3430    596.0400     35.9250     78.4000      0.3350   2056.0000     98.9500    -62.7000
71.1250         213.6500      0.3290    532.0000     34.6950     77.9999      0.3223   2103.8000     77.9999    -62.5700
71.2500         207.4500      0.3153    464.7600     37.7250     74.9999      0.3043   2103.1001     72.9500    -62.4500
71.3750         192.1500      0.3153    576.6800     40.9950     71.5000      0.3040   2102.2000     78.8500    -62.9500
71.5000         174.3500      0.3179    578.8800     43.6500     68.6500      0.3109   2079.7000     89.2000    -62.9500
71.6250         166.6250      0.3231    588.6800     42.4650     67.2000      0.3110   2075.0000    100.2500    -63.0700
71.7500         168.2000      0.3299    597.0400     40.5000     67.6500      0.3114   2074.1001    104.9000    -63.2000
71.8750         172.1000      0.3317    600.2400     39.7200     70.2500      0.3302   2087.3999    104.9000    -62.4500
72.0000         183.0750      0.3303    664.6800     39.1650     74.6500      0.3304   2101.6001    101.2500    -62.9500
72.1250         180.3500      0.3274    662.4400     36.2850     78.9999      0.3314   2094.0000     99.3500    -63.0700
72.2500         177.2250      0.3224    655.8000     33.7200     80.8500      0.3323   2087.6001    104.3000    -63.3200
72.3750         180.2750      0.3164    557.7600     34.3050     80.8500      0.3338   2110.8000    120.2500    -63.7000
72.5000         184.9500      0.3071    587.9600     34.9350     80.8500      0.3369   2116.3999    155.7500    -63.8200
72.6250         176.8000      0.2969    581.8400     34.8000     80.4500      0.3281   2126.3000    207.2500    -63.8200
72.7500         171.9000      0.2846    581.0800     34.6200     79.7500      0.3090   2169.6001    228.0500    -63.7000
72.8750         172.1500      0.2652    600.2400     35.2200     80.2500      0.2983   2209.6001    185.8000    -63.9400
73.0000         171.4500      0.2439    587.4800     34.6800     83.4000      0.2919   2249.6001    139.2000    -64.5700
73.1250         172.9500      0.2365    466.2400     34.1550     83.7000      0.2841   2259.0000    113.5000    -64.9400
73.2500         175.5250      0.2390    127.1200     36.9450     79.2500      0.2875   2238.8000     92.5500    -64.9400
73.3750         174.5750      0.2439    231.8800     39.0900     74.3500      0.2918   2218.6001     83.4000    -65.1900
73.5000         173.6250      0.2541    533.2400     41.0400     71.9500      0.2897   2192.7000     86.9500    -65.6900
73.6250         175.0500      0.2641    530.2800     42.5700     71.1000      0.2887   2189.3999    101.8000    -66.1900
73.7500         175.0250      0.2714    498.1600     40.1550     68.7500      0.2941   2163.0000    101.0500    -66.1900
73.8750         174.7250      0.2743    512.3600     38.0100     68.2000      0.3001   2140.5000     81.7500    -66.1900
74.0000         175.2500      0.2760    570.8000     37.7700     70.4500      0.3132   2164.3999     73.9500    -66.3100
74.1250         173.1750      0.2774    563.9200     38.1750     72.4500      0.3175   2178.8000     77.0500    -66.4400
74.2500         167.0750      0.2778    549.9200     36.2250     73.6500      0.3185   2172.6001     84.9500    -66.4400
74.3750         160.9750      0.2771    574.4800     34.7550     76.2000      0.3118   2167.7000    100.5500    -66.4400
74.5000         160.1500      0.2755    563.1600     34.7400     82.6000      0.3165   2175.6001    126.9500    -66.0600
74.6250         165.2250      0.2632    562.2000     31.7550     88.3000      0.3179   2229.7000    157.6000    -65.4400
74.7500         170.0250      0.2497    482.6800     32.0700     93.1000      0.3059   2270.8999    151.5000    -65.0700
74.8750         171.0500      0.2274     64.5200     33.2400     97.2000      0.2872   2312.0000    118.9999    -64.6900
75.0000         173.2500      0.2094    176.6800     37.2600     97.5500      0.2795   2323.0000    112.2500    -64.3200
75.1250         183.2750      0.1954    516.3200     40.4400     92.5500      0.2591   2330.6001    118.9999    -63.7000
75.2500         186.2750      0.1861    541.0800     42.5700     85.9999      0.2557   2333.8000    123.9000    -63.0700
