~Version : LASO    vs 4.00 
VERS.                2.00:   CWLS Log ASCII Standard -VERSION 2.0
WRAP.                  NO:
~Well Information Block
#MNEM.UNIT       Data                        Description of Mnemonic
#----.----      -------------------------- : -----------------------------
STRT.M            15.0000:
STOP.M           207.0000:
STEP.M             0.2000:
NULL.           -999.2500:
COMP.  MOBIL OIL CANADA                   :COMPANY
WELL.  MOBIL CLARKE OV 1-2                :WELL
FLD.                                      :FIELD
LOC.   01-02-090-08W4                     :LOCATION
CTRY.  CANADA                             :COUNTRY
PROV.  ALBERTA                            :PROVINCE
SRVC.  SCHLUMBERGER                       :SERVICE COMPANY
DATE.  05-MAR-81                          :LOG DATE
UWI.   AA/01-02-090-08W400                :UNIQUE WELL ID
~Parameter Information Block
#MNEM.UNIT       Data                        Description of Mnemonic
#----.----      -------------------------- : -----------------------------
RUN .                   1                 : Run Number
GL  .M           444.4000                 : Ground Level Elevation
DREF.                  KB                 : Depth Reference
EREF.M           444.4000                 : Elevation of Depth Reference
TDL .M           207.0000                 : Total Depth Logger
TDD .M           206.0000                 : Total Depth Driller
CSGL.M            27.0000                 : Casing Bottom Logger
CSGD.M            26.4000                 : Casing Bottom Driller
CSGS.MM          219.0000                 : Casing Size
CSGW.KG/M          0.0000                 : Casing Weight
BS  .MM          159.0000                 : Bit Size
DFD .           9999.0000                 : Mud Weight (Density)
~Curve Information Block
#MNEM.UNIT        API CODE    Curve Description
#---------    ------------    -------------------------------------------
DEPT.M                    :   DEPTH
CALI.MM       42 280  1  1:   3 DENSITY CALIPER
DPHI.V/V                  :   DPHI
DT  .US/M     60 520  0  1:   2 SONIC INTERVAL TRANSIT TIME (COMPENSATED)
GR  .GAPI     42 310  1  1:   4 GAMMA RAY
ILD .OHMM      5 120 46  1:   7 DEEP INDUCTION
ILM .OHMM      5 120 44  1:   8 MEDIUM INDUCTION
NPHI.V/V      42 890  3  1:   5 NEUTRON POROSITY (SANDSTONE)
RHOB.K/M3     42 350  1  1:   6 BULK DENSITY
SFLU.OHMM      5 220  1  1:   9 FOCUSSED RESISTIVITY
SP  .MV        5  10  1  1:   10 SPONTANEOUS POTENTIAL
~A  Depth           CALI        DPHI          DT          GR         ILD         ILM        NPHI        RHOB        SFLU          SP
# ...
198.0000        154.3250      0.0157    277.6400     44.2800     32.4960     34.6920      0.2332   2637.0000     45.2720    126.3600
198.2000        153.0500      0.0176    274.2000     45.5850     32.1981     33.7466      0.2310   2635.0000     44.4457    127.8150
198.4000        153.0500      0.0165    275.0400     47.5800     31.3206     31.9323      0.2334   2613.0000     34.9808    124.6650
198.6000        151.7750      0.0079    279.1200     46.6800     31.0334     30.7773      0.2390   2646.0000     34.3423    125.1600
198.8000        150.5000      0.0136    284.0400     45.4800     30.4670     30.4951      0.2480   2650.0000     32.4960    121.9650
199.0000        150.5000      0.0230    293.2400     40.4850     29.6367     30.7773      0.2484   2606.0000     33.4064    118.4100
199.2000        153.0500      0.0193    293.0800   -999.2500     29.6367     30.4951      0.2478   2623.0000     35.9608    121.9650
199.4000        154.3250      0.0133    291.2400   -999.2500     29.6367     30.2155      0.2402   2639.0000     37.3104    117.4200
199.6000        154.3250      0.0069    286.5200   -999.2500     30.1877     30.2155      0.2398   2633.0000     33.4064    121.1100
199.8000        154.3250      0.0135    288.3200   -999.2500     30.4670     30.4951      0.2422   2652.0000     32.1981    118.6200
200.0000        155.5750      0.0117    290.4400   -999.2500     30.4670     30.7773      0.2444   2643.0000     33.1001    122.6700
200.2000        155.5750      0.0093    290.2800   -999.2500     30.7489     31.0620      0.2398   2637.0000     34.9808    123.6150
200.4000        151.7750      0.0118    286.5200   -999.2500     31.6104     31.3495      0.2374   2642.0000     35.3045    125.4600
200.6000        153.0500      0.0080    286.5200   -999.2500     32.1981     32.5259      0.2418   2632.0000     34.9808    125.4600
200.8000        155.5750      0.0107    287.6400   -999.2500     32.4960     33.7466      0.2444   2633.0000     37.6556    121.8600
201.0000        154.3250      0.0086    282.8800   -999.2500     33.1001     34.0588      0.2392   2657.0000     43.2345    124.5600
201.2000        153.0500      0.0157    278.9600   -999.2500     33.7155     34.0588      0.2336   2626.8999     40.9100    122.3100
201.4000        153.0500      0.0225    276.1600   -999.2500     34.0275     34.0588      0.2306   2624.0000     38.0041    120.1200
201.6000        154.3250      0.0160    280.6000   -999.2500     33.7155     35.3370      0.2308   2626.8999     39.7951    123.7650
201.8000        155.5750      0.0209    281.0800   -999.2500     33.7155     35.0131      0.2326   2612.0000     42.0562    120.9600
202.0000        155.5750      0.0173    278.9600   -999.2500     33.1001     34.3740      0.2302   2619.0000     42.4453    123.4650
202.2000        155.5750      0.0237    276.1600   -999.2500     32.4960     33.1306      0.2266   2653.0000     39.0688    122.6700
202.4000        155.5750      0.0158    276.1600   -999.2500     31.9029     32.5259      0.2264   2634.0000     36.2936    123.0600
202.6000        155.5750      0.0212    278.1200   -999.2500     31.6104     32.2277   -999.2500   2615.0000     34.3423    123.7650
202.8000        155.5750      0.0166    284.3600   -999.2500     31.0334     31.0620   -999.2500   2635.0000     34.6601    122.6100
203.0000        155.5750      0.0086    286.3200   -999.2500     31.0334     30.7773   -999.2500   2658.0000     33.1001    121.7700
203.2000        155.5750      0.0133    278.5600   -999.2500     31.0334     31.0620   -999.2500   2648.0000     31.9029    120.5700
203.4000        155.5750      0.0117   -999.2500   -999.2500     30.7489     31.3495   -999.2500   2651.0000     33.1001    116.8200
203.6000        155.5750      0.0196   -999.2500   -999.2500     30.7489     31.0620   -999.2500   2621.0000     37.3104    125.6700
203.8000        155.5750      0.0265   -999.2500   -999.2500     31.3206     30.7773   -999.2500   2611.0000     35.6312    125.3100
204.0000        155.5750      0.0214   -999.2500   -999.2500     31.3206     30.7773   -999.2500   2612.0000     33.7155    123.7650
204.2000        155.5750      0.0124   -999.2500   -999.2500     31.9029     31.9323   -999.2500   2637.8999     33.4064    122.7600
204.4000        155.5750      0.0166   -999.2500   -999.2500     31.9029     32.5259   -999.2500   2665.0000     34.6601    122.1600
204.6000        155.5750      0.0260   -999.2500   -999.2500     31.9029     32.8269   -999.2500   2652.0000     36.2936    121.8150
204.8000        154.3250      0.0340   -999.2500   -999.2500     31.9029     33.1306   -999.2500   2598.0000     39.4303    123.3600
205.0000        154.3250      0.0297   -999.2500   -999.2500     31.9029     32.8269   -999.2500   2600.0000     47.6683    123.6150
205.2000        155.5750      0.0221   -999.2500   -999.2500   -999.2500   -999.2500   -999.2500   2619.0000   -999.2500   -999.2500
205.4000        154.3250      0.0135   -999.2500   -999.2500   -999.2500   -999.2500   -999.2500   2642.0000   -999.2500   -999.2500
205.6000        154.3250      0.0066   -999.2500   -999.2500   -999.2500   -999.2500   -999.2500   2636.0000   -999.2500   -999.2500
205.8000        154.3250      0.0051   -999.2500   -999.2500   -999.2500   -999.2500   -999.2500   2642.0000   -999.2500   -999.2500
206.0000        154.3250      0.0027   -999.2500   -999.2500   -999.2500   -999.2500   -999.2500   2651.0000   -999.2500   -999.2500
206.2000        154.3250      0.0012   -999.2500   -999.2500   -999.2500   -999.2500   -999.2500   2677.0000   -999.2500   -999.2500
206.4000        151.7750      0.0128   -999.2500   -999.2500   -999.2500   -999.2500   -999.2500   2665.0000   -999.2500   -999.2500
206.6000        140.3500      0.0305   -999.2500   -999.2500   -999.2500   -999.2500   -999.2500   2604.0000   -999.2500   -999.2500
206.8000        140.3500      0.0479   -999.2500   -999.2500   -999.2500   -999.2500   -999.2500   2617.2000   -999.2500   -999.2500
207.0000        140.3500      0.0422   -999.2500   -999.2500   -999.2500   -999.2500   -999.2500   2626.2000   -999.2500   -999.2500
