~VERSION INFORMATION
 VERS.                 2.0:   CWLS LOG ASCII STANDARD -VERSION 2.0
 WRAP.                  NO:   ONE LINE PER DEPTH STEP
~WELL INFORMATION BLOCK
#MNEM.UNIT           DATA                    DESCRIPTION OF MNEMONIC
#---------    -------------------            -------------------------------
# Generated from Intellog Unique Number	CX_WELLS/WELL/3784
WELL.         BIT SAND                       : Well_name    - WELL
LOC .         AA/08-28-086-15W4/0            : Location     - LOCATION
UWI .         AA/08-28-086-15W400            : Uwi          - UNIQUE WELL ID
ENTR.         T                              : Entered      - ENTERED BY
SRVC.         SCHLUMBERGER                   : Scn          - SERVICE COMPANY
STRT.F        200                            : top_depth    - START DEPTH
STOP.F        679.823                        : bot_depth    - STOP DEPTH
STEP.F        0.82                           : increment    - STEP LENGTH
 NULL. -999.2500:NULL Value
~CURVE INFORMATION BLOCK
#MNEM UNIT       ERCB CURVE CODE    CURVE DESCRIPTION
#-----------   ------------------   ----------------------------------
DEPT.F        00 001 00 00         : DEPTH        - DEPTH
GR  .API      00 310 00 00         : GR           - GAMMA RAY
NPHI.V/V      00 330 00 00         : PHIN         - NEUTRON POROSITY (SANDSTONE)
ILD .OHMM     00 120 00 00         : RESD         - DEEP RESISTIVITY (DIL)
~PARAMETER INFORMATION
#MNEM.UNIT           DATA             DESCRIPTION OF MNEMONIC
#---------         -----------     ------------------------------
GL  .F        1631                 : gl           - GROUND LEVEL ELEVATION
EREF.F        1631                 : kb           - ELEVATION OF DEPTH REFERENCE
DATM.F        1631                 : datum        - DATUM ELEVATION
TDD .F        681                  : tdd          - TOTAL DEPTH DRILLER
RUN .         ONE                  : Run          - RUN NUMBER
ENG .         BILL                 : Engineer     - RECORDING ENGINEER
WIT .         JIM                  : Witness      - WITNESSED BY
MUD .         GEL                  : Mud_type     - MUD TYPE
MATR.         SANDSTONE            : Logunit      - NEUTRON MATRIX
TMAX.F        53                   : BHT          - MAXIMUM RECORDED TEMPERATURE
BHTD.F        682                  : BHTDEP       - MAXIMUM RECORDED TEMPERATURE
MATR.         1                    : LOGUNIT      - NEUTRON MATRIX
RMT .F        53                   : MDTP         - TEMPERATURE OF MUD
NEUT.         1                    : NEUTRON      - NEUTRON TYPE
RESI.         10                   : RESIST       - RESISTIVITY TYPE
RMC .OHMM     2                    : RMC          - RESISTIVITY OF MUD CAKE
RMF .OHMM     3.9                  : RMF          - RESISTIVITY OF MUD FILTRATE
SUFT.F        39.2                 : SUFT         - SURFACE TEMPERATURE
~A  DEPTH       GR     PHIN     RESD
# ...
  377.986  101.409    0.440   10.293
  378.806  103.467    0.438    9.787
  379.626  104.842    0.437    9.452
  380.446  104.857    0.437    8.778
  381.266  101.155    0.438    8.442
  382.087   95.072    0.442    8.951
  382.907   93.059    0.446   10.476
  383.727   93.079    0.451   10.815
  384.547   93.777    0.447   10.142
  385.367   95.496    0.440    9.467
  386.188   96.871    0.438    8.624
  387.008   98.585    0.433    7.781
  387.828   99.966    0.430    6.601
  388.648   98.964    0.430    6.433
  389.469   96.618    0.433    5.759
  390.289   95.282    0.437    5.424
  391.109   94.286    0.444    6.103
  391.929   94.301    0.447    6.950
  392.749   94.326    0.448    7.289
  393.570   96.379    0.447    8.644
  394.390  105.885    0.445    9.323
  395.210  108.954    0.443    9.833
  396.030  114.405    0.442   10.005
  396.850  113.748    0.440   10.006
  397.671  113.085    0.440    9.163
  398.491  111.411    0.440    8.658
  399.311  109.060    0.440    8.154
  400.131  103.664    0.439    7.986
  400.951  103.684    0.432    8.159
  401.772  103.699    0.430    8.161
  402.592  103.385    0.431    8.331
  403.412  103.066    0.435    8.502
  404.232  103.420    0.439    8.674
  405.052  103.784    0.443    8.676
  405.873  104.826    0.447    8.509
  406.693  106.201    0.452    8.511
  407.513  106.555    0.456    8.514
  408.333  106.918    0.460    8.685
  409.154  106.933    0.462    8.856
  409.974  106.615    0.458    9.196
  410.794  105.962    0.452    9.537
  411.614  105.304    0.448   10.553
  412.434  104.652    0.438   12.246
  413.255  104.333    0.423   13.939
  414.075  102.320    0.414   14.280
  414.895  100.303    0.402   13.268
  415.715   94.897    0.391   11.917
  416.535   89.835    0.394   10.398
  417.356   87.488    0.395    9.386
  418.176   88.525    0.399    9.219
  418.996   91.599    0.401    9.729
  419.816   94.663    0.405   10.575
  420.636  101.798    0.410   11.930
  421.457  110.971    0.414   13.286
  422.277  111.339    0.415   13.796
  423.097  110.333    0.409   14.304
  423.917  108.320    0.385   14.983
  424.738  100.892    0.383   15.323
  425.558   98.874    0.380   15.494
  426.378   96.184    0.380   15.665
  427.198   92.482    0.380   15.667
  428.018   93.857    0.383   15.501
  428.839   97.260    0.384   15.503
  429.659   96.946    0.384   14.999
  430.479   93.578    0.382   14.662
  431.299   90.888    0.381   14.157
  432.119   89.214    0.382   13.990
  432.940   88.895    0.383   14.838
  433.760   90.948    0.384   16.530
  434.580   91.307    0.384   17.210
  435.400   87.939    0.383   17.043
  436.220   84.915    0.383   27.357
  437.041   85.279    0.383   23.133
  437.861   87.326    0.383   20.261
  438.681   87.685    0.380   15.023
  439.501   84.995    0.372   12.489
  440.322   84.676    0.312   12.491
  441.142   88.084    0.337   13.001
  441.962   92.170    0.385   13.511
  442.782   95.578    0.412   14.527
  443.602   98.318    0.429   17.234
  444.423   99.694    0.427   24.674
  445.243  100.730    0.423   30.086
  446.063   98.373    0.417   65.759
  446.883   90.601    0.411   40.911
  447.703   84.867    0.399   35.335
  448.524   87.253    0.384   31.955
  449.344   91.677    0.356    8.121
  450.164   96.441    0.302    9.137
  450.984  101.886    0.256    9.308
  451.804  103.949    0.360    9.480
  452.625  102.943    0.428    9.651
  453.445  101.613    0.464    9.822
  454.265  101.967    0.465    9.825
  455.085  102.664    0.458    9.827
  455.906  109.465    0.451   10.337
  456.726  112.883    0.442   11.184
  457.546  112.216    0.438   11.863
  458.366  111.224    0.438   12.541
  459.186  110.223    0.436   13.726
  460.007  107.871    0.435   15.757
  460.827  105.520    0.433   14.745
  461.647  100.797    0.428   12.211
  462.467   99.466    0.426   12.045
  463.287   97.793    0.426   12.892
  464.108   97.135    0.427   14.247
  464.928  105.964    0.427   14.420
  465.748  110.388    0.426   14.251
  466.568  111.425    0.425   13.747
  467.388  110.099    0.422   13.581
  468.209  107.404    0.419   13.582
  469.029  104.709    0.415   13.753
  469.849  101.341    0.411   13.756
  470.669  102.731    0.410   13.927
  471.490  104.101    0.412   13.929
  472.310  105.810    0.414   13.932
  473.130  108.212    0.413   13.765
  473.950  108.899    0.413   13.091
  474.770  105.531    0.415   12.247
  475.591  102.164    0.417   11.573
  476.411  102.184    0.418   16.478
  477.231  102.886    0.418   17.664
  478.051  102.916    0.417   17.497
  478.871  102.587    0.415   15.471
  479.692  101.935    0.413   14.120
  480.512  101.955    0.412   15.644
  481.332  100.959    0.410   15.478
  482.152  100.635    0.411   14.972
  482.972   99.643    0.414   14.636
  483.793   99.663    0.416   15.146
  484.613  101.377    0.417   11.260
  485.433  103.769    0.424   10.079
  486.253  105.149    0.445    8.729
  487.073  107.541    0.449    7.886
  487.894  108.572    0.460    8.565
  488.714  111.313    0.471    9.073
  489.534  111.667    0.480   10.428
  490.354  109.320    0.472   13.305
  491.175  107.307    0.444   14.490
  491.995  104.956    0.436   10.943
  492.815  103.277    0.415    9.761
  493.635  101.942    0.413    8.749
  494.455  102.300    0.414    9.090
  495.276  106.047    0.421    9.092
  496.096  111.493    0.432   11.122
  496.916  115.240    0.446   13.829
  497.736  119.664    0.453   10.620
  498.556  118.668    0.448    8.762
  499.377  115.977    0.439    7.582
  500.197  117.691    0.438    8.429
  501.017  120.766    0.451    9.276
  501.837  121.802    0.455   10.293
  502.657  121.822    0.449   10.971
  503.478  119.809    0.444   12.157
  504.298  115.425    0.437   13.850
  505.118  112.396    0.428   14.360
  505.938  111.405    0.426   14.361
  506.759  111.430    0.426   14.195
  507.579  111.440    0.426   13.860
  508.399  112.815    0.425   13.692
  509.219  115.894    0.422   13.187
  510.039  117.942    0.421   12.683
  510.860  118.983    0.421   12.684
  511.680  116.288    0.421   13.025
  512.500  112.920    0.421   12.689
  513.320  109.552    0.420   11.846
  514.140  110.250    0.420   11.172
  514.961  111.974    0.421   14.048
  515.781  112.322    0.428   15.065
  516.601  112.352    0.431   14.729
  517.421  110.335    0.424   15.069
  518.241  106.628    0.402   16.762
  519.062  102.921    0.400   16.257
  519.882   99.897    0.399   15.583
  520.702   99.240    0.400   14.909
  521.522   98.243    0.399   14.742
  522.343   96.574    0.395   14.745
  523.163   96.245    0.390   14.915
  523.983   95.588    0.389   15.764
  524.803   93.575    0.385   15.935
  525.623   91.562    0.373   16.275
  526.444   87.861    0.375   17.292
  527.264   85.509    0.384   17.801
  528.084   85.529    0.382   17.635
  528.904   86.904    0.376   16.960
  529.724   88.962    0.353   16.286
  530.545   89.993    0.351   16.457
  531.365   92.046    0.357   17.136
  532.185   95.121    0.368   16.293
  533.005   96.491    0.381   16.634
  533.825   96.850    0.390   15.960
  534.646   98.912    0.395   14.440
  535.466  100.621    0.397   12.413
  536.286  103.013    0.406   11.232
  537.106  105.415    0.420   12.756
  537.927  105.435    0.431   13.435
  538.747  103.761    0.429   13.099
  539.567  102.759    0.427   12.932
  540.387  104.812    0.420   12.935
  541.207  107.209    0.415   12.430
  542.028  104.852    0.409   11.418
  542.848  102.162    0.404   10.743
  543.668  100.827    0.412   10.069
  544.488  102.880    0.418    9.564
  545.308  102.561    0.426    8.383
  546.129  102.247    0.434    7.540
  546.949  103.961    0.438    7.035
  547.769  109.402    0.441    7.207
  548.589  113.826    0.443    7.547
  549.409  114.863    0.445    7.887
  550.230  115.560    0.449    8.566
  551.050  115.590    0.454    9.075
  551.870  113.911    0.462    9.584
  552.690  111.899    0.468   10.431
  553.510  115.307    0.471   15.337
  554.331  119.736    0.462   21.087
  555.151  117.041    0.442   25.146
