~VERSION INFORMATION
 VERS.                 2.0:   CWLS LOG ASCII STANDARD -VERSION 2.0
 WRAP.                  NO:   ONE LINE PER DEPTH STEP
~WELL INFORMATION BLOCK
#MNEM.UNIT           DATA                    DESCRIPTION OF MNEMONIC
#---------    -------------------            -------------------------------
# Generated from Intellog Unique Number	CN_94_101/WELL/3595
WELL.         08-30-096-16W4                 : Well_name    - WELL
LOC .         AA/08-30-096-16W4/0            : Location     - LOCATION
UWI .         AA/08-30-096-16W400            : Uwi          - UNIQUE WELL ID
ENTR.         JOETTE                         : Entered      - ENTERED BY
SRVC.         SCHLUMBERGER                   : Scn          - SERVICE COMPANY
DATE.         08/03/92                       : Date         - LOG DATE
STRT.M        200                            : top_depth    - START DEPTH
STOP.M        410                            : bot_depth    - STOP DEPTH
STEP.M        0.25                           : increment    - STEP LENGTH
 NULL. -999.2500:NULL Value
~CURVE INFORMATION BLOCK
#MNEM UNIT       ERCB CURVE CODE    CURVE DESCRIPTION
#-----------   ------------------   ----------------------------------
DEPT.M        00 001 00 00         : DEPTH        - DEPTH
GR  .API      00 310 00 00         : GR           - GAMMA RAY
ILD .OHMM     00 120 00 00         : RESD         - DEEP RESISTIVITY (DIL)
NPHI.V/V      00 330 00 00         : PHIN         - NEUTRON POROSITY (SANDSTONE)
DPHI.V/V      00 890 00 00         : PHID         - DENSITY POROSITY (SANDSTONE)
~PARAMETER INFORMATION
#MNEM.UNIT           DATA             DESCRIPTION OF MNEMONIC
#---------         -----------     ------------------------------
GL  .M        661.6                : gl           - GROUND LEVEL ELEVATION
EREF.M        665                  : kb           - ELEVATION OF DEPTH REFERENCE
DATM.M        665                  : datum        - DATUM ELEVATION
TDD .M        415                  : tdd          - TOTAL DEPTH DRILLER
RUN .         ONE                  : Run          - RUN NUMBER
ENG .         JO                   : Engineer     - RECORDING ENGINEER
WIT .         TIM                  : Witness      - WITNESSED BY
MUD .         GEL                  : Mud_type     - MUD TYPE
MATR.         SANDSTONE            : Logunit      - NEUTRON MATRIX
TMAX.C        10                   : BHT          - MAXIMUM RECORDED TEMPERATURE
BHTD.M        415                  : BHTDEP       - MAXIMUM RECORDED TEMPERATURE
RMT .C        10.1                 : MDTP         - TEMPERATURE OF MUD
MUDD.KG/M     1115                 : MWT          - MUD DENSITY
NEUT.         1                    : NEUTRON      - NEUTRON TYPE
RESI.         0                    : RESIST       - RESISTIVITY TYPE
RM  .OHMM     0.49                 : RM           - RESISTIVITY OF MUD
RMC .OHMM     0.49                 : RMC          - RESISTIVITY OF MUD CAKE
RMF .OHMM     0.731                : RMF          - RESISTIVITY OF MUD FILTRATE
SUFT.C        4                    : SUFT         - SURFACE TEMPERATURE
~A  DEPTH       GR     RESD     PHIN     PHID
  200.000   39.321   31.510    0.406    0.336
  200.250   38.922   32.338    0.405    0.315
  200.500   38.439   33.059    0.405    0.305
  200.750   37.387   33.272    0.407    0.303
  201.000   34.544   33.443    0.403    0.299
  201.250   32.839   32.966    0.394    0.297
  201.500   31.133   32.495    0.385    0.297
  201.750   31.957   32.031    0.379    0.300
  202.000   34.571   30.964    0.373    0.304
  202.250   36.575   29.932    0.372    0.308
  202.500   39.885   28.376    0.375    0.312
  202.750   42.542   27.935    0.381    0.319
  203.000   43.238   27.004    0.381    0.321
  203.250   45.242   26.138    0.380    0.324
  203.500   48.510   25.732    0.379    0.324
  203.750   51.735   24.875    0.384    0.320
  204.000   55.572   24.551    0.391    0.318
  204.250   59.451   23.763    0.393    0.311
  204.500   62.065   22.942    0.392    0.296
  204.750   66.598   22.586    0.400    0.282
  205.000   71.046   21.805    0.388    0.274
  205.250   75.493   20.698    0.394    0.276
  205.500   79.941   20.008    0.400    0.279
  205.750   87.486   19.748    0.404    0.284
  206.000   91.976   19.849    0.412    0.289
  206.250   92.757   19.900    0.415    0.284
  206.500   91.706   19.237    0.409    0.278
  206.750   90.085   18.237    0.400    0.273
  207.000   87.854   16.306    0.402    0.267
  207.250   87.370   14.279    0.404    0.262
  207.500   86.318   10.922    0.403    0.262
  207.750   87.099    9.199    0.404    0.259
  208.000   90.282    7.027    0.409    0.259
  208.250   96.606    5.474    0.416    0.258
  208.500  102.318    4.991    0.424    0.257
  208.750  104.932    4.731    0.439    0.250
  209.000  106.367    4.670    0.464    0.240
  209.250  107.148    4.786    0.502    0.241
  209.500  107.930    5.101    0.524    0.246
  209.750  108.668    5.429    0.530    0.248
  210.000  110.757    5.793    0.522    0.242
  210.250  110.316    5.946    0.522    0.240
  210.500  107.346    5.984    0.523    0.236
  210.750  103.238    5.999    0.524    0.220
  211.000  100.964    5.921    0.523    0.190
  211.250  100.523    5.844    0.519    0.185
  211.500  103.791    5.753    0.518    0.195
  211.750  108.282    5.562    0.520    0.203
  212.000  110.896    5.272    0.526    0.210
  212.250  109.801    5.084    0.529    0.220
  212.500  107.527    4.647    0.529    0.225
  212.750  106.518    4.394    0.527    0.229
  213.000  107.342    4.171    0.530    0.225
  213.250  108.038    4.032    0.531    0.218
  213.500  110.084    3.974    0.535    0.217
  213.750  110.865    3.842    0.539    0.222
  214.000  111.646    3.867    0.541    0.230
  214.250  111.816    3.877    0.545    0.233
  214.500  111.376    4.142    0.549    0.234
  214.750  107.879    4.323    0.550    0.237
  215.000  104.994    4.513    0.549    0.242
  215.250  103.331    5.007    0.543    0.244
  215.500  102.279    5.343    0.541    0.243
  215.750  101.270    5.274    0.533    0.246
  216.000  100.744    5.085    0.528    0.249
  216.250  100.303    4.833    0.526    0.254
  216.500   99.293    4.666    0.521    0.259
  216.750   98.810    4.684    0.513    0.262
  217.000   98.327    4.998    0.499    0.262
  217.250   97.971    5.531    0.491    0.262
  217.500   98.056    6.382    0.498    0.254
  217.750   97.700    6.935    0.503    0.242
  218.000   96.563    7.248    0.493    0.230
  218.250   91.234    7.154    0.474    0.220
  218.500   86.473    6.915    0.455    0.207
  218.750   84.810    6.429    0.442    0.196
  219.000   86.856    6.095    0.438    0.209
  219.250   90.081    5.666    0.452    0.224
  219.500   90.251    5.365    0.465    0.236
  219.750   91.686    5.179    0.476    0.230
  220.000   94.301    4.728    0.480    0.220
  220.250   96.389    4.311    0.481    0.199
  220.500   97.128    4.162    0.487    0.179
  220.750   98.605    3.879    0.494    0.186
  221.000   98.690    3.814    0.502    0.211
  221.250   99.471    3.834    0.512    0.227
  221.500  100.210    4.007    0.520    0.233
  221.750  101.034    4.527    0.525    0.237
  222.000  101.204    5.545    0.521    0.243
  222.250   98.276    6.137    0.510    0.248
  222.500   92.379    7.655    0.504    0.249
  222.750   89.408    7.856    0.500    0.239
  223.000   83.468    7.744    0.493    0.221
  223.250   79.318    7.351    0.475    0.214
  223.500   83.197    7.246    0.448    0.229
  223.750   87.034    6.986    0.448    0.247
  224.000   90.913    6.623    0.451    0.264
  224.250   92.305    6.038    0.464    0.275
  224.500   91.949    5.288    0.469    0.268
  224.750   91.423    4.459    0.474    0.262
  225.000   91.067    3.905    0.483    0.256
  225.250   89.930    4.002    0.490    0.255
  225.500   88.921    5.612    0.496    0.256
  225.750   85.993    6.865    0.503    0.255
  226.000   80.621    7.608    0.505    0.254
  226.250   77.083    7.499    0.499    0.260
  226.500   76.642    6.981    0.495    0.275
  226.750   79.910    6.482    0.483    0.285
  227.000   82.524    5.795    0.469    0.302
  227.250   86.446    5.277    0.451    0.297
  227.500   88.449    5.003    0.460    0.236
  227.750   88.662    4.937    0.479    0.216
  228.000   87.610    5.167    0.490    0.219
  228.250   87.084    5.386    0.485    0.232
  228.500   86.075    5.528    0.473    0.245
  228.750   86.287    5.556    0.459    0.252
  229.000   85.761    5.378    0.457    0.256
  229.250   86.543    5.185    0.456    0.259
  229.500   87.324    4.740    0.456    0.264
  229.750   88.147    4.488    0.461    0.270
  230.000   88.318    4.249    0.480    0.278
  230.250   89.099    3.879    0.487    0.285
  230.500   89.880    3.611    0.488    0.287
  230.750   90.704    3.486    0.491    0.287
  231.000   89.652    3.365    0.501    0.281
  231.250   89.168    3.317    0.512    0.276
  231.500   88.159    3.334    0.516    0.273
  231.750   87.718    3.418    0.510    0.269
  232.000   88.457    3.431    0.513    0.268
  232.250   91.725    3.670    0.527    0.267
  232.500   91.895    3.757    0.542    0.268
  232.750   92.023    3.776    0.552    0.268
  233.000   92.193    3.876    0.549    0.268
  233.250   91.183    3.891    0.538    0.267
  233.500   89.520    4.061    0.536    0.267
  233.750   88.426    4.250    0.532    0.265
  234.000   85.015    4.356    0.535    0.263
  234.250   83.309    4.642    0.551    0.258
  234.500   82.783    4.947    0.552    0.254
  234.750   79.372    4.889    0.519    0.249
  235.000   78.235    4.819    0.489    0.244
  235.250   78.405    4.647    0.463    0.249
  235.500   80.409    4.405    0.490    0.265
  235.750   83.066    4.258    0.519    0.279
  236.000   84.501    4.280    0.542    0.281
  236.250   83.448    4.473    0.553    0.260
  236.500   82.354    4.675    0.545    0.241
  236.750   79.469    4.699    0.534    0.226
  237.000   78.985    4.730    0.509    0.214
  237.250   81.642    4.754    0.491    0.219
  237.500   85.479    4.785    0.506    0.222
  237.750   89.358    4.803    0.509    0.229
  238.000   88.306    4.828    0.509    0.236
  238.250   85.506    4.846    0.507    0.242
  238.500   84.369    4.967    0.504    0.247
  238.750   83.885    5.104    0.500    0.256
  239.000   82.222    5.225    0.491    0.263
  239.250   81.213    5.369    0.485    0.270
  239.500   80.204    5.604    0.479    0.277
  239.750   79.067    5.751    0.472    0.288
  240.000   78.015    5.895    0.470    0.295
  240.250   75.741    6.153    0.473    0.305
  240.500   74.078    6.574    0.474    0.309
  240.750   73.637    6.862    0.471    0.309
  241.000   73.153    7.323    0.467    0.300
  241.250   72.101    7.496    0.465    0.285
  241.500   69.259    7.999    0.464    0.278
  241.750   66.416    8.349    0.458    0.288
  242.000   66.501    8.909    0.451    0.301
  242.250   66.671    9.120    0.461    0.310
  242.500   65.619    9.556    0.477    0.319
  242.750   63.999    9.769    0.471    0.320
  243.000   61.725   10.210    0.457    0.322
  243.250   60.588   10.465    0.448    0.325
