~Version : LASO    vs 4.00
VERS.                2.00:   CWLS Log ASCII Standard -VERSION 2.0
WRAP.                  NO:
~Well Information Block
#MNEM.UNIT       Data                        Description of Mnemonic
#----.----      -------------------------- : -----------------------------
STRT.M            30.0000:
STOP.M           204.0000:
STEP.M             0.2000:
NULL.           -999.2500:
COMP.  MOBIL OIL OF CANADA                    :COMPANY
WELL.  MOBIL CLARKE OV PROGRAM 2-81 4-3       :WELL
FLD.                                          :FIELD
LOC.   04-03-090-07W4                         :LOCATION
CTRY.  CANADA                                 :COUNTRY
PROV.  ALBERTA                                :PROVINCE
SRVC.  SCHLUMBERGER                           :SERVICE COMPANY
DATE.  26-JAN-81                              :LOG DATE
UWI.   AA/04-03-090-07W400                    :UNIQUE WELL ID
~Parameter Information Block
#MNEM.UNIT       Data                        Description of Mnemonic
#----.----      -------------------------- : -----------------------------
RUN .                   1                 : Run Number
GL  .M           466.8000                 : Ground Level Elevation
DREF.                  GD                 : Depth Reference
EREF.M           466.8000                 : Elevation of Depth Reference
TDL .M           205.0000                 : Total Depth Logger
TDD .M           205.0000                 : Total Depth Driller
BHT .DEGC         19.0000                 : Bottom Hole Temperature
BS  .MM          159.0000                 : Bit Size
DFD .            980.0000                 : Mud Weight (Density)
DFV .             38.0000                 : Mud Viscosity
DFPH.             10.0000                 : Mud pH
~Curve Information Block
#MNEM.UNIT        API CODE    Curve Description
#---------    ------------    -------------------------------------------
DEPT.M                    :   DEPTH
CALI.MM       42 280  1  1:   3 DENSITY CALIPER
DPHI.V/V                  :   DPHI
DT  .US/M     60 520  0  1:   2 SONIC INTERVAL TRANSIT TIME (COMPENSATED)
GR  .GAPI     42 310  1  1:   4 GAMMA RAY
ILD .OHMM      5 120 46  1:   7 DEEP INDUCTION
ILM .OHMM      5 120 44  1:   8 MEDIUM INDUCTION
NPHI.V/V      42 890  3  1:   5 NEUTRON POROSITY (SANDSTONE)
RHOB.K/M3     42 350  1  1:   6 BULK DENSITY
SFLU.OHMM      5 220  1  1:   9 FOCUSSED RESISTIVITY
SP  .MV        5  10  1  1:   10 SPONTANEOUS POTENTIAL
~A  Depth           CALI        DPHI          DT          GR         ILD         ILM        NPHI        RHOB        SFLU          SP
# ...
54.4000         192.5750      0.2386    473.8800     67.5750     29.0958     23.3254      0.3192   2262.2000     30.1877    -38.7150
54.6000         192.5750      0.2325    478.8000     68.7750     29.3650     23.5413      0.3186   2270.2000     30.7489    -39.2250
54.8000         193.8250      0.2326    477.1600     68.9850     29.3650     23.5413      0.3218   2284.2000     31.6104    -39.2250
55.0000         195.1000      0.2315    475.5200     70.1850     29.3650     23.5413      0.3228   2283.2000     30.7489    -39.9750
55.2000         193.8250      0.2408    473.6800     69.4800     29.0958     23.5413      0.3182   2277.2000     31.0334    -40.4850
55.4000         192.5750      0.2388    467.1200     69.2850     29.0958     23.5413      0.3030   2255.2000     33.4064    -40.4850
55.6000         198.9250      0.2350    464.4400     68.8800     28.5647     23.1116      0.3008   2261.2000     31.6104    -39.4800
55.8000         204.0000      0.2332    462.1600     67.2750     28.3028     23.3254      0.3000   2280.2000     30.1877    -39.2250
56.0000         205.2750      0.2357    470.2000     65.8800     27.7863     23.1116      0.3094   2276.2000     30.1877    -39.2250
56.2000         198.9250      0.2414    466.4800     67.6800     26.7812     22.0714      0.3110   2272.2000     30.7489    -39.4800
56.4000         197.6500      0.2488    469.7600     69.8850     26.2924     21.4699      0.3184   2262.2000     29.0958    -39.2250
56.6000         197.6500      0.2599    474.7200     71.2800     25.8125     21.0780      0.3416   2250.2000     26.7812    -39.4800
56.8000         216.7000      0.2668    469.7600     72.0750     24.6507     20.3156      0.3504   2220.1001     23.9789    -39.9750
57.0000         217.9750      0.2708    466.9200     72.7800     23.7591     19.7620      0.3544   2216.1001     23.7591    -40.2300
57.2000         216.7000      0.2786    473.8800     73.3800     22.8997     19.2234      0.3604   2217.1001     23.7591    -40.2300
57.4000         214.1500      0.2833    493.2000     74.4750     22.0714     18.6995      0.3732   2210.1001     23.3254    -40.2300
57.6000         207.8000      0.2926    511.6800     76.0800     20.6933     17.2119      0.3832   2193.1001     20.5036    -40.9950
57.8000         209.0750      0.3051    521.5600     77.8800     19.7620     16.7429      0.3888   2184.1001     19.0471    -41.2500
58.0000         201.4500      0.3110    500.0000     80.6850     18.8725     16.2866      0.3842   2155.1001     18.0231    -40.9950
58.2000         197.6500      0.3056    506.3600     84.6750     16.4373     14.9910      0.3970   2140.0000     17.8579    -40.4850
58.4000         188.7500      0.3005    512.1200     86.5800     15.4110     14.0550      0.4108   2153.1001     18.3582    -40.9950
58.6000         186.2250      0.3323    532.0400     88.0800     14.4487     13.0566      0.4134   2161.1001     17.6942    -41.5050
58.8000         184.9500      0.3623    532.6400     90.5850     12.8183     11.5832      0.4200   2059.8999     11.5832    -41.7600
59.0000         184.9500      0.3813    533.8800     93.0750     12.0179     11.0619      0.4240   2030.9000     10.1819    -42.0150
59.2000         184.9500      0.4023    547.8800     95.6850     11.4770     10.5640      0.4342   1995.9000      9.9961    -42.2700
59.4000         188.7500      0.4161    568.0000     96.4800     10.5640     10.0886      0.4550   1939.8000     10.0886    -42.7800
59.6000         193.8250      0.4171    590.2000     93.8850     10.3712      9.9044      0.4796   1953.8000     10.2761    -42.5250
59.8000         196.3750      0.4153    621.5600     92.8800     10.2761      9.8136      0.5052   1971.8000     10.4672    -41.7600
60.0000         193.8250      0.4160    629.3600     92.0850     10.1819      9.7237      0.4992   1953.8000     10.4672    -41.5050
60.2000         184.9500      0.4118    627.7200     92.4750     10.1819      9.7237      0.4648   1967.8000     10.0886    -41.7600
60.4000         186.2250      0.4146    621.1200     93.6750     10.2761      9.7237      0.4944   1973.8000      9.9044    -41.7600
60.6000         186.2250      0.4103    619.6800     95.2800     10.3712      9.8136      0.5328   1962.8000      9.9961    -41.5050
60.8000         177.3250      0.4007    621.5600     94.4850     10.7604     10.1819      0.5372   1985.8000     11.4770    -41.5050
61.0000         177.3250      0.3884    621.7600     91.6800     10.9605     10.3712      0.5378   2007.8000     12.4690    -41.7600
61.2000         177.3250      0.3830    611.6800     88.5750     11.3718     10.5640      0.5124   2017.9000     12.5843    -42.7800
61.4000         177.3250      0.3767    599.3600     84.9750     12.8183     11.5832      0.5148   2015.9000     11.3718    -43.2900
61.6000         176.0500      0.3571    593.4000     83.8800     13.7984     12.4690      0.5152   2034.9000     11.7986    -43.8000
61.8000         174.7750      0.3486    593.6000     82.2750     14.7174     13.6719      0.5152   2051.8999     13.0566    -44.3100
62.0000         173.5250      0.3370    601.4000     76.5750     16.2866     15.8427      0.5272   2098.0000     23.3254    -45.3300
62.2000         173.5250      0.3276    602.8400     72.8850     16.8978     16.1373      0.5428   2132.0000     33.7155    -45.5850
62.4000         173.5250      0.3158    592.3600     70.5750     17.6942     15.8427      0.5004   2162.1001     31.6104    -45.3300
62.6000         174.7750      0.3083    577.7600     73.3800     18.3582     15.5536      0.4620   2144.0000     19.0471    -44.8200
62.8000         173.5250      0.3204    546.7600     75.6750     18.0231     15.5536      0.4260   2106.0000     16.7429    -44.8200
63.0000         172.2500      0.3344    515.7200     77.4750     17.5319     15.5536      0.3836   2096.0000     15.8427    -45.5850
63.2000         169.7000      0.3452    514.6801     80.0850     17.2119     15.6975      0.4012   2059.8999     18.5281    -48.9000
63.4000         169.7000      0.3556    536.8800     78.0750     17.6942     15.6975      0.4244   2047.9000     20.5036    -49.6650
63.6000         169.7000      0.3644    566.0400     76.4850     18.3582     16.1373      0.4604   2043.9000     20.8848    -49.6650
63.8000         169.7000      0.3704    579.2000     76.0800     19.0471     16.7429      0.4700   2039.9000     19.4013    -49.1550
64.0000         169.7000      0.3664    588.6800     71.0850     19.9448     18.0231      0.4784   2048.8999     22.4817    -49.9200
64.2000         168.4250      0.3505    591.9600     68.0700     20.1294     18.0231      0.4832   2069.8999     28.0434    -49.9200
64.4000         168.4250      0.3344    587.8400     64.7700     20.8848     17.8579      0.4736   2120.0000     30.7489    -49.6650
64.6000         168.4250      0.3183    581.6800     59.8800     23.9789     20.3156      0.4496   2148.0000     20.6933    -49.4100
64.8000         168.4250      0.3124    571.8000     58.1700     25.5758     22.2756      0.4156   2126.0000     21.2731    -48.9000
65.0000         169.7000      0.2989    566.3600     54.4800     26.7812     23.5413      0.3728   2142.0000     28.0434    -48.6450
65.2000         177.3250      0.2831    573.3600     48.0750     28.0434     24.4247      0.3808   2244.2000     35.6312    -47.8800
65.4000         181.1250      0.2434    581.1600     47.6700     29.3650     24.8788      0.3954   2302.3000     43.2345    -47.1150
65.6000         183.6750      0.2069    560.0000     48.8700     31.6104     25.5758      0.3286   2324.3000     44.8570    -46.6050
65.8000         184.9500      0.2006    515.8000     50.3700     34.9808     26.7812      0.2716   2320.3000     41.6706    -47.1150
66.0000         184.9500      0.2069    489.5200     48.9750     35.6312     27.5315      0.2424   2302.3000     42.0562    -47.3700
66.2000         176.0500      0.2100    447.6000     48.3750     35.6312     28.3028      0.2502   2308.3000     44.4457    -47.8800
66.4000         179.8750      0.2092    441.0000     49.8750     35.6312     28.5647      0.2548   2304.3000     46.1137    -49.1550
