~VERSION INFORMATION
 VERS.                 2.0:   CWLS LOG ASCII STANDARD -VERSION 2.0
 WRAP.                  NO:   ONE LINE PER DEPTH STEP
~WELL INFORMATION BLOCK
#MNEM.UNIT           DATA                    DESCRIPTION OF MNEMONIC
#---------    -------------------            -------------------------------
# Generated from Intellog Unique Number	CN_91_93/WELL/3647
WELL.         01-32-093-11W4                 : Well_name    - WELL
LOC .         AA/01-32-093-11W4/0            : Location     - LOCATION
UWI .         AA/01-32-093-11W400            : Uwi          - UNIQUE WELL ID
ENTR.         JOETTE                         : Entered      - ENTERED BY
SRVC.         SCHLUMBERGER                   : Scn          - SERVICE COMPANY
DATE.         03/20/92                       : Date         - LOG DATE
STRT.M        0                              : top_depth    - START DEPTH
STOP.M        106                            : bot_depth    - STOP DEPTH
STEP.M        0.25                           : increment    - STEP LENGTH
 NULL. -999.2500:NULL Value
~CURVE INFORMATION BLOCK
#MNEM UNIT       ERCB CURVE CODE    CURVE DESCRIPTION
#-----------   ------------------   ----------------------------------
DEPT.M        00 001 00 00         : DEPTH        - DEPTH
GR  .API      00 310 00 00         : GR           - GAMMA RAY
NPHI.V/V      00 330 00 00         : PHIN         - NEUTRON POROSITY (SANDSTONE)
DPHI.V/V      00 890 00 00         : PHID         - DENSITY POROSITY (SANDSTONE)
ILD .OHMM     00 120 00 00         : RESD         - DEEP RESISTIVITY (DIL)
~PARAMETER INFORMATION
#MNEM.UNIT           DATA             DESCRIPTION OF MNEMONIC
#---------         -----------     ------------------------------
GL  .M        328.8                : gl           - GROUND LEVEL ELEVATION
EREF.M        328.8                : kb           - ELEVATION OF DEPTH REFERENCE
DATM.M        328.8                : datum        - DATUM ELEVATION
TDD .M        107.9                : tdd          - TOTAL DEPTH DRILLER
RUN .         ONE                  : Run          - RUN NUMBER
ENG .         JO                   : Engineer     - RECORDING ENGINEER
WIT .         TIM                  : Witness      - WITNESSED BY
MUD .         GEL                  : Mud_type     - MUD TYPE
MATR.         SANDSTONE            : Logunit      - NEUTRON MATRIX
TMAX.C        6                    : BHT          - MAXIMUM RECORDED TEMPERATURE
BHTD.M        107.9                : BHTDEP       - MAXIMUM RECORDED TEMPERATURE
RMT .C        7                    : MDTP         - TEMPERATURE OF MUD
MUDD.KG/M     1000                 : MWT          - MUD DENSITY
NEUT.         1                    : NEUTRON      - NEUTRON TYPE
RESI.         0                    : RESIST       - RESISTIVITY TYPE
RM  .OHMM     5.5                  : RM           - RESISTIVITY OF MUD
RMC .OHMM     5.5                  : RMC          - RESISTIVITY OF MUD CAKE
RMF .OHMM     5.5                  : RMF          - RESISTIVITY OF MUD FILTRATE
SUFT.C        4                    : SUFT         - SURFACE TEMPERATURE
~A  DEPTH       GR     PHIN     PHID     RESD
    0.000   62.417    0.310    0.006    0.000
    0.250   49.720    0.314   -0.003    0.000
    0.500   35.520    0.314   -0.009    0.000
    0.750   39.713    0.318   -0.011    0.000
    1.000   33.050    0.325   -0.008    0.000
    1.250   35.130    0.330   -0.004    0.000
    1.500   59.524    0.340   -0.015    0.000
    1.750   65.524    0.356   -0.013    0.000
    2.000   60.070    0.364   -0.005    0.000
    2.250   57.326    0.372   -0.012    0.000
    2.500   53.075    0.375   -0.019    0.000
    2.750   50.029    0.385   -0.013    0.000
    3.000   57.841    0.403   -0.011    0.000
    3.250   41.222    0.435   -0.014    0.000
    3.500   42.102    0.530   -0.010    0.000
    3.750   49.609    0.553   -0.007    0.000
    4.000   34.203    0.471   -0.009    0.000
    4.250   38.092    0.444   -0.007    0.000
    4.500   41.682    0.422   -0.015    0.000
    4.750   54.014    0.507   -0.010    0.000
    5.000   51.571    0.563   -0.006    0.000
    5.250   53.654    0.586   -0.014    0.000
    5.500   56.033    0.460   -0.008    0.000
    5.750   52.083    0.496   -0.011    0.000
    6.000   55.074    0.512   -0.020    0.000
    6.250   56.250    0.500   -0.017    0.000
    6.500   57.724    0.464   -0.009    0.000
    6.750   67.046    0.493   -0.013    0.000
    7.000   62.493    0.476   -0.027    0.000
    7.250   59.147    0.447   -0.010    0.000
    7.500   67.260    0.530   -0.013    0.000
    7.750   64.817    0.542   -0.018    0.000
    8.000   79.561    0.597   -0.016    0.000
    8.250   78.626    0.606   -0.031    0.000
    8.500   75.882    0.650   -0.033    0.000
    8.750   69.523    0.686   -0.029    0.000
    9.000   71.000    0.688   -0.011    0.000
    9.250   64.940    0.615   -0.003    0.000
    9.500   61.590    0.545   -0.007    0.000
    9.750   65.485    0.551   -0.011    0.000
   10.000   77.817    0.557   -0.008    0.000
   10.250   83.518    0.599    0.024    0.000
   10.500   69.920    0.634    0.017    0.000
   10.750   79.538    0.626    0.058    0.000
   11.000   65.032    0.584    0.049    0.000
   11.250   68.924    0.538    0.091    0.000
   11.500   77.939    0.560    0.066    0.000
   11.750   81.225    0.619    0.034    0.000
   12.000  124.017    0.682    0.054    8.582
   12.250  118.560    0.563    0.128   11.165
   12.500  101.646    0.454    0.184   13.935
   12.750  115.789    0.541    0.164   10.132
   13.000  134.150    0.567    0.316    8.882
   13.250  130.203    0.558    0.328    9.853
   13.500  120.223    0.605    0.355   12.730
   13.750  123.811    0.622    0.556    7.784
   14.000  115.640    0.605    0.576    7.518
   14.250  106.863    0.679    0.391    9.127
   14.500  107.740    0.723    0.453    6.775
   14.750  113.140    0.693    0.390    5.939
   15.000  128.788    0.614    0.330    5.697
   15.250  130.268    0.555    0.331    5.938
   15.500  139.581    0.599    0.332    5.617
   15.750  125.383    0.617    0.329    5.735
   16.000  112.992    0.618    0.258    7.358
   16.250  100.600    0.634    0.228    5.734
   16.500  110.217    0.568    0.234    4.855
   16.750  123.152    0.569    0.266    5.131
   17.000  114.984    0.617    0.292    6.676
   17.250  136.966    0.589    0.287    6.448
   17.500  123.064    0.546    0.276    5.771
   17.750  119.418    0.559    0.261    5.497
   18.000  118.782    0.552    0.274    5.459
   18.250  133.528    0.510    0.282    5.850
   18.500  127.468    0.502    0.273    6.183
   18.750  125.029    0.461    0.258    6.444
   19.000  120.777    0.444    0.252    6.533
   19.250  122.861    0.452    0.234    8.619
   19.500  107.149    0.410    0.159   18.591
   19.750  111.644    0.444    0.116    7.147
   20.000  120.358    0.426    0.167    7.048
   20.250  121.838    0.418    0.209    6.808
   20.500  117.583    0.433    0.241    8.207
   20.750  114.843    0.483    0.228    8.495
   21.000  118.732    0.493    0.212    7.144
   21.250  125.338    0.504    0.217    6.852
   21.500  121.991    0.550    0.222    6.176
   21.750  132.814    0.491    0.242    5.802
   22.000  126.154    0.561    0.262    5.643
   22.250  114.664    0.555    0.262    5.412
   22.500  115.236    0.536    0.252    5.338
   22.750  125.159    0.497    0.264    4.980
   23.000  122.113    0.523    0.279    5.084
   23.250  124.196    0.541    0.255    5.410
   23.500  119.641    0.489    0.225    7.338
   23.750  117.503    0.521    0.207   10.302
   24.000  120.789    0.563    0.158    6.127
   24.250  124.380    0.508    0.186    6.001
   24.500  121.334    0.449    0.224    6.000
   24.750  130.352    0.523    0.223    5.260
   25.000  114.942    0.556    0.246    5.445
   25.250  117.022    0.521    0.261    5.222
   25.500  122.422    0.492    0.235    4.872
   25.750  132.947    0.473    0.249    5.044
   26.000  124.174    0.479    0.231    5.405
   26.250  138.612    0.534    0.229    5.330
   26.500  135.268    0.500    0.219    5.184
   26.750  144.283    0.493    0.224    5.148
   27.000  131.593    0.503    0.221    4.870
   27.250  121.007    0.540    0.238    4.802
   27.500  116.457    0.458    0.235    6.558
   27.750  122.155    0.551    0.147    8.299
   28.000  114.587    0.651    0.243    5.005
   28.250  117.877    0.621    0.267    4.327
   28.500  117.843    0.563    0.292    3.466
   28.750  120.530    0.583    0.323    3.490
   29.000  129.849    0.530    0.268    3.766
   29.250  150.022    0.501    0.219    4.766
   29.500  132.505    0.483    0.217    4.832
   29.750  143.328    0.540    0.217    5.250
   30.000  126.715    0.535    0.246    4.415
   30.250  118.846    0.491    0.241    4.264
   30.500  120.320    0.443    0.232    4.506
   30.750  109.439    0.428    0.198    5.000
   31.000   90.106    0.496    0.100   10.345
   31.250   94.002    0.583    0.214    4.568
   31.500   99.703    0.644    0.286    3.535
   31.750   92.437    0.665    0.317    3.056
   32.000  102.356    0.634    0.336    2.661
   32.250  107.153    0.651    0.349    2.570
   32.500   98.982    0.661    0.342    2.517
   32.750  103.772    0.663    0.348    2.569
   33.000  103.444    0.595    0.336    2.660
   33.250  101.906    0.516    0.329    2.772
   33.500  117.858    0.487    0.280    3.184
   33.750  108.478    0.446    0.221    4.057
   34.000  120.514    0.498    0.220    4.142
   34.250  115.660    0.505    0.230    4.691
   34.500  107.489    0.509    0.255    4.257
   34.750  102.333    0.540    0.258    4.000
   35.000  115.270    0.509    0.277    4.027
   35.250   93.529    0.519    0.270    4.530
   35.500  103.752    0.458    0.256    5.095
   35.750  101.913    0.537    0.166    5.166
   36.000  121.480    0.571    0.193    6.675
   36.250  121.152    0.555    0.260    3.553
   36.500  119.614    0.582    0.262    3.653
   36.750  116.270    0.646    0.274    3.338
   37.000  115.637    0.567    0.272    3.136
   37.250  119.526    0.562    0.263    3.269
   37.500  117.385    0.531    0.266    3.384
   37.750  112.528    0.521    0.261    3.383
   38.000  110.996    0.500    0.249    3.383
   38.250  110.664    0.525    0.242    3.478
   38.500  114.852    0.494    0.242    3.858
   38.750  115.430    0.548    0.219    4.340
   39.000  121.129    0.572    0.249    3.525
   39.250  116.274    0.554    0.252    3.884
   39.500  118.050    0.501    0.215    5.088
   39.750  116.214    0.459    0.153    7.193
   40.000  124.628    0.480    0.187    4.338
   40.250  132.437    0.574    0.244    3.334
   40.500  123.666    0.577    0.242    3.673
   40.750  120.018    0.599    0.261    3.597
   41.000  111.244    0.520    0.241    4.276
   41.250  102.166    0.463    0.222    5.760
   41.500  104.544    0.439    0.194    5.680
   41.750   98.490    0.413    0.126   10.233
   42.000   90.621    0.396    0.140    8.255
   42.250  101.749    0.408    0.188    6.300
   42.500  107.447    0.431    0.216    7.235
   42.750  105.306    0.414    0.209    6.127
   43.000   87.487    0.367    0.241    7.284
   43.250   47.656    0.306    0.299   21.759
