~VERSION INFORMATION
 VERS.                 2.0:   CWLS LOG ASCII STANDARD -VERSION 2.0
 WRAP.                  NO:   ONE LINE PER DEPTH STEP
~WELL INFORMATION BLOCK
#MNEM.UNIT           DATA                    DESCRIPTION OF MNEMONIC
#---------    -------------------            -------------------------------
# Generated from Intellog Unique Number	CW_76_78/WELL/2565
WELL.         05-14-078-24W4                 : Well_name    - WELL
LOC .         AA/05-14-078-24W4/0            : Location     - LOCATION
UWI .         AA/05-14-078-24W4/0            : Uwi          - UNIQUE WELL ID
ENTR.         MAX                            : Entered      - ENTERED BY
SRVC.         SCHLUMBERGER                   : Scn          - SERVICE COMPANY
STRT.M        290                            : top_depth    - START DEPTH
STOP.M        545                            : bot_depth    - STOP DEPTH
STEP.M        0.25                           : increment    - STEP LENGTH
 NULL. -999.2500:NULL Value
~CURVE INFORMATION BLOCK
#MNEM UNIT       ERCB CURVE CODE    CURVE DESCRIPTION
#-----------   ------------------   ----------------------------------
DEPT.M        00 001 00 00         : DEPTH        - DEPTH
ILD .OHMM     00 120 00 00         : RESD         - DEEP RESISTIVITY (DIL)
NPHI.V/V      00 330 00 00         : PHIN         - NEUTRON POROSITY (SANDSTONE)
DPHI.V/V      00 890 00 00         : PHID         - DENSITY POROSITY (SANDSTONE)
CALI.MM       00 280 01 00         : CAL          - CALIPER
GR  .API      00 310 00 00         : GR           - GAMMA RAY
~PARAMETER INFORMATION
#MNEM.UNIT           DATA             DESCRIPTION OF MNEMONIC
#---------         -----------     ------------------------------
GL  .M        597.38               : gl           - GROUND LEVEL ELEVATION
EREF.M        602.13               : kb           - ELEVATION OF DEPTH REFERENCE
DATM.M        597.38               : datum        - DATUM ELEVATION
TDD .M        547                  : tdd          - TOTAL DEPTH DRILLER
RUN .         ONE                  : Run          - RUN NUMBER
ENG .         BILL                 : Engineer     - RECORDING ENGINEER
WIT .         JIM                  : Witness      - WITNESSED BY
MUD .         GEL                  : Mud_type     - MUD TYPE
MATR.         SANDSTONE            : Logunit      - NEUTRON MATRIX
TMAX.C        41.1                 : BHT          - MAXIMUM RECORDED TEMPERATURE
BHTD.M        547                  : BHTDEP       - MAXIMUM RECORDED TEMPERATURE
RMT .C        17.7                 : MDTP         - TEMPERATURE OF MUD
MUDD.KG/M     1115                 : MWT          - MUD DENSITY
NEUT.         1                    : NEUTRON      - NEUTRON TYPE
RESI.         0                    : RESIST       - RESISTIVITY TYPE
RM  .OHMM     6.28                 : RM           - RESISTIVITY OF MUD
RMC .OHMM     0.25                 : RMC          - RESISTIVITY OF MUD CAKE
RMF .OHMM     5.71                 : RMF          - RESISTIVITY OF MUD FILTRATE
SUFT.C        -20                  : SUFT         - SURFACE TEMPERATURE
~A  DEPTH     RESD     PHIN     PHID      CAL       GR
# ...
  363.000   15.809    0.424    0.297  193.454   48.295
  363.250   14.159    0.441    0.290  193.374   50.054
  363.500   13.639    0.452    0.263  193.283   50.301
  363.750   15.919    0.452    0.246  192.678   49.945
  364.000   18.750    0.433    0.223  191.571   47.781
  364.250   23.328    0.362    0.200  190.978   45.016
  364.500   29.024    0.349    0.179  190.887   43.749
  364.750   34.501    0.320    0.148  190.305   44.297
  365.000   30.058    0.272    0.130  190.214   46.666
  365.250   20.094    0.276    0.137  190.122   52.334
  365.500   14.583    0.360    0.201  190.533   60.412
  365.750   10.979    0.462    0.251  190.442   71.804
  366.000    8.730    0.456    0.261  190.853   71.749
  366.250    9.130    0.443    0.268  190.727   71.099
  366.500    9.995    0.439    0.288  190.648   69.531
  366.750   10.944    0.442    0.286  190.066   67.067
  367.000   12.202    0.447    0.273  189.472   62.795
  367.250   12.530    0.449    0.247  188.879   60.625
  367.500   12.184    0.422    0.228  188.263   60.871
  367.750   11.738    0.412    0.254  188.172   66.547
  368.000   11.205    0.449    0.266  188.092   67.998
  368.250   11.299    0.459    0.255  188.001   65.534
  368.500   12.258    0.437    0.238  187.898   61.857
  368.750   13.667    0.403    0.217  187.739   59.995
  369.000   14.294    0.348    0.202  187.704   58.421
  369.250   14.414    0.378    0.249  187.625   57.777
  369.500   13.886    0.426    0.268  187.533   62.542
  369.750   13.256    0.435    0.274  187.442   63.692
  370.000   13.125    0.431    0.279  187.351   61.228
  370.250   13.356    0.428    0.285  187.260   60.571
  370.500   13.716    0.440    0.284  187.157   62.309
  370.750   13.832    0.453    0.278  187.066   61.351
  371.000   14.076    0.433    0.253  186.473   60.393
  371.250   13.685    0.392    0.246  186.370   61.242
  371.500   13.305    0.401    0.284  186.302   61.796
  371.750   13.174    0.440    0.279  186.210   62.337
  372.000   13.406    0.410    0.224  186.610   62.590
  372.250   13.642    0.359    0.206  186.507   61.324
  372.500   13.383    0.365    0.240  186.929   59.770
  372.750   13.013    0.402    0.261  187.854   59.393
  373.000   12.537    0.407    0.264  188.253   61.468
  373.250   11.859    0.421    0.267  188.652   65.329
  373.500   11.425    0.445    0.275  188.561   69.183
  373.750   11.841    0.458    0.280  188.493   69.430
  374.000   11.940    0.447    0.278  188.390   67.266
  374.250   11.398    0.449    0.276  188.801   69.628
  374.500   10.782    0.451    0.277  189.189   71.381
  374.750   10.774    0.447    0.268  189.098   71.018
  375.000   12.460    0.430    0.255  189.029   69.752
  375.250   14.674    0.417    0.240  189.417   67.581
  375.500   16.664    0.391    0.212  189.349   66.637
  375.750   19.989    0.357    0.152  189.760   65.069
  376.000   21.486    0.340    0.125  189.668   62.303
  376.250   19.066    0.327    0.102  189.577   58.935
  376.500   17.075    0.300    0.086  189.463   57.977
  376.750   13.956    0.296    0.091  189.383   61.838
  377.000   11.616    0.376    0.143  189.281   68.718
  377.250    9.669    0.413    0.211  189.190   76.796
  377.500    8.501    0.447    0.242  189.612   80.356
  377.750    8.264    0.458    0.256  189.521   80.000
  378.000    8.333    0.446    0.255  189.407   76.927
  378.250    8.638    0.441    0.260  189.840   75.064
  378.500    9.033    0.460    0.266  189.738   74.709
  378.750    9.447    0.462    0.268  190.148   75.558
  379.000    9.355    0.450    0.264  190.548   77.604
  379.250    9.263    0.440    0.258  190.970   77.858
  379.500    9.173    0.446    0.244  191.381   77.201
  379.750    9.000    0.459    0.238  191.792   78.645
  380.000    8.830    0.468    0.236  191.700   77.694
  380.250    8.663    0.464    0.228  192.088   74.325
  380.500    8.345    0.456    0.221  192.522   75.770
  380.750    8.039    0.464    0.244  193.435   79.035
  381.000    7.817    0.462    0.253  193.823   78.070
  381.250    7.599    0.442    0.242  194.245   81.035
  381.500    7.523    0.439    0.257  194.154   81.582
  381.750    7.657    0.453    0.276  193.549   75.496
  382.000    8.156    0.453    0.273  190.948   71.224
  382.250    8.225    0.452    0.250  187.844   68.459
  382.500    7.852    0.446    0.249  188.244   72.621
  382.750    7.359    0.448    0.255  190.674   77.680
  383.000    7.626    0.457    0.259  197.098   77.331
  383.250    7.905    0.474    0.261  196.014   73.963
  383.500    8.192    0.473    0.258  191.918   68.178
  383.750    8.647    0.456    0.252  189.317   67.220
  384.000    9.127    0.470    0.256  187.206   71.985
  384.250    8.874    0.463    0.246  187.092   76.448
  384.500    8.471    0.436    0.222  187.023   79.714
  384.750    8.621    0.447    0.221  187.411   83.267
  385.000    8.854    0.478    0.240  188.324   83.520
  385.250    8.529    0.459    0.249  188.746   83.465
  385.500    7.922    0.436    0.246  189.659   80.693
  385.750    7.426    0.434    0.239  191.074   76.715
  386.000    7.154    0.438    0.222  193.984   76.962
  386.250    6.767    0.441    0.212  196.414   82.938
  386.500    6.579    0.446    0.201  199.347   84.684
  386.750    6.514    0.466    0.205  201.252   86.437
  387.000    6.874    0.513    0.255  197.145   87.293
  387.250    7.323    0.500    0.269  193.048   85.430
  387.500    8.316    0.463    0.267  188.918   81.460
  387.750    9.022    0.454    0.270  186.819   72.362
  388.000    9.348    0.452    0.282  185.735   65.968
  388.250    9.430    0.458    0.285  184.640   65.618
  388.500    9.509    0.455    0.275  184.046   70.671
  388.750    9.677    0.448    0.270  183.944   69.117
  389.000   10.498    0.438    0.273  184.366   69.069
  389.250   11.285    0.429    0.274  184.252   69.918
  389.500   12.583    0.424    0.259  184.161   65.947
  389.750   13.650    0.407    0.192  184.069   60.758
  390.000   14.277    0.348    0.136  183.990   58.602
  390.250   14.007    0.328    0.183  183.990   58.239
  390.500   12.892    0.366    0.262  183.807   63.613
  390.750   11.757    0.410    0.293  184.218   66.865
  391.000   10.151    0.430    0.293  184.058   67.118
  391.250    9.601    0.435    0.280  184.035   64.044
  391.500    9.594    0.427    0.273  184.446   67.912
  391.750    9.675    0.422    0.277  184.857   71.465
  392.000    9.667    0.431    0.273  185.747   72.924
  392.250    9.660    0.459    0.263  186.169   71.664
  392.500    9.565    0.454    0.286  186.569   85.773
  392.750    9.557    0.452    0.310  186.980   86.321
  393.000    9.636    0.490    0.322  186.980   75.717
  393.250    9.717    0.489    0.311  187.254   66.920
  393.500   10.164    0.451    0.260  188.201   68.666
  393.750   10.926    0.457    0.206  188.623   68.015
  394.000   12.073    0.424    0.180  189.045   67.659
  394.250   13.460    0.388    0.188  188.954   70.617
  394.500   14.079    0.404    0.190  188.851   70.863
  394.750   13.939    0.379    0.191  189.262   65.688
  395.000   13.307    0.325    0.200  189.159   62.915
  395.250   12.473    0.323    0.203  189.080   67.687
  395.500   11.272    0.356    0.200  188.475   74.560
  395.750   10.761    0.361    0.193  187.368   81.735
  396.000   10.177    0.387    0.200  186.273   83.782
  396.250   10.078    0.431    0.220  185.691   81.023
  396.500    9.978    0.419    0.214  185.098   77.956
  396.750    9.880    0.447    0.236  185.018   78.203
  397.000    9.606    0.464    0.258  185.919   83.864
  397.250    9.338    0.429    0.243  187.346   88.636
  397.500    9.079    0.437    0.214  190.255   89.485
  397.750    8.907    0.468    0.205  192.184   87.616
  398.000    8.819    0.473    0.221  191.579   85.453
  398.250    8.975    0.454    0.227  190.484   86.000
  398.500    9.217    0.422    0.217  189.388   87.459
  398.750    9.294    0.437    0.218  187.780   89.211
  399.000    9.373    0.452    0.237  187.700   88.246
  399.250    9.282    0.446    0.245  187.107   89.690
