~VERSION INFORMATION
 VERS.                 2.0:   CWLS LOG ASCII STANDARD -VERSION 2.0
 WRAP.                  NO:   ONE LINE PER DEPTH STEP
~WELL INFORMATION BLOCK
#MNEM.UNIT           DATA                    DESCRIPTION OF MNEMONIC
#---------    -------------------            -------------------------------
# Generated from Intellog Unique Number	CN_94_101/WELL/3291
WELL.         01-35-095-07W4                 : Well_name    - WELL
LOC .         AA/01-35-095-07W4/0            : Location     - LOCATION
UWI .         AA/01-35-095-07W400            : Uwi          - UNIQUE WELL ID
ENTR.         JOETTE                         : Entered      - ENTERED BY
SRVC.         SCHLUMBERGER                   : Scn          - SERVICE COMPANY
DATE.         07/22/92                       : Date         - LOG DATE
STRT.M        50                             : top_depth    - START DEPTH
STOP.M        235                            : bot_depth    - STOP DEPTH
STEP.M        0.25                           : increment    - STEP LENGTH
 NULL. -999.2500:NULL Value
~CURVE INFORMATION BLOCK
#MNEM UNIT       ERCB CURVE CODE    CURVE DESCRIPTION
#-----------   ------------------   ----------------------------------
DEPT.M        00 001 00 00         : DEPTH        - DEPTH
GR  .API      00 310 00 00         : GR           - GAMMA RAY
NPHI.V/V      00 330 00 00         : PHIN         - NEUTRON POROSITY (SANDSTONE)
DPHI.V/V      00 890 00 00         : PHID         - DENSITY POROSITY (SANDSTONE)
ILD .OHMM     00 120 00 00         : RESD         - DEEP RESISTIVITY (DIL)
~PARAMETER INFORMATION
#MNEM.UNIT           DATA             DESCRIPTION OF MNEMONIC
#---------         -----------     ------------------------------
GL  .M        494.08               : gl           - GROUND LEVEL ELEVATION
EREF.M        495.88               : kb           - ELEVATION OF DEPTH REFERENCE
DATM.M        495.88               : datum        - DATUM ELEVATION
TDD .M        236                  : tdd          - TOTAL DEPTH DRILLER
RUN .         ONE                  : Run          - RUN NUMBER
ENG .         JO                   : Engineer     - RECORDING ENGINEER
WIT .         TIM                  : Witness      - WITNESSED BY
MUD .         GEL                  : Mud_type     - MUD TYPE
MATR.         SANDSTONE            : Logunit      - NEUTRON MATRIX
TMAX.C        4.4                  : BHT          - MAXIMUM RECORDED TEMPERATURE
BHTD.M        236                  : BHTDEP       - MAXIMUM RECORDED TEMPERATURE
RMT .C        4.4                  : MDTP         - TEMPERATURE OF MUD
MUDD.KG/M     1030                 : MWT          - MUD DENSITY
NEUT.         1                    : NEUTRON      - NEUTRON TYPE
RESI.         0                    : RESIST       - RESISTIVITY TYPE
RM  .OHMM     7.4                  : RM           - RESISTIVITY OF MUD
RMC .OHMM     7.4                  : RMC          - RESISTIVITY OF MUD CAKE
RMF .OHMM     7.4                  : RMF          - RESISTIVITY OF MUD FILTRATE
SUFT.C        4                    : SUFT         - SURFACE TEMPERATURE
~A  DEPTH       GR     PHIN     PHID     RESD
   50.000   96.088    0.553    0.313   12.022
   50.250   96.071    0.546    0.320   11.142
   50.500   94.244    0.545    0.316   10.524
   50.750   95.433    0.551    0.314   10.523
   51.000   96.016    0.546    0.324   10.324
   51.250   95.395    0.527    0.316   10.323
   51.500   94.177    0.528    0.289   10.927
   51.750   91.161    0.481    0.283   13.463
   52.000   86.340    0.420    0.268   20.439
   52.250   80.919    0.393    0.251   25.666
   52.500   73.691    0.393    0.232   25.181
   52.750   69.471    0.402    0.229   23.337
   53.000   67.048    0.405    0.245   22.465
   53.250   65.229    0.409    0.248   22.463
   53.500   64.011    0.420    0.268   22.890
   53.750   62.193    0.434    0.239   22.888
   54.000   59.774    0.429    0.231   23.325
   54.250   57.956    0.415    0.218   24.225
   54.500   56.738    0.386    0.219   42.004
   54.750   56.120    0.374    0.224   52.745
   55.000   53.701    0.347    0.203   56.898
   55.250   50.678    0.329    0.211   51.742
   55.500   50.661    0.315    0.207   42.790
   55.750   50.644    0.322    0.192   38.913
   56.000   53.033    0.329    0.169   32.180
   56.250   55.418    0.336    0.146   30.396
   56.500   56.002    0.339    0.167   30.393
   56.750   54.780    0.328    0.178   33.416
   57.000   52.365    0.317    0.167   32.784
   57.250   54.146    0.321    0.164   29.251
   57.500   56.531    0.329    0.172   28.159
   57.750   59.521    0.338    0.182   26.596
   58.000   61.306    0.340    0.178   27.103
   58.250   59.479    0.341    0.182   29.238
   58.500   57.660    0.341    0.173   32.147
   58.750   57.643    0.335    0.171   34.680
   59.000   58.227    0.323    0.172   35.340
   59.250   58.210    0.310    0.177   34.672
   59.500   57.593    0.294    0.140   34.016
   59.750   57.576    0.300    0.165   33.374
   60.000   57.559    0.307    0.155   32.742
   60.250   58.143    0.312    0.160   32.738
   60.500   58.126    0.313    0.155   32.735
   60.750   56.307    0.316    0.155   32.733
   61.000   56.291    0.325    0.164   33.356
   61.250   55.073    0.337    0.148   35.984
   61.500   53.855    0.332    0.174   38.088
   61.750   54.434    0.319    0.155   38.084
   62.000   56.819    0.305    0.179   35.296
   62.250   57.403    0.306    0.187   33.338
   62.500   57.386    0.313    0.180   34.624
   62.750   57.369    0.311    0.183   35.285
   63.000   57.352    0.311    0.185   35.281
   63.250   56.735    0.319    0.180   35.276
   63.500   54.912    0.327    0.178   33.959
   63.750   53.098    0.331    0.190   33.317
   64.000   48.873    0.331    0.199   33.314
   64.250   47.655    0.326    0.199   33.310
   64.500   48.243    0.318    0.199   34.595
   64.750   51.229    0.312    0.199   36.618
   65.000   54.215    0.308    0.178   38.030
   65.250   54.794    0.315    0.178   38.757
   65.500   54.177    0.313    0.196   36.607
   65.750   53.564    0.312    0.169   33.926
   66.000   55.348    0.312    0.171   32.659
   66.250   58.334    0.324    0.182   33.282
   66.500   60.719    0.334    0.171   35.903
   66.750   61.299    0.328    0.162   37.289
   67.000   60.681    0.323    0.168   37.286
   67.250   58.863    0.329    0.176   37.282
   67.500   57.040    0.339    0.197   33.902
   67.750   56.423    0.345    0.172   31.420
   68.000   57.007    0.346    0.183   30.246
   68.250   58.191    0.347    0.185   30.243
   68.500   59.379    0.351    0.190   29.671
   68.750   61.160    0.360    0.193   28.562
   69.000   61.143    0.363    0.203   26.978
   69.250   61.130    0.360    0.208   26.468
   69.500   61.105    0.350    0.207   25.968
   69.750   61.697    0.357    0.196   26.462
   70.000   61.672    0.366    0.211   26.967
   70.250   61.650    0.371    0.214   27.481
   70.500   64.036    0.378    0.201   28.540
   70.750   64.628    0.375    0.211   28.539
   71.000   65.812    0.370    0.226   27.999
   71.250   64.590    0.363    0.221   26.446
   71.500   62.171    0.364    0.217   25.458
   71.750   60.957    0.364    0.216   25.455
   72.000   59.134    0.364    0.213   25.939
   72.250   58.517    0.364    0.215   25.938
   72.500   59.101    0.364    0.210   27.454
   72.750   60.281    0.366    0.200   28.515
   73.000   60.864    0.368    0.209   29.058
   73.250   60.852    0.362    0.214   28.509
   73.500   62.036    0.360    0.220   27.444
   73.750   63.216    0.357    0.235   30.751
   74.000   65.605    0.352    0.190   40.877
   74.250   67.390    0.346    0.188   44.941
   74.500   66.772    0.319    0.182   44.092
   74.750   64.954    0.313    0.171   42.444
   75.000   64.337    0.289    0.139   42.440
   75.250   66.117    0.286    0.143   42.434
   75.500   67.301    0.279    0.149   42.432
   75.750   66.684    0.285    0.159   41.628
   76.000   64.861    0.289    0.150   38.578
   76.250   65.445    0.293    0.144   37.851
   76.500   66.629    0.302    0.163   36.437
   76.750   67.213    0.305    0.163   35.076
   77.000   65.999    0.307    0.143   34.413
   77.250   63.580    0.305    0.132   34.410
   77.500   62.362    0.309    0.127   31.291
   77.750   64.147    0.311    0.137   27.919
   78.000   67.124    0.304    0.153   28.996
   78.250   67.716    0.295    0.140   26.368
   78.500   67.099    0.305    0.145   23.084
   78.750   64.680    0.315    0.152   22.222
   79.000   60.455    0.340    0.201   42.369
   79.250   55.630    0.362    0.231   66.814
   79.500   52.014    0.395    0.256   66.805
   79.750   45.992    0.396    0.285   64.310
   80.000   39.369    0.396    0.276   64.303
   80.250   38.752    0.410    0.282   65.530
   80.500   38.135    0.427    0.301   68.057
   80.750   35.111    0.406    0.313   69.354
   81.000   32.091    0.400    0.309   66.764
   81.250   29.668    0.394    0.312   64.271
   81.500   32.654    0.396    0.324   58.444
   81.750   38.046    0.401    0.330   56.262
   82.000   41.028    0.415    0.330   49.255
   82.250   42.216    0.419    0.332   44.789
   82.500   43.396    0.419    0.324   39.963
   82.750   44.580    0.419    0.330   36.341
   83.000   46.369    0.418    0.333   32.425
   83.250   49.355    0.411    0.330   30.628
   83.500   53.541    0.405    0.318   28.930
   83.750   58.329    0.401    0.300   33.670
   84.000   63.717    0.398    0.272   34.970
   84.250   66.702    0.396    0.258   33.031
   84.500   68.487    0.380    0.203   28.918
   84.750   70.872    0.360    0.196   25.317
   85.000   71.443    0.345    0.195   25.313
   85.250   70.234    0.346    0.213   24.368
   85.500   69.007    0.346    0.206   25.793
   85.750   68.399    0.349    0.190   27.302
   86.000   67.781    0.349    0.173   27.298
   86.250   68.361    0.343    0.207   26.278
   86.500   67.743    0.343    0.216   25.782
   86.750   65.329    0.343    0.223   25.295
   87.000   60.507    0.338    0.224   25.777
   87.250   60.490    0.343    0.210   26.268
   87.500   65.278    0.340    0.204   26.265
   87.750   66.458    0.337    0.196   25.768
   88.000   65.236    0.341    0.209   25.766
   88.250   64.614    0.346    0.199   25.279
   88.500   64.606    0.355    0.199   24.801
   88.750   65.189    0.360    0.203   24.798
   89.000   65.773    0.362    0.204   24.796
   89.250   64.551    0.366    0.203   24.326
   89.500   62.132    0.368    0.197   24.324
   89.750   61.519    0.368    0.199   24.321
   90.000   62.098    0.372    0.195   24.319
   90.250   64.487    0.373    0.187   24.315
   90.500   66.873    0.365    0.194   24.314
   90.750   69.850    0.355    0.205   24.312
   91.000   70.434    0.357    0.198   24.309
   91.250   69.816    0.366    0.193   24.306
   91.500   68.598    0.362    0.186   24.303
   91.750   65.579    0.358    0.197   23.845
   92.000   63.164    0.356    0.204   23.842
   92.250   63.147    0.360    0.190   24.762
   92.500   64.327    0.371    0.191   32.915
   92.750   64.315    0.365    0.181   36.881
   93.000   63.693    0.361    0.190   30.502
   93.250   63.080    0.360    0.214   24.751
