~VERSION INFORMATION
 VERS.                 2.0:   CWLS LOG ASCII STANDARD -VERSION 2.0
 WRAP.                  NO:   ONE LINE PER DEPTH STEP
~WELL INFORMATION BLOCK
#MNEM.UNIT           DATA                    DESCRIPTION OF MNEMONIC
#---------    -------------------            -------------------------------
# Generated from Intellog Unique Number	CN_94_101/WELL/4983
WELL.         06-18-097-15W4                 : Well_name    - WELL
LOC .         AA/06-18-097-15W4/0            : Location     - LOCATION
UWI .         AA/06-18-097-15W400            : Uwi          - UNIQUE WELL ID
ENTR.         JOETTE                         : Entered      - ENTERED BY
SRVC.         SCHLUMBERGER                   : Scn          - SERVICE COMPANY
DATE.         08/17/92                       : Date         - LOG DATE
STRT.M        243.84                         : top_depth    - START DEPTH
STOP.M        502.84                         : bot_depth    - STOP DEPTH
STEP.M        0.25                           : increment    - STEP LENGTH
 NULL. -999.2500:NULL Value
~CURVE INFORMATION BLOCK
#MNEM UNIT       ERCB CURVE CODE    CURVE DESCRIPTION
#-----------   ------------------   ----------------------------------
DEPT.M        00 001 00 00         : DEPTH        - DEPTH
ILD .OHMM     00 120 00 00         : RESD         - DEEP RESISTIVITY (DIL)
GR  .API      00 310 00 00         : GR           - GAMMA RAY
NPHI.V/V      00 330 00 00         : PHIN         - NEUTRON POROSITY (SANDSTONE)
~PARAMETER INFORMATION
#MNEM.UNIT           DATA             DESCRIPTION OF MNEMONIC
#---------         -----------     ------------------------------
GL  .M        734.964              : gl           - GROUND LEVEL ELEVATION
EREF.M        734.964              : kb           - ELEVATION OF DEPTH REFERENCE
DATM.M        734.964              : datum        - DATUM ELEVATION
TDD .M        505.358              : tdd          - TOTAL DEPTH DRILLER
RUN .         ONE                  : Run          - RUN NUMBER
ENG .         JO                   : Engineer     - RECORDING ENGINEER
WIT .         TIM                  : Witness      - WITNESSED BY
MUD .         GEL                  : Mud_type     - MUD TYPE
MATR.         SANDSTONE            : Logunit      - NEUTRON MATRIX
TMAX.C        15                   : BHT          - MAXIMUM RECORDED TEMPERATURE
BHTD.M        505.358              : BHTDEP       - MAXIMUM RECORDED TEMPERATURE
RMT .C        4.44444              : MDTP         - TEMPERATURE OF MUD
MUDD.KG/M     1020                 : MWT          - MUD DENSITY
NEUT.         1                    : NEUTRON      - NEUTRON TYPE
RESI.         0                    : RESIST       - RESISTIVITY TYPE
RM  .OHMM     9.3                  : RM           - RESISTIVITY OF MUD
RMC .OHMM     9.3                  : RMC          - RESISTIVITY OF MUD CAKE
RMF .OHMM     9.3                  : RMF          - RESISTIVITY OF MUD FILTRATE
SUFT.C        4                    : SUFT         - SURFACE TEMPERATURE
~A  DEPTH     RESD       GR     PHIN
# ...
  298.090   13.203   85.003    0.524
  298.340   15.431   81.694    0.522
  298.590   16.927   77.835    0.516
  298.840   15.502   76.186    0.511
  299.090   14.799   74.545    0.505
  299.340   13.392   73.466    0.507
  299.590   13.428   72.944    0.501
  299.840   13.464   72.957    0.490
  300.090   14.221   80.220    0.493
  300.340   18.649   84.139    0.488
  300.590   17.233   80.829    0.490
  300.840   16.520   78.082    0.494
  301.090   15.844   78.665    0.501
  301.340   19.523   79.797    0.477
  301.590   31.976   77.057    0.468
  301.840   37.125   74.297    0.479
  302.090   23.283   70.987    0.505
  302.340   11.632   86.584    0.500
  302.590   10.937   86.062    0.498
  302.840   12.452   84.976    0.508
  303.090   13.218   83.898    0.516
  303.340   13.993   85.586    0.511
  303.590   14.011   86.725    0.509
  303.840   13.335   86.202    0.523
  304.090   12.631   84.561    0.544
  304.340   13.398   82.913    0.457
  304.590   20.738   80.159    0.449
  304.840   28.809   77.962    0.452
  305.090   25.192   72.441    0.469
  305.340   17.942   68.569    0.492
  305.590   20.151   76.380    0.490
  305.840   23.109   79.744    0.479
  306.090   21.693   78.658    0.466
  306.340   21.738   77.017    0.453
  306.590   18.861   74.826    0.443
  306.840   17.436   74.853    0.454
  307.090   17.454   77.660    0.469
  307.340   19.690   78.799    0.482
  307.590   21.178   78.826    0.500
  307.840   18.310   77.740    0.496
  308.090   13.963   77.218    0.483
  308.340   20.573   78.913    0.481
  308.590   22.791   80.614    0.483
  308.840   14.062   79.522    0.488
  309.090   13.368   73.988    0.499
  309.340   13.404   77.352    0.497
  309.590   14.179   79.609    0.488
  309.840   15.685   79.073    0.479
  310.090   17.172   77.995    0.475
  310.340   18.669   80.809    0.474
  310.590   18.705   84.165    0.468
  310.840   16.559   86.979    0.474
  311.090   13.673   85.331    0.491
  311.340   12.970   78.142    0.489
  311.590   13.014   78.712    0.491
  311.840   11.589   82.082    0.496
  312.090   10.174   86.557    0.503
  312.340   11.661   87.140    0.506
  312.590   14.628   80.494    0.497
  312.840   11.733   76.072    0.486
  313.090   11.769   74.430    0.493
  313.340   16.936   76.681    0.497
  313.590   19.885   80.614    0.495
  313.840   14.807   78.966    0.501
  314.090   12.661   72.320    0.507
  314.340   12.697   70.122    0.516
  314.590   12.742   75.710    0.513
  314.840   13.508   79.073    0.512
  315.090   14.284   80.219    0.513
  315.340   14.311   80.802    0.507
  315.590   14.338   79.730    0.494
  315.840   18.035   78.631    0.486
  316.090   19.531   75.891    0.479
  316.340   18.115   73.680    0.475
  316.590   15.969   70.940    0.482
  316.840   15.257   72.621    0.490
  317.090   14.562   75.428    0.459
  317.340   16.789   78.242    0.456
  317.590   21.208   72.152    0.458
  317.840   21.974   56.053    0.468
  318.090   24.941   51.631    0.420
  318.340   30.829   46.653    0.349
  318.590   25.752   42.787    0.325
  318.840   36.014   41.153    0.330
  319.090   28.006   42.291    0.434
  319.340   19.286   45.655    0.451
  319.590   18.591   50.123    0.473
  319.840   16.436   64.615    0.477
  320.090   15.741   67.422    0.487
  320.340   16.517   69.673    0.496
  320.590   15.813   79.173    0.502
  320.840   18.771   77.519    0.485
  321.090   22.468   73.103    0.462
  321.340   18.121   70.906    0.466
  321.590   13.784   69.264    0.475
  321.840   13.071   74.289    0.492
  322.090   16.038   78.209    0.494
  322.340   28.491   81.029    0.453
  322.590   34.379   78.838    0.407
  322.840   32.224   77.746    0.375
  323.090   30.799   74.986    0.369
  323.340   30.844   43.310    0.379
  323.590   30.149   38.894    0.405
  323.840   27.994   37.809    0.412
  324.090   25.108   43.397    0.428
  324.340   23.674   48.984    0.418
  324.590   32.475   50.679    0.405
  324.840   46.416   49.600    0.398
  325.090   46.443   47.403    0.407
  325.340   44.288   45.212    0.384
  325.590   40.681   43.571    0.375
  325.840   38.507   49.152    0.374
  326.090   22.474   55.851    0.384
  326.340   19.588   60.333    0.448
  326.590   18.163   57.580    0.454
  326.840   16.747   57.050    0.462
  327.090   18.244   60.970    0.471
  327.340   19.010   67.114    0.480
  327.590   15.403   75.488    0.470
  327.840   13.257   76.634    0.469
  328.090   12.544   76.654    0.470
  328.340   12.580   73.351    0.466
  328.590   12.625   74.490    0.460
  328.840   12.670   76.734    0.450
  329.090   12.706   78.992    0.457
  329.340   12.742   80.131    0.464
  329.590   12.777   79.046    0.476
  329.840   12.805   76.292    0.481
  330.090   12.840   71.870    0.486
  330.340   12.885   73.572    0.491
  330.590   12.921   75.816    0.495
  330.840   12.957   78.637    0.499
  331.090   13.723   78.664    0.501
  331.340   13.759   79.803    0.484
  331.590   14.526   82.603    0.485
  331.840   14.562   86.529    0.488
  332.090   14.616   83.219    0.493
  332.340   14.642   82.690    0.497
  332.590   15.409   79.380    0.511
  332.840   18.366   79.970    0.496
  333.090   18.402   79.990    0.491
  333.340   17.717   77.793    0.489
  333.590   19.944   73.371    0.463
  333.840   17.780   69.505    0.460
  334.090   17.825   68.420    0.467
  334.340   17.130   68.446    0.463
  334.590   12.783   69.036    0.462
  334.840   12.828   69.619    0.467
  335.090   13.604   69.646    0.474
  335.340   14.361   69.672    0.484
  335.590   15.118   71.374    0.485
  335.840   15.903   72.506    0.485
  336.090   15.930   74.764    0.515
  336.340   15.975   78.683    0.511
  336.590   15.289   82.053    0.504
  336.840   15.307   82.636    0.500
  337.090   18.273   82.663    0.482
  337.340   16.849   79.903    0.476
  337.590   14.693   73.813    0.487
  337.840   14.008   71.615    0.499
  338.090   14.044   74.985    0.493
  338.340   16.262   75.019    0.481
  338.590   22.141   72.265    0.473
  338.840   19.995   70.061    0.467
  339.090   20.770   66.751    0.458
  339.340   17.884   67.890    0.457
  339.590   12.807   71.267    0.483
  339.840   11.382   70.737    0.494
  340.090   11.409   72.989    0.516
  340.340   12.915   79.125    0.524
  340.590   12.942   84.157    0.530
  340.840   13.717   86.971    0.533
  341.090   13.762   82.000    0.527
  341.340   14.520   78.690    0.522
  341.590   15.304   77.048    0.512
  341.840   15.322   77.069    0.507
  342.090   15.367   77.651    0.493
  342.340   14.663   81.021    0.479
  342.590   14.708   79.929    0.487
  342.840   16.935   75.507    0.505
  343.090   16.250   75.541    0.501
  343.340   14.094   79.460    0.508
  343.590   12.660   82.823    0.515
  343.840   10.505   86.743    0.507
  344.090   10.541   90.662    0.494
  344.340    9.846   90.146    0.502
  344.590    9.882   89.054    0.511
  344.840   10.676   91.861    0.510
  345.090   12.894   91.332    0.500
  345.340   16.573   91.359    0.497
  345.590   20.270   91.942    0.490
  345.840   16.654   86.408    0.497
  346.090   13.768   82.542    0.512
  346.340   12.352   78.127    0.528
  346.590   12.379   76.492    0.534
  346.840   13.163   83.741    0.532
  347.090   13.921   88.217    0.532
  347.340   13.975   87.131    0.534
  347.590   13.983   83.828    0.538
  347.840   14.028   82.187    0.533
  348.090   14.804   87.218    0.514
  348.340   18.483   88.357    0.503
  348.590   22.180   86.160    0.500
  348.840   20.755   84.518    0.483
  349.090   23.713   77.872    0.466
  349.340   21.548   59.548    0.455
  349.590   21.593   57.907    0.445
  349.840   31.864   59.602    0.452
  350.090   30.439   55.736    0.459
  350.340   18.049   51.314    0.481
  350.590   21.737   49.117    0.476
  350.840   19.581   55.274    0.464
  351.090   24.000   54.188    0.450
  351.340   35.741   49.767    0.425
  351.590   32.846   41.446    0.411
  351.840   21.925   47.589    0.438
  352.090    8.092   77.651    0.465
