~VERSION INFORMATION
 VERS.                 2.0:   CWLS LOG ASCII STANDARD -VERSION 2.0
 WRAP.                  NO:   ONE LINE PER DEPTH STEP
~WELL INFORMATION BLOCK
#MNEM.UNIT           DATA                    DESCRIPTION OF MNEMONIC
#---------    -------------------            -------------------------------
# Generated from Intellog Unique Number	CC_84_87/WELL/1048
NULL.         -999.25                        : NULL_VALUE
WELL.         ARCO ACI MCMURRAY              : Well_name    - WELL
LOC .         02-35-084-09W4                 : Location     - LOCATION          
UWI .         AA/02-35-084-09W400            : Uwi          - UNIQUE WELL ID    
ENTR.         JHS                            : Entered      - ENTERED BY        
SRVC.         DRESSER ATLAS                  : Scn          - SERVICE COMPANY   
DATE.         12 JAN 76                      : Date         - LOG DATE
STRT.M        243.84                         : top_depth    - START DEPTH       
STOP.M        493.783                        : bot_depth    - STOP DEPTH        
STEP.M        0.305                          : increment    - STEP LENGTH       
~CURVE INFORMATION BLOCK
#MNEM UNIT       ERCB CURVE CODE    CURVE DESCRIPTION
#-----------   ------------------   ----------------------------------
DEPT.M        00 001 00 00         : DEPTH        - DEPTH                       
DPHI.V/V      00 890 00 00         : PHID         - DENSITY POROSITY (LIMESTONE)
GR  .API      00 310 00 00         : GR           - GAMMA RAY                   
ILD .OHMM     00 120 00 00         : RESD         - DEEP RESISTIVITY (DIL)      
~PARAMETER INFORMATION       
#MNEM.UNIT           DATA             DESCRIPTION OF MNEMONIC
#---------         -----------     ------------------------------
GL  .M        726.034              : gl           - GROUND LEVEL ELEVATION      
EREF.M        729.082              : kb           - ELEVATION OF DEPTH REFERENCE
DATM.M        729.082              : datum        - DATUM ELEVATION             
TDD .M        496.214              : tdd          - TOTAL DEPTH DRILLER         
RUN .         ONE                  : Run          - RUN NUMBER                  
ENG .         BILL                 : Engineer     - RECORDING ENGINEER          
WIT .         JIM                  : Witness      - WITNESSED BY                
MUD .         GEL                  : Mud_type     - MUD TYPE                    
MATR.         LIMESTONE            : Logunit      - NEUTRON MATRIX              
TMAX.C        60                   : BHT          - MAXIMUM RECORDED TEMPERATURE
BHTD.M        496.214              : BHTDEP       - MAXIMUM RECORDED TEMPERATURE
MATR.         1                    : LOGUNIT      - NEUTRON MATRIX              
RMT .C        25                   : MDTP         - TEMPERATURE OF MUD          
NEUT.         1                    : NEUTRON      - NEUTRON TYPE                
RESI.         0                    : RESIST       - RESISTIVITY TYPE            
RMC .OHMM     0.25                 : RMC          - RESISTIVITY OF MUD CAKE     
RMF .OHMM     0.25                 : RMF          - RESISTIVITY OF MUD FILTRATE 
SUFT.C        15                   : SUFT         - SURFACE TEMPERATURE         
~A  DEPTH     PHID       GR     RESD
# ...
  376.127    0.241   50.937   12.316
  376.432    0.131   55.761   12.095
  376.736    0.110   57.580   11.237
  377.041    0.330   57.608    9.877
  377.346    0.386   57.030    8.844
  377.651    0.390   57.046    8.526
  377.956    0.389   58.270    8.221
  378.260    0.380   59.492    8.223
  378.565    0.373   61.313    8.075
  378.870    0.375   62.535    8.077
  379.175    0.379   61.360    7.933
  379.480    0.379   60.782    7.936
  379.784    0.382   59.602    7.938
  380.089    0.386   59.022    7.941
  380.394    0.382   58.446    7.944
  380.699    0.375   58.470    8.094
  381.004    0.369   59.089    8.248
  381.309    0.375   60.912    8.250
  381.613    0.382   61.532    8.253
  381.918    0.386   59.756    8.256
  382.223    0.394   58.575    8.413
  382.528    0.393   58.599    8.416
  382.833    0.387   58.019    8.264
  383.137    0.382   58.646    8.267
  383.442    0.383   58.666    8.271
  383.747    0.385   58.686    8.273
  384.052    0.384   58.711    8.125
  384.357    0.383   59.929    8.127
  384.661    0.382   62.353    8.129
  384.966    0.383   62.375    7.984
  385.271    0.385   61.800    7.986
  385.576    0.388   62.418    7.843
  385.881    0.394   66.044    7.702
  386.185    0.396   67.862    7.563
  386.490    0.389   69.087    7.158
  386.795    0.374   68.507    6.775
  387.100    0.368   67.932    6.179
  387.405    0.365   67.950    5.636
  387.710    0.358   66.774    5.236
  388.014    0.351   65.598    5.048
  388.319    0.334   65.015    5.050
  388.624    0.313   66.837    5.146
  388.929    0.274   72.861    5.543
  389.234    0.278   77.082    5.860
  389.538    0.406   80.102    6.196
  389.843    0.400   82.522    5.756
  390.148    0.407   84.346    5.154
  390.453    0.414   85.571    4.789
  390.758    0.414   86.194    4.210
  391.062    0.417   86.213    3.911
  391.367    0.425   83.836    3.771
  391.672    0.426   82.060    3.703
  391.977    0.421   79.678    3.773
  392.282    0.415   78.499    3.916
  392.586    0.408   78.523    4.297
  392.891    0.403   81.543    4.628
  393.196    0.400   82.168    4.893
  393.501    0.402   82.788    4.986
  393.806    0.408   84.009    4.807
  394.111    0.414   85.834    4.720
  394.415    0.415   87.060    4.635
  394.720    0.414   88.275    4.724
  395.025    0.420   90.099    4.725
  395.330    0.427   91.923    4.555
  395.635    0.435   93.740    4.311
  395.939    0.442   94.368    4.080
  396.244    0.451   93.785    3.861
  396.549    0.457   93.210    3.522
  396.854    0.460   94.428    3.154
  397.159    0.462   96.252    2.877
  397.463    0.460   96.274    2.624
  397.768    0.460   95.696    2.438
  398.073    0.458   93.916    2.307
  398.378    0.452   89.140    2.351
  398.683    0.444   85.565    2.486
  398.987    0.434   84.981    2.830
  399.292    0.428   84.404    3.342
  399.597    0.422   85.034    3.948
  399.902    0.417   85.653    4.332
  400.207    0.412   86.270    4.580
  400.512    0.401   87.493    4.843
  400.816    0.397   88.718    5.216
  401.121    0.394   88.140    5.515
  401.426    0.386   88.160    5.724
  401.731    0.379   88.181    6.052
  402.036    0.370   88.803    6.282
  402.340    0.356   87.624    6.643
  402.645    0.337   84.650    6.895
  402.950    0.325   83.472    7.156
  403.255    0.312   84.093    7.429
  403.560    0.290   85.311    7.570
  403.864    0.279   90.737    7.433
  404.169    0.279   92.556    7.035
  404.474    0.300   91.379    6.659
  404.779    0.336   90.800    6.301
  405.084    0.348   90.222    5.964
  405.388    0.362   89.648    5.541
  405.693    0.375   89.066    5.244
  405.998    0.387   89.087    5.056
  406.303    0.395   89.709    4.965
  406.608    0.385   88.534    5.153
  406.913    0.364   86.156    5.654
  407.217    0.345   85.576    6.089
  407.522    0.329   85.603    6.559
  407.827    0.327   86.822    6.683
  408.132    0.339   88.041    6.685
  408.437    0.353   88.665    6.565
  408.741    0.358   88.688    6.329
  409.046    0.365   89.910    5.773
  409.351    0.379   90.530    5.364
  409.656    0.395   85.752    5.171
  409.961    0.403   83.375    4.985
  410.265    0.398   84.599    4.986
  410.570    0.388   86.419    4.988
  410.875    0.385   85.241    5.274
  411.180    0.384   84.663    5.577
  411.485    0.401   84.083    5.476
  411.789    0.411   81.707    5.581
  412.094    0.405   80.527    5.901
  412.399    0.385   79.951    6.238
  412.704    0.367   80.572    6.476
  413.009    0.372   81.794    6.243
  413.314    0.380   84.216    6.019
  413.618    0.385   87.239    5.194
  413.923    0.404   87.858    4.319
  414.228    0.437   89.682    3.526
  414.533    0.449   90.903    3.043
  414.838    0.451   90.927    3.044
  415.142    0.434   87.946    3.402
  415.447    0.405   83.171    4.247
  415.752    0.388   80.790    4.925
  416.057    0.368   79.016    5.404
  416.362    0.352   77.235    5.713
  416.666    0.345   71.261    6.041
  416.971    0.337   70.081    6.271
  417.276    0.331   70.703    6.389
  417.581    0.328   73.127    6.511
  417.886    0.325   72.545    6.884
  418.190    0.314   71.368    7.279
  418.495    0.290   73.188    7.417
  418.800    0.253   80.413    7.283
  419.105    0.274   85.831    6.893
  419.410    0.357   89.456    6.405
  419.715    0.374   90.680    5.842
  420.019    0.387   90.101    5.428
  420.324    0.392   89.521    5.232
  420.629    0.392   87.747    4.952
  420.934    0.386   86.565    4.774
  421.239    0.386   87.187    4.354
  421.543    0.392   85.411    3.971
  421.848    0.404   83.031    2.797
  422.153    0.442   78.252    2.599
  422.458    0.443   74.074    2.600
  422.763    0.434   71.696    2.800
  423.067    0.399   70.518    3.072
  423.372    0.380   71.143    3.696
  423.677    0.376   72.364    4.131
  423.982    0.364   72.985    4.532
  424.287    0.360   73.608    4.533
  424.591    0.357   75.431    4.290
  424.896    0.355   76.650    3.702
  425.201    0.375   80.272    3.315
  425.506    0.401   85.693    3.316
  425.811    0.423   83.319    3.506
  426.116    0.415   76.137    4.142
  426.420    0.358   72.565    4.984
  426.725    0.286   83.929    5.152
  427.030    0.310   89.314    3.565
  427.335    0.420   90.531    3.312
  427.640    0.434   89.371    3.192
  427.944    0.447   88.800    2.806
  428.249    0.462   88.231    2.656
  428.554    0.463   89.448    2.705
  428.859    0.454   92.453    2.807
  429.164    0.439   89.505    3.022
  429.468    0.422   88.934    3.194
  429.773    0.416   85.390    3.438
  430.078    0.413   84.824    3.568
  430.383    0.410   89.015    3.634
  430.688    0.411   87.853    3.841
  430.992    0.409   84.906    3.986
  431.297    0.412   88.500    3.986
  431.602    0.414   89.124    3.986
  431.907    0.396   89.746    3.772
  432.212    0.394   95.128    3.704
  432.517    0.435   93.966    3.843
  432.821    0.429   88.637    4.137
  433.126    0.403   83.900    4.537
  433.431    0.379   79.761    5.162
  433.736    0.343   73.838    5.660
  434.041    0.347   66.124    5.873
  434.345    0.346   61.990    5.874
  434.650    0.326   63.203    5.874
  434.955    0.315   67.990    5.984
  435.260    0.312   73.969    6.209
  435.565    0.309   77.571    6.325
  435.869    0.312   78.784    6.443
  436.174    0.313   76.433    6.444
  436.479    0.309   74.081    6.564
  436.784    0.314   74.108    6.445
  437.089    0.309   80.679    6.565
  437.393    0.302   89.636    6.566
  437.698    0.313   94.424    6.566
  438.003    0.322   94.449    6.447
  438.308    0.309   86.739    6.330
  438.613    0.305   84.982    6.215
  438.918    0.309   84.411    6.215
  439.222    0.300   98.128    6.102
  439.527    0.293  105.301    6.216
  439.832    0.309   99.377    6.692
  440.137    0.354   97.615    8.196
  440.442    0.346   93.476   10.805
  440.746    0.329   83.385   13.730
  441.051    0.313   59.601   16.207
  441.356    0.275   58.438   16.510
  441.661    0.211   64.417   13.733
  441.966    0.280   63.853   10.810
