~VERSION INFORMATION
 VERS.                 2.0:   CWLS LOG ASCII STANDARD -VERSION 2.0
 WRAP.                  NO:   ONE LINE PER DEPTH STEP
~WELL INFORMATION BLOCK
#MNEM.UNIT           DATA                    DESCRIPTION OF MNEMONIC
#---------    -------------------            -------------------------------
# Generated from Intellog Unique Number	CC_84_87/WELL/1059
NULL.         -999.25                        : NULL_VALUE
WELL.         PCI PCEJ HANGST OV             : Well_name    - WELL              
LOC .         05-13-084-11W4                 : Location     - LOCATION          
UWI .         AA/05-13-084-11W400            : Uwi          - UNIQUE WELL ID    
ENTR.         DW                             : Entered      - ENTERED BY        
SRVC.         SCHLUMBERGER                   : Scn          - SERVICE COMPANY   
DATE.         30 JAN 84                      : Date         - LOG DATE
STRT.M        135                            : top_depth    - START DEPTH       
STOP.M        379.796                        : bot_depth    - STOP DEPTH        
STEP.M        0.3                            : increment    - STEP LENGTH       
~CURVE INFORMATION BLOCK
#MNEM UNIT       ERCB CURVE CODE    CURVE DESCRIPTION
#-----------   ------------------   ----------------------------------
DEPT.M        00 001 00 00         : DEPTH        - DEPTH                       
DPHI.V/V      00 890 00 00         : PHID         - DENSITY POROSITY (LIMESTONE)
NPHI.V/V      00 330 00 00         : PHIN         - NEUTRON POROSITY (LIMESTONE)
GR  .API      00 310 00 00         : GR           - GAMMA RAY                   
ILD .OHMM     00 120 00 00         : RESD         - DEEP RESISTIVITY (DIL)      
~PARAMETER INFORMATION       
#MNEM.UNIT           DATA             DESCRIPTION OF MNEMONIC
#---------         -----------     ------------------------------
GL  .M        615.3                : gl           - GROUND LEVEL ELEVATION      
EREF.M        618.5                : kb           - ELEVATION OF DEPTH REFERENCE
DATM.M        618.5                : datum        - DATUM ELEVATION             
TDD .M        388                  : tdd          - TOTAL DEPTH DRILLER         
RUN .         ONE                  : Run          - RUN NUMBER                  
ENG .         BILL                 : Engineer     - RECORDING ENGINEER          
WIT .         JIM                  : Witness      - WITNESSED BY                
MUD .         GEL                  : Mud_type     - MUD TYPE                    
MATR.         LIMESTONE            : Logunit      - NEUTRON MATRIX              
TMAX.C        19.4                 : BHT          - MAXIMUM RECORDED TEMPERATURE
BHTD.M        388                  : BHTDEP       - MAXIMUM RECORDED TEMPERATURE
MATR.         1                    : LOGUNIT      - NEUTRON MATRIX              
RMT .C        25                   : MDTP         - TEMPERATURE OF MUD          
NEUT.         1                    : NEUTRON      - NEUTRON TYPE                
RESI.         0                    : RESIST       - RESISTIVITY TYPE            
RMC .OHMM     0.25                 : RMC          - RESISTIVITY OF MUD CAKE     
RMF .OHMM     0.25                 : RMF          - RESISTIVITY OF MUD FILTRATE 
SUFT.C        4                    : SUFT         - SURFACE TEMPERATURE         
~A  DEPTH     PHID     PHIN       GR     RESD
  135.000    0.271    0.517  104.906    3.505
  135.300    0.265    0.511  111.552    3.505
  135.600    0.263    0.526  110.311    3.439
  135.900    0.260    0.577  106.048    3.375
  136.200    0.262    0.546  102.386    3.375
  136.500    0.289    0.539  101.149    3.438
  136.800    0.290    0.520   96.882    3.374
  137.100    0.286    0.510   95.036    3.373
  137.400    0.285    0.556   96.834    3.437
  137.700    0.285    0.526   94.387    3.773
  138.000    0.280    0.494   92.541    4.221
  138.300    0.267    0.486   95.546    4.382
  138.600    0.261    0.504   97.345    4.065
  138.900    0.267    0.535   99.742    3.565
  139.200    0.288    0.537  100.938    3.186
  139.500    0.304    0.514  100.305    2.956
  139.800    0.283    0.525   99.070    2.901
  140.100    0.279    0.552  100.863    2.691
  140.400    0.298    0.567  102.664    2.641
  140.700    0.311    0.573   95.967    3.184
  141.000    0.232    0.561   80.786    5.688
  141.300    0.220    0.306   48.621   12.253
  141.600    0.265    0.262   34.652   23.154
  141.900    0.266    0.252   25.531   24.034
  142.200    0.138    0.263   27.933   15.919
  142.500    0.225    0.434   41.858    7.962
  142.800    0.282    0.484  103.081    4.212
  143.100    0.298    0.517  101.843    3.121
  143.400    0.290    0.540   95.147    2.738
  143.700    0.292    0.559   99.371    2.737
  144.000    0.285    0.586  105.409    2.737
  144.300    0.263    0.564  104.172    2.841
  144.600    0.258    0.560  104.760    2.949
  144.900    0.258    0.556   99.882    3.238
  145.200    0.262    0.506   92.582    3.299
  145.500    0.268    0.511   92.560    3.237
  145.800    0.280    0.554   97.384    3.621
  146.100    0.245    0.542  101.608    3.759
  146.400    0.241    0.492  102.191    3.830
  146.700    0.255    0.471  105.806    3.829
  147.000    0.256    0.485  110.634    3.619
  147.300    0.252    0.508  106.972    3.900
  147.600    0.245    0.503  100.279    4.048
  147.900    0.249    0.504   97.221    4.048
  148.200    0.230    0.468  102.052    3.826
  148.500    0.267    0.476   98.386    3.419
  148.800    0.271    0.554   98.361    3.293
  149.100    0.266    0.493  100.161    3.549
  149.400    0.266    0.478  101.349    4.045
  149.700    0.245    0.479   97.081    4.278
  150.000    0.256    0.507   91.597    4.441
  150.300    0.267    0.509   93.393    4.358
  150.600    0.253    0.511  103.073    4.119
  150.900    0.249    0.512  103.048    4.042
  151.200    0.269    0.506   96.965    4.118
  151.500    0.274    0.504   97.544    4.275
  151.800    0.260    0.513   89.030    4.274
  152.100    0.253    0.471   89.615    4.040
  152.400    0.246    0.484   91.412    4.116
  152.700    0.245    0.553   84.112    4.692
  153.000    0.163    0.357   67.716    5.764
  153.300    0.193    0.360   57.383    7.923
  153.600    0.235    0.385   69.487   11.959
  153.900    0.261    0.394   70.071   13.130
  154.200    0.273    0.376   79.746   11.516
  154.500    0.260    0.384   85.183   11.515
  154.800    0.254    0.414   85.158   12.882
  155.100    0.285    0.442   63.909   14.411
  155.400    0.338    0.398   56.005   15.529
  155.700    0.316    0.350   59.013   14.957
  156.000    0.237    0.356   71.725   13.366
  156.300    0.255    0.410   83.829   12.873
  156.600    0.339    0.447   80.773   13.872
  156.900    0.355    0.415   61.340   16.726
  157.200    0.330    0.407   66.777   20.167
  157.500    0.308    0.401   73.419   21.328
  157.800    0.305    0.387   72.796   20.930
  158.100    0.302    0.371   60.645   19.785
  158.400    0.291    0.363   66.076   17.680
  158.700    0.277    0.360   71.513   14.659
  159.000    0.249    0.364   75.729   12.857
  159.300    0.169    0.364   73.279   12.153
  159.600    0.214    0.375   72.651   11.275
  159.900    0.252    0.390   81.727   10.859
  160.200    0.262    0.394   84.734   10.264
  160.500    0.263    0.413   76.823    9.173
  160.800    0.257    0.429   76.194    8.509
  161.100    0.258    0.454   81.633    8.350
  161.400    0.281    0.473   94.344    8.832
  161.700    0.347    0.483  116.755   10.067
  162.000    0.370    0.484  117.945   12.138
  162.300    0.360    0.494  112.464   14.912
  162.600    0.348    0.450   96.675   15.478
  162.900    0.346    0.474   87.555   14.908
  163.200    0.338    0.507   91.777   14.629
  163.500    0.300    0.497   83.262   16.063
  163.800    0.299    0.359   74.750   16.988
  164.100    0.272    0.358   68.057   16.986
  164.400    0.278    0.386   72.881   16.669
  164.700    0.288    0.397   72.858   17.302
  165.000    0.289    0.403   69.802   18.299
  165.300    0.316    0.410   63.108   18.642
  165.600    0.329    0.376   53.991   17.955
  165.900    0.252    0.381   53.968   14.074
  166.200    0.252    0.425   86.690   13.057
  166.500    0.268    0.412   90.303   13.553
  166.800    0.182    0.381   76.332   13.808
  167.100    0.204    0.402   75.699   14.066
  167.400    0.257    0.428   79.924   13.804
  167.700    0.243    0.429   83.538   11.662
  168.000    0.247    0.400   87.759   10.421
  168.300    0.263    0.404   84.705   10.419
  168.600    0.281    0.401   79.224   11.657
  168.900    0.289    0.395   75.562   15.434
  169.200    0.296    0.399   74.325   16.324
  169.500    0.294    0.409   75.516   16.944
  169.800    0.294    0.416   74.883   18.259
  170.100    0.328    0.429   63.340   21.607
  170.400    0.351    0.401   59.065   24.630
  170.700    0.333    0.395   58.438   26.049
  171.000    0.322    0.425   59.025   24.623
  171.300    0.328    0.426   65.672   22.003
  171.600    0.314    0.411   76.563   20.799
  171.900    0.315    0.425   74.113   20.032
  172.200    0.317    0.433   67.420   17.569
  172.500    0.310    0.414   71.035   14.843
  172.800    0.291    0.419   80.105   14.295
  173.100    0.289    0.453   80.687   15.696
  173.400    0.308    0.421   77.634   19.283
  173.700    0.331    0.423   70.332   23.689
  174.000    0.330    0.442   65.459   26.501
  174.300    0.343    0.423   61.795   28.557
  174.600    0.334    0.417   61.168   29.643
  174.900    0.332    0.418   72.059   29.640
  175.200    0.353    0.427   70.821   29.085
  175.500    0.358    0.453   59.883   27.494
  175.800    0.342    0.460   59.858   25.987
  176.100    0.329    0.435   68.326   25.029
  176.400    0.336    0.440   70.122   23.659
  176.700    0.336    0.428   73.735   20.366
  177.000    0.310    0.439   73.708   18.893
  177.300    0.307    0.426   73.690   17.203
  177.600    0.291    0.412   77.304   15.664
  177.900    0.271    0.437   79.101   14.531
  178.200    0.291    0.438   85.742   13.996
  178.500    0.257    0.393   86.936   12.984
  178.800    0.251    0.392   91.763   11.603
  179.100    0.200    0.411   97.804   10.176
  179.400    0.183    0.435  105.058    8.597
  179.700    0.211    0.457  111.705    7.128
  180.000    0.168    0.486  111.073    6.022
  180.300    0.154    0.513  105.590    5.483
  180.600    0.185    0.487  104.355    5.381
  180.900    0.211    0.486  115.247    5.086
  181.200    0.190    0.498  112.190    4.461
  181.500    0.205    0.529  111.562    3.986
  181.800    0.216    0.544  112.143    3.698
  182.100    0.216    0.501  117.579    3.431
  182.400    0.243    0.519  122.407    3.495
  182.700    0.271    0.528  112.075    3.767
  183.000    0.296    0.446   99.924    4.715
  183.300    0.307    0.442  102.326    6.855
  183.600    0.325    0.430  119.280   12.954
  183.900    0.315    0.433  104.097   18.485
  184.201    0.312    0.423   80.424   20.295
  184.501    0.306    0.399   72.516   20.293
  184.801    0.307    0.430   74.920   21.065
  185.101    0.328    0.429   86.416   22.278
  185.401    0.324    0.413  100.948   22.276
  185.701    0.327    0.393  106.987   22.694
  186.001    0.334    0.410  105.752   23.555
  186.301    0.329    0.420   89.962   23.997
  186.601    0.298    0.377  141.483   23.113
  186.901    0.247    0.398  145.098   20.271
