~VERSION INFORMATION
 VERS.                 2.0:   CWLS LOG ASCII STANDARD -VERSION 2.0
 WRAP.                  NO:   ONE LINE PER DEPTH STEP
~WELL INFORMATION BLOCK
#MNEM.UNIT           DATA                    DESCRIPTION OF MNEMONIC
#---------    -------------------            -------------------------------
# Generated from Intellog Unique Number	CW_82_90/WELL/3417
WELL.         PCENT WOODEN HOUSE             : Well_name    - WELL
LOC .         AA/05-24-088-23W4/0            : Location     - LOCATION
UWI .         AA/05-24-088-23W4/0            : Uwi          - UNIQUE WELL ID
ENTR.         MAX                            : Entered      - ENTERED BY
SRVC.         COMPUTALOG                     : Scn          - SERVICE COMPANY
STRT.M        100                            : top_depth    - START DEPTH
STOP.M        306                            : bot_depth    - STOP DEPTH
STEP.M        0.25                           : increment    - STEP LENGTH
 NULL. -999.2500:NULL Value
~CURVE INFORMATION BLOCK
#MNEM UNIT       ERCB CURVE CODE    CURVE DESCRIPTION
#-----------   ------------------   ----------------------------------
DEPT.M        00 001 00 00         : DEPTH        - DEPTH
GR  .API      00 310 00 00         : GR           - GAMMA RAY
CALI.MM       00 280 01 00         : CAL          - CALIPER
DPHI.V/V      00 890 00 00         : PHID         - DENSITY POROSITY (SANDSTONE)
NPHI.V/V      00 330 00 00         : PHIN         - NEUTRON POROSITY (SANDSTONE)
ILD .OHMM     00 120 00 00         : RESD         - DEEP RESISTIVITY (DIL)
~PARAMETER INFORMATION
#MNEM.UNIT           DATA             DESCRIPTION OF MNEMONIC
#---------         -----------     ------------------------------
GL  .M        511                  : gl           - GROUND LEVEL ELEVATION
EREF.M        515.1                : kb           - ELEVATION OF DEPTH REFERENCE
DATM.M        511                  : datum        - DATUM ELEVATION
TDD .M        317.5                : tdd          - TOTAL DEPTH DRILLER
RUN .         ONE                  : Run          - RUN NUMBER
ENG .         BILL                 : Engineer     - RECORDING ENGINEER
WIT .         JIM                  : Witness      - WITNESSED BY
MUD .         GEL                  : Mud_type     - MUD TYPE
MATR.         SANDSTONE            : Logunit      - NEUTRON MATRIX
TMAX.C        26                   : BHT          - MAXIMUM RECORDED TEMPERATURE
BHTD.M        317.5                : BHTDEP       - MAXIMUM RECORDED TEMPERATURE
MATR.         1                    : LOGUNIT      - NEUTRON MATRIX
RMT .C        15                   : MDTP         - TEMPERATURE OF MUD
NEUT.         1                    : NEUTRON      - NEUTRON TYPE
RESI.         0                    : RESIST       - RESISTIVITY TYPE
RMC .OHMM     6                    : RMC          - RESISTIVITY OF MUD CAKE
RMF .OHMM     5                    : RMF          - RESISTIVITY OF MUD FILTRATE
SUFT.C        -10                  : SUFT         - SURFACE TEMPERATURE
~A  DEPTH       GR      CAL     PHID     PHIN     RESD
# ...
  173.000  106.987  222.561    0.231    0.562    3.983
  173.250  107.302  222.578    0.237    0.550    3.911
  173.500  105.495  222.597    0.232    0.494    3.913
  173.750  103.690  222.619    0.223    0.475    3.914
  174.000  104.006  222.636    0.209    0.378    3.915
  174.250  105.531  222.151    0.218    0.440    3.953
  174.500  104.937  222.170    0.234    0.499    3.992
  174.750  102.527  222.192    0.238    0.468    4.030
  175.000  101.024  222.212    0.224    0.448    4.069
  175.250  101.943  222.236    0.215    0.471    4.185
  175.500  101.954  222.757    0.227    0.503    4.265
  175.750   98.334  222.774    0.237    0.486    4.387
  176.000   94.712  222.289    0.244    0.496    4.555
  176.250   92.907  222.311    0.253    0.485    4.729
  176.500   92.008  221.826    0.254    0.460    4.956
  176.750   91.115  221.845    0.250    0.449    5.291
  177.000   90.519  221.867    0.244    0.438    5.701
  177.250   84.172  221.886    0.241    0.427    6.258
  177.500   80.853  221.901    0.244    0.416    7.130
  177.750   75.716  222.425    0.253    0.461    7.974
  178.000   69.973  222.444    0.242    0.458    8.918
  178.250   59.992  222.466    0.150    0.413   10.351
  178.500   53.646  222.483    0.058    0.215   11.793
  178.750   57.896  222.000    0.087    0.182   13.562
  179.000   66.692  222.022    0.163    0.224   14.613
  179.250   72.457  222.039    0.234    0.387   13.954
  179.500   76.709  222.058    0.280    0.393   12.720
  179.750   80.353  222.078    0.277    0.388   11.704
  180.000   82.786  222.100    0.264    0.379   11.386
  180.250   85.825  222.119    0.254    0.377   11.077
  180.500   85.231  222.136    0.253    0.371   10.776
  180.750   84.032  221.651    0.260    0.374   10.386
  181.000   84.649  221.670    0.260    0.393    9.556
  181.250   88.901  221.689    0.254    0.407    8.551
  181.500   92.547  221.709    0.241    0.437    7.169
  181.750   92.560  222.233    0.229    0.479    6.067
  182.000   90.755  223.769    0.228    0.482    5.740
  182.250   89.554  223.788    0.220    0.485    6.128
  182.500   83.511  223.303    0.218    0.467    6.917
  182.750   82.007  223.322    0.228    0.441    7.182
  183.000   83.835  223.342    0.238    0.414    7.184
  183.250   86.876  219.826    0.241    0.385    6.672
  183.500   89.915  211.268    0.234    0.374    6.139
  183.750   95.378  211.288    0.231    0.377    5.596
  184.000   98.114  212.823    0.237    0.414    5.197
  184.250   95.400  214.354    0.238    0.452    5.009
  184.500   87.539  216.393    0.243    0.490    5.249
  184.750   75.438  217.926    0.255    0.478    5.708
  185.000   71.212  219.459    0.279    0.392    6.564
  185.250   69.710  218.979    0.293    0.378    7.619
  185.500   68.813  218.496    0.295    0.399    9.179
  185.750   67.007  218.004    0.294    0.420   10.654
  186.000   68.229  218.028    0.293    0.420   10.959
  186.250   69.755  218.047    0.296    0.438   10.862
  186.500   69.768  218.062    0.296    0.443   10.566
  186.750   68.869  218.081    0.290    0.418    9.905
  187.000   70.699  218.101    0.230    0.358    8.538
  187.250   74.647  218.122    0.192    0.358    6.585
  187.500   85.863  219.154    0.202    0.419    5.369
  187.750   87.994  219.168    0.261    0.462    4.586
  188.000   87.705  219.695    0.265    0.442    4.142
  188.250   87.412  220.221    0.267    0.426    3.882
  188.500   88.031  220.743    0.272    0.403    3.777
  188.750   91.070  221.267    0.277    0.410    3.849
  189.000   93.503  221.791    0.285    0.506    3.996
  189.250   93.213  222.315    0.288    0.527    4.306
  189.500   92.315  222.841    0.271    0.502    4.683
  189.750   90.209  223.363    0.256    0.476    5.237
  190.000   89.919  223.890    0.243    0.430    6.079
  190.250   89.628  224.411    0.226    0.420    6.490
  190.500   89.032  224.938    0.218    0.428    6.864
  190.750   89.347  225.459    0.218    0.427    7.193
  191.000   88.450  225.481    0.225    0.461    7.538
  191.250   84.525  224.996    0.215    0.464    8.275
  191.500   75.150  224.508    0.189    0.357    9.168
  191.750   70.013  224.028    0.133    0.271   10.842
  192.000   67.300  224.045    0.060    0.226   12.701
  192.250   65.495  224.067    0.036    0.186   15.444
  192.500   63.387  224.084    0.033    0.181   15.739
  192.750   64.005  224.105    0.064    0.203   14.482
  193.000   66.138  224.125    0.153    0.303   13.200
  193.250   67.965  223.642    0.250    0.413   11.486
  193.500   71.309  222.650    0.278    0.421    9.903
  193.750   73.135  222.669    0.263    0.401    8.698
  194.000   76.781  222.686    0.227    0.372    7.929
  194.250   79.517  223.212    0.207    0.375    7.571
  194.500   84.071  221.213    0.236    0.386    7.434
  194.750   83.480  218.707    0.244    0.401    7.166
  195.000   83.796  216.710    0.251    0.410    6.412
  195.250   86.230  216.729    0.256    0.419    5.631
  195.500   88.661  217.758    0.254    0.430    4.992
  195.750   91.096  219.796    0.251    0.444    4.509
  196.000   93.530  220.827    0.251    0.461    3.997
  196.250   88.393  221.351    0.259    0.458    3.998
  196.500   80.229  221.371    0.275    0.442    4.308
  196.750   75.093  220.883    0.288    0.424    5.142
  197.000   72.683  220.905    0.294    0.408    6.798
  197.250   72.391  221.426    0.291    0.407    8.499
  197.500   74.221  221.446    0.282    0.424    9.158
  197.750   76.959  221.465    0.269    0.432    7.195
  198.000   79.087  221.485    0.256    0.402    6.378
  198.250   82.431  221.506    0.249    0.383    5.869
  198.500   84.260  221.523    0.245    0.397    5.656
  198.750   84.573  221.043    0.249    0.421    5.452
  199.000   83.980  221.567    0.250    0.423    5.255
  199.250   82.781  222.091    0.246    0.404    5.018
  199.500   83.097  222.108    0.246    0.371    4.704
  199.750   83.409  222.125    0.251    0.423    4.533
  200.000   84.028  221.642    0.256    0.470    4.370
  200.250   85.250  220.657    0.261    0.434    4.371
  200.500   87.080  220.167    0.260    0.413    4.373
  200.750   89.515  220.186    0.257    0.426    4.583
  201.000   90.132  220.206    0.254    0.436    4.846
  201.250   85.599  220.225    0.249    0.428    5.271
  201.500   80.463  220.247    0.245    0.417    6.291
  201.750   78.356  220.266    0.245    0.403    7.721
  202.000   78.368  220.283    0.245    0.386    9.045
  202.250   78.378  219.798    0.247    0.407    9.479
  202.500   77.483  219.820    0.233    0.408    9.308
  202.750   76.586  219.837    0.198    0.387    8.888
  203.000   77.809  219.856    0.167    0.395    8.409
  203.250   79.637  221.392    0.142    0.436    8.105
  203.500   82.072  223.433    0.171    0.470    7.884
  203.750   84.204  224.457    0.184    0.431    7.742
  204.000   85.124  226.497    0.205    0.423    7.602
  204.250   85.740  228.028    0.208    0.416    7.675
  204.500   85.755  228.552    0.202    0.409    7.969
  204.750   85.159  229.076    0.197    0.400    8.273
  205.000   84.868  230.112    0.191    0.426    8.915
  205.250   80.033  230.127    0.186    0.420    9.429
  205.500   72.778  230.149    0.179    0.383   10.448
  205.750   65.825  229.663    0.147    0.338   12.241
  206.000   57.660  229.176    0.096    0.250   17.592
  206.250   48.588  228.188    0.038    0.146   21.791
  206.500   45.573  225.684    0.002    0.127   29.898
  206.750   47.400  225.201    0.001    0.119   25.776
  207.000   68.608  225.723    0.033    0.168   19.694
  207.250   76.796  227.259    0.103    0.222   16.666
  207.500   90.132  227.780    0.180    0.347   13.094
  207.750   90.144  228.304    0.209    0.400   12.857
  208.000   83.796  229.838    0.211    0.415   13.726
  208.250   78.358  229.857    0.223    0.432   14.251
  208.500   73.222  229.372    0.235    0.430   14.523
  208.750   68.694  227.880    0.232    0.433   14.939
  209.000   65.372  226.380    0.235    0.437   16.098
  209.250   62.658  225.897    0.243    0.472   17.345
