~VERSION INFORMATION
 VERS.                 2.0:   CWLS LOG ASCII STANDARD -VERSION 2.0
 WRAP.                  NO:   ONE LINE PER DEPTH STEP
~WELL INFORMATION BLOCK
#MNEM.UNIT           DATA                    DESCRIPTION OF MNEMONIC
#---------    -------------------            -------------------------------
# Generated from Intellog Unique Number	CC_80_83/WELL/2318
NULL.         -999.25                        : NULL_VALUE
WELL.         DOME DIVIDE OV                 : Well_name    - WELL              
LOC .         09-11-082-13W4                 : Location     - LOCATION          
UWI .         AA/09-11-082-13W400            : Uwi          - UNIQUE WELL ID    
ENTR.         RJA                            : Entered      - ENTERED BY        
SRVC.         COMPUTALOG                     : Scn          - SERVICE COMPANY   
DATE.         26 FEB 81                      : Date         - LOG DATE
STRT.M        190                            : top_depth    - START DEPTH       
STOP.M        459.992                        : bot_depth    - STOP DEPTH        
STEP.M        0.3                            : increment    - STEP LENGTH       
~CURVE INFORMATION BLOCK
#MNEM UNIT       ERCB CURVE CODE    CURVE DESCRIPTION
#-----------   ------------------   ----------------------------------
DEPT.M        00 001 00 00         : DEPTH        - DEPTH                       
DPHI.V/V      00 890 00 00         : PHID         - DENSITY POROSITY (LIMESTONE)
NPHI.V/V      00 330 00 00         : PHIN         - NEUTRON POROSITY (LIMESTONE)
GR  .API      00 310 00 00         : GR           - GAMMA RAY                   
ILD .OHMM     00 120 00 00         : RESD         - DEEP RESISTIVITY (DIL)      
~PARAMETER INFORMATION       
#MNEM.UNIT           DATA             DESCRIPTION OF MNEMONIC
#---------         -----------     ------------------------------
GL  .M        659                  : gl           - GROUND LEVEL ELEVATION      
EREF.M        663.5                : kb           - ELEVATION OF DEPTH REFERENCE
DATM.M        663.5                : datum        - DATUM ELEVATION             
TDD .M        465                  : tdd          - TOTAL DEPTH DRILLER         
RUN .         ONE                  : Run          - RUN NUMBER                  
ENG .         BILL                 : Engineer     - RECORDING ENGINEER          
WIT .         JIM                  : Witness      - WITNESSED BY                
MUD .         GEL                  : Mud_type     - MUD TYPE                    
MATR.         LIMESTONE            : Logunit      - NEUTRON MATRIX              
TMAX.C        24                   : BHT          - MAXIMUM RECORDED TEMPERATURE
BHTD.M        465                  : BHTDEP       - MAXIMUM RECORDED TEMPERATURE
MATR.         1                    : LOGUNIT      - NEUTRON MATRIX              
RMT .C        25                   : MDTP         - TEMPERATURE OF MUD          
NEUT.         1                    : NEUTRON      - NEUTRON TYPE                
RESI.         0                    : RESIST       - RESISTIVITY TYPE            
RMC .OHMM     0.25                 : RMC          - RESISTIVITY OF MUD CAKE     
RMF .OHMM     0.25                 : RMF          - RESISTIVITY OF MUD FILTRATE 
SUFT.C        15                   : SUFT         - SURFACE TEMPERATURE         
~A  DEPTH     PHID     PHIN       GR     RESD
# ...
  294.399    0.329    0.414   66.946   16.366
  294.699    0.328    0.454   68.588   16.437
  294.999    0.324    0.429   67.218   16.485
  295.299    0.322    0.409   65.184   16.629
  295.599    0.327    0.399   61.821   16.639
  295.899    0.322    0.423   61.327   16.614
  296.199    0.319    0.431   64.215   16.472
  296.499    0.322    0.447   62.650   16.358
  296.799    0.330    0.455   61.102   16.311
  297.099    0.328    0.439   60.678   16.262
  297.399    0.321    0.416   61.690   16.151
  297.699    0.328    0.400   63.704   15.974
  297.999    0.327    0.388   66.838   15.772
  298.299    0.310    0.441   67.603   15.604
  298.599    0.308    0.463   64.167   15.439
  298.899    0.313    0.482   62.501   15.507
  299.199    0.315    0.455   65.260   15.373
  299.499    0.320    0.411   65.269   15.267
  299.799    0.322    0.404   66.967   15.191
  300.099    0.322    0.399   68.736   16.128
  300.399    0.330    0.414   66.198   15.246
  300.699    0.322    0.395   72.452   13.604
  300.999    0.307    0.387   75.211   12.209
  301.299    0.298    0.373   72.489   12.018
  301.599    0.296    0.384   70.883   12.387
  301.899    0.299    0.400   70.095   12.967
  302.199    0.309    0.412   69.406   13.367
  302.499    0.301    0.446   70.550   13.966
  302.799    0.295    0.440   71.637   14.121
  303.099    0.302    0.436   70.474   13.899
  303.399    0.308    0.412   69.564   13.655
  303.699    0.307    0.408   72.817   13.260
  303.999    0.311    0.400   75.020   12.803
  304.299    0.298    0.416   73.792   12.150
  304.599    0.301    0.426   76.116   11.376
  304.899    0.308    0.465   77.941   10.962
  305.199    0.292    0.418   76.967   10.523
  305.499    0.287    0.441   78.975    9.967
  305.799    0.272    0.412   84.174    9.207
  306.099    0.252    0.457   86.808    8.788
  306.399    0.251    0.468   84.709    8.684
  306.699    0.259    0.435   84.596    8.781
  306.999    0.251    0.417   86.174    9.068
  307.299    0.255    0.417   81.514    9.064
  307.599    0.263    0.411   76.556    8.536
  307.899    0.271    0.452   79.365    8.402
  308.199    0.272    0.452   81.077    8.728
  308.499    0.285    0.473   76.106    9.225
  308.799    0.294    0.427   66.410    9.619
  309.099    0.282    0.430   63.931    9.838
  309.398    0.279    0.432   71.112    9.968
  309.698    0.298    0.443   71.630   10.041
  309.998    0.306    0.456   69.034    9.883
  310.298    0.303    0.428   70.426    8.990
  310.598    0.282    0.404   76.420    7.794
  310.898    0.272    0.425   80.561    6.245
  311.198    0.260    0.442   85.564    5.926
  311.498    0.277    0.450   91.254    5.969
  311.798    0.301    0.447   90.401    7.765
  312.098    0.304    0.425   76.765    9.211
  312.398    0.308    0.421   69.245   11.331
  312.698    0.326    0.430   67.327   12.569
  312.998    0.325    0.435   69.329   12.807
  313.298    0.318    0.458   69.666   12.364
  313.598    0.321    0.427   69.322   12.289
  313.898    0.326    0.417   72.328   12.284
  314.198    0.334    0.430   73.522   12.303
  314.498    0.327    0.450   71.744   12.133
  314.798    0.321    0.466   72.820   11.919
  315.098    0.323    0.450   71.782   11.687
  315.398    0.324    0.432   70.174   11.370
  315.698    0.316    0.424   73.807   11.128
  315.998    0.321    0.383   76.378   10.849
  316.298    0.319    0.398   76.958   10.315
  316.598    0.292    0.408   75.976    9.788
  316.898    0.287    0.440   76.312    8.990
  317.198    0.311    0.439   79.758    7.189
  317.498    0.297    0.382   85.578    5.468
  317.798    0.276    0.410   94.884    3.649
  318.098    0.265    0.460  106.170    3.074
  318.398    0.260    0.488  110.184    2.834
  318.698    0.241    0.437  107.772    2.726
  318.998    0.237    0.428  107.485    2.678
  319.298    0.246    0.446  109.987    2.687
  319.598    0.262    0.434  107.641    2.743
  319.898    0.257    0.470  105.912    2.882
  320.198    0.254    0.479  105.868    3.184
  320.498    0.253    0.502  102.651    3.565
  320.798    0.266    0.459   95.877    4.077
  321.098    0.280    0.397   87.591    4.921
  321.398    0.284    0.377   86.566    6.161
  321.698    0.263    0.367   91.373    6.449
  321.998    0.249    0.375   96.682    6.496
  322.298    0.243    0.419  101.177    6.297
  322.598    0.240    0.467  102.582    5.850
  322.898    0.226    0.468  102.486    5.446
  323.198    0.222    0.446  102.069    5.474
  323.498    0.238    0.427  100.574    5.579
  323.798    0.247    0.458   98.093    5.418
  324.098    0.256    0.460   94.957    4.357
  324.398    0.279    0.420   81.203    2.162
  324.698    0.285    0.388   83.399    1.703
  324.998    0.258    0.374   92.263    1.465
  325.298    0.240    0.364   99.259    1.548
  325.598    0.258    0.438  101.217    1.964
  325.898    0.266    0.471  100.427    2.651
  326.198    0.255    0.470  100.444    3.999
  326.498    0.254    0.418   94.227    5.782
  326.798    0.257    0.386   88.323    6.846
  327.098    0.261    0.381   85.666    7.755
  327.398    0.259    0.401   83.876    8.135
  327.698    0.266    0.398   83.276    8.209
  327.998    0.280    0.391   80.172    8.127
  328.298    0.283    0.391   76.019    8.124
  328.598    0.291    0.421   75.604    8.230
  328.898    0.288    0.426   77.107    8.211
  329.198    0.279    0.417   77.504    8.222
  329.498    0.276    0.395   76.282    8.266
  329.798    0.280    0.388   75.179    8.215
  330.098    0.292    0.405   76.064    8.149
  330.398    0.293    0.386   79.751    8.081
  330.698    0.277    0.406   80.268    7.938
  330.998    0.262    0.416   79.863    7.861
  331.298    0.257    0.427   82.064    7.619
  331.598    0.262    0.423   83.259    7.371
  331.898    0.265    0.392   83.152    7.145
  332.198    0.258    0.439   81.800    6.939
  332.498    0.259    0.449   84.504    6.725
  332.798    0.256    0.437   89.997    6.594
  333.098    0.257    0.411   91.133    6.429
  333.398    0.251    0.398   90.480    6.267
  333.698    0.245    0.409   90.369    6.168
  333.997    0.239    0.420   89.333    6.025
  334.297    0.234    0.421   86.034    5.827
  334.597    0.236    0.413   85.507    5.905
  334.897    0.243    0.407   86.770    5.891
  335.197    0.243    0.404   90.586    5.911
  335.497    0.245    0.434   92.291    6.176
  335.797    0.251    0.457   90.742    6.565
  336.097    0.241    0.457   87.879    7.045
  336.397    0.241    0.423   86.923    7.152
  336.697    0.265    0.417   85.325    6.761
  336.997    0.262    0.424   84.464    6.404
  337.297    0.258    0.441   87.412    6.364
  337.597    0.251    0.443   93.715    6.510
  337.897    0.280    0.454   96.662    6.934
  338.197    0.293    0.464   95.938    7.442
  338.497    0.266    0.382   92.280    8.205
  338.797    0.224    0.346   87.386    8.754
  339.097    0.172    0.326   85.099    8.753
  339.397    0.154    0.395   93.331    8.290
  339.697    0.208    0.425   98.409    7.454
  339.997    0.214    0.405  100.166    6.728
  340.297    0.216    0.387  100.315    6.239
  340.597    0.221    0.375   95.960    5.876
  340.897    0.280    0.365   94.119    5.502
  341.197    0.280    0.357   98.502    5.151
  341.497    0.252    0.363   99.768    4.749
  341.797    0.245    0.364   99.034    4.472
  342.097    0.262    0.367  100.045    4.326
  342.397    0.261    0.398  101.804    4.366
  342.697    0.259    0.507  107.294    4.633
  342.997    0.281    0.510  106.279    5.688
  343.297    0.299    0.493   98.819    6.708
  343.597    0.295    0.426   91.847    7.672
  343.897    0.283    0.429   88.687    8.110
  344.197    0.274    0.406   87.885    7.680
  344.497    0.262    0.387   89.707    7.275
  344.797    0.251    0.367   90.746    7.092
  345.097    0.239    0.358   90.001    7.089
  345.397    0.222    0.402   91.335    7.224
  345.697    0.214    0.432   94.910    7.138
  345.997    0.214    0.386   97.550    7.176
  346.297    0.216    0.370   98.004    7.159
