~Version Information Block
VERS .                 2.00:  CWLS LOG ASCII STANDARD - VERSION 2.00
WRAP .                   NO:  One line per depth step
~Well Information Block
#MNEM.UNIT        Data Type   Information
#---------- ----------------  -----------
STRT .M               30.48:  START DEPTH
STOP .M              130.76:  STOP DEPTH
STEP .M                .305:  STEP
NULL .              -999.25:  NULL VALUE
COMP . UNOCAL              :  COMPANY
WELL .                     :  WELL
FLD  . BLACK DIAMOND       :  FIELD
LOC  . 03-01-092-09W4      :  LOCATION
PROV . ALBERTA             :  PROVINCE
SRVC . BPB                 :  SERVICE COMPANY
DATE . 28 JAN 89           :  LOG DATE
UWI  . AA/03-01-092-09W400 :  UNIQUE WELL ID
~Curve Information Block
#MNEM.UNIT         API CODE   Curve Description
#---------- ----------------  -----------------
DEPTH.M                    :  Transferred from LOGMATE/ESP.
DENS .KG/M3                 :  Loaded from 920717.113006
GR   .API                  :  Loaded from 920717.113006
PHIN .FRAC                 :  Loaded from 920717.113006
RESD .OHMM                 :  Loaded from 920717.113006
~Parameter Information Block
#MNEM.UNIT            Value   Description
#---------- ----------------  -----------
PROJECT.             MOS_92_9:
SET  .                  RAW:
~A        DEPTH           DENS             GR           PHIN         RESD
# ...
        97.5400      2116.0000        22.9700         0.4008       814.8
        97.8400      2110.1001        27.5200         0.4336       741.4
        98.1500      2101.1001        44.8900         0.3930       481.7
        98.4500      2178.6001        65.9700         0.4544       122.8
        98.7600      2204.2000        64.7800         0.4195       158.2
        99.0600      2081.5000        31.2400         0.4375       100.9
        99.3600      2048.1001        34.3600         0.4588        68.5
        99.6700      2067.5000        57.9400         0.4556        43.2
        99.9700      2146.7000        61.8300         0.4309        32.3
       100.2800      2174.8999        35.2700         0.4259       280.0
       100.5800      2133.7000        31.3500         0.4148       553.2
       100.8900      2095.0000        36.0000         0.4120       633.0
       101.1900      2103.6001        29.5000         0.4094       696.0
       101.5000      2098.1001        27.4800         0.4296       716.8
       101.8000      2133.6001        28.2000         0.4218       608.6
       102.1100      2126.7000        24.3300         0.4414       579.5
       102.4100      2111.8999        39.4400         0.4197       450.1
       102.7200      2108.3000        33.7700         0.4232       228.3
       103.0200      2106.8000        30.6200         0.4438       434.2
       103.3300      2123.1001        25.4900         0.4508       267.1
       103.6300      2151.1001        24.5400         0.4324       474.9
       103.9400      2117.0000        30.9900         0.4253       555.5
       104.2400      2042.1000        31.3000         0.4153       434.6
       104.5500      2097.0000        31.7800         0.3968       163.9
       104.8500      2122.3000        27.9600         0.4027       312.7
       105.1600      2128.8000        37.5200         0.5159        78.1
       105.4600      2108.2000        48.2200         0.5042        27.5
       105.7700      2082.7000        43.8000         0.3878        58.0
       106.0700      2127.0000        17.1900         0.4363       443.1
       106.3800      2116.7000        25.1300         0.4239       356.3
       106.6800      2138.7000        33.9800         0.3890       282.3
       106.9800      2148.5000        28.1300         0.3923       202.7
       107.2900      2145.3000        16.5000         0.3832       267.9
       107.5900      2136.1001        21.6900         0.3733       142.7
       107.9000      2151.8999        29.5800         0.3568        23.5
       108.2000      2222.0000        46.7800         0.3343        13.9
       108.5100      2302.8999        74.7200         0.4971         8.0
       108.8100      2214.7000       133.1100         0.4572         6.8
       109.1200      2239.7000       139.8000         0.4918         7.1
       109.4200      2299.1001       120.7100         0.4738         7.1
       109.7300      2328.8000       118.2100         0.4535         7.0
       110.0300      2258.3000       110.8700         0.4761         6.8
       110.3400      2295.3999       116.3600         0.4616         6.2
       110.6400      2288.1001       119.2400         0.5119         6.1
       110.9500      2250.1001       116.2100         0.4825         6.1
       111.2500      2300.3000       106.0600         0.4925         6.5
       111.5600      2257.3000       125.6500         0.4375         7.1
       111.8600      2245.0000       117.7700         0.4387         8.0
       112.1700      2331.3000       117.6600         0.5277         7.6
       112.4700      2268.5000       113.2000         0.5423         7.9
       112.7800      2223.5000       109.2000         0.5625         6.5
       113.0800      2247.8999       117.1400         0.5718         5.7
       113.3900      2210.1001       134.5200         0.3340         5.2
       113.6900      2287.5000        70.9500         0.2577        17.2
       114.0000      2331.8999        73.8800         0.2904        18.3
       114.3000      2358.3000       105.3500         0.3582         9.9
       114.6000      2383.2000       133.2900         0.3896         9.5
       114.9100      2343.3000       134.4300         0.4441         7.4
       115.2100      2325.8999       134.5600         0.4182         6.0
       115.5200      2422.8999       110.3300         0.3210         8.3
       115.8200      2425.5000        76.9000         0.3277        12.9
       116.1300      2390.1001        71.3100         0.3649        13.1
       116.4300      2354.8000        57.7000         0.3617        21.7
       116.7400      2214.8000        19.7400         0.3497        97.0
       117.0400      2189.3000        19.5100         0.3477        73.0
       117.3500      2149.3000        25.4200         0.3346        64.5
       117.6500      2205.3999        40.2300         0.4434        12.1
       117.9600      2309.0000        97.7800         0.3958        11.2
       118.2600      2194.6001        30.1000         0.4105        39.1
       118.5700      2145.3000        16.8600         0.3903       181.3
       118.8700      2121.3000        12.4400         0.3745       224.0
       119.1800      2135.2000        12.2700         0.3596       214.8
       119.4800      2126.5000        20.2800         0.3502       453.2
       119.7900      2199.1001        30.1300         0.3332        25.8
       120.0900      2201.8000        49.9000         0.3542        10.2
       120.4000      2322.8999       116.9400         0.4576         5.5
       120.7000      2429.1001       135.8100         0.4360         6.0
       121.0100      2617.3000       100.5300         0.4203        19.4
       121.3100      2396.2000       126.2100         0.4662         8.9
       121.6200      2329.2000       129.5000         0.3981         7.8
       121.9200      2374.5000       122.7600         0.3617         7.7
       122.2200      2376.7000        93.4000         0.3097        18.3
       122.5300      2395.0000        78.9600         0.3251        17.2
       122.8300      2348.6001        33.3000         0.3563        12.0
       123.1400      2266.1001        33.3000         0.3636        20.9
       123.4400      2224.1001        30.2200         0.3488        18.7
       123.7500      2200.0000        27.7200         0.3395        57.1
       124.0500      2183.3999        23.2400         0.3765        59.6
       124.3600      2195.3000        14.9500         0.3738        32.6
       124.6600      2208.0000        20.2100         0.3706        21.9
       124.9700      2229.7000        19.7400         0.3822        31.8
       125.2700      2151.6001        23.9900         0.3889        96.9
       125.5800      2112.2000        22.5500         0.3571        39.5
       125.8800      2173.3000        17.3100         0.3534        27.3
       126.1900      2205.3999        13.9100         0.3343        29.3
       126.4900      2141.8000        24.0000         0.3005        21.9
       126.8000      2275.8999        91.1700         0.3737        16.1
       127.1000      2380.6001       125.1400         0.4154         7.5
       127.4100      2486.5000        94.2800         0.3744         9.4
       127.7100      2508.6001        94.0500         0.3638        12.4
       128.0200      2469.6001       100.0900         0.3064        10.8
       128.3200      2507.7000       102.0600         0.3339        14.6
       128.6300      2578.1001        91.3300         0.3458        13.1
       128.9300      2557.5000        80.2300         0.3265        14.5
       129.2400      2645.2000       104.8300         0.3287        13.4
       129.5400      2552.8000       107.2800         0.2976         9.9
       129.8400      2451.0000        68.7900         0.2490        14.5
       130.1500      2578.3000        33.0400         0.1845        39.9
       130.4500      2574.8999        26.3600         0.1787        43.0
       130.7600      2646.6001        21.1200         0.1473        62.8
