~VERSION INFORMATION
 VERS.                 2.0:   CWLS LOG ASCII STANDARD -VERSION 2.0
 WRAP.                  NO:   ONE LINE PER DEPTH STEP
~WELL INFORMATION BLOCK
#MNEM.UNIT           DATA                    DESCRIPTION OF MNEMONIC
#---------    -------------------            -------------------------------
# Generated from Intellog Unique Number	CN_94_101/WELL/4992
WELL.         08-19-098-11W4                 : Well_name    - WELL
LOC .         AA/08-19-098-11W4/0            : Location     - LOCATION
UWI .         AA/08-19-098-11W400            : Uwi          - UNIQUE WELL ID
ENTR.         TIM                            : Entered      - ENTERED BY
SRVC.         SCHLUMBERGER                   : Scn          - SERVICE COMPANY
DATE.         08/11/92                       : Date         - LOG DATE
STRT.M        0                              : top_depth    - START DEPTH
STOP.M        115                            : bot_depth    - STOP DEPTH
STEP.M        0.25                           : increment    - STEP LENGTH
 NULL. -999.2500:NULL Value
~CURVE INFORMATION BLOCK
#MNEM UNIT       ERCB CURVE CODE    CURVE DESCRIPTION
#-----------   ------------------   ----------------------------------
DEPT.M        00 001 00 00         : DEPTH        - DEPTH
GR  .API      00 310 00 00         : GR           - GAMMA RAY
ILD .OHMM     00 120 00 00         : RESD         - DEEP RESISTIVITY (DIL)
NPHI.V/V      00 330 00 00         : PHIN         - NEUTRON POROSITY (SANDSTONE)
DPHI.V/V      00 890 00 00         : PHID         - DENSITY POROSITY (SANDSTONE)
~PARAMETER INFORMATION
#MNEM.UNIT           DATA             DESCRIPTION OF MNEMONIC
#---------         -----------     ------------------------------
GL  .M        333.78               : gl           - GROUND LEVEL ELEVATION
EREF.M        333.78               : kb           - ELEVATION OF DEPTH REFERENCE
DATM.M        333.78               : datum        - DATUM ELEVATION
TDD .M        115.8                : tdd          - TOTAL DEPTH DRILLER
RUN .         ONE                  : Run          - RUN NUMBER
ENG .         JO                   : Engineer     - RECORDING ENGINEER
WIT .         TIM                  : Witness      - WITNESSED BY
MUD .         GEL                  : Mud_type     - MUD TYPE
MATR.         SANDSTONE            : Logunit      - NEUTRON MATRIX
TMAX.C        10                   : BHT          - MAXIMUM RECORDED TEMPERATURE
BHTD.M        115.8                : BHTDEP       - MAXIMUM RECORDED TEMPERATURE
RMT .C        10                   : MDTP         - TEMPERATURE OF MUD
MUDD.KG/M     0                    : MWT          - MUD DENSITY
NEUT.         1                    : NEUTRON      - NEUTRON TYPE
RESI.         0                    : RESIST       - RESISTIVITY TYPE
RM  .OHMM     13.8                 : RM           - RESISTIVITY OF MUD
RMC .OHMM     13.8                 : RMC          - RESISTIVITY OF MUD CAKE
RMF .OHMM     13.8                 : RMF          - RESISTIVITY OF MUD FILTRATE
SUFT.C        4                    : SUFT         - SURFACE TEMPERATURE
~A  DEPTH       GR     RESD     PHIN     PHID
# ...
   87.000   70.166   18.828    0.282    0.236
   87.250   72.632   18.302    0.281    0.244
   87.500   74.481   18.557    0.279    0.244
   87.750   76.947   18.819    0.276    0.245
   88.000   63.781   19.629    0.273    0.248
   88.250   61.245   22.599    0.273    0.256
   88.500   55.583   26.388    0.272    0.256
   88.750   46.785   29.122    0.271    0.255
   89.000   46.750   33.059    0.272    0.250
   89.250   45.464   39.150    0.272    0.246
   89.500   41.053   47.022    0.274    0.252
   89.750   34.140   61.464    0.278    0.255
   90.000   27.843   71.769    0.283    0.254
   90.250   26.557   74.859    0.290    0.240
   90.500   25.906   79.192    0.292    0.218
   90.750   25.871   87.396    0.295    0.221
   91.000   28.953   96.451    0.301    0.222
   91.250   31.427   93.749    0.304    0.223
   91.500   35.144   86.131    0.308    0.226
   91.750   44.487   76.927    0.315    0.230
   92.000   76.349   72.696    0.324    0.238
   92.250   91.945   81.367    0.347    0.233
   92.500   73.769   93.674    0.354    0.233
   92.750   54.351  106.341    0.353    0.240
   93.000   48.054  110.920    0.339    0.254
   93.250   57.407  104.818    0.320    0.269
   93.500   62.373   99.052    0.329    0.279
   93.750   37.945   96.281    0.337    0.275
   94.000   30.406   96.266    0.341    0.251
   94.250   32.872   94.894    0.331    0.255
   94.500   45.333   93.558    0.324    0.261
   94.750   42.181   88.404    0.331    0.268
   95.000   34.017   82.371    0.335    0.280
   95.250   28.962   76.752    0.344    0.284
   95.500   27.051   74.605    0.354    0.285
   95.750   26.400   74.590    0.377    0.287
   96.000   25.114   74.581    0.383    0.287
   96.250   27.580   70.476    0.385    0.280
   96.500   39.433   64.743    0.381    0.276
   96.750   42.524   61.187    0.379    0.271
   97.000   49.992   53.129    0.377    0.271
   97.250   63.712   44.220    0.376    0.276
   97.500   76.816   33.345    0.376    0.278
   97.750   83.650   28.148    0.376    0.284
   98.000   86.741   20.928    0.375    0.292
   98.250   91.717   16.463    0.373    0.300
   98.500   99.810   13.897    0.371    0.302
   98.750  108.528   12.067    0.369    0.306
   99.000  109.744   11.086    0.328    0.270
   99.250  104.706   10.776    0.332    0.236
   99.500  102.170   10.328    0.341    0.226
   99.750  105.261    9.759    0.345    0.217
  100.000  106.468    9.621    0.347    0.209
  100.250  100.814    9.485    0.338    0.207
  100.500  105.156    9.484    0.339    0.207
  100.750  110.748    9.349    0.343    0.205
  101.000  111.963    9.347    0.348    0.204
  101.250  105.675    9.346    0.355    0.211
  101.500  100.004    9.344    0.359    0.216
  101.750   99.326    9.212    0.360    0.220
  102.000  101.818    9.211    0.360    0.216
  102.250  115.539    9.080    0.360    0.208
  102.500  116.736    9.078    0.360    0.200
  102.750  116.094    8.950    0.359    0.200
  103.000  116.050    8.823    0.360    0.200
  103.250  117.265    8.821    0.361    0.198
  103.500  117.864    8.697    0.363    0.196
  103.750  119.687    8.695    0.364    0.193
  104.000  120.920    8.694    0.365    0.191
  104.250  121.510    8.816    0.365    0.191
  104.500  123.341    9.067    0.366    0.191
  104.750  114.553    9.592    0.369    0.191
  105.000   87.007   11.520    0.371    0.189
  105.250   28.805   22.991    0.346    0.190
  105.500   15.640   48.548    0.336    0.190
  105.750   12.479   70.045    0.324    0.191
  106.000   15.561   75.151    0.299    0.191
  106.250   16.776   75.136    0.303    0.190
  106.500   17.366   77.277    0.312    0.190
  106.750   16.706   80.604    0.321    0.193
  107.000   17.296   84.075    0.322    0.193
  107.250   18.502   85.256    0.318    0.192
  107.500   19.101   79.434    0.314    0.193
  107.750   19.066   72.979    0.312    0.194
  108.000   19.665   53.501    0.312    0.194
  108.250   25.257   38.130    0.313    0.195
  108.500   37.727   35.030    0.314    0.194
  108.750   45.820   31.287    0.315    0.189
  109.000   52.654   26.411    0.311    0.181
  109.250   55.745   19.636    0.311    0.175
  109.500   58.219   16.343    0.313    0.173
  109.750   60.060   20.478    0.314    0.170
  110.000   61.901   23.245    0.315    0.155
  110.250   64.366   22.279    0.316    0.085
  110.500   68.083   20.468    0.318    0.029
  110.750   69.914   18.024    0.320    0.016
  111.000   71.130   17.034    0.321    0.016
  111.250   71.095   17.031    0.323    0.025
  111.500   71.059   17.027    0.325    0.044
  111.750   71.650   17.267    0.327    0.074
  112.000   71.614   17.758    0.328    0.091
  112.250   72.213   18.008    0.329    0.101
  112.500   72.178   18.260    0.329    0.106
  112.750   72.125   18.257    0.328    0.109
  113.000   71.474   18.253    0.328    0.111
  113.250   69.563   18.252    0.328    0.111
  113.500   67.652   18.249    0.327    0.111
  113.750   65.124   18.245    0.325    0.109
  114.000   61.963   18.502    0.324    0.107
  114.250   60.668   18.762    0.323    0.106
  114.500   60.642   18.235    0.323    0.103
  114.750   61.857   17.978    0.323    0.101
  115.000   61.822   17.723    0.323    0.099
