~VERSION INFORMATION
 VERS.                 2.0:   CWLS LOG ASCII STANDARD -VERSION 2.0
 WRAP.                  NO:   ONE LINE PER DEPTH STEP
~WELL INFORMATION BLOCK
#MNEM.UNIT           DATA                    DESCRIPTION OF MNEMONIC
#---------    -------------------            -------------------------------
# Generated from Intellog Unique Number	CX_WELLS/WELL/3682
WELL.         AMOCO C31 GREGOIRE             : Well_name    - WELL
LOC .         AA/06-24-085-08W4/0            : Location     - LOCATION
UWI .         AA/06-24-085-08W400            : Uwi          - UNIQUE WELL ID
ENTR.         T                              : Entered      - ENTERED BY
SRVC.         SCHLUMBERGER                   : Scn          - SERVICE COMPANY
DATE.         03/04/92                       : Date         - LOG DATE
STRT.F        200                            : top_depth    - START DEPTH
STOP.F        989.862                        : bot_depth    - STOP DEPTH
STEP.F        0.82                           : increment    - STEP LENGTH
 NULL. -999.2500:NULL Value
~CURVE INFORMATION BLOCK
#MNEM UNIT       ERCB CURVE CODE    CURVE DESCRIPTION
#-----------   ------------------   ----------------------------------
DEPT.F        00 001 00 00         : DEPTH        - DEPTH
GR  .API      00 310 00 00         : GR           - GAMMA RAY
NPHI.V/V      00 330 00 00         : PHIN         - NEUTRON POROSITY (SANDSTONE)
ILD .OHMM     00 120 00 00         : RESD         - DEEP RESISTIVITY (OTHER)
~PARAMETER INFORMATION
#MNEM.UNIT           DATA             DESCRIPTION OF MNEMONIC
#---------         -----------     ------------------------------
GL  .F        1738                 : gl           - GROUND LEVEL ELEVATION
EREF.F        1742                 : kb           - ELEVATION OF DEPTH REFERENCE
DATM.F        1742                 : datum        - DATUM ELEVATION
TDD .F        1008                 : tdd          - TOTAL DEPTH DRILLER
RUN .         ONE                  : Run          - RUN NUMBER
ENG .         JO                   : Engineer     - RECORDING ENGINEER
WIT .         TIM                  : Witness      - WITNESSED BY
MUD .         GEL                  : Mud_type     - MUD TYPE
MATR.         SANDSTONE            : Logunit      - NEUTRON MATRIX
TMAX.F        70                   : BHT          - MAXIMUM RECORDED TEMPERATURE
BHTD.F        1005                 : BHTDEP       - MAXIMUM RECORDED TEMPERATURE
RMT .F        60                   : MDTP         - TEMPERATURE OF MUD
MUDD.LB/G     1                    : MWT          - MUD DENSITY
NEUT.         1                    : NEUTRON      - NEUTRON TYPE
RESI.         4.27                 : RESIST       - RESISTIVITY TYPE
RM  .OHMM     4.27                 : RM           - RESISTIVITY OF MUD
RMC .OHMM     3.86                 : RMC          - RESISTIVITY OF MUD CAKE
RMF .OHMM     3                    : RMF          - RESISTIVITY OF MUD FILTRATE
SUFT.F        32.2                 : SUFT         - SURFACE TEMPERATURE
~A  DEPTH       GR     PHIN     RESD
# ...
  555.971  116.187    0.407    7.747
  556.791  112.822    0.404    7.740
  557.612  105.625    0.399    8.138
  558.432  102.728    0.388    8.736
  559.252  103.634    0.378    9.746
  560.072  104.550    0.377   11.770
  560.892  103.082    0.379   12.974
  561.713  100.652    0.379   12.970
  562.533   99.661    0.385   13.162
  563.353   99.614    0.388   13.157
  564.173   99.595    0.396   13.146
  564.993   98.604    0.404   12.931
  565.814   97.613    0.408   12.925
  566.634   96.622    0.407   12.708
  567.454   96.575    0.405   12.701
  568.274   96.537    0.401   13.099
  569.094   95.061    0.400   13.295
  569.915   94.556    0.399   13.693
  570.735   92.611    0.394   14.091
  571.555   91.144    0.391   14.075
  572.375   88.704    0.391   13.867
  573.196   87.713    0.385   13.654
  574.016   87.199    0.361   13.440
  574.836   86.208    0.353   13.227
  575.656   84.740    0.333   13.216
  576.476   82.796    0.307   13.209
  577.297   84.665    0.276   13.406
  578.117   87.497    0.265   15.837
  578.937   90.309    0.312   30.467
  579.757   92.655    0.344   32.898
  580.577   95.000    0.371   24.146
  581.398   97.822    0.389   18.442
  582.218   99.205    0.389   15.179
  583.038   98.691    0.386   14.355
  583.858   97.700    0.380   14.145
  584.678   94.335    0.368   13.928
  585.499   90.008    0.334   14.323
  586.319   81.858    0.311   14.929
  587.139   73.232    0.249   16.140
  587.959   68.904    0.224   20.400
  588.780   68.867    0.205   28.728
  589.600   72.642    0.197   34.211
  590.420   77.371    0.248   72.025
  591.240   81.623    0.300   77.099
  592.060   82.052    0.326   65.902
  592.881   82.501    0.351   61.829
  593.701   84.360    0.395   54.701
  594.521   86.229    0.409   46.356
  595.341   87.621    0.414   14.827
  596.161   88.537    0.418   13.801
  596.982   88.976    0.418   12.974
  597.802   89.901    0.418   12.762
  598.622   91.274    0.419   12.753
  599.442   90.769    0.420   12.742
  600.262   88.816    0.419   12.737
  601.083   86.881    0.418   12.931
  601.903   84.927    0.415   13.126
  602.723   85.357    0.413   13.320
  603.543   85.814    0.412   13.718
  604.364   86.730    0.412   13.905
  605.184   88.589    0.411   14.102
  606.004   89.982    0.411   13.889
  606.824   91.374    0.408   13.677
  607.644   92.766    0.405   13.670
  608.465   94.626    0.404   13.456
  609.285   95.550    0.401   12.430
  610.105   97.877    0.400   11.201
  610.925   98.802    0.397    9.769
  611.745  100.194    0.395    8.743
  612.566  101.587    0.392    8.122
  613.386  102.979    0.389    9.129
  614.206  104.838    0.393   10.544
  615.026  105.773    0.399   10.736
  615.846  106.679    0.407   10.525
  616.667  107.594    0.416   10.110
  617.487  108.519    0.420    9.491
  618.307  108.958    0.418    8.666
  619.127  108.444    0.414    7.844
  619.948  108.388    0.409    7.631
  620.768  107.397    0.404    6.807
  621.588  105.443    0.400    6.595
  622.408  104.462    0.392    7.195
  623.228  103.947    0.388    8.002
  624.049  105.339    0.386    9.414
  624.869  107.685    0.384    9.809
  625.689  109.087    0.380    9.803
  626.509  111.909    0.377    9.588
  627.329  114.245    0.373    9.583
  628.150  116.114    0.375    9.369
  628.970  117.029    0.400    9.766
  629.790  117.935    0.410   10.774
  630.610  117.898    0.422   10.968
  631.430  117.860    0.428    9.536
  632.251  118.308    0.425    8.305
  633.071  120.168    0.424    7.281
  633.891  121.551    0.425    6.253
  634.711  121.522    0.433    5.835
  635.531  120.055    0.437    5.829
  636.352  118.120    0.444    5.616
  637.172  116.643    0.449    5.605
  637.992  113.259    0.451    5.598
  638.812  113.689    0.447    5.589
  639.633  114.147    0.445    5.580
  640.453  116.006    0.437    5.571
  641.273  116.436    0.428    5.761
  642.093  116.417    0.424    5.754
  642.913  115.893    0.421    6.152
  643.734  116.323    0.418    6.547
  644.554  117.229    0.417    6.945
  645.374  117.687    0.413    7.342
  646.194  118.116    0.411    7.738
  647.014  118.079    0.407    7.936
  647.835  118.050    0.404    8.131
  648.655  118.013    0.399    8.729
  649.475  117.975    0.395    9.127
  650.295  116.498    0.389    9.321
  651.115  116.918    0.384    9.719
  651.936  116.899    0.378    9.911
  652.756  117.338    0.371   10.105
  653.576  116.815    0.363   10.704
  654.396  113.926    0.352   10.699
  655.217  104.347    0.340   11.097
  656.037  100.019    0.312   11.492
  656.857   99.982    0.290   12.292
  657.677  109.953    0.317   12.898
  658.497  111.813    0.341   17.364
  659.318  111.784    0.362   28.945
  660.138  111.737    0.378   17.341
  660.958  112.176    0.384   15.301
  661.778  112.625    0.385   13.462
  662.598  114.017    0.386   13.248
  663.419  115.876    0.391   13.035
  664.239  117.278    0.394   12.821
  665.059  116.268    0.395   12.611
  665.879  115.268    0.395   11.786
  666.699  114.763    0.393   10.966
  667.520  113.772    0.390    9.735
  668.340  113.258    0.384    8.912
  669.160  112.753    0.376    9.920
  669.980  110.313    0.362   11.944
  670.801  110.752    0.353   14.377
  671.621  111.677    0.346   15.380
  672.441  113.051    0.347   15.369
  673.261  113.976    0.353   15.365
  674.081  115.844    0.360   15.356
  674.902  119.153    0.362   13.923
  675.722  119.592    0.368   11.879
  676.542  118.591    0.378   10.444
  677.362  114.740    0.385   10.026
  678.182  112.787    0.398    9.816
  679.003  113.702    0.407    9.403
  679.823  115.104    0.411    8.987
  680.643  116.487    0.413    8.366
  681.463  116.449    0.413    7.744
  682.283  114.982    0.413    7.735
  683.104  113.523    0.406    8.135
  683.924  111.570    0.403    9.342
  684.744  110.579    0.398    9.742
  685.564  110.532    0.389   10.345
  686.385  110.504    0.384   10.941
  687.205  110.447    0.382   11.138
  688.025  110.419    0.390   11.131
  688.845  110.848    0.399   11.120
  689.665  111.306    0.411   11.113
  690.486  111.736    0.424   10.695
  691.306  111.689    0.434    9.466
  692.126  110.698    0.438    7.830
  692.946  110.193    0.437    6.599
  693.766  110.155    0.435    6.389
  694.587  110.099    0.427    6.583
  695.407  109.603    0.420    7.792
  696.227  108.126    0.410    9.611
  697.047  105.705    0.389   11.230
  697.867  102.798    0.381   11.016
  698.688  101.817    0.381   10.600
  699.508   99.873    0.385   10.390
  700.328   99.816    0.387   10.175
  701.148   99.797    0.387   10.164
  701.969  101.180    0.386    9.952
  702.789  102.563    0.384   10.144
  703.609  104.422    0.380   10.544
  704.429  105.357    0.372   11.147
  705.249  106.740    0.371   12.150
  706.070  108.608    0.371   12.552
  706.890  110.487    0.375   12.950
  707.710  114.262    0.377   13.144
  708.530  118.505    0.379   12.726
  709.350  120.364    0.383   12.312
  710.171  120.822    0.384   11.280
  710.991  118.878    0.386   10.867
  711.811  115.027    0.386   10.248
  712.631  111.167    0.386    9.629
  713.451  108.737    0.390    8.809
  714.272  106.792    0.392    8.799
  715.092  104.858    0.392    8.587
  715.912  103.390    0.391    8.372
  716.732  101.904    0.387    7.749
  717.552   99.492    0.384    7.134
  718.373   95.632    0.377    5.905
  719.193   97.015    0.371    5.081
  720.013   97.473    0.374    5.074
  720.833   96.958    0.385    5.673
  721.654   94.528    0.391    5.867
  722.474   93.061    0.394    6.265
  723.294   93.499    0.390    6.658
  724.114   95.359    0.387    6.854
  724.934   98.172    0.389    6.845
  725.755   99.573    0.396    7.037
  726.575  101.928    0.402    7.033
  727.395  107.124    0.408    6.412
  728.215  108.040    0.412    5.996
  729.035  107.535    0.413    5.985
  729.856  106.058    0.411    6.181
  730.676  105.553    0.405    6.983
  731.496  105.515    0.394    7.383
  732.316  106.898    0.384    7.982
  733.136  109.234    0.379    7.568
