~VERSION INFORMATION
 VERS.                 2.0:   CWLS LOG ASCII STANDARD -VERSION 2.0
 WRAP.                  NO:   ONE LINE PER DEPTH STEP
~WELL INFORMATION BLOCK
#MNEM.UNIT           DATA                    DESCRIPTION OF MNEMONIC
#---------    -------------------            -------------------------------
# Generated from Intellog Unique Number	CN_91_93/WELL/1072
WELL.         MILL CITY                      : Well_name    - WELL
LOC .         AA/04-34-091-07W4/0            : Location     - LOCATION
UWI .         AA/04-34-091-07W400            : Uwi          - UNIQUE WELL ID
ENTR.         J                              : Entered      - ENTERED BY
SRVC.         SCHLUMBERGER                   : Scn          - SERVICE COMPANY
DATE.         01/14/92                       : Date         - LOG DATE
STRT.F        250                            : top_depth    - START DEPTH
STOP.F        660.105                        : bot_depth    - STOP DEPTH
STEP.F        0.82                           : increment    - STEP LENGTH
 NULL. -999.2500:NULL Value
~CURVE INFORMATION BLOCK
#MNEM UNIT       ERCB CURVE CODE    CURVE DESCRIPTION
#-----------   ------------------   ----------------------------------
DEPT.F        00 001 00 00         : DEPTH        - DEPTH
GR  .API      00 310 00 00         : GR           - GAMMA RAY
NPHI.V/V      00 330 00 00         : PHIN         - NEUTRON POROSITY (SANDSTONE)
ILD .OHMM     00 120 00 00         : RESD         - DEEP RESISTIVITY (DIL)
~PARAMETER INFORMATION
#MNEM.UNIT           DATA             DESCRIPTION OF MNEMONIC
#---------         -----------     ------------------------------
GL  .F        1561.8               : gl           - GROUND LEVEL ELEVATION
EREF.F        1561.8               : kb           - ELEVATION OF DEPTH REFERENCE
DATM.F        1561.8               : datum        - DATUM ELEVATION
TDD .F        665                  : tdd          - TOTAL DEPTH DRILLER
RUN .         ONE                  : Run          - RUN NUMBER
ENG .         JOETTE               : Engineer     - RECORDING ENGINEER
WIT .         T                    : Witness      - WITNESSED BY
MUD .         GEL                  : Mud_type     - MUD TYPE
MATR.         SANDSTONE            : Logunit      - NEUTRON MATRIX
TMAX.F        47                   : BHT          - MAXIMUM RECORDED TEMPERATURE
BHTD.F        665                  : BHTDEP       - MAXIMUM RECORDED TEMPERATURE
RMT .F        34                   : MDTP         - TEMPERATURE OF MUD
MUDD.LB/G     9.16666              : MWT          - MUD DENSITY
NEUT.         1                    : NEUTRON      - NEUTRON TYPE
RESI.         0                    : RESIST       - RESISTIVITY TYPE
RM  .OHMM     6.8                  : RM           - RESISTIVITY OF MUD
RMC .OHMM     6.8                  : RMC          - RESISTIVITY OF MUD CAKE
RMF .OHMM     6.8                  : RMF          - RESISTIVITY OF MUD FILTRATE
SUFT.F        39.2                 : SUFT         - SURFACE TEMPERATURE
~A  DEPTH       GR     PHIN     RESD
# ...
  427.986   67.572    0.364   17.688
  428.806   64.359    0.390   11.552
  429.626   62.792    0.404    9.058
  430.446   66.140    0.413    8.220
  431.266   68.309    0.404    7.784
  432.087   71.189    0.401    7.979
  432.907   71.478    0.398    8.432
  433.727   69.444    0.399    9.019
  434.547   68.797    0.395    9.531
  435.367   70.507    0.416    9.828
  436.188   71.740    0.429    8.042
  437.008   68.769    0.441    6.421
  437.828   66.016    0.461    5.318
  438.648   61.392    0.460    4.945
  439.469   60.293    0.459    4.977
  440.289   59.646    0.458    5.102
  441.109   62.526    0.450    5.294
  441.929   61.661    0.454    5.526
  442.749   62.676    0.438    5.596
  443.570   63.894    0.437    5.667
  444.390   63.965    0.444    5.880
  445.210   63.085    0.444    6.101
  446.030   62.220    0.442    6.526
  446.850   64.163    0.406    8.692
  447.671   66.107    0.418    6.815
  448.491   65.928    0.439    5.926
  449.311   63.893    0.408    6.696
  450.131   63.013    0.383    8.190
  450.951   63.794    0.364    8.243
  451.772   65.012    0.380    7.081
  452.592   66.955    0.394    6.233
  453.412   68.657    0.410    5.939
  454.232   70.608    0.424    6.237
  455.052   72.084    0.442    5.871
  455.873   72.615    0.441    5.945
  456.693   72.436    0.440    5.911
  457.513   71.564    0.435    5.806
  458.333   67.657    0.439    6.173
  459.154   66.090    0.425    5.917
  459.974   66.614    0.437    5.604
  460.794   69.009    0.448    5.471
  461.614   71.655    0.452    5.374
  462.434   72.888    0.456    5.375
  463.255   72.257    0.464    5.646
  464.075   72.257    0.457    5.894
  464.895   71.690    0.435    6.421
  465.715   69.179    0.417    6.703
  466.535   67.136    0.414    6.664
  467.356   65.336    0.413    6.467
  468.176   65.149    0.428    6.669
  468.996   65.221    0.428    6.836
  469.816   64.808    0.423    7.539
  470.636   63.241    0.408    9.563
  471.457   62.368    0.399    8.017
  472.277   62.908    0.395    6.098
  473.097   64.133    0.411    6.250
  473.917   65.835    0.419    6.645
  474.738   67.544    0.435    7.554
  475.558   69.262    0.450   14.949
  476.378   68.373    0.413   19.080
  477.198   65.636    0.372   12.614
  478.018   62.182    0.319   21.305
  478.839   58.033    0.259  375.406
  479.659   52.706    0.076  818.895
  480.479   44.103    0.027  875.936
  481.299   37.606    0.022  340.916
  482.119   32.521    0.098  253.031
  482.940   30.486    0.196   83.037
  483.760   35.706    0.266   67.119
  484.580   37.399    0.296   85.147
  485.400   40.513    0.275  157.572
  486.220   44.562    0.288  352.198
  487.041   48.370    0.296  339.676
  487.861   44.697    0.272  312.035
  488.681   40.782    0.256  319.840
  489.501   38.271    0.258  316.076
  490.322   38.327    0.272  344.342
  491.142   36.986    0.245  247.908
  491.962   34.007    0.246  176.327
  492.782   34.781    0.269  154.269
  493.602   37.886    0.278  112.432
  494.423   41.694    0.312  103.909
  495.243   45.283    0.311  116.701
  496.063   48.155    0.309   91.501
  496.883   47.282    0.303   68.331
  497.703   44.069    0.311   50.718
  498.524   46.239    0.298   46.306
  499.344   51.225    0.316   43.057
  500.164   52.466    0.333   38.132
  500.984   55.104    0.344   31.011
  501.804   53.763    0.329   22.878
  502.625   54.068    0.335   18.719
  503.445   57.463    0.338   16.378
  504.265   58.439    0.332   16.086
  505.085   58.439    0.318   17.000
  505.905   59.244    0.349   19.681
  506.726   61.656    0.361   20.797
  507.546   59.613    0.365   27.365
  508.366   58.506    0.361   33.878
  509.186   55.761    0.354   27.218
  510.007   55.131    0.322   28.242
  510.827   54.492    0.309   23.249
  511.647   53.846    0.309   17.361
  512.467   55.313    0.304   15.755
  513.287   56.788    0.327   15.760
  514.108   58.506    0.320   20.362
  514.928   60.449    0.329   29.534
  515.748   62.135    0.339   43.895
  516.568   58.688    0.356   29.918
  517.388   53.127    0.369   20.894
  518.209   45.226    0.382   57.097
  519.029   38.511    0.357   77.924
  519.849   41.141    0.329   39.889
  520.669   49.644    0.289   26.372
  521.490   52.750    0.261   21.187
  522.310   55.403    0.265   19.344
  523.130   57.807    0.346   32.872
  523.950   57.870    0.344   40.696
  524.770   56.069    0.359   40.961
  525.591   56.601    0.360   30.035
  526.411   56.664    0.326   31.545
  527.231   56.018    0.333   23.846
  528.051   57.267    0.323   21.508
  528.871   58.259    0.333   26.304
  529.692   57.394    0.326   26.965
  530.512   56.287    0.334   28.492
  531.332   57.303    0.343   24.626
  532.152   55.954    0.337   21.415
  532.972   56.017    0.320   17.205
  533.793   56.791    0.331   21.561
  534.613   56.386    0.339   27.687
  535.433   55.755    0.317   32.252
  536.253   56.271    0.320   21.849
  537.073   57.270    0.310   25.451
  537.894   58.512    0.302   31.509
  538.714   59.051    0.334   27.069
  539.534   59.349    0.320   31.532
  540.354   57.532    0.315   24.424
  541.175   50.809    0.325   21.762
  541.995   48.056    0.350   28.986
  542.815   53.994    0.348   40.287
  543.635   55.695    0.345   25.061
  544.455   58.333    0.317   20.758
  545.276   59.800    0.322   21.147
  546.096   60.098    0.307   19.906
  546.916   60.161    0.315   19.433
  547.736   57.658    0.330   19.321
  548.556   58.666    0.315   23.487
  549.377   58.019    0.321   50.924
  550.197   55.976    0.319   52.517
  551.017   55.572    0.304   36.013
  551.837   56.103    0.298   29.646
  552.657   56.174    0.310   21.086
  553.478   58.344    0.304   19.968
  554.298   60.513    0.301   18.910
  555.118   59.173    0.301   21.108
  555.938   59.712    0.320   18.355
  556.759   60.025    0.313   13.215
  557.579   59.371    0.325   14.485
  558.399   61.556    0.341   17.289
  559.219   63.258    0.337   22.202
  560.039   60.973    0.334   37.728
  560.860   58.470    0.343   24.342
  561.680   48.689    0.319   24.352
  562.500   41.724    0.291   27.182
  563.320   31.257    0.257   28.549
  564.140   33.886    0.278   31.294
  564.961   33.716    0.305   30.736
  565.781   37.297    0.317   35.155
  566.601   38.539    0.282  208.227
  567.421   38.844    0.303  142.783
  568.241   32.573    0.279   37.403
  569.062   28.190    0.277   44.919
  569.882   33.176    0.282   58.743
  570.702   35.813    0.293   52.664
  571.522   38.467    0.306   31.777
  572.343   40.168    0.298   26.641
  573.163   42.338    0.313   23.595
  573.983   40.069    0.323   27.653
  574.803   36.840    0.313   37.739
  575.623   28.947    0.310  475.672
  576.444   31.359    0.315  540.780
  577.264   30.260    0.304  258.885
  578.084   28.451    0.303  118.041
  578.904   27.103    0.306   42.965
  579.724   29.038    0.302   27.721
  580.545   36.138    0.300   24.851
  581.365   35.725    0.301  107.888
  582.185   28.292    0.293  121.916
  583.005   27.669    0.283  471.429
  583.825   29.363    0.287  141.195
  584.646   29.902    0.287  134.533
  585.466   29.022    0.290  132.142
  586.286   29.803    0.284  108.781
  587.106   30.795    0.287  133.041
  587.927   30.632    0.282  613.854
  588.747   28.121    0.286  249.319
  589.567   27.248    0.284   28.180
  590.387   29.886    0.267   75.616
  591.207   33.226    0.274  690.167
  592.028   34.935    0.261 1019.490
  592.848   28.672    0.247  995.340
  593.668   22.885    0.240  983.627
  594.488   21.552    0.230 1058.620
  595.308   22.778    0.240 1065.490
  596.129   22.778    0.237  949.392
  596.949   23.389    0.220 1046.880
  597.769   22.984    0.229 1154.470
  598.589   21.401    0.217 1134.010
  599.409   20.771    0.230 1041.640
  600.230   21.060    0.246 1023.180
  601.050   21.834    0.260 1107.810
  601.870   22.599    0.268 1115.010
  602.690   21.024    0.267 1101.980
  603.510   21.798    0.267 1122.590
  604.331   22.563    0.246 1089.300
  605.151   23.812    0.234  964.707
