~Version : LASO    vs 4.00 - DATA COPYRIGHT - RILEYS DATASHARE INTERNATIONAL
VERS.                2.00:   CWLS Log ASCII Standard -VERSION 2.0
WRAP.                  NO:
~Well Information Block
#MNEM.UNIT       Data                        Description of Mnemonic
#----.----      -------------------------- : -----------------------------
COMP.                                     : COMPANY
FLD .    WILDCAT                          : FIELD NAME
LOC .    03-06-091-07W4                   : WELL LOCATION
UWI .    AA/03-06-091-07W400              : UNIQUE WELL ID
STRT.M             9.0000:
STOP.M           161.0000:
STEP.M             0.1250:
NULL.           -999.2500:
COMP.  MOBIL OIL CANADA:COMPANY
WELL.  MOBIL CLARKE OV 3-6:WELL
FLD.   :FIELD
LOC.   03-06-091-07W4:LOCATION
CTRY.  CANADA:COUNTRY
PROV.  ALBERTA:PROVINCE
SRVC.  DRESSER ATLAS:SERVICE COMPANY
DATE.  08-FEB-81:LOG DATE
UWI.   AA/03-06-091-07W4/0:UNIQUE WELL ID
~Parameter Information Block
#MNEM.UNIT       Data                        Description of Mnemonic
#----.----      -------------------------- : -----------------------------
RUN .                   1                 : Run Number
GL  .M           418.1000                 : Ground Level Elevation
DREF.                  KB                 : Depth Reference
EREF.M           419.1000                 : Elevation of Depth Reference
TDL .M           162.8000                 : Total Depth Logger
TDD .M           160.0000                 : Total Depth Driller
BHT .DEGC         10.0000                 : Bottom Hole Temperature
BS  .MM          171.0000                 : Bit Size
DFD .           1090.0000                 : Mud Weight (Density)
DFV .             85.0000                 : Mud Viscosity
RM  .OHMM          1.9000                 : Mud Resistivity
RMT .DEGC         10.0000                 : Mud Resistivity Temperature
RMF .OHMM          1.1000                 : Mud Filtrate Resistivity
RMFT.DEGC         18.0000                 : RMF Temperature
RMC .OHMM          1.8000                 : Mud Cake Resistivity
RMCT.DEGC         18.0000                 : RMC Temperature
~Curve Information Block
#MNEM.UNIT        API CODE    Curve Description
#---------    ------------    -------------------------------------------
DEPT.M                    :   DEPTH
CALI.MM       42 280  1  1:   3 DENSITY CALIPER
DPHI.V/V                  :   DPHI
DT  .US/M     60 520 32  1:   2 SONIC INTERVAL TRANSIT TIME (COMPENSATED)
GR  .GAPI     42 310  1  1:   4 GAMMA RAY
ILD .OHMM      5 120 46  1:   7 DEEP INDUCTION
NPHI.V/V      42 890  3  1:   5 NEUTRON POROSITY (SANDSTONE)
RHOB.K/M3     42 350  1  1:   6 BULK DENSITY
SFL .OHMM      5 220  6  1:   8 FOCUSSED RESISTIVITY
SP  .MV        5  10  1  1:   9 SPONTANEOUS POTENTIAL
~A  Depth           CALI        DPHI          DT          GR         ILD        NPHI        RHOB         SFL          SP
# ...
101.1250       -999.2500      0.4079    228.2400   -999.2500   1879.9999      0.0878   -999.2500    322.7000    -76.7800
101.2500       -999.2500      0.4032     75.5600   -999.2500   1879.9999      0.0874   -999.2500    355.7000    -77.0200
101.3750       -999.2500      0.4005     81.6800   -999.2500   1879.9999      0.0914   -999.2500    392.4000    -76.9000
101.5000       -999.2500      0.3959     86.8400   -999.2500   1879.9999      0.0941   -999.2500    347.1000    -76.5400
101.6250       -999.2500      0.3921     90.5200   -999.2500   1879.9999      0.0986   -999.2500    310.5000    -76.5400
101.7500       -999.2500      0.3884     71.6400   -999.2500   1879.9999      0.1014   -999.2500    295.8000    -76.9000
101.8750       -999.2500      0.3857     71.8800   -999.2500   1881.9999      0.1003   -999.2500    307.9999    -77.3800
102.0000       -999.2500      0.3822    108.4000   -999.2500   1879.9999      0.0987   -999.2500    372.8000    -77.8700
102.1250       -999.2500      0.3796    145.9200   -999.2500   1879.9999      0.0983   -999.2500    509.7000    -78.2300
102.2500       -999.2500      0.3785    474.5600   -999.2500   1879.9999      0.1012   -999.2500    677.2000    -78.3500
102.3750       -999.2500      0.3778    308.4000   -999.2500   1879.9999      0.1018   -999.2500    713.9000    -78.1100
102.5000       -999.2500      0.3757    647.8800   -999.2500   1879.9999      0.1000   -999.2500    699.2000    -78.2300
102.6250       -999.2500      0.3743    619.4400   -999.2500   1878.9999      0.0986   -999.2500    624.6000    -79.0700
102.7500       -999.2500      0.3815    491.4800   -999.2500   1879.9999      0.0954   -999.2500    476.7000    -79.4300
102.8750       -999.2500      0.3991    540.5200   -999.2500   1879.9999      0.0891   -999.2500    359.4000    -79.3100
103.0000       -999.2500      0.4144    647.1200   -999.2500   1879.9999      0.0838   -999.2500    323.9000    -79.1900
103.1250       -999.2500      0.4135    644.6800   -999.2500   1878.9999      0.0798   -999.2500    331.2000    -78.7100
103.2500       -999.2500      0.4096    641.7200   -999.2500   1878.9999      0.0764   -999.2500    384.9999    -78.5900
103.3750       -999.2500      0.4041    636.6000   -999.2500   1876.9999      0.0751   -999.2500    404.6000    -78.5900
103.5000       -999.2500      0.3999    627.0400   -999.2500   1873.9999      0.0802   -999.2500    389.9000    -78.4700
103.6250       -999.2500      0.3979    624.5600   -999.2500   1877.9999      0.0861   -999.2500    350.8000    -78.1100
103.7500       -999.2500      0.4018    630.2000   -999.2500   1878.9999      0.0921   -999.2500    310.5000    -77.6300
103.8750       -999.2500      0.4082    646.1600   -999.2500   1879.9999      0.0973   -999.2500    257.9000    -77.3800
104.0000       -999.2500      0.4134    575.5600   -999.2500   1879.9999      0.1040   -999.2500    217.6000    -77.9900
104.1250       -999.2500      0.4141    436.6000   -999.2500   1879.9999      0.1093   -999.2500    216.3000    -78.7100
104.2500       -999.2500      0.4116    163.5600   -999.2500   1879.9999      0.1152   -999.2500    267.7000    -78.7100
104.3750       -999.2500      0.4066    518.6801   -999.2500   1879.9999      0.1221   -999.2500    349.6000    -78.2300
104.5000       -999.2500      0.4017    556.9200   -999.2500   1879.9999      0.1301   -999.2500    419.3000    -77.7500
104.6250       -999.2500      0.3976    566.9600   -999.2500   1879.9999      0.1368   -999.2500    392.4000    -77.1400
104.7500       -999.2500      0.3938    591.2400   -999.2500   1879.9999      0.1431   -999.2500    359.4000    -77.1400
104.8750       -999.2500      0.3926    607.9200   -999.2500   1879.9999      0.1450   -999.2500    334.9000    -77.2600
105.0000        200.0000      0.3914    598.1200     24.0000   1879.9999      0.1423   2000.0000    336.1000    -77.5100
105.1250        200.0250      0.3893    594.2000     24.0000   1879.9999      0.1381   2005.0000    338.6000    -77.7500
105.2500        200.0500      0.3870    593.6800     23.2500   1879.9999      0.1326   2010.0000    336.1000    -77.9900
105.3750        200.1000      0.3846    590.7600     22.5000   1879.9999      0.1286   2010.0000    318.9999    -78.2300
105.5000        200.1250      0.3834    565.0000     21.3150   1879.9999      0.1274   2015.0000    307.9999    -78.7100
105.6250        200.1750      0.3797    556.2000     25.5450   1881.9999      0.1322   2020.0000    307.9999    -78.8300
105.7500        200.2000      0.3773    552.7600     25.7250   1881.9999      0.1382   2025.0000    305.6000    -78.7100
105.8750        200.2250      0.3724    549.8400     25.3650   1881.9999      0.1479   2040.0000    301.9000    -78.7100
106.0000        200.2750      0.3687    546.1600     22.7850   1882.9999      0.1588   2050.0000    303.1000    -78.9500
106.1250        200.3000      0.3755    548.6000     21.1350   1882.9999      0.1651   2053.2000    315.4000    -79.4300
106.2500        200.3500      0.3816    551.5200     22.2300   1883.9999      0.1712   2056.5000    325.1000    -79.9100
106.3750        200.3750      0.3866    554.2400     23.8950   1883.9999      0.1761   2059.7000    334.9000    -80.5100
106.5000        200.4250      0.3858    552.2800     23.7000   1882.9999      0.1855   2063.0000    337.4000    -80.7500
106.6250        200.4500      0.3835    543.6801     23.1600   1882.9999      0.1952   2066.2000    340.9999    -80.7500
106.7500        200.4750      0.3777    541.2400     23.3400   1883.9999      0.2027   2069.5000    339.8000    -80.7500
106.8750        200.5250      0.3694    533.1600     23.3400   1882.9999      0.2111   2072.7000    343.5000    -80.7500
107.0000        200.5500      0.3652    516.9600     23.3400   1881.9999      0.2196   2076.0000    344.7000    -81.3500
107.1250        200.6000      0.3572    515.7600     23.7000   1877.9999      0.2336   2079.2000    345.9000    -80.6700
107.2500        200.6250      0.3541    514.5600     23.5650    182.5000      0.2377   2082.5000    347.1000    -79.9900
107.3750        200.6500      0.3515    513.3600     23.4300    165.4000      0.2389   2085.7000    348.3000    -79.3100
107.5000        200.7000      0.3505    512.1200     23.2950    162.9000      0.2370   2089.0000    349.6000    -78.6300
107.6250        200.7250      0.3489    510.9200     23.1750    172.7000      0.2314   2092.2000    350.8000    -77.9500
107.7500        200.7750      0.3476    509.7200     23.0400    205.7000      0.2296   2095.5000    351.9999    -77.2700
107.8750        200.8000      0.3464    508.4800     22.9050    306.9999      0.2282   2098.7000    367.9999    -76.5900
108.0000        200.8500      0.3455    507.2800     22.7850    346.1000      0.2280   2102.0000    399.9999    -75.9100
108.1250        200.8750      0.3440    506.0800     22.6500    350.9999      0.2280   2105.2000    479.9999    -75.2200
108.2500        200.9000      0.3417    504.8800     22.5150    338.8000      0.2290   2108.5000    499.9999    -74.5400
108.3750        200.9500      0.3383    503.6400     22.3800    297.2000      0.2298   2111.7000    529.9999    -73.8600
108.5000        200.9750      0.3386    502.4400     22.2600    297.2000      0.2312   2115.0000    479.9999    -73.1800
108.6250        201.0250      0.3379    501.2400     22.1250    306.9999      0.2345   2118.2000    399.9999    -72.5000
108.7500        201.0500      0.3356    500.0000     21.9900    322.9000      0.2380   2121.5000    299.9999    -71.8200
108.8750        201.0750      0.3312    436.0800     21.8700    365.6000      0.2494   2124.7000    279.9999    -71.1400
109.0000        201.1250      0.3283    417.4800     22.2300    398.6000      0.2614   2128.0000    172.3000    -70.4600
109.1250        201.1500      0.3239    409.4000     22.9650    433.9999      0.2726   2134.1001    144.2000    -69.7800
109.2500        201.2000      0.3219    399.0800     22.2300    523.1000      0.2798   2134.1001    161.3000    -69.0900
109.3750        201.2250      0.3224    391.0000     21.4950    965.0999      0.2824   2128.0000    204.1000    -67.4100
