~VERSION INFORMATION
 VERS.                 2.0:   CWLS LOG ASCII STANDARD -VERSION 2.0
 WRAP.                  NO:   ONE LINE PER DEPTH STEP
~WELL INFORMATION BLOCK
#MNEM.UNIT           DATA                    DESCRIPTION OF MNEMONIC
#---------    -------------------            -------------------------------
# Generated from Intellog Unique Number	CW_76_78/WELL/2778
WELL.         AMOCO MCULLEN                  : Well_name    - WELL
LOC .         AA/06-23-077-25W4/0            : Location     - LOCATION
UWI .         AA/06-23-077-25W4/0            : Uwi          - UNIQUE WELL ID
ENTR.         JOE                            : Entered      - ENTERED BY
SRVC.         WESTERN ATLAS                  : Scn          - SERVICE COMPANY
STRT.M        435                            : top_depth    - START DEPTH
STOP.M        686                            : bot_depth    - STOP DEPTH
STEP.M        0.25                           : increment    - STEP LENGTH
 NULL. -999.2500:NULL Value
~CURVE INFORMATION BLOCK
#MNEM UNIT       ERCB CURVE CODE    CURVE DESCRIPTION
#-----------   ------------------   ----------------------------------
DEPT.M        00 001 00 00         : DEPTH        - DEPTH
CALI.MM       00 280 01 00         : CAL          - CALIPER
ILD .OHMM     00 120 00 00         : RESD         - DEEP RESISTIVITY (DIL)
DPHI.V/V      00 890 00 00         : PHID         - DENSITY POROSITY (SANDSTONE)
NPHI.V/V      00 330 00 00         : PHIN         - NEUTRON POROSITY (SANDSTONE)
GR  .API      00 310 00 00         : GR           - GAMMA RAY
~PARAMETER INFORMATION
#MNEM.UNIT           DATA             DESCRIPTION OF MNEMONIC
#---------         -----------     ------------------------------
GL  .M        737.31               : gl           - GROUND LEVEL ELEVATION
EREF.M        741                  : kb           - ELEVATION OF DEPTH REFERENCE
DATM.M        741                  : datum        - DATUM ELEVATION
TDD .M        690                  : tdd          - TOTAL DEPTH DRILLER
RUN .         ONE                  : Run          - RUN NUMBER
ENG .         KAWOLSKI             : Engineer     - RECORDING ENGINEER
WIT .         BROWN                : Witness      - WITNESSED BY
MUD .         GEL                  : Mud_type     - MUD TYPE
MATR.         SANDSTONE            : Logunit      - NEUTRON MATRIX
TMAX.C        32                   : BHT          - MAXIMUM RECORDED TEMPERATURE
BHTD.M        687.5                : BHTDEP       - MAXIMUM RECORDED TEMPERATURE
RMT .C        24                   : MDTP         - TEMPERATURE OF MUD
MUDD.KG/M     1130                 : MWT          - MUD DENSITY
NEUT.         1                    : NEUTRON      - NEUTRON TYPE
RESI.         0                    : RESIST       - RESISTIVITY TYPE
RM  .OHMM     3                    : RM           - RESISTIVITY OF MUD
RMC .OHMM     3.2                  : RMC          - RESISTIVITY OF MUD CAKE
RMF .OHMM     2.8                  : RMF          - RESISTIVITY OF MUD FILTRATE
SUFT.C        0                    : SUFT         - SURFACE TEMPERATURE
~A  DEPTH      CAL     RESD     PHID     PHIN       GR
# ...
  617.500  172.644   23.594    0.067    0.211   71.431
  617.750  172.642   35.186    0.109    0.231   76.524
  618.000  172.641   41.262    0.123    0.248   79.519
  618.250  172.640   45.356    0.081    0.244   79.219
  618.500  172.638   46.709    0.021    0.215   76.222
  618.750  172.637   47.243   -0.005    0.212   67.233
  619.000  173.135   45.626    0.019    0.222   68.131
  619.250  173.134   42.453    0.046    0.239   76.219
  619.500  173.132   38.403    0.061    0.253   85.207
  619.750  172.631   31.981    0.072    0.268   91.198
  620.000  172.630   24.501    0.083    0.281   98.988
  620.250  172.629   19.841    0.092    0.294   95.691
  620.500  172.627   17.305    0.105    0.297   95.990
  620.750  172.626   15.517    0.114    0.288   98.386
  621.000  172.624   13.914    0.113    0.278  109.471
  621.250  172.623   12.713    0.096    0.279  117.260
  621.500  173.121   12.050    0.089    0.285  115.761
  621.750  173.120   11.629    0.090    0.279  108.570
  622.000  173.617   11.233    0.103    0.274  102.876
  622.250  173.616   11.571    0.127    0.276  103.474
  622.500  173.615   12.368    0.141    0.282  106.170
  622.750  173.114   12.855    0.148    0.295  101.975
  623.000  172.613   13.489    0.155    0.304   94.483
  623.250  171.613   14.161    0.159    0.305   90.288
  623.500  170.613   14.718    0.160    0.292   88.190
  623.750  170.112   15.161    0.156    0.283   90.885
  624.000  169.112   15.473    0.143    0.290   96.278
  624.250  168.112   15.507    0.097    0.295  100.172
  624.500  167.611   15.389    0.047    0.285   93.579
  624.750  167.610   15.136    0.051    0.292   86.687
  625.000  168.607   14.614    0.074    0.305   83.091
  625.250  169.105   13.981    0.144    0.313   93.277
  625.500  170.102   13.015    0.145    0.306  109.755
  625.750  171.100   12.110    0.126    0.297  113.050
  626.000  172.596   11.370    0.100    0.293  111.551
  626.250  173.594   10.978    0.083    0.297  101.663
  626.500  173.093   10.996    0.080    0.303   96.869
  626.750  172.092   12.199    0.115    0.308   90.276
  627.000  169.595   13.784    0.142    0.286   84.583
  627.250  167.596   16.618    0.192    0.268   75.294
  627.500  165.097   20.031    0.211    0.269   63.009
  627.750  163.598   26.991    0.236    0.275   53.720
  628.000  163.097   33.457    0.242    0.283   41.435
  628.250  163.096   36.085    0.241    0.291   34.842
  628.500  162.595   43.516    0.240    0.292   32.145
  628.750  162.594   51.480    0.240    0.283   30.945
  629.000  162.592   62.645    0.240    0.274   29.446
  629.250  162.591   70.127    0.244    0.272   28.547
  629.500  163.089   69.630    0.249    0.276   27.048
  629.750  163.087   59.603    0.256    0.283   27.047
  630.000  163.086   50.562    0.267    0.300   27.346
  630.250  163.085   44.099    0.290    0.294   29.143
  630.500  163.583   40.271    0.285    0.284   30.340
  630.750  164.081   36.447    0.282    0.283   30.040
  631.000  162.581   33.291    0.286    0.289   29.140
  631.250  160.582   29.859    0.300    0.299   28.540
  631.500  161.080   27.521    0.301    0.291   29.438
  631.750  164.075   24.678    0.222    0.269   30.037
  632.000  165.072   22.957    0.173    0.187   28.238
  632.250  165.071   20.777    0.182    0.197   25.241
  632.500  161.075   18.978    0.225    0.225   24.042
  632.750  157.078   17.022    0.243    0.252   25.539
  633.000  156.078   15.401    0.259    0.267   27.336
  633.250  155.577   13.810    0.267    0.271   29.133
  633.500  155.576   12.154    0.263    0.272   27.634
  633.750  155.574   10.701    0.260    0.274   28.232
  634.000  155.573    9.775    0.263    0.277   30.628
  634.250  156.571    8.931    0.264    0.282   31.227
  634.500  157.568    8.383    0.263    0.289   30.926
  634.750  159.065    7.946    0.261    0.287   30.026
  635.000  160.062    7.531    0.260    0.277   29.127
  635.250  162.058    7.339    0.260    0.277   28.227
  635.500  162.556    7.220    0.260    0.281   27.627
  635.750  162.554    7.232    0.259    0.287   31.521
  636.000  162.553    7.383    0.257    0.286   37.213
  636.250  162.552    7.533    0.254    0.288   37.212
  636.500  163.050    7.760    0.248    0.286   39.009
  636.750  165.045    8.069    0.234    0.274   45.899
  637.000  166.542    8.314    0.214    0.267   50.692
  637.250  167.540    8.407    0.204    0.271   56.384
  637.500  168.037    8.421    0.197    0.260   59.380
  637.750  167.537    8.516    0.189    0.244   62.375
  638.000  166.537    8.693    0.192    0.239   63.273
  638.250  166.036    8.792    0.202    0.245   62.074
  638.500  165.535    8.805    0.229    0.251   58.178
  638.750  165.534    8.660    0.237    0.249   44.694
  639.000  165.532    8.368    0.238    0.249   36.304
  639.250  166.030    8.304    0.234    0.253   32.708
  639.500  167.527    8.320    0.222    0.251   30.310
  639.750  169.523    8.813    0.207    0.242   30.309
  640.000  170.021    9.418    0.166    0.196   31.806
  640.250  170.020    9.880    0.140    0.159   32.705
  640.500  170.018   10.370    0.169    0.204   32.704
  640.750  170.017   10.781    0.209    0.243   32.703
  641.000  170.015   11.211    0.251    0.267   33.002
  641.250  170.014   10.626    0.264    0.273   33.300
  641.500  170.013    9.885    0.263    0.271   33.899
  641.750  170.011    9.034    0.260    0.267   36.594
  642.000  170.010    8.328    0.257    0.265   35.695
  642.250  170.009    7.965    0.255    0.265   36.293
  642.500  169.508    7.691    0.254    0.268   38.689
  642.750  169.007    7.564    0.253    0.279   41.684
  643.000  168.506    7.509    0.249    0.286   41.084
  643.250  168.505    7.521    0.242    0.284   42.881
  643.500  169.003    7.535    0.237    0.277   46.476
  643.750  170.000    7.691    0.237    0.268   48.872
  644.000  170.997    7.851    0.236    0.268   49.770
  644.250  171.495    8.087    0.230    0.274   52.465
  644.500  171.494    8.254    0.223    0.280   53.963
  644.750  171.493    8.502    0.216    0.286   56.059
  645.000  171.491    8.841    0.206    0.293   59.055
  645.250  171.490    9.277    0.180    0.294   61.750
  645.500  171.988    9.921    0.152    0.288   65.345
  645.750  172.985   10.309    0.133    0.288   67.741
  646.000  173.982   10.918    0.115    0.285   68.939
  646.250  175.479   11.672    0.085    0.268   67.440
  646.500  176.476   12.476    0.071    0.255   62.346
  646.750  178.472   13.585    0.080    0.246   61.446
  647.000  178.970   14.659    0.125    0.253   76.126
  647.250  179.967   14.690    0.128    0.267   92.604
  647.500  180.466   13.792    0.126    0.283  106.386
  647.750  181.463   12.712    0.124    0.280  111.778
  648.000  181.961   11.193    0.122    0.277  113.874
  648.250  181.960   10.509    0.120    0.275  113.873
  648.500  181.958    9.963    0.122    0.276  110.876
  648.750  180.958    9.799    0.127    0.282   97.393
  649.000  179.458    9.907    0.139    0.290   92.598
  649.250  178.458   10.395    0.152    0.286   94.994
  649.500  176.459   11.114    0.173    0.267   90.499
  649.750  174.960   12.101    0.179    0.252   74.619
  650.000  174.459   13.672    0.173    0.243   56.042
  650.250  174.957   16.332    0.159    0.251   55.142
  650.500  174.956   22.412    0.163    0.263   53.344
  650.750  175.454   29.096    0.163    0.257   50.347
  651.000  175.452   30.256    0.156    0.240   51.245
  651.250  174.452   28.685    0.149    0.236   53.641
  651.500  173.452   27.182    0.136    0.239   59.033
  651.750  173.451   26.239    0.130    0.245   63.227
  652.000  173.449   25.107    0.134    0.254   67.121
  652.250  173.947   24.236    0.136    0.251   71.614
  652.500  174.445   23.412    0.136    0.250   76.108
  652.750  175.942   22.815    0.132    0.254   81.200
  653.000  176.939   22.428    0.124    0.260   84.495
  653.250  177.936   21.660    0.108    0.266   82.697
  653.500  177.935   21.108    0.103    0.271   74.606
  653.750  178.433   20.376    0.093    0.275   75.204
