~VERSION INFORMATION
 VERS.                 2.0:   CWLS LOG ASCII STANDARD -VERSION 2.0
 WRAP.                  NO:   ONE LINE PER DEPTH STEP
~WELL INFORMATION BLOCK
#MNEM.UNIT           DATA                    DESCRIPTION OF MNEMONIC
#---------    -------------------            -------------------------------
# Generated from Intellog Unique Number	CN_94_101/WELL/1061
WELL.         01-08-095-12W4                 : Well_name    - WELL
LOC .         AA/01-08-095-12W4/0            : Location     - LOCATION
UWI .         AA/01-08-095-12W4/0            : Uwi          - UNIQUE WELL ID
ENTR.         MAX                            : Entered      - ENTERED BY
SRVC.         SCHLUMBERGER                   : Scn          - SERVICE COMPANY
DATE.         03/16/92                       : Date         - LOG DATE
STRT.F        100                            : top_depth    - START DEPTH
STOP.F        369.849                        : bot_depth    - STOP DEPTH
STEP.F        0.82                           : increment    - STEP LENGTH
 NULL. -999.2500:NULL Value
~CURVE INFORMATION BLOCK
#MNEM UNIT       ERCB CURVE CODE    CURVE DESCRIPTION
#-----------   ------------------   ----------------------------------
DEPT.F        00 001 00 00         : DEPTH        - DEPTH
GR  .API      00 310 00 00         : GR           - GAMMA RAY
DPHI.V/V      00 890 00 00         : PHID         - DENSITY POROSITY (SANDSTONE)
ILD .OHMM     00 120 00 00         : RESD         - DEEP RESISTIVITY (DIL)
~PARAMETER INFORMATION
#MNEM.UNIT           DATA             DESCRIPTION OF MNEMONIC
#---------         -----------     ------------------------------
GL  .F        1122.2               : gl           - GROUND LEVEL ELEVATION
EREF.F        1122.2               : kb           - ELEVATION OF DEPTH REFERENCE
DATM.F        1122.2               : datum        - DATUM ELEVATION
TDD .F        372                  : tdd          - TOTAL DEPTH DRILLER
RUN .         ONE                  : Run          - RUN NUMBER
ENG .         BILL                 : Engineer     - RECORDING ENGINEER
WIT .         JIM                  : Witness      - WITNESSED BY
MUD .         GEL                  : Mud_type     - MUD TYPE
MATR.         SANDSTONE            : Logunit      - NEUTRON MATRIX
TMAX.C        12.2222              : BHT          - MAXIMUM RECORDED TEMPERATURE
BHTD.M        113.386              : BHTDEP       - MAXIMUM RECORDED TEMPERATURE
RMT .C        12.2222              : MDTP         - TEMPERATURE OF MUD
MUDD.KG/M     1100                 : MWT          - MUD DENSITY
NEUT.         1                    : NEUTRON      - NEUTRON TYPE
RESI.         0                    : RESIST       - RESISTIVITY TYPE
RM  .OHMM     2.1                  : RM           - RESISTIVITY OF MUD
RMC .OHMM     2.1                  : RMC          - RESISTIVITY OF MUD CAKE
RMF .OHMM     2.1                  : RMF          - RESISTIVITY OF MUD FILTRATE
SUFT.C        4                    : SUFT         - SURFACE TEMPERATURE
~A  DEPTH       GR     PHID     RESD
# ...
  277.986   68.477    0.306   15.407
  278.806   68.098    0.306   15.126
  279.626   74.082    0.308   16.289
  280.446   72.115    0.304   16.905
  281.266   69.746    0.300   14.578
  282.087   66.985    0.297   13.290
  282.907   67.405    0.295   15.701
  283.727   69.806    0.291   15.995
  284.547   71.810    0.290   15.132
  285.367   75.402    0.293   14.052
  286.188   80.185    0.299   13.542
  287.008   77.821    0.305   13.796
  287.828   74.266    0.312   13.544
  288.648   72.299    0.305   16.604
  289.469   71.126    0.300   16.605
  290.289   68.369    0.300   16.003
  291.109   64.019    0.299   16.303
  291.929   63.645    0.306   18.560
  292.749   63.266    0.318   18.221
  293.570   60.505    0.314   18.222
  294.390   58.931    0.297   18.223
  295.210   54.978    0.302   17.889
  296.030   48.643    0.315   19.993
  296.850   47.073    0.321   32.358
  297.671   48.684    0.317   67.871
  298.491   47.507    0.318   63.029
  299.311   44.358    0.322   50.473
  300.131   43.582    0.330   42.728
  300.951   42.806    0.330   39.681
  301.772   43.217    0.319   45.174
  302.592   45.225    0.316   53.370
  303.412   46.827    0.315   67.899
  304.232   50.027    0.314   64.234
  305.052   51.237    0.315   63.059
  305.873   49.270    0.314   58.562
  306.693   48.096    0.312   53.386
  307.513   48.115    0.315   47.775
  308.333   49.334    0.317   41.199
  309.154   51.342    0.319   34.877
  309.974   52.542    0.321   31.212
  310.794   54.546    0.313   27.931
  311.614   54.966    0.305   25.463
  312.434   56.176    0.306   22.787
  313.255   61.754    0.306   22.370
  314.075   68.125    0.306   33.621
  314.895   67.747    0.299   26.924
  315.715   65.784    0.293   22.374
  316.535   63.817    0.289   18.940
  317.356   62.242    0.298   18.253
  318.176   57.893    0.301   18.254
  318.996   52.749    0.301   16.641
  319.816   54.360    0.307   18.256
  320.636   59.545    0.314   21.568
  321.457   55.985    0.321   20.404
  322.277   50.047    0.338   16.645
  323.097   43.712    0.338   14.895
  323.917   36.980    0.321   20.033
  324.738   32.630    0.309   24.560
  325.558   30.668    0.293   26.945
  326.378   29.888    0.274   24.563
  327.198   31.494    0.270   21.981
  328.018   35.488    0.280   19.310
  328.839   44.242    0.290   20.415
  329.659   62.532    0.312   23.242
  330.479   72.080    0.317   20.043
  331.299   72.099    0.292   16.350
  332.119   70.542    0.285   11.083
  332.940   69.365    0.291   11.084
  333.760   68.196    0.261   11.718
  334.580   67.808    0.244   11.719
  335.400   67.033    0.247   11.719
  336.220   65.860    0.253   11.720
  337.041   64.687    0.255   12.163
  337.861   61.529    0.255   12.391
  338.681   55.590    0.281   12.623
  339.501   49.260    0.287   13.345
  340.322   47.685    0.299   14.372
  341.142   44.130    0.316   15.194
  341.962   41.775    0.321   15.768
  342.782   43.774    0.314   18.287
  343.602   48.955    0.304   18.977
  344.423   50.959    0.292   18.979
  345.243   50.981    0.268   17.954
  346.063   51.000    0.244   17.302
  346.883   50.626    0.268   16.986
  347.703   49.850    0.291   16.369
  348.524   49.476    0.281   15.775
  349.344   49.088    0.234   15.203
  350.164   45.929    0.223   14.651
  350.984   40.389    0.269   14.925
  351.804   35.245    0.278   14.926
  352.625   31.694    0.291   14.927
  353.445   30.526    0.288   14.928
  354.265   30.147    0.274   15.492
  355.085   30.955    0.233   16.378
  355.906   32.959    0.200   15.784
  356.726   36.158    0.160   15.211
  357.546   36.574    0.162   16.687
  358.366   36.587    0.160   22.862
  359.186   36.620    0.146   25.551
  360.007   37.026    0.144   25.083
  360.827   37.838    0.145   29.089
  361.647   38.655    0.143   35.010
  362.467   39.075    0.139   33.738
  363.287   39.089    0.137   32.514
  364.108   39.509    0.136   36.336
  364.928   39.925    0.134   46.230
  365.748   40.345    0.128   45.383
  366.568   40.358    0.125   41.373
  367.388   40.769    0.115   39.871
  368.209   40.788    0.105   37.027
  369.029   40.815    0.107   43.743
  369.849   40.834    0.116   53.630
