~Version : LASO    vs 4.00 - DATA COPYRIGHT - RILEYS DATASHARE INTERNATIONAL
 VERS.                2.0 :   CWLS Log ASCII Standard -VERSION 2.0
 WRAP.                 NO :   One line per depth step
~Well Information Block
#MNEM.UNIT       Data                        Description of Mnemonic
#----.----      -------------------------- : -----------------------------
 STRT.M             0.0000                 : Start Depth
 STOP.M           204.7500                 : End Depth
 STEP.M             0.1250                 : Depth Increment
 NULL.           -999.25                   : NULL Value
 COMP.                                     : COMPANY
 WELL.    MOBIL CLARKE OV 7-25             : WELL NAME
 FLD .    WILDCAT                          : FIELD NAME
 LOC .    07-25-090-08W4                   : WELL LOCATION
 PROV.    ALBERTA                          : PROVINCE
 SRVC.    DRESSER ATLAS                    : LOGGING SERVICE COMPANY
 DATE.    19-FEB-81                        : DATE LOGGED
 UWI .    AA/07-25-090-08W400              : UNIQUE WELL ID
~Curve Information Block
#MNEM.UNIT        API CODE                   Curve Description
#----.----      LG--CV-CL--M               : -----------------
 DEPT.M          0   1  0  0               : 1 DEPTH
 DT  .US/M      60 520 42  1               : 2 SONIC INTERVAL TRANSIT TIME (COMPENSATED)
 CALI.MM        42 280  1  1               : 3 DENSITY CALIPER
 GR  .GAPI      42 310  1  1               : 4 GAMMA RAY
 NPHI.V/V       42 890  3  1               : 5 NEUTRON POROSITY (SANDSTONE)
 RHOB.K/M3      42 350  1  1               : 6 BULK DENSITY
 IL  .OHMM       5 120 45  1               : 7 INDUCTION
 SFL .OHMM       5 220  6  1               : 8 FOCUSSED RESISTIVITY
 SP  .MV         5  10  1  1               : 9 SPONTANEOUS POTENTIAL
~Parameter Information Block
#MNEM.UNIT       Data                        Description of Mnemonic
#----.----      -------------------------- : -----------------------------
 RUN .                   1                 : Run Number
 GL  .M           449.0000                 : Ground Level Elevation
 DREF.                  KB                 : Depth Reference
 EREF.M           449.0000                 : Elevation of Depth Reference
 TDL .M           202.0000                 : Total Depth Logger
 TDD .M           205.0000                 : Total Depth Driller
 BHT .DEGC         20.0000                 : Bottom Hole Temperature
 BS  .MM          159.0000                 : Bit Size
 DFD .           9999.0000                 : Mud Weight (Density)
 DFV .            150.0000                 : Mud Viscosity
 RM  .OHMM          4.1000                 : Mud Resistivity
 RMT .DEGC         20.0000                 : Mud Resistivity Temperature
 RMF .OHMM          3.9000                 : Mud Filtrate Resistivity
 RMFT.DEGC          8.0000                 : RMF Temperature
 RMC .OHMM          7.8000                 : Mud Cake Resistivity
 RMCT.DEGC          8.0000                 : RMC Temperature
~Asc DEPTH      DT         CALI       GR         NPHI       RHOB       IL         SFL        SP   
# ...
  111.3750   481.3600   205.1250   109.4100     0.3955  2199.3000     7.2500     9.4950  -126.4050
  111.5000   476.2000   205.1250   110.3400     0.3965  2206.7000     7.2500     9.1900  -126.5850
  111.6250   464.6400   206.0500   111.6300     0.4002  2207.8999     7.2500     9.1250  -126.7650
  111.7500   459.7200   206.9750   112.1850     0.4021  2207.3000     7.1850     9.2500  -126.7650
  111.8750   460.2000   207.2750   112.3650     0.3881  2209.1001     7.1250     9.4350  -127.1400
  112.0000   461.9200   206.6750   113.2800     0.3859  2207.8999     7.0050     9.5550  -127.3200
  112.1250   470.5200   208.2000   112.1850     0.3863  2207.3000     6.7550     9.6800  -127.1400
  112.2500   472.5200   208.2000   111.8100     0.3892  2207.3000     6.4500     9.6200  -126.7650
  112.3750   475.2000   207.9000   112.7400     0.3940  2201.2000     5.9600     9.4950  -126.2100
  112.5000   480.6000   207.9000   113.8350     0.3940  2193.8000     5.5300     9.1250  -125.6550
  112.6250   502.6800   207.5750   114.2100     0.4028  2186.5000     4.9800     8.8200  -124.9200
  112.7500   512.3200   207.5750   114.2100     0.4087  2179.1001     4.4250     8.4550  -124.7250
  112.8750   525.5600   206.9750   114.2100     0.4193  2169.3000     4.0600     8.4550  -124.7250
  113.0000   531.4800   205.7500   113.4750     0.4226  2157.1001     3.7500     8.0850  -125.1000
  113.1250   542.2800   205.1250   112.7400     0.4315  2146.0000     3.4450     6.9200  -124.5450
  113.2500   543.5200   205.1250   111.8100     0.4465  2134.3999     3.3200     5.9400  -124.3650
  113.3750   542.7600   204.8250   111.6300     0.4590  2112.3000     3.1400     5.9400  -124.3650
  113.5000   538.6000   204.5250   111.4500     0.4634  2092.7000     3.0150     6.1850  -124.7250
  113.6250   531.9600   204.2250   110.8950     0.4762  2077.3999     2.8900     6.0650  -124.9200
  113.7500   530.2400   203.9000   108.8700     0.4792  2064.5000     2.8300     5.6350  -124.5450
  113.8750   528.2800   203.6000   106.4700     0.4825  2056.6001     2.8300     5.5750  -123.9900
  114.0000   525.0800   203.0000   103.3350     0.4792  2056.6001     2.8900     5.7550  -123.6150
  114.1250   522.6400   203.3000   102.7800     0.4733  2061.5000     2.8900     6.1850  -123.4350
  114.2500   521.4000   203.9000   102.4200     0.4707  2075.6001     2.9550     6.4300  -123.4350
  114.3750   518.9200   204.8250   101.3100     0.4564  2099.5000     3.0750     6.3700  -123.2550
  114.5000   514.2800   206.0500   100.0200     0.4634  2115.3999     3.1400     6.3100  -123.2550
  114.6250   507.1600   206.9750   101.3100     0.4707  2114.8000     3.2000     6.1250  -122.8800
  114.7500   501.9600   206.6750   103.8900     0.4693  2109.3000     3.3200     6.0000  -122.8800
  114.8750   491.6800   206.3500   104.4450     0.4531  2107.3999     3.4450     6.0650  -122.8800
  115.0000   481.8400   206.3500   103.1550     0.4436  2109.8999     3.6300     6.3100  -122.8800
  115.1250   463.4000   206.6750   102.4200     0.4366  2112.8999     3.8150     6.1850  -122.7000
  115.2500   462.4400   207.5750   103.3350     0.4333  2120.8999     3.9950     6.1250  -122.7000
  115.3750   462.4400   207.9000   104.8050     0.4263  2131.3000     4.1200     6.4950  -123.0600
  115.5000   465.1200   208.2000   106.8300     0.4259  2137.5000     4.1800     7.3500  -123.6150
  115.6250   479.8800   208.8000   107.5800     0.4208  2142.3000     4.3050     8.7000  -124.3650
  115.7500   483.3200   209.1250   107.7600     0.4178  2159.5000     4.4250    10.3550  -124.9200
  115.8750   480.3600   209.1250   107.9400     0.4102  2183.3999     4.4900    10.7200  -124.7250
  116.0000   459.2400   209.4250   107.7600     0.4076  2193.2000     4.6700     9.3700  -124.1700
  116.1250   438.3600   209.7250   105.3600     0.4031  2187.7000     4.7950     7.7200  -123.0600
  116.2500   463.6400   209.7250   103.3350     0.4021  2182.2000     4.9150     6.5550  -122.7000
  116.3750   472.2400   210.0250   104.4450     0.4002  2177.8999     5.0400     6.1850  -122.7000
  116.5000   466.1200   209.4250   104.2500     0.4017  2173.6001     5.0400     6.4300  -122.7000
  116.6250   453.6000   208.8000   103.8900     0.4069  2171.1001     5.1000     7.1650  -123.0600
  116.7500   447.4400   207.5750   104.2500     0.4072  2171.8000     5.2250     8.2700  -123.9900
  116.8750   449.4000   207.5750   106.6500     0.4054  2179.7000     5.4700     9.3100  -125.4750
  117.0000   453.3200   207.5750   108.1200     0.4039  2198.1001     5.6550     9.9850  -126.5850
  117.1250   464.6400   207.5750   106.4700     0.4057  2214.7000     5.9600    10.6000  -127.6950
  117.2500   470.8000   207.5750   104.8050     0.4105  2222.0000     6.2650    10.8450  -128.4300
  117.3750   473.7200   207.9000   102.7800     0.4050  2226.3000     6.5750    10.7200  -128.2500
  117.5000   473.4800   207.9000   101.6700     0.4076  2234.8999     6.6950     9.3100  -126.5850
  117.6250   444.4800   207.9000   100.2000     0.4083  2249.0000     6.5750     8.0250  -125.2950
  117.7500   446.9600   207.9000    99.8400     0.4094  2260.0000     6.2650     7.7200  -124.9200
  117.8750   454.3200   207.9000    99.4650     0.4156  2263.7000     5.8350     9.0050  -124.9200
  118.0000   454.8000   207.9000    98.9100     0.4149  2256.8999     5.3450    11.0250  -124.9200
  118.1250   452.6000   208.2000   100.9350     0.4156  2245.3000     5.0400    12.6200  -124.7250
  118.2500   475.4400   208.5000   102.4200     0.4135  2229.3999     4.7350    11.0250  -123.9900
  118.3750   509.8400   208.5000   102.2250     0.4123  2226.3000     4.5500     7.9650  -123.8100
  118.5000   510.0800   208.8000   101.4900     0.4186  2223.8000     4.3650     5.7550  -123.2550
  118.6250   500.4800   208.5000   100.3800     0.4241  2211.6001     4.1200     5.3300  -122.7000
  118.7500   500.9600   207.5750   100.7550     0.4259  2193.2000     3.9350     5.6950  -122.5050
  118.8750   502.6800   206.6750   102.7800     0.4333  2160.1001     3.8150     6.3100  -122.5050
  119.0000   507.4000   207.2750   105.7350     0.4381  2122.7000     3.6900     6.8600  -122.7000
  119.1250   507.1600   209.4250   109.0500     0.4351  2126.3999     3.6300     7.1650  -123.0600
  119.2500   497.8000   210.0250   112.1850     0.4336  2139.8999     3.6900     6.9200  -123.8100
  119.3750   493.4000   210.6500   114.9450     0.4256  2153.3999     3.6900     6.6150  -124.3650
  119.5000   488.2400   210.9500   115.6800     0.4237  2162.0000     3.6900     6.5550  -124.3650
  119.6250   490.4400   210.3500   115.1250     0.4244  2168.1001     3.6900     6.7400  -124.3650
  119.7500   494.8400   210.0250   114.2100     0.4277  2167.5000     3.6900     7.0450  -123.9900
  119.8750   496.3200   210.0250   114.5700     0.4432  2158.8999     3.6900     7.2300  -123.9900
  120.0000   498.0400   210.0250   116.2350     0.4428  2146.6001     3.6300     6.9200  -123.8100
  120.1250   496.3200   210.0250   117.3450     0.4399  2140.5000     3.6300     6.1250  -123.2550
  120.2500   494.6000   210.3500   117.9000     0.4348  2139.8999     3.6300     5.5750  -122.5050
  120.3750   492.1600   210.9500   115.5000     0.4381  2138.7000     3.6300     5.5100  -122.1450
  120.5000   492.1600   210.6500   113.6550     0.4395  2135.6001     3.6300     5.9400  -121.9500
  120.6250   506.1600   210.6500   112.7400     0.4443  2134.3999     3.5650     6.4950  -121.9500
  120.7500   516.4800   211.2500   111.2550     0.4388  2135.0000     3.5050     6.6750  -122.1450
  120.8750   535.8800   210.9500   111.8100     0.4241  2131.8999     3.5050     6.3100  -122.3250
  121.0000   535.6400   210.9500   111.0750     0.4164  2131.3000     3.5050     5.8200  -122.3250
  121.1250   494.8400   211.2500   110.5200     0.4160  2131.3000     3.5050     5.6350  -122.1450
  121.2500   493.4000   210.6500   110.5200     0.4178  2130.1001     3.5050     5.7550  -122.1450
  121.3750   491.4400   210.6500   109.4100     0.4234  2130.7000     3.5050     6.2500  -121.9500
