~VERSION INFORMATION
 VERS.                 2.0:   CWLS LOG ASCII STANDARD -VERSION 2.0
 WRAP.                  NO:   ONE LINE PER DEPTH STEP
~WELL INFORMATION BLOCK
#MNEM.UNIT           DATA                    DESCRIPTION OF MNEMONIC
#---------    -------------------            -------------------------------
# Generated from Intellog Unique Number	CN_94_101/WELL/2376
WELL.         02-04-097-07W4                 : Well_name    - WELL
LOC .         AA/02-04-097-07W4/0            : Location     - LOCATION
UWI .         AA/02-04-097-07W400            : Uwi          - UNIQUE WELL ID
ENTR.         JOETTE                         : Entered      - ENTERED BY
SRVC.         SCHLUMBERGER                   : Scn          - SERVICE COMPANY
DATE.         08/11/92                       : Date         - LOG DATE
STRT.M        0                              : top_depth    - START DEPTH
STOP.M        106.75                         : bot_depth    - STOP DEPTH
STEP.M        0.25                           : increment    - STEP LENGTH
 NULL. -999.2500:NULL Value
~CURVE INFORMATION BLOCK
#MNEM UNIT       ERCB CURVE CODE    CURVE DESCRIPTION
#-----------   ------------------   ----------------------------------
DEPT.M        00 001 00 00         : DEPTH        - DEPTH
GR  .API      00 310 00 00         : GR           - GAMMA RAY
ILD .OHMM     00 120 00 00         : RESD         - DEEP RESISTIVITY (DIL)
DPHI.V/V      00 890 00 00         : PHID         - DENSITY POROSITY (SANDSTONE)
~PARAMETER INFORMATION
#MNEM.UNIT           DATA             DESCRIPTION OF MNEMONIC
#---------         -----------     ------------------------------
GL  .M        354.604              : gl           - GROUND LEVEL ELEVATION
EREF.M        354.604              : kb           - ELEVATION OF DEPTH REFERENCE
DATM.M        354.604              : datum        - DATUM ELEVATION
TDD .M        121.92               : tdd          - TOTAL DEPTH DRILLER
RUN .         ONE                  : Run          - RUN NUMBER
ENG .         JO                   : Engineer     - RECORDING ENGINEER
WIT .         TIM                  : Witness      - WITNESSED BY
MUD .         GEL                  : Mud_type     - MUD TYPE
MATR.         SANDSTONE            : Logunit      - NEUTRON MATRIX
TMAX.C        0                    : BHT          - MAXIMUM RECORDED TEMPERATURE
BHTD.M        121.92               : BHTDEP       - MAXIMUM RECORDED TEMPERATURE
RMT .C        0                    : MDTP         - TEMPERATURE OF MUD
MUDD.KG/M     0                    : MWT          - MUD DENSITY
NEUT.         1                    : NEUTRON      - NEUTRON TYPE
RESI.         0                    : RESIST       - RESISTIVITY TYPE
RM  .OHMM     13.8                 : RM           - RESISTIVITY OF MUD
RMC .OHMM     13.8                 : RMC          - RESISTIVITY OF MUD CAKE
RMF .OHMM     13.8                 : RMF          - RESISTIVITY OF MUD FILTRATE
SUFT.C        4                    : SUFT         - SURFACE TEMPERATURE
~A  DEPTH       GR     RESD     PHID
# ...
   54.250   22.750 3026.330    0.312
   54.500   27.185 2515.660    0.301
   54.750   35.183 1259.160    0.293
   55.000   45.974  110.169    0.345
   55.250   65.519   78.829    0.331
   55.500   68.775  128.733    0.324
   55.750   70.800  158.612    0.329
   56.000   70.852  214.761    0.343
   56.250   68.918  211.456    0.359
   56.500   66.586  228.505    0.389
   56.750   66.638  208.470    0.409
   57.000   69.868  173.292    0.396
   57.250   69.920  183.906    0.350
   57.500   64.808  202.493    0.319
   57.750   65.257  184.858    0.312
   58.000   69.692  171.951    0.313
   58.250   74.921  175.770    0.295
   58.500   75.358  143.212    0.309
   58.750   73.423  146.488    0.306
   59.000   69.502  152.377    0.308
   59.250   65.979  147.151    0.328
   59.500   58.469  199.243    0.323
   59.750   49.384  378.006    0.286
   60.000   35.916  493.312    0.279
   60.250   33.187  585.074    0.309
   60.500   30.855  669.242    0.340
   60.750   29.715  555.952    0.339
   61.000   32.151  568.300    0.334
   61.250   31.408  662.352    0.338
   61.500   28.692  756.659    0.337
   61.750   29.526 1005.500    0.328
   62.000   35.550 1149.410    0.323
   62.250   41.958  451.213    0.318
   62.500   44.010  496.817    0.330
   62.750   42.883  517.124    0.325
   63.000   44.511  391.667    0.315
   63.250   45.370  431.252    0.317
   63.500   40.642  511.801    0.315
   63.750   38.310  596.116    0.313
   64.000   42.335  920.283    0.314
   64.250   47.962  341.298    0.315
   64.500   49.206  263.217    0.314
   64.750   45.298  349.780    0.326
   65.000   42.556  539.990    0.318
   65.250   41.826  665.323    0.318
   65.500   45.838  417.530    0.316
   65.750   50.286  459.729    0.306
   66.000   47.147  535.813    0.307
   66.250   43.610  600.739    0.308
   66.500   40.881  549.129    0.311
   66.750   41.741  604.629    0.311
   67.000   40.985  665.739    0.314
   67.250   36.283  732.551    0.317
   67.500   41.102  694.294    0.317
   67.750   45.140  328.729    0.303
   68.000   49.562  273.258    0.323
   68.250   48.025  254.179    0.320
   68.500   46.885  377.966    0.312
   68.750   45.745  457.047    0.308
   69.000   48.975  394.433    0.311
   69.250   51.821  468.406    0.322
   69.500   55.064  322.619    0.321
   69.750   53.911  198.576    0.308
   70.000   49.196  227.143    0.300
   70.250   42.084  560.578    0.295
   70.500   33.806  787.504    0.289
   70.750   33.050 1027.060    0.292
   71.000   35.883 1339.490    0.305
   71.250   39.921  516.069    0.328
   71.500   37.179  711.519    0.318
   71.750   36.039  962.778    0.302
   72.000   37.283  743.476    0.286
   72.250   36.143  834.104    0.273
   72.500   31.825  970.890    0.287
   72.750   27.904 1174.030    0.302
   73.000   23.189 1532.150    0.307
   73.250   24.035 2034.710    0.308
   73.500   26.471 2002.100    0.309
   73.750   28.138  830.863    0.315
   74.000   28.177  652.902    0.313
   74.250   26.640  204.556    0.289
   74.500   29.870  656.282    0.319
   74.750   39.072  588.004    0.326
   75.000   35.549  335.785    0.304
   75.250   29.629  254.158    0.304
   75.500   28.092  728.701    0.307
   75.750   35.705 1124.970    0.305
   76.000   32.181  251.379    0.295
   76.250   26.274  575.587    0.290
   76.500   24.327 1155.160    0.300
   76.750   26.391  612.025    0.304
   77.000   28.814  480.937    0.303
   77.250   26.892  701.880    0.303
   77.500   26.137 1306.890    0.302
   77.750   23.805 2055.740    0.299
   78.000   20.294 1741.170    0.294
   78.250   18.744 1954.680    0.287
   78.500   18.796 2112.280    0.281
   78.750   18.848 1964.800    0.280
   79.000   18.913 1601.900    0.287
   79.250   18.568 1637.480    0.297
   79.500   18.620 1494.870    0.303
   79.750   18.672 1709.920    0.304
   80.000   21.120 1420.460    0.305
   80.250   21.967  781.329    0.309
   80.500   20.814 1077.930    0.352
   80.750   19.674  770.793    0.364
   81.000   18.534 1258.760    0.358
   81.250   17.805 1641.670    0.335
   81.500   17.049 1416.770    0.294
   81.750   16.704 1133.640    0.278
   82.000   16.358  738.599    0.291
   82.250   16.808  828.632    0.303
   82.500   18.475  929.640    0.308
   82.750   18.924 1282.550    0.297
   83.000   16.579  935.660    0.283
   83.250   19.028  920.664    0.289
   83.500   18.285 1032.220    0.293
   83.750   16.748 1506.430    0.285
   84.000   16.006  828.615    0.284
   84.250   16.058 1021.600    0.293
   84.500   16.507 1306.780    0.302
   84.750   16.559 1007.820    0.315
   85.000   16.213  837.757    0.312
   85.250   15.471 1420.370    0.315
   85.500   15.523 1960.830    0.317
   85.750   15.575 1822.750    0.320
   86.000   15.627 2204.120    0.322
   86.250   16.473 2170.190    0.318
   86.500   17.730 2094.410    0.307
   86.750   18.179 2102.540    0.294
   87.000   19.026 2105.250    0.287
   87.250   20.270 2072.850    0.296
   87.500   20.719 2078.210    0.307
   87.750   19.989 2046.220    0.314
   88.000   18.849 2013.420    0.319
   88.250   17.709 1908.270    0.319
   88.500   17.364 1470.750    0.308
   88.750   17.416 1651.100    0.297
   89.000   17.878 1783.070    0.304
   89.250   19.109   61.045    0.284
   89.500   21.558  165.456    0.263
   89.750   20.418  250.688    0.252
   90.000   18.881  379.827    0.260
   90.250   19.727  586.376    0.275
   90.500   22.176  381.793    0.272
   90.750   24.214  288.981    0.269
   91.000   26.637  480.856    0.268
   91.250   23.908  638.993    0.271
   91.500   21.576  730.446    0.285
   91.750   21.231  900.564    0.297
   92.000   21.680 1984.900    0.305
   92.250   21.348 2106.480    0.300
   92.500   21.400 2111.920    0.298
   92.750   21.849 2040.810    0.296
   93.000   21.914 1932.980    0.298
   93.250   22.761 1546.700    0.304
   93.500   24.401 1360.050    0.304
   93.750   26.030 1289.020    0.293
   94.000   28.094 1530.770    0.292
   94.250   28.543 1479.230    0.307
   94.500   28.211 1401.070    0.309
   94.750   27.442 1485.930    0.309
   95.000   26.315 1434.960    0.309
   95.250   27.149 1385.750    0.308
   95.500   28.393  937.335    0.311
   95.750   26.869 1199.770    0.313
   96.000   25.318  826.356    0.307
   96.250   22.987 1118.890    0.303
   96.500   23.462 1002.480    0.297
   96.750   24.308  898.765    0.295
   97.000   24.745 1026.730    0.302
   97.250   25.604 1288.970    0.306
   97.500   26.848 2067.240    0.307
   97.750   26.092 2153.130    0.303
   98.000   23.761 2199.530    0.293
   98.250   22.224 2246.930    0.294
   98.500   21.878 2251.290    0.296
   98.750   22.725 2258.560    0.292
   99.000   22.790 2262.940    0.290
   99.250   20.471 2270.260    0.291
   99.500   20.126 2193.810    0.299
   99.750   20.178 2158.650    0.306
  100.000   21.011 2164.230    0.313
  100.250   24.241 2168.420    0.301
  100.500   28.292 2174.030    0.300
  100.750   30.317 2139.180    0.295
  101.000   33.561 2144.710    0.278
  101.250   36.394 2153.040    0.261
  101.500   47.185 2158.600    0.266
  101.750   57.579 2162.790    0.266
  102.000   73.932 2129.500    0.242
  102.250   76.778 2133.620    0.216
  102.500   74.036 2140.520    0.196
  102.750   76.088 2144.670    0.171
  103.000   77.331 2152.990    0.159
  103.250   69.822 2118.480    0.203
  103.500   63.120 2122.590    0.208
  103.750   64.364 2089.920    0.204
  104.000   73.169 2055.090    0.193
  104.250   74.810 2022.150    0.193
  104.500   71.287 1991.030    0.206
  104.750   66.571 1997.460    0.198
  105.000   62.253 1965.450    0.163
  105.250   60.716 1969.260    0.158
  105.500   77.070 1974.350    0.143
  105.750   82.696 1979.450    0.182
  106.000   84.337 1984.570    0.211
  106.250   83.210 1990.980    0.221
  106.500   81.673 1996.130    0.228
  106.750   81.328 2002.580    0.235
