~VERSION INFORMATION
 VERS.                 2.0:   CWLS LOG ASCII STANDARD -VERSION 2.0
 WRAP.                  NO:   ONE LINE PER DEPTH STEP
~WELL INFORMATION BLOCK
#MNEM.UNIT           DATA                    DESCRIPTION OF MNEMONIC
#---------    -------------------            -------------------------------
# Generated from Intellog Unique Number	CN_91_93/WELL/2675
WELL.         07-02-091-17W4                 : Well_name    - WELL
LOC .         AA/07-02-091-17W4/0            : Location     - LOCATION
UWI .         AA/07-02-091-17W400            : Uwi          - UNIQUE WELL ID
ENTR.         JOETTE                         : Entered      - ENTERED BY
SRVC.         SCHLUMBERGER                   : Scn          - SERVICE COMPANY
DATE.         02/11/92                       : Date         - LOG DATE
STRT.M        75                             : top_depth    - START DEPTH
STOP.M        240                            : bot_depth    - STOP DEPTH
STEP.M        0.25                           : increment    - STEP LENGTH
 NULL. -999.2500:NULL Value
~CURVE INFORMATION BLOCK
#MNEM UNIT       ERCB CURVE CODE    CURVE DESCRIPTION
#-----------   ------------------   ----------------------------------
DEPT.M        00 001 00 00         : DEPTH        - DEPTH
GR  .API      00 310 00 00         : GR           - GAMMA RAY
CALI.MM       00 280 01 00         : CAL          - CALIPER
NPHI.V/V      00 330 00 00         : PHIN         - NEUTRON POROSITY (SANDSTONE)
DPHI.V/V      00 890 00 00         : PHID         - DENSITY POROSITY (SANDSTONE)
ILD .OHMM     00 120 00 00         : RESD         - DEEP RESISTIVITY (DIL)
~PARAMETER INFORMATION
#MNEM.UNIT           DATA             DESCRIPTION OF MNEMONIC
#---------         -----------     ------------------------------
GL  .M        501                  : gl           - GROUND LEVEL ELEVATION
EREF.M        504.29               : kb           - ELEVATION OF DEPTH REFERENCE
DATM.M        504.29               : datum        - DATUM ELEVATION
TDD .M        241                  : tdd          - TOTAL DEPTH DRILLER
RUN .         ONE                  : Run          - RUN NUMBER
ENG .         JO                   : Engineer     - RECORDING ENGINEER
WIT .         TIM                  : Witness      - WITNESSED BY
MUD .         GEL                  : Mud_type     - MUD TYPE
MATR.         SANDSTONE            : Logunit      - NEUTRON MATRIX
TMAX.C        1.66667              : BHT          - MAXIMUM RECORDED TEMPERATURE
BHTD.M        241                  : BHTDEP       - MAXIMUM RECORDED TEMPERATURE
RMT .C        18                   : MDTP         - TEMPERATURE OF MUD
MUDD.KG/M     1000                 : MWT          - MUD DENSITY
NEUT.         1                    : NEUTRON      - NEUTRON TYPE
RESI.         0                    : RESIST       - RESISTIVITY TYPE
RM  .OHMM     7.3                  : RM           - RESISTIVITY OF MUD
RMC .OHMM     7.3                  : RMC          - RESISTIVITY OF MUD CAKE
RMF .OHMM     7.3                  : RMF          - RESISTIVITY OF MUD FILTRATE
SUFT.C        4                    : SUFT         - SURFACE TEMPERATURE
~A  DEPTH       GR      CAL     PHIN     PHID     RESD
# ...
  184.500   36.313  176.947    0.304    0.298   21.182
  184.750   25.124  174.949    0.294    0.311   30.892
  185.000   18.781  174.967    0.307    0.308   35.774
  185.250   17.278  176.503    0.322    0.316   27.110
  185.500   16.382  177.535    0.326    0.321   21.312
  185.750   16.094  177.535    0.333    0.301   21.312
  186.000   16.105  178.078    0.339    0.299   17.855
  186.250   15.815  178.603    0.339    0.283   16.886
  186.500   15.828  177.112    0.344    0.283   15.965
  186.750   15.839  174.612    0.345    0.283   14.951
  187.000   16.157  174.143    0.345    0.288   14.951
  187.250   17.077  173.144    0.345    0.275   14.792
  187.500   17.390  172.652    0.343    0.302   14.380
  187.750   18.011  172.672    0.343    0.303   14.237
  188.000   18.930  173.200    0.355    0.308   14.760
  188.250   19.849  173.727    0.360    0.301   15.305
  188.500   21.375  173.742    0.362    0.279   16.313
  188.750   23.205  173.742    0.358    0.278   19.781
  189.000   25.033  173.281    0.355    0.283   19.781
  189.250   26.564  172.799    0.358    0.296   20.121
  189.500   26.877  173.322    0.372    0.286   24.178
  189.750   25.677  173.846    0.372    0.282   29.323
  190.000   25.687  173.846    0.369    0.285   30.687
  190.250   25.687  174.407    0.367    0.281   30.687
  190.500   26.929  174.919    0.369    0.280   37.189
  190.750   29.662  174.939    0.372    0.292   52.749
  191.000   32.096  174.457    0.376    0.292   55.709
  191.250   34.833  174.457    0.378    0.304   59.941
  191.500   40.898  174.503    0.383    0.306   67.525
  191.750   43.032  174.521    0.389    0.313   74.679
  192.000   44.859  174.521    0.394    0.299   74.610
  192.250   46.691  174.561    0.395    0.296   74.610
  192.500   43.975  175.086    0.391    0.293   74.498
  192.750   40.355  175.109    0.384    0.296   75.132
  193.000   37.948  175.109    0.379    0.282   75.132
  193.250   37.667  175.145    0.379    0.278   77.825
  193.500   36.763  174.163    0.382    0.278   86.086
  193.750   36.470  174.163    0.377    0.280   90.924
  194.000   37.090  174.206    0.372    0.285   89.187
  194.250   38.917  174.224    0.374    0.299   82.782
  194.500   40.744  174.224    0.389    0.289   77.556
  194.750   43.486  174.777    0.396    0.286   77.556
  195.000   41.376  175.289    0.392    0.280   74.600
  195.250   41.995  175.312    0.406    0.262   74.579
  195.500   43.822  175.312    0.385    0.291   74.517
  195.750   40.807  175.355    0.382    0.289   74.517
  196.000   39.004  175.880    0.387    0.285   73.715
  196.250   39.015  176.407    0.387    0.285   67.793
  196.500   40.846  176.927    0.393    0.293   64.096
  196.750   46.911  177.454    0.396    0.307   62.294
  197.000   49.951  177.454    0.400    0.311   62.294
  197.250   56.320  178.010    0.402    0.309   63.946
  197.500   59.967  178.020    0.419    0.316   69.428
  197.750   52.414  178.043    0.425    0.317   69.428
  198.000   48.790  178.065    0.419    0.304   72.576
  198.250   53.042  178.585    0.409    0.303   75.261
  198.500   52.755  178.613    0.408    0.303   75.261
  198.750   52.157  178.613    0.408    0.296   75.148
  199.000   53.077  178.649    0.406    0.298   71.708
  199.250   56.722  178.167    0.407    0.297   69.072
  199.500   60.066  178.167    0.422    0.299   65.299
  199.750   63.411  178.215    0.432    0.303   60.609
  200.000   65.103  178.751    0.429    0.289   26.098
  200.250   66.349  178.837    0.438    0.303   22.979
  200.500   63.684  178.924    0.431    0.299   21.567
  200.750   66.146  178.480    0.465    0.294   20.806
  201.000   70.108  178.567    0.495    0.296   20.632
  201.250   71.655  178.654    0.511    0.314   20.834
  201.500   69.599  180.237    0.484    0.308   22.224
  201.750   66.024  181.299    0.446    0.314   23.491
  202.000   65.474  184.398    0.455    0.323   24.383
  202.250   68.231  186.976    0.468    0.314   23.095
  202.500   73.700  186.049    0.363    0.322   16.631
  202.750   78.873  179.599    0.350    0.219   12.769
  203.000   78.873  176.664    0.349    0.204   10.546
  203.250   80.478  183.780    0.374    0.236    8.475
  203.500   84.139  202.936    0.403    0.330    7.394
  203.750   86.891  223.106    0.438    0.407    5.888
  204.000   89.353  266.892    0.585    0.453    4.908
  204.250   90.297  262.441    0.624    0.468    4.565
  204.500   89.445  247.958    0.580    0.469    4.404
  204.750   87.087  251.038    0.590    0.466    4.288
  205.000   89.833  227.006    0.583    0.398    4.330
  205.250   95.007  222.564    0.601    0.382    4.704
  205.500   85.407  235.715    0.562    0.408    5.861
  205.750   79.429  221.715    0.511    0.420    8.452
  206.000   74.365  181.616    0.502    0.390   11.643
  206.250   73.803  201.303    0.523    0.401   11.643
  206.500   74.446  200.357    0.541    0.340   14.387
  206.750   74.800  174.829    0.477    0.290   17.438
  207.000   74.238  172.386    0.437    0.201   18.602
  207.250   72.477  172.386    0.391    0.219   18.602
  207.500   71.017  172.067    0.407    0.260   19.321
  207.750   69.858  172.115    0.389    0.180   21.570
  208.000   70.217  172.115    0.367    0.161   26.148
  208.250   70.252  172.308    0.375    0.195   28.667
  208.500   69.394  172.356    0.387    0.227   32.009
  208.750   63.109  171.941    0.413    0.250   35.743
  209.000   60.148  170.995    0.427    0.290   39.190
  209.250   58.382  170.068    0.436    0.285   40.298
  209.500   58.735  170.666    0.447    0.300   36.805
  209.750   61.799  172.240    0.443    0.307   32.404
  210.000   60.629  176.343    0.445    0.291   29.058
  210.250   57.072  176.923    0.391    0.264   25.822
  210.500   56.504  178.516    0.389    0.244   20.940
  210.750   57.460  194.147    0.432    0.281   19.478
  211.000   59.621  202.267    0.459    0.305   15.796
  211.250   59.065  205.347    0.498    0.316   15.099
  211.500   56.695  200.906    0.467    0.327   15.530
  211.750   54.025  185.409    0.464    0.267   18.317
  212.000   52.275  177.955    0.446    0.284   18.160
  212.250   52.008  177.540    0.392    0.289   16.286
  212.500   54.169  177.607    0.413    0.283   13.574
  212.750   65.367  178.196    0.480    0.273   11.211
  213.000   77.776  178.766    0.527    0.285    8.847
  213.250   83.540  185.891    0.553    0.321    6.255
  213.500   87.202  200.017    0.540    0.320    4.981
  213.750   88.152  220.689    0.559    0.340    4.426
  214.000   70.118  232.323    0.563    0.356    4.309
  214.250   57.813  203.270    0.478    0.370    4.514
  214.500   52.431  185.263    0.440    0.260    5.086
  214.750   51.875  174.295    0.400    0.271    8.885
  215.000   55.235  172.354    0.406    0.282   13.659
  215.250   66.734  174.469    0.430    0.271   19.341
  215.500   70.106  174.469    0.466    0.253   19.531
  215.750   71.647  175.106    0.483    0.254   18.334
  216.000   71.693  177.191    0.449    0.161   15.142
  216.250   68.727  177.770    0.398    0.248   13.956
  216.500   65.761  176.361    0.431    0.298   13.956
  216.750   59.487  175.916    0.455    0.280   14.109
  217.000   54.406  176.998    0.460    0.288   14.370
  217.250   52.645  177.075    0.488    0.327   17.421
  217.500   52.401  174.642    0.504    0.319   18.928
  217.750   54.249  171.706    0.447    0.310   22.323
  218.000   57.615  171.301    0.405    0.296   24.701
  218.250   57.360  171.861    0.406    0.306   29.404
  218.500   55.599  171.445    0.410    0.292   30.512
  218.750   54.736  170.528    0.415    0.296   31.095
  219.000   54.736  170.103    0.423    0.296   31.688
  219.250   55.153  169.659    0.398    0.279   31.688
  219.500   56.387  170.248    0.387    0.273   31.730
  219.750   57.933  170.827    0.400    0.260   31.730
  220.000   60.094  171.397    0.413    0.268   31.491
  220.250   61.038  171.484    0.415    0.276   30.933
  220.500   61.096  169.552    0.411    0.273   29.299
  220.750   59.926  170.653    0.426    0.267   28.263
