~VERSION INFORMATION
 VERS.                 2.0:   CWLS LOG ASCII STANDARD -VERSION 2.0
 WRAP.                  NO:   ONE LINE PER DEPTH STEP
~WELL INFORMATION BLOCK
#MNEM.UNIT           DATA                    DESCRIPTION OF MNEMONIC
#---------    -------------------            -------------------------------
# Generated from Intellog Unique Number	CN_94_101/WELL/2647
WELL.         06-28-094-13W4                 : Well_name    - WELL
LOC .         AA/06-28-094-13W4/0            : Location     - LOCATION
UWI .         AA/06-28-094-13W400            : Uwi          - UNIQUE WELL ID
ENTR.         JOETTE                         : Entered      - ENTERED BY
SRVC.         SCHLUMBERGER                   : Scn          - SERVICE COMPANY
DATE.         06/18/92                       : Date         - LOG DATE
STRT.M        15                             : top_depth    - START DEPTH
STOP.M        145                            : bot_depth    - STOP DEPTH
STEP.M        0.25                           : increment    - STEP LENGTH
 NULL. -999.2500:NULL Value
~CURVE INFORMATION BLOCK
#MNEM UNIT       ERCB CURVE CODE    CURVE DESCRIPTION
#-----------   ------------------   ----------------------------------
DEPT.M        00 001 00 00         : DEPTH        - DEPTH
GR  .API      00 310 00 00         : GR           - GAMMA RAY
NPHI.V/V      00 330 00 00         : PHIN         - NEUTRON POROSITY (SANDSTONE)
DPHI.V/V      00 890 00 00         : PHID         - DENSITY POROSITY (SANDSTONE)
ILD .OHMM     00 120 00 00         : RESD         - DEEP RESISTIVITY (DIL)
~PARAMETER INFORMATION
#MNEM.UNIT           DATA             DESCRIPTION OF MNEMONIC
#---------         -----------     ------------------------------
GL  .M        400.2                : gl           - GROUND LEVEL ELEVATION
EREF.M        403.5                : kb           - ELEVATION OF DEPTH REFERENCE
DATM.M        403.5                : datum        - DATUM ELEVATION
TDD .M        151                  : tdd          - TOTAL DEPTH DRILLER
RUN .         ONE                  : Run          - RUN NUMBER
ENG .         JO                   : Engineer     - RECORDING ENGINEER
WIT .         TIM                  : Witness      - WITNESSED BY
MUD .         GEL                  : Mud_type     - MUD TYPE
MATR.         SANDSTONE            : Logunit      - NEUTRON MATRIX
TMAX.C        15                   : BHT          - MAXIMUM RECORDED TEMPERATURE
BHTD.M        151                  : BHTDEP       - MAXIMUM RECORDED TEMPERATURE
RMT .C        16.9                 : MDTP         - TEMPERATURE OF MUD
MUDD.KG/M     1050                 : MWT          - MUD DENSITY
NEUT.         1                    : NEUTRON      - NEUTRON TYPE
RESI.         0                    : RESIST       - RESISTIVITY TYPE
RM  .OHMM     5.88                 : RM           - RESISTIVITY OF MUD
RMC .OHMM     5.88                 : RMC          - RESISTIVITY OF MUD CAKE
RMF .OHMM     6.27                 : RMF          - RESISTIVITY OF MUD FILTRATE
SUFT.C        4                    : SUFT         - SURFACE TEMPERATURE
~A  DEPTH       GR     PHIN     PHID     RESD
# ...
   58.500   77.284    0.465    0.225    0.000
   58.750   76.672    0.456    0.230    0.000
   59.000   74.172    0.442    0.239    0.000
   59.250   72.302    0.451    0.247    0.000
   59.500   74.207    0.462    0.213    0.000
   59.750   74.854    0.459    0.231    0.000
   60.000   73.612    0.466    0.226    0.000
   60.250   73.005    0.502    0.218    0.000
   60.500   73.651    0.498    0.224    0.000
   60.750   74.927    0.488    0.239    0.000
   61.000   75.570    0.491    0.255    0.000
   61.250   76.855    0.488    0.262    0.000
   61.500   76.863    0.491    0.266    0.000
   61.750   77.514    0.487    0.271    0.000
   62.000   77.532    0.482    0.266    0.000
   62.250   76.286    0.483    0.254    0.000
   62.500   74.415    0.493    0.249    0.000
   62.750   73.808    0.506    0.243    0.000
   63.000   74.454    0.519    0.242    0.000
   63.250   75.097    0.521    0.239    0.000
   63.500   75.114    0.495    0.236    0.000
   63.750   72.614    0.487    0.236    0.000
   64.000   69.485    0.480    0.236    0.000
   64.250   64.472    0.480    0.237    0.000
   64.500   63.226    0.489    0.234    0.000
   64.750   65.765    0.501    0.231    0.000
   65.000   65.782    0.504    0.228    0.000
   65.250   64.541    0.491    0.240    0.000
   65.500   63.300    0.474    0.228    0.000
   65.750   62.683    0.455    0.200    0.000
   66.000   62.071    0.460    0.233    0.000
   66.250   62.722    0.456    0.243    0.000
   66.500   64.628    0.456    0.227    0.000
   66.750   67.792    0.474    0.217    0.000
   67.000   69.063    0.495    0.239    0.000
   67.250   69.714    0.496    0.252    0.000
   67.500   67.844    0.498    0.251    0.000
   67.750   64.714    0.492    0.242    0.000
   68.000   62.210    0.495    0.235    0.000
   68.250   58.451    0.501    0.223    0.000
   68.500   52.805    0.486    0.223    0.000
   68.750   49.046    0.401    0.224    0.000
   69.000   51.581    0.356    0.197    0.000
   69.250   56.633    0.321    0.142    0.000
   69.500   61.055    0.274    0.111    0.000
   69.750   66.737    0.246    0.091    0.000
   70.000   71.793    0.297    0.081    0.000
   70.250   74.324    0.336    0.049    0.000
   70.500   76.863    0.363    0.031    0.000
   70.750   77.518    0.419    0.008    0.000
   71.000   78.790    0.462    0.043    0.000
   71.250   80.691    0.494    0.078    0.000
   71.500   84.488    0.499    0.236    0.000
   71.750   83.876    0.503    0.232    0.000
   72.000   80.743    0.545    0.247    0.000
   72.250   80.135    0.535    0.236    0.000
   72.500   79.523    0.532    0.228    0.000
   72.750   77.648    0.548    0.239    0.000
   73.000   76.407    0.564    0.231    0.000
   73.250   80.834    0.573    0.228    0.000
   73.500   82.110    0.572    0.239    0.000
   73.750   80.864    0.560    0.248    0.000
   74.000   80.252    0.554    0.249    0.000
   74.250   82.162    0.565    0.245    0.000
   74.500   83.433    0.564    0.237    0.000
   74.750   82.192    0.557    0.232    0.000
   75.000   79.692    0.550    0.240    0.000
   75.250   79.085    0.542    0.238    0.000
   75.500   80.361    0.534    0.236    0.000
   75.750   79.744    0.528    0.238    0.000
   76.000   78.503    0.516    0.231    0.000
   76.250   79.779    0.513    0.229    0.000
   76.500   82.952    0.545    0.237    0.000
   76.750   84.848    0.545    0.246    0.000
   77.000   87.383    0.545    0.241    0.000
   77.250   86.142    0.549    0.235    0.000
   77.500   83.012    0.538    0.222    0.000
   77.750   81.150    0.544    0.235    0.000
   78.000   81.159    0.576    0.250    0.000
   78.250   83.064    0.575    0.257    0.000
   78.500   83.711    0.582    0.225    0.000
   78.750   83.728    0.594    0.201    0.000
   79.000   84.379    0.588    0.193    0.000
   79.250   85.655    0.586    0.180    0.000
   79.500   85.673    0.571    0.247    0.000
   79.750   83.173    0.547    0.220    0.000
   80.000   82.565    0.536    0.216    0.000
   80.250   84.471    0.557    0.211    0.000
   80.500   87.630    0.557    0.207    0.000
   80.750   90.165    0.558    0.201    0.000
   81.000   90.178    0.546    0.197    0.000
   81.250   87.682    0.532    0.196    0.000
   81.500   88.329    0.537    0.193    0.000
   81.750   87.083    0.511    0.187    0.000
   82.000   82.700    0.506    0.197    0.000
   82.250   80.195    0.499    0.212    0.000
   82.500   79.583    0.495    0.217    0.000
   82.750   85.269    0.489    0.216    0.000
   83.000   87.799    0.480    0.190    0.000
   83.250   90.334    0.434    0.155    0.000
   83.500   88.468    0.435    0.120    0.000
   83.750   87.856    0.448    0.108    0.000
   84.000   89.761    0.465    0.157    0.000
   84.250   91.041    0.488    0.186    0.000
   84.500   90.425    0.516    0.181    0.000
   84.750   89.184    0.511    0.188    0.000
   85.000   87.942    0.498    0.205    0.000
   85.250   84.813    0.485    0.214    0.000
   85.500   82.309    0.492    0.218    0.000
   85.750   82.326    0.518    0.209    0.000
   86.000   82.348    0.538    0.206    0.000
   86.250   81.106    0.559    0.208    0.000
   86.500   78.602    0.549    0.215    0.000
   86.750   76.102    0.549    0.214    0.000
   87.000   78.641    0.563    0.198    0.000
   87.250   81.176    0.575    0.180    0.000
   87.500   83.710    0.568    0.154    0.000
   87.750   82.469    0.562    0.116    0.000
   88.000   81.853    0.553    0.147   23.437
   88.250   81.245    0.547    0.164   24.836
   88.500   81.262    0.551    0.176   25.322
   88.750   81.909    0.546    0.195   26.323
   89.000   83.189    0.533    0.231   24.854
   89.250   84.457    0.516    0.234   22.582
   89.500   85.733    0.526    0.233   20.516
   89.750   85.750    0.523    0.229   23.936
   90.000   84.513    0.530    0.237   23.486
   90.250   83.272    0.553    0.227   25.370
   90.500   83.289    0.548    0.218   47.873
   90.750   83.932    0.537    0.233   67.696
   91.000   84.578    0.543    0.245   39.517
   91.250   83.966    0.554    0.255   26.394
   91.500   82.725    0.564    0.261   19.785
   91.750   78.337    0.562    0.253   10.290
   92.000   72.690    0.552    0.238    3.124
   92.250   68.931    0.535    0.243    3.185
   92.500   70.207    0.550    0.240    3.508
   92.750   70.854    0.554    0.238    4.505
   93.000   68.979    0.551    0.231    4.015
   93.250   65.854    0.569    0.270    3.068
   93.500   65.871    0.590    0.278    2.953
   93.750   65.255    0.603    0.298    3.581
   94.000   62.759    0.606    0.304    4.688
   94.250   59.001    0.597    0.307    4.690
   94.500   55.238    0.632    0.318    5.066
   94.750   49.591    0.598    0.318    4.345
   95.000   51.501    0.570    0.282    3.655
   95.250   54.035    0.557    0.266    3.258
   95.500   56.570    0.533    0.264    3.259
   95.750   60.368    0.500    0.261    3.260
   96.000   62.264    0.474    0.257    3.521
   96.250   66.058    0.462    0.270    3.803
   96.500   74.261    0.476    0.269    4.792
   96.750   83.089    0.493    0.262    5.079
   97.000   90.659    0.506    0.259    5.592
   97.250   99.487    0.558    0.258    7.758
   97.500  105.168    0.587    0.362    7.325
   97.750  107.078    0.582    0.402    8.066
   98.000  105.207    0.564    0.417   10.765
   98.250  105.854    0.520    0.357   15.519
   98.500  109.014    0.505    0.320   21.527
   98.750  117.212    0.506    0.280   26.098
   99.000  120.381    0.506    0.276   26.105
   99.250  116.618    0.496    0.270   19.949
   99.500  110.971    0.490    0.260   13.069
   99.750  105.954    0.490    0.240    8.899
  100.000  100.936    0.499    0.223    9.250
  100.250   95.289    0.507    0.245   10.186
  100.500   91.531    0.506    0.236   11.219
  100.750   87.143    0.495    0.228   11.661
  101.000   80.237    0.490    0.222   12.358
  101.250   72.703    0.480    0.217   12.360
  101.500   68.310    0.457    0.244   12.130
  101.750   64.560    0.448    0.244   12.133
