~Version : LASO    vs 4.00
VERS.                2.00:   CWLS Log ASCII Standard -VERSION 2.0
WRAP.                  NO:
~Well Information Block
#MNEM.UNIT       Data                        Description of Mnemonic
#----.----      -------------------------- : -----------------------------
STRT.M            15.0000:
STOP.M           186.3750:
STEP.M             0.1250:
NULL.           -999.2500:
COMP.  MOBIL OIL OF CANADA                :COMPANY
WELL.  MOBIL CLARKE OV 2-19               :WELL
FLD.                                      :FIELD
LOC.   02-19-090-07W4                     :LOCATION
CTRY.  CANADA                             :COUNTRY
PROV.  ALBERTA                            :PROVINCE
SRVC.  DRESSER ATLAS                      :SERVICE COMPANY
DATE.  24-FEB-81                          :LOG DATE
UWI.   AA/02-19-090-07W400                :UNIQUE WELL ID
~Parameter Information Block
#MNEM.UNIT       Data                        Description of Mnemonic
#----.----      -------------------------- : -----------------------------
RUN .                   1                 : Run Number
GL  .M           444.6000                 : Ground Level Elevation
DREF.                  KB                 : Depth Reference
EREF.M           444.6000                 : Elevation of Depth Reference
TDL .M           186.3000                 : Total Depth Logger
TDD .M           185.0000                 : Total Depth Driller
CSGL.M            14.7000                 : Casing Bottom Logger
CSGD.M            14.7000                 : Casing Bottom Driller
CSGS.MM          219.0000                 : Casing Size
CSGW.KG/M          0.0000                 : Casing Weight
BHT .DEGC         20.0000                 : Bottom Hole Temperature
BS  .MM          159.0000                 : Bit Size
DFD .           9999.0000                 : Mud Weight (Density)
DFV .             90.0000                 : Mud Viscosity
RM  .OHMM          2.5000                 : Mud Resistivity
RMT .DEGC         20.0000                 : Mud Resistivity Temperature
~Curve Information Block
#MNEM.UNIT        API CODE    Curve Description
#---------    ------------    -------------------------------------------
DEPT.M                    :   DEPTH
CALI.MM       42 280  1  1:   3 DENSITY CALIPER
DPHI.V/V                  :   DPHI
DT  .US/M     60 520 32  1:   2 SONIC INTERVAL TRANSIT TIME (COMPENSATED)
GR  .GAPI     42 310  1  1:   4 GAMMA RAY
ILD .OHMM      5 120 45  1:   7 DEEP INDUCTION
NPHI.V/V      42 890  3  1:   5 NEUTRON POROSITY (SANDSTONE)
RHOB.K/M3     42 350  1  1:   6 BULK DENSITY
SN  .OHMM      5  40 16  1:   8 SHORT NORMAL
SP  .MV        5  10  1  1:   9 SPONTANEOUS POTENTIAL
~A  Depth           CALI        DPHI          DT          GR         ILD        NPHI        RHOB          SN          SP
# ...
107.1250        206.3750      0.2092    519.4400     85.1700      7.3400      0.4520   2309.8000     10.4400    -46.4700
107.2500        203.0500      0.2022    511.0400     87.0000      7.1450      0.4561   2339.1001     10.0150    -46.5000
107.3750        200.3500      0.2090    509.3600     88.1850      7.0150      0.4497   2286.6001     10.0150    -46.5450
107.5000        200.9500      0.2229    537.3600     87.9450      6.9500      0.4718   2219.0000      9.8300    -47.7150
107.6250        200.6500      0.2415    543.3600     87.5400      6.8900      0.4808   2217.7000      9.7700    -47.8050
107.7500        202.7500      0.2533    540.2400     87.2100      6.8900      0.4906   2227.5000      9.7100    -47.8350
107.8750        203.3500      0.2555    535.4400     88.8300      6.8900      0.4733   2226.8999      9.5250    -46.6650
108.0000        203.3500      0.2547    538.0800     89.5200      6.8250      0.4583   2214.1001      9.3400    -46.0800
108.1250        202.1500      0.2542    540.0000     89.0250      6.7600      0.4486   2216.5000      9.4050    -45.5250
108.2500        202.1500      0.2551    541.9200     90.7950      6.5650      0.4497   2220.2000      9.7100    -45.5550
108.3750        203.0500      0.2572    537.3600     92.3700      6.2400      0.4426   2219.6001      9.7100    -45.2400
108.5000        204.2500      0.2554    547.4000     93.5250      5.7900      0.4475   2217.1001      9.7700    -45.2550
108.6250        202.7500      0.2560    540.4800     94.6200      5.2100      0.4670   2222.0000      9.8300    -45.4650
108.7500        202.7500      0.2550    538.5600     92.0700      4.3050      0.4628   2228.1001      9.3400    -44.8800
108.8750        205.1500      0.2517    545.7200     90.1200      3.7900      0.4531   2238.5000      9.1600    -43.1100
109.0000        206.6750      0.2479    551.2400     90.5850      3.4650      0.4546   2247.6001      8.9150    -42.5250
109.1250        206.9750      0.2440    556.7600     90.7350      3.0800      0.4542   2249.3999      7.9400    -41.7600
109.2500        206.3750      0.2390    563.2000     90.0600      2.8200      0.4561   2260.3999      6.7200    -40.9950
109.3750        205.7750      0.2361    609.5600     88.6650      2.5600      0.4512   2267.1001      5.6850    -40.4250
109.5000        208.4750      0.2346    669.5200     87.9300      2.3700      0.4557   2267.1001      5.5600    -39.8550
109.6250        209.0750      0.2343    665.2000     89.4600      2.2400      0.4677   2270.2000      5.6850    -39.8850
109.7500        209.9750      0.2341    655.2800     91.0950      1.9800      0.4828   2257.3999      5.8050    -39.9150
109.8750        210.5750      0.2350    661.8400     86.8500      1.9150      0.4883   2237.8999      5.8050    -39.9600
110.0000        210.8750      0.2388    680.1600     83.3550      1.8500      0.5068   2217.7000      6.1100    -39.9900
110.1250        210.2750      0.2608    685.4000     81.9750      1.9800      0.5188   2184.2000      6.1700    -39.8550
110.2500        209.3750      0.2787    650.8400     80.3250      1.9150      0.5338   2140.3000      6.1100    -40.0500
110.3750        207.2750      0.2934    641.5200     78.5550      1.9800      0.5611   2106.2000      5.8650    -40.0800
110.5000        208.1750      0.3049    636.4400     77.6100      2.1100      0.5747   2075.1001      5.8650    -40.1100
110.6250        209.6750      0.3168    624.8400     77.1300      2.1100      0.5773   2065.8999      6.0500    -40.1400
110.7500        210.5750      0.3287    631.3200     78.1050      2.1100      0.5882   2063.5000      6.1700    -40.1850
110.8750        210.8750      0.3399    624.7600     78.7050      2.2400      0.5852   2067.1001      6.4150    -40.5450
111.0000        211.1750      0.3468    608.4800     78.1350      2.3050      0.5795   2076.8999      6.4750    -41.4450
111.1250        213.0000      0.3473    645.1600     77.7300      2.3700      0.5709   2083.0000      6.6600    -41.3400
111.2500        210.8750      0.3465    665.3200     79.8000      2.5600      0.5675   2084.2000      6.6600    -40.9050
111.3750        207.2750      0.3428    682.6800     78.7800      2.8200      0.5683   2083.6001      6.6000    -40.9350
111.5000        206.3750      0.3406    678.0800     77.4000      2.9500      0.5566   2081.8000      6.6600    -40.3650
111.6250        206.3750      0.3382    674.4800     77.0100      3.2100      0.5480   2088.5000      6.6000    -40.4100
111.7500        206.3750      0.3366    658.0000     77.3550      3.4650      0.5379   2097.6001      6.7800    -41.0400
111.8750        205.1500      0.3384    640.3200     77.7600      3.5300      0.5349   2110.3999      7.2700    -41.4750
112.0000        201.8500      0.3381    640.2800     79.0500      3.5950      0.5274   2112.2000      7.6950    -41.7450
112.1250        200.6500      0.3356    634.2000     81.2100      3.7250      0.5308   2103.7000      8.3650    -42.3000
112.2500        201.2500      0.3317    626.4400     83.1750      3.8550      0.5154   2094.0000      9.0350    -43.0050
112.3750        203.6500      0.3291    611.5200     85.0200      3.9200      0.5281   2103.1001      8.7300    -43.0350
112.5000        207.5750      0.3265    614.4000     82.9350      4.1100      0.5270   2126.8999      7.8800    -41.8650
112.6250        207.2750      0.3230    621.6800     82.7100      4.0450      0.5154   2148.2000      7.3900    -41.8950
112.7500        206.9750      0.3193    636.3600     84.3900      4.2400      0.5094   2156.2000      6.8400    -41.9250
112.8750        206.9750      0.3116    637.9200     85.2000      4.3050      0.5131   2183.0000      6.6600    -42.5700
113.0000        206.9750      0.3036    626.4800     85.9950      4.3050      0.5281   2237.8999      7.0850    -43.9350
113.1250        207.2750      0.2895    574.2000     85.2750      4.4350      0.5214   2246.3999      7.6950    -45.2400
113.2500        206.9750      0.2780    561.7600     84.2100      4.5000      0.5038   2245.2000      8.3050    -46.8750
113.3750        206.6750      0.2602    548.6000     82.7400      4.8200      0.5098   2230.5000      8.9150    -46.9050
113.5000        206.6750      0.2511    545.4800     81.1800      5.1450      0.5191   2200.7000      9.1600    -46.9500
113.6250        206.9750      0.2576    544.0800     79.6200      5.5300      0.5188   2168.3000      9.5250    -46.9800
113.7500        206.6750      0.2669    549.0800     78.5850      5.9200      0.5180   2152.5000      9.5850    -45.8100
113.8750        204.5500      0.2748    548.8400     77.6250      5.8550      0.5116   2161.0000      9.5850    -45.4350
114.0000        200.9500      0.2848    515.8400     76.8900      5.5950      0.5023   2178.1001      9.4650    -44.2650
114.1250        197.0250      0.2710    470.8800     78.7650      5.2100      0.4955   2203.7000     10.1350    -43.4850
114.2500        198.5500      0.2567    439.5200     80.5200      4.6950      0.4828   2243.3000     11.9650    -43.0800
114.3750        204.5500      0.2434    488.5600     82.4400      4.2400      0.4640   2263.5000     12.2700    -42.3450
114.5000        208.1750      0.2374    525.6400     83.0400      4.0450      0.4643   2267.7000      9.3400    -41.7750
114.6250        207.8750      0.2331    558.4000     83.2950      3.7900      0.4632   2272.6001      7.7550    -41.8050
114.7500        205.4750      0.2301    576.1200     83.5500      3.4650      0.4745   2301.8999      6.3550    -41.8500
114.8750        200.0500      0.2253    592.6400     83.8050      3.2700      0.4771   2343.3000      6.1700    -41.2800
115.0000        197.9250      0.2166    593.2400     84.0600      3.1450      0.4808   2376.8999      6.1700    -40.7100
115.1250        197.0250      0.2026    592.9200     83.9250      2.8850      0.4753   2407.3999      6.1700    -40.7250
115.2500        196.1250      0.1884    593.0400     85.6650      2.7550      0.4621   2416.5000      6.2950    -39.5700
115.3750        196.4250      0.1658    595.2000     88.7700      2.7550      0.4655   2353.7000      6.5350    -39.6450
