~VERSION INFORMATION
 VERS.                 2.0:   CWLS LOG ASCII STANDARD -VERSION 2.0
 WRAP.                  NO:   ONE LINE PER DEPTH STEP
~WELL INFORMATION BLOCK
#MNEM.UNIT           DATA                    DESCRIPTION OF MNEMONIC
#---------    -------------------            -------------------------------
# Generated from Intellog Unique Number	CC_88_90/WELL/1077
WELL.         09-09-089-15W4                 : Well_name    - WELL
LOC .         AA/09-09-089-15W4/0            : Location     - LOCATION
UWI .         AA/09-09-089-15W400            : Uwi          - UNIQUE WELL ID
ENTR.         DW                             : Entered      - ENTERED BY
SRVC.         SCHLUMBERGER                   : Scn          - SERVICE COMPANY
STRT.M        70                             : top_depth    - START DEPTH
STOP.M        259.75                         : bot_depth    - STOP DEPTH
STEP.M        0.25                           : increment    - STEP LENGTH
 NULL. -999.2500:NULL Value
~CURVE INFORMATION BLOCK
#MNEM UNIT       ERCB CURVE CODE    CURVE DESCRIPTION
#-----------   ------------------   ----------------------------------
DEPT.M        00 001 00 00         : DEPTH        - DEPTH
GR  .API      00 310 00 00         : GR           - GAMMA RAY
DPHI.V/V      00 890 00 00         : PHID         - DENSITY POROSITY (SANDSTONE)
NPHI.V/V      00 330 00 00         : PHIN         - NEUTRON POROSITY (SANDSTONE)
ILD .OHMM     00 120 00 00         : RESD         - DEEP RESISTIVITY (DIL)
~PARAMETER INFORMATION
#MNEM.UNIT           DATA             DESCRIPTION OF MNEMONIC
#---------         -----------     ------------------------------
GL  .M        505.38               : gl           - GROUND LEVEL ELEVATION
EREF.M        508.58               : kb           - ELEVATION OF DEPTH REFERENCE
DATM.M        508.58               : datum        - DATUM ELEVATION
TDD .M        265                  : tdd          - TOTAL DEPTH DRILLER
RUN .         ONE                  : Run          - RUN NUMBER
ENG .         BILL                 : Engineer     - RECORDING ENGINEER
WIT .         JIM                  : Witness      - WITNESSED BY
MUD .         GEL                  : Mud_type     - MUD TYPE
MATR.         SANDSTONE            : Logunit      - NEUTRON MATRIX
TMAX.C        25                   : BHT          - MAXIMUM RECORDED TEMPERATURE
BHTD.M        265                  : BHTDEP       - MAXIMUM RECORDED TEMPERATURE
MATR.         1                    : LOGUNIT      - NEUTRON MATRIX
RMT .C        25                   : MDTP         - TEMPERATURE OF MUD
NEUT.         1                    : NEUTRON      - NEUTRON TYPE
RESI.         0                    : RESIST       - RESISTIVITY TYPE
RMC .OHMM     0.25                 : RMC          - RESISTIVITY OF MUD CAKE
RMF .OHMM     0.25                 : RMF          - RESISTIVITY OF MUD FILTRATE
SUFT.C        15                   : SUFT         - SURFACE TEMPERATURE
~A  DEPTH       GR     PHID     PHIN     RESD
# ...
  200.500   62.529    0.183    0.367   19.863
  200.750   57.553    0.214    0.370   21.020
  201.000   51.127    0.240    0.398   24.403
  201.250   46.751    0.257    0.427   27.803
  201.500   41.001    0.267    0.436   30.519
  201.750   36.785    0.280    0.423   38.855
  202.000   42.718    0.285    0.401   46.789
  202.250   45.568    0.284    0.403   57.392
  202.500   47.010    0.287    0.409   67.868
  202.750   48.611    0.289    0.423   65.491
  203.000   50.077    0.283    0.425   59.774
  203.250   50.750    0.274    0.413   54.573
  203.500   50.741    0.267    0.417   48.034
  203.750   52.339    0.257    0.424   43.053
  204.000   52.888    0.254    0.423   40.039
  204.250   54.455    0.271    0.428   37.942
  204.500   55.886    0.272    0.438   37.965
  204.750   55.697    0.250    0.444   37.318
  205.000   56.889    0.244    0.449   36.010
  205.250   59.048    0.236    0.455   34.770
  205.500   59.840    0.232    0.425   34.792
  205.750   60.397    0.240    0.427   33.594
  206.000   60.310    0.251    0.443   33.011
  206.250   59.186    0.261    0.426   31.282
  206.500   58.732    0.269    0.418   29.083
  206.750   58.881    0.252    0.427   27.542
  207.000   62.897    0.251    0.444   24.235
  207.250   66.956    0.244    0.443   21.721
  207.500   68.195    0.237    0.430   18.420
  207.750   68.867    0.229    0.439   13.983
  208.000   72.267    0.190    0.467   10.615
  208.250   79.588    0.181    0.492    6.825
  208.500   90.122    0.207    0.578    5.179
  208.750  100.016    0.242    0.603    3.455
  209.000  103.285    0.261    0.556    3.040
  209.250  100.841    0.267    0.528    2.989
  209.500   99.430    0.266    0.533    3.048
  209.750   98.505    0.232    0.580    3.109
  210.000  102.178    0.219    0.568    3.354
  210.250  106.728    0.231    0.558    3.419
  210.500  105.196    0.224    0.590    3.685
  210.750  101.905    0.176    0.600    3.973
  211.000  106.173    0.132    0.559    3.979
  211.250  109.694    0.156    0.529    3.910
  211.500  108.448    0.194    0.486    3.636
  211.750  101.130    0.215    0.482    3.509
  212.000   92.904    0.227    0.509    3.713
  212.250   88.091    0.219    0.509    4.154
  212.500   83.976    0.193    0.487    4.645
  212.750   79.601    0.211    0.470    5.292
  213.000   78.309    0.248    0.453    6.496
  213.250   78.336    0.235    0.416    7.677
  213.500   77.036    0.196    0.390    9.770
  213.750   73.955    0.185    0.405   12.667
  214.000   69.150    0.191    0.444   16.743
  214.250   62.874    0.201    0.476   16.754
  214.500   58.386    0.215    0.436   16.473
  214.750   56.921    0.241    0.399   15.325
  215.000   61.365    0.267    0.400   13.480
  215.250   71.039    0.280    0.416   10.812
  215.500   80.792    0.297    0.445    7.763
  215.750   90.209    0.319    0.485    5.786
  216.000   91.567    0.311    0.551    5.092
  216.250   87.259    0.287    0.581    6.361
  216.500   83.157    0.238    0.514    9.562
  216.750   80.176    0.184    0.417   11.947
  217.000   77.119    0.186    0.395   14.654
  217.250   76.063    0.197    0.384   17.981
  217.500   74.646    0.222    0.379   21.263
  217.750   73.411    0.221    0.369   22.914
  218.000   72.178    0.218    0.352   26.601
  218.250   71.726    0.244    0.339   28.666
  218.500   72.779    0.253    0.335   32.670
  218.750   70.811    0.246    0.334   33.320
  219.000   74.617    0.229    0.340   32.772
  219.250   79.481    0.228    0.354   32.203
  219.500   81.264    0.226    0.368   31.644
  219.750   80.237    0.206    0.370   30.545
  220.000   77.687    0.190    0.364   29.475
  220.250   80.683    0.182    0.358   29.502
  220.500   82.499    0.170    0.356   28.999
  220.750   82.844    0.180    0.359   28.513
  221.000   81.956    0.208    0.367   28.018
  221.250   80.808    0.215    0.375   27.558
  221.500   82.591    0.204    0.382   27.070
  221.750   83.805    0.210    0.383   27.104
  222.000   83.258    0.210    0.379   28.168
  222.250   81.228    0.201    0.376   28.728
  222.500   76.686    0.203    0.377   29.855
  222.750   69.339    0.218    0.389   31.006
  223.000   59.845    0.225    0.410   33.445
  223.250   47.299    0.228    0.415   34.724
  223.500   39.433    0.230    0.409   36.747
  223.750   45.655    0.234    0.362   38.887
  224.000   57.645    0.238    0.302   38.936
  224.250   63.544    0.241    0.297   35.559
  224.500   63.469    0.249    0.346   33.686
  224.750   57.149    0.260    0.389   33.101
  225.000   55.057    0.250    0.392   33.760
  225.250   60.714    0.232    0.374   33.812
  225.500   62.571    0.220    0.378   34.485
  225.750   55.064    0.213    0.418   35.161
  226.000   51.663    0.217    0.439   37.209
  226.250   59.955    0.249    0.381   37.255
  226.500   63.035    0.248    0.372   35.973
  226.750   57.882    0.239    0.403   35.359
  227.000   51.164    0.236    0.430   36.063
  227.250   51.561    0.245    0.430   34.788
  227.500   60.263    0.271    0.393   33.570
  227.750   61.417    0.245    0.390   32.394
  228.000   58.633    0.232    0.418   33.059
  228.250   54.741    0.227    0.429   34.963
  228.500   47.931    0.240    0.425   38.403
  228.750   45.769    0.274    0.418   40.627
  229.000   55.901    0.276    0.397   44.624
  229.250   58.439    0.253    0.394   48.088
  229.500   48.485    0.255    0.444   55.826
  229.750   41.529    0.270    0.453   67.225
  230.000   42.614    0.277    0.424   76.640
  230.250   46.357    0.276    0.423   71.230
  230.500   52.196    0.274    0.433   58.216
  230.750   59.046    0.275    0.417   48.465
  231.000   63.407    0.268    0.403   42.645
  231.250   63.216    0.265    0.431   41.931
  231.500   55.629    0.271    0.450   44.373
  231.750   48.117    0.283    0.423   46.958
  232.000   50.977    0.295    0.412   50.603
  232.250   50.033    0.287    0.426   56.599
  232.500   44.862    0.276    0.414   65.686
  232.750   41.672    0.290    0.399   79.123
  233.000   43.795    0.294    0.394   93.537
  233.250   47.826    0.271    0.389  108.555
  233.500   48.514    0.262    0.397  121.418
  233.750   46.070    0.259    0.420   99.234
  234.000   37.900    0.260    0.418   68.691
  234.250   33.498    0.271    0.419   55.114
  234.500   36.770    0.289    0.429   50.318
  234.750   41.943    0.299    0.427   51.319
  235.000   45.378    0.298    0.417   54.309
  235.250   47.156    0.296    0.410   61.876
  235.500   41.212    0.280    0.414   75.898
  235.750   34.925    0.295    0.420  134.704
  236.000   33.607    0.308    0.435  181.204
  236.250   34.422    0.300    0.449  491.664
  236.500   34.284    0.320    0.433  856.651
  236.750   32.701    0.312    0.420 1240.660
  237.000   31.939    0.301    0.410 1265.350
  237.250   31.444    0.311    0.405 1053.420
  237.500   31.226    0.324    0.403  770.697
  237.750   31.984    0.318    0.403  284.753
  238.000   33.619    0.313    0.416  186.493
  238.250   37.034    0.321    0.435  131.497
  238.500   42.104    0.296    0.429   90.995
  238.750   48.825    0.282    0.402   55.354
  239.000   49.968    0.304    0.409   54.410
  239.250   44.425    0.322    0.465   73.192
  239.500   41.658    0.311    0.488   93.155
  239.750   40.018    0.292    0.412   88.248
  240.000   39.665    0.298    0.404   68.239
  240.250   42.786    0.292    0.408   49.925
  240.500   49.521    0.282    0.384   39.337
  240.750   58.183    0.294    0.380   35.246
  241.000   66.261    0.295    0.388   32.179
  241.250   69.841    0.274    0.391   32.230
  241.500   69.414    0.267    0.391   32.861
  241.750   68.135    0.252    0.391   34.775
  242.000   70.132    0.240    0.392   36.812
  242.250   70.364    0.248    0.388   40.422
  242.500   61.425    0.244    0.380   47.800
  242.750   55.642    0.255    0.390   54.460
  243.000   56.440    0.283    0.406   57.632
  243.250   69.610    0.294    0.412   52.601
  243.500   84.211    0.301    0.407   42.204
  243.750   88.046    0.285    0.396   32.635
