~Version : LASO    vs 4.00
VERS.                2.00:   CWLS Log ASCII Standard -VERSION 2.0
WRAP.                  NO:
~Well Information Block
#MNEM.UNIT       Data                        Description of Mnemonic
#----.----      -------------------------- : -----------------------------
STRT.M            30.0000:
STOP.M           204.0000:
STEP.M             0.2000:
NULL.           -999.2500:
COMP.  MOBIL OIL OF CANADA                    :COMPANY
WELL.  MOBIL CLARKE OV PROGRAM 2-81 4-3       :WELL
FLD.                                          :FIELD
LOC.   04-03-090-07W4                         :LOCATION
CTRY.  CANADA                                 :COUNTRY
PROV.  ALBERTA                                :PROVINCE
SRVC.  SCHLUMBERGER                           :SERVICE COMPANY
DATE.  26-JAN-81                              :LOG DATE
UWI.   AA/04-03-090-07W400                    :UNIQUE WELL ID
~Parameter Information Block
#MNEM.UNIT       Data                        Description of Mnemonic
#----.----      -------------------------- : -----------------------------
RUN .                   1                 : Run Number
GL  .M           466.8000                 : Ground Level Elevation
DREF.                  GD                 : Depth Reference
EREF.M           466.8000                 : Elevation of Depth Reference
TDL .M           205.0000                 : Total Depth Logger
TDD .M           205.0000                 : Total Depth Driller
BHT .DEGC         19.0000                 : Bottom Hole Temperature
BS  .MM          159.0000                 : Bit Size
DFD .            980.0000                 : Mud Weight (Density)
DFV .             38.0000                 : Mud Viscosity
DFPH.             10.0000                 : Mud pH
~Curve Information Block
#MNEM.UNIT        API CODE    Curve Description
#---------    ------------    -------------------------------------------
DEPT.M                    :   DEPTH
CALI.MM       42 280  1  1:   3 DENSITY CALIPER
DPHI.V/V                  :   DPHI
DT  .US/M     60 520  0  1:   2 SONIC INTERVAL TRANSIT TIME (COMPENSATED)
GR  .GAPI     42 310  1  1:   4 GAMMA RAY
ILD .OHMM      5 120 46  1:   7 DEEP INDUCTION
ILM .OHMM      5 120 44  1:   8 MEDIUM INDUCTION
NPHI.V/V      42 890  3  1:   5 NEUTRON POROSITY (SANDSTONE)
RHOB.K/M3     42 350  1  1:   6 BULK DENSITY
SFLU.OHMM      5 220  1  1:   9 FOCUSSED RESISTIVITY
SP  .MV        5  10  1  1:   10 SPONTANEOUS POTENTIAL
~A  Depth           CALI        DPHI          DT          GR         ILD         ILM        NPHI        RHOB        SFLU          SP
30.0000        -999.2500   -999.2500   -999.2500     47.2800   -999.2500   -999.2500   -999.2500   -999.2500   -999.2500   -999.2500
30.2000        -999.2500      0.1737   -999.2500     46.6800   -999.2500   -999.2500   -999.2500   -999.2500   -999.2500   -999.2500
30.4000        -999.2500      0.1688   -999.2500     45.1800   -999.2500   -999.2500   -999.2500   -999.2500   -999.2500   -999.2500
30.6000        -999.2500      0.1678   -999.2500     45.7800   -999.2500   -999.2500   -999.2500   -999.2500   -999.2500   -999.2500
30.8000        -999.2500      0.1637   -999.2500     46.5750   -999.2500   -999.2500   -999.2500   -999.2500   -999.2500   -999.2500
31.0000         212.8750      0.1688    414.4800     48.4800   1835.8192  99960.8281      0.3216   2353.3000      0.6307     11.9850
31.2000         205.2750      0.2122    514.8000     50.7750      1.8358  12241.3652      0.3229   2300.3000     46.1137      6.3900
31.4000         206.5250      0.2119    530.2000     54.1800      1.2355    316.1039      0.3242   2318.3000     67.8938      2.8200
31.6000         205.2750      0.2049    545.6000     56.4750      3.3716      5.2946      0.3254   2340.3000     47.4056     -0.7500
31.8000         210.3500      0.1939    561.0000     56.2800    201.2936   1584.2726      0.3122   2322.3000     50.5627     -6.0900
32.0000         211.6250      0.1971    555.2800     54.8700  99960.8281    137.9844      0.2874   2298.3000     51.0305     -8.3850
32.2000         212.8750      0.2078    549.9200     53.0700  99960.8281   2268.9758      0.2780   2314.3000     63.0710    -10.6800
32.4000         209.0750      0.1926    526.2800     52.0800   4403.8232  13422.3906      0.2688   2322.3000    140.5497    -12.7200
32.6000         211.6250      0.1814    509.2400     51.4800     49.1847    164.3728      0.2592   2364.3000     73.0853    -14.7600
32.8000         212.8750      0.1761    498.5600     50.7750     70.4417     63.6546      0.2530   2368.3000     69.1560    -15.5250
33.0000         210.3500      0.1792    473.4800     50.6700     69.7959     40.5350      0.2480   2380.3999     63.6546    -16.8000
33.2000         201.4500      0.1874    471.4400     51.6750     51.5027   9723.6621      0.2470   2322.3000     97.2366    -18.5850
33.4000         202.7250      0.1895    468.5600     50.8800    158.4273    235.4127      0.2464   2341.3000     75.1329    -19.3500
33.6000         192.5750      0.1850    481.9200     51.7800   2166.8552     39.0688      0.2488   2357.3000     63.6546    -19.6050
33.8000         197.6500      0.1883    469.3600     56.9700     65.4380     34.3423      0.2558   2353.3000     47.4056    -19.8600
34.0000         207.8000      0.1951    470.4000     57.3750     53.4355     34.9808      0.2540   2330.3000     45.2720    -20.1150
34.2000         205.2750      0.2036    471.2000     57.0750     48.2870     35.6312      0.2424   2318.3000     50.5627    -20.3700
34.4000         192.5750      0.2094    469.7600     55.2750     44.4457     38.3557      0.2556   2308.3000     60.2324    -20.6250
34.6000         201.4500      0.2104    481.9200     53.1750     59.1330     39.7951      0.2636   2302.3000     66.0435    -22.1550
34.8000         181.1250      0.2172    487.6400     50.1750     65.4380     42.0562      0.2580   2308.3000     72.4152    -23.6700
35.0000         183.6750      0.2225    485.8000     44.6700     75.8281     46.1137      0.2556   2286.2000    100.8858    -29.2800
35.2000         184.9500      0.2301    493.4000     42.1800     81.6263     47.8443      0.2528   2272.2000    113.7182    -30.8100
35.4000         184.9500      0.2387    518.2800     41.1750     83.1438     47.4056      0.2526   2270.2000    120.1794    -32.0850
35.6000         188.7500      0.2529    538.0000     40.5750     87.0623     47.8443      0.2588   2292.2000    114.7704    -32.5950
35.8000         202.7250      0.2641    558.1600     42.8700     89.5014     49.6398      0.2606   2244.2000     85.4732    -31.3200
36.0000         206.5250      0.2713    551.9600     45.3750     86.2641     46.9710      0.2624   2201.1001     83.1438    -30.5550
36.2000         182.4000      0.2611    567.6000     46.9800     86.2641     45.6909      0.2848   2220.1001     77.9525    -29.7900
36.4000         179.8750      0.2478    572.5200     48.8700     80.1364     44.8570      0.2968   2264.2000     80.1364    -29.2800
36.6000         174.7750      0.2352    567.4000     47.6700     80.1364     44.4457      0.2960   2282.2000     78.6738    -28.0050
36.8000         176.0500      0.2306    548.2800     47.1750     79.4017     45.2720      0.2684   2262.2000     83.1438    -25.7100
37.0000         179.8750      0.2232    548.2800     49.5750     78.6738     44.4457      0.2736   2292.2000     83.9131    -25.7100
37.2000         181.1250      0.2181    545.2000     50.0700     77.2378     44.0382      0.2736   2318.3000     79.4017    -26.4750
37.4000         181.1250      0.2106    516.6400     49.3800     77.2378     43.2345      0.2472   2339.3000     77.2378    -26.9850
37.6000         190.0250      0.2003    502.6000     50.8800     75.8281     43.2345      0.2400   2337.3000     77.2378    -27.2400
37.8000         190.0250      0.2026    511.6800     51.0750     75.8281     43.2345      0.2354   2332.3000     77.2378    -27.2400
38.0000         191.3000      0.2175    489.5200     51.4800     72.4152     42.8381      0.2316   2309.3000     73.7615    -27.7500
38.2000         197.6500      0.2298    481.2800     52.7700     67.2713     39.4303      0.2334   2267.2000     77.2378    -28.7700
38.4000         209.0750      0.2404    464.0400     53.9700     65.4380     38.7106      0.2364   2260.2000     71.7513    -29.5350
38.6000         196.3750      0.2496    474.7200     55.2750     65.4380     37.6556      0.2504   2235.2000     62.4928    -29.7900
38.8000         181.1250      0.2603    485.6000     56.0700     64.2436     38.3557      0.2680   2222.1001     55.4409    -30.0450
39.0000         181.1250      0.2648    495.4800     55.7700     60.7897     37.6556      0.2870   2210.1001     55.4409    -29.2800
39.2000         181.1250      0.2436    518.8800     55.3800     60.2324     37.6556      0.2992   2304.3000     57.5215    -28.7700
39.4000         184.9500      0.2369    521.9600     55.2750     59.6802     39.0688      0.2932   2294.2000     59.1330    -29.0250
39.6000         182.4000      0.2315    523.8400     54.9750     61.9199     38.3557      0.2700   2248.2000     64.2436    -30.3000
39.8000         182.4000      0.2233    513.7600     55.1700     63.0710     38.3557      0.2608   2226.2000     63.0710    -30.3000
40.0000         184.9500      0.2136    511.6800     54.5700     64.2436     39.0688      0.2798   2176.1001     62.4928    -30.3000
40.2000         192.5750      0.2057    503.8400     53.2800     63.6546     40.9100      0.2876   2220.1001     62.4928    -29.7900
40.4000         173.5250      0.2091    537.6000     51.8700     61.9199     40.1634      0.3024   2286.2000     66.0435    -29.0250
40.6000         174.7750      0.2059    571.4800     52.0800     60.7897     39.4303      0.3212   2322.3000     68.5220    -28.2600
40.8000         181.1250      0.1965    555.2800     53.2800     58.5909     36.9683      0.2982   2308.3000     63.0710    -27.2400
41.0000         186.2250      0.1854    545.4000     54.3750     59.1330     36.6294      0.2680   2323.3000     57.5215    -27.2400
41.2000         190.0250      0.1741    565.5200     54.4800     59.6802     36.6294      0.2434   2362.3000     54.9326    -26.7300
41.4000         186.2250      0.1773    568.4000     54.2700     59.1330     37.3104      0.2420   2378.3999     56.4716    -26.7300
41.6000         190.0250      0.1920    559.3600     51.7800     59.6802     36.9683      0.2452   2358.3000     61.3522    -26.7300
41.8000         187.5000      0.2043    531.4400     51.7800     60.7897     37.6556      0.2504   2337.3000     65.4380    -26.7300
42.0000         188.7500      0.2002    416.9600     52.1700     63.0710     38.3557      0.2392   2316.3000     63.0710    -26.4750
