~VERSION INFORMATION
 VERS.                 2.0:   CWLS LOG ASCII STANDARD -VERSION 2.0
 WRAP.                  NO:   ONE LINE PER DEPTH STEP
~WELL INFORMATION BLOCK
#MNEM.UNIT           DATA                    DESCRIPTION OF MNEMONIC
#---------    -------------------            -------------------------------
# Generated from Intellog Unique Number	CC_80_83/WELL/2483
WELL.         PEX PCEJ HANGST                : Well_name    - WELL
LOC .         AA/09-31-083-11W4/0            : Location     - LOCATION
UWI .         AA/09-31-083-11W400            : Uwi          - UNIQUE WELL ID
ENTR.         DW                             : Entered      - ENTERED BY
SRVC.         SCHLUMBERGER                   : Scn          - SERVICE COMPANY
STRT.M        150                            : top_depth    - START DEPTH
STOP.M        379.75                         : bot_depth    - STOP DEPTH
STEP.M        0.25                           : increment    - STEP LENGTH
 NULL. -999.2500:NULL Value
~CURVE INFORMATION BLOCK
#MNEM UNIT       ERCB CURVE CODE    CURVE DESCRIPTION
#-----------   ------------------   ----------------------------------
DEPT.M        00 001 00 00         : DEPTH        - DEPTH
DPHI.V/V      00 890 00 00         : PHID         - DENSITY POROSITY (SANDSTONE)
GR  .API      00 310 00 00         : GR           - GAMMA RAY
ILD .OHMM     00 120 00 00         : RESD         - DEEP RESISTIVITY (DIL)
NPHI.V/V      00 330 00 00         : PHIN         - NEUTRON POROSITY (SANDSTONE)
~PARAMETER INFORMATION
#MNEM.UNIT           DATA             DESCRIPTION OF MNEMONIC
#---------         -----------     ------------------------------
GL  .M        615.5                : gl           - GROUND LEVEL ELEVATION
EREF.M        619.15               : kb           - ELEVATION OF DEPTH REFERENCE
DATM.M        619.15               : datum        - DATUM ELEVATION
TDD .M        382                  : tdd          - TOTAL DEPTH DRILLER
RUN .         ONE                  : Run          - RUN NUMBER
ENG .         BILL                 : Engineer     - RECORDING ENGINEER
WIT .         JIM                  : Witness      - WITNESSED BY
MUD .         GEL                  : Mud_type     - MUD TYPE
MATR.         SANDSTONE            : Logunit      - NEUTRON MATRIX
TMAX.C        16                   : BHT          - MAXIMUM RECORDED TEMPERATURE
BHTD.M        382                  : BHTDEP       - MAXIMUM RECORDED TEMPERATURE
MATR.         1                    : LOGUNIT      - NEUTRON MATRIX
RMT .C        25                   : MDTP         - TEMPERATURE OF MUD
NEUT.         1                    : NEUTRON      - NEUTRON TYPE
RESI.         0                    : RESIST       - RESISTIVITY TYPE
RMC .OHMM     0.25                 : RMC          - RESISTIVITY OF MUD CAKE
RMF .OHMM     0.25                 : RMF          - RESISTIVITY OF MUD FILTRATE
SUFT.C        15                   : SUFT         - SURFACE TEMPERATURE
~A  DEPTH     PHID       GR     RESD     PHIN
# ...
  324.000    0.190   89.268   10.168    0.345
  324.250    0.208   90.525   12.108    0.337
  324.500    0.204   81.770   13.966    0.319
  324.750    0.215   71.359   15.023    0.310
  325.000    0.227   67.388   14.862    0.317
  325.250    0.211   72.168   14.115    0.321
  325.500    0.200   83.185   13.716    0.313
  325.750    0.203   83.449   13.319    0.310
  326.000    0.205   77.415   12.682    0.309
  326.250    0.208   70.083   12.361    0.307
  326.500    0.212   68.027   12.064    0.310
  326.750    0.209   71.403   11.111    0.310
  327.000    0.197   73.934    9.955    0.304
  327.250    0.191   79.808    9.616    0.314
  327.500    0.188   89.364    9.512    0.321
  327.750    0.191  105.299    9.989    0.309
  328.000    0.198  109.193   10.920    0.300
  328.250    0.206   99.216   12.096    0.308
  328.500    0.211   96.776   13.467    0.311
  328.750    0.219   89.890   13.760    0.315
  329.000    0.225   93.947   13.540    0.313
  329.250    0.214  104.026   14.598    0.308
  329.500    0.202  109.129   17.005    0.299
  329.750    0.202  109.075   20.471    0.284
  330.000    0.196   99.767   24.604    0.267
  330.250    0.173   70.454   26.724    0.236
  330.500    0.148   64.707   28.134    0.236
  330.750    0.202   65.875   28.976    0.270
  331.000    0.242   61.276   29.086    0.301
  331.250    0.210   60.782   28.287    0.309
  331.500    0.206   64.183   26.481    0.305
  331.750    0.196   67.647   24.861    0.304
  332.000    0.186   73.201   23.364    0.293
  332.250    0.175   80.352   21.882    0.287
  332.500    0.165   88.793   19.702    0.292
  332.750    0.162   92.174   17.003    0.300
  333.000    0.160   90.198   15.341    0.305
  333.250    0.167  103.673   15.022    0.310
  333.500    0.180  110.456   15.492    0.310
  333.750    0.200  104.888   16.987    0.300
  334.000    0.211   96.107   18.951    0.285
  334.250    0.202   88.564   20.723    0.278
  334.500    0.188   81.504   22.372    0.286
  334.750    0.176   77.894   23.224    0.287
  335.000    0.072   73.546   22.656    0.268
  335.250    0.101   69.650   22.173    0.247
  335.500    0.200   73.326   21.545    0.253
  335.750    0.207   81.553   20.648    0.275
  336.000    0.227   79.660   20.737    0.283
  336.250    0.263   66.855   20.712    0.285
  336.500    0.260   61.514   21.025    0.297
  336.750    0.252   54.444   21.152    0.307
  337.000    0.258   41.948   22.300    0.307
  337.250    0.264   31.571   25.980    0.303
  337.500    0.270   26.628   30.819    0.303
  337.750    0.275   30.936   36.501    0.309
  338.000    0.274   42.977   52.027    0.300
  338.250    0.275   51.932   69.494    0.303
  338.500    0.279   43.231   78.034    0.306
  338.750    0.280   35.310   78.982    0.291
  339.000    0.279   50.227   78.867    0.292
  339.250    0.277   45.761   73.809    0.317
  339.500    0.270   40.882   60.332    0.309
  339.750    0.257   47.198   50.068    0.310
  340.000    0.243   55.068   43.716    0.320
  340.250    0.233   58.245   36.540    0.312
  340.500    0.226   62.614   31.928    0.308
  340.750    0.221   67.848   29.045    0.310
  341.000    0.213   66.268   26.400    0.307
  341.250    0.200   67.578   24.432    0.295
  341.500    0.178   72.163   23.112    0.284
  341.750    0.160   78.131   20.878    0.280
  342.000    0.156   90.520   17.473    0.279
  342.250    0.158   98.450   15.796    0.280
  342.500    0.163   93.520   15.042    0.283
  342.750    0.178   90.695   14.310    0.289
  343.000    0.195   94.787   13.838    0.303
  343.250    0.192   98.444   13.630    0.317
  343.500    0.169  102.262   13.187    0.311
  343.750    0.169  111.184   12.948    0.301
  344.000    0.177  115.467   13.145    0.303
  344.250    0.180  107.987   14.232    0.312
  344.500    0.190   98.873   16.265    0.320
  344.750    0.180   95.250   19.242    0.327
  345.000    0.127   84.081   24.636    0.315
  345.250    0.110   61.300   34.018    0.272
  345.500    0.118   67.927   41.061    0.262
  345.750    0.200   76.720   39.258    0.296
  346.000    0.249   73.922   33.899    0.318
  346.250    0.205   74.493   29.652    0.308
  346.500    0.188   78.219   24.029    0.305
  346.750    0.175   78.897   21.118    0.306
  347.000    0.171   85.353   18.874    0.301
  347.250    0.179   95.798   17.547    0.298
  347.500    0.201  104.996   17.726    0.303
  347.750    0.227   94.090   20.538    0.311
  348.000    0.235   64.505   25.519    0.314
  348.250    0.232   73.671   26.600    0.311
  348.500    0.223   79.239   25.462    0.305
  348.750    0.208   75.080   24.457    0.300
  349.000    0.191   77.885   22.591    0.298
  349.250    0.155   89.580   19.849    0.298
  349.500    0.079   94.910   18.488    0.289
  349.750    0.042   82.577   18.054    0.268
  350.000    0.160   81.067   19.271    0.295
  350.250    0.210   87.085   20.619    0.315
  350.500    0.187   90.722   22.327    0.312
  350.750    0.220   81.148   26.568    0.314
  351.000    0.249   55.617   34.370    0.310
  351.250    0.238   46.994   43.390    0.296
  351.500    0.250   56.199   46.426    0.301
  351.750    0.277   54.343   45.113    0.301
  352.000    0.248   45.707   36.133    0.292
  352.250    0.186   58.824   23.285    0.299
  352.500    0.177   86.077   18.687    0.313
  352.750    0.185   85.737   16.341    0.300
  353.000    0.189   89.909   16.025    0.298
  353.250    0.187   90.319   17.449    0.304
  353.500    0.186   81.477   22.566    0.312
  353.750    0.214   71.064   31.163    0.327
  354.000    0.273   54.894   36.771    0.333
  354.250    0.278   37.538   34.797    0.316
  354.500    0.229   51.393   31.957    0.308
  354.750    0.229   69.234   34.503    0.328
  355.000    0.266   57.890   36.942    0.334
  355.250    0.271   32.792   37.051    0.316
  355.500    0.259   31.267   41.088    0.316
  355.750    0.249   49.708   43.187    0.318
  356.000    0.238   61.865   35.948    0.316
  356.250    0.211   55.447   27.332    0.311
  356.500    0.188   67.802   21.477    0.310
  356.750    0.205   82.779   19.614    0.322
  357.000    0.260   49.173   28.285    0.334
  357.250    0.295   38.951   47.039    0.320
  357.500    0.298   33.659   59.394    0.308
  357.750    0.292   34.754   58.699    0.302
  358.000    0.262   51.157   45.341    0.298
  358.250    0.209   72.313   31.467    0.305
  358.500    0.189   83.936   29.654    0.327
  358.750    0.227   84.403   28.511    0.340
  359.000    0.265   62.325   30.777    0.347
  359.250    0.287   40.618   35.666    0.349
  359.500    0.269   44.118   42.247    0.337
  359.750    0.224   63.385   48.244    0.327
  360.000    0.220   67.091   48.199    0.339
  360.250    0.259   49.768   41.574    0.346
  360.500    0.274   45.608   32.669    0.333
  360.750    0.216   72.464   23.305    0.326
  361.000    0.165  103.819   18.712    0.326
  361.250    0.188   94.438   19.793    0.321
  361.500    0.230   49.565   22.756    0.323
  361.750    0.264   38.297   31.463    0.331
  362.000    0.284   36.283   39.491    0.336
  362.250    0.292   34.482   60.808    0.337
  362.500    0.294   32.979   77.892    0.334
  362.750    0.293   29.515   86.345    0.325
  363.000    0.291   27.787  107.937    0.322
  363.250    0.289   30.272  113.761    0.326
  363.500    0.290   32.423  115.684    0.324
  363.750    0.290   32.506  114.722    0.310
  364.000    0.290   31.775  108.972    0.320
  364.250    0.289   32.375   99.022    0.341
  364.500    0.290   32.603   77.698    0.317
  364.750    0.280   33.809   41.431    0.290
  365.000    0.214   68.738   25.621    0.284
  365.250    0.174   91.761   24.363    0.294
  365.500    0.207   71.152   24.312    0.299
  365.750    0.259   37.807   25.013    0.291
  366.000    0.267   36.504   26.682    0.284
  366.250    0.245   66.391   27.646    0.286
  366.500    0.213   80.485   27.804    0.302
  366.750    0.195   83.478   31.981    0.320
  367.000    0.206   71.405   36.707    0.315
  367.250    0.236   47.890   42.132    0.299
