~VERSION INFORMATION
 VERS.                 2.0:   CWLS LOG ASCII STANDARD -VERSION 2.0
 WRAP.                  NO:   ONE LINE PER DEPTH STEP
~WELL INFORMATION BLOCK
#MNEM.UNIT           DATA                    DESCRIPTION OF MNEMONIC
#---------    -------------------            -------------------------------
# Generated from Intellog Unique Number	CX_WELLS/WELL/3616
WELL.         AMOCO C21                      : Well_name    - WELL
LOC .         AA/08-21-085-08W4/0            : Location     - LOCATION
UWI .         AA/08-21-085-08W400            : Uwi          - UNIQUE WELL ID
ENTR.         T                              : Entered      - ENTERED BY
SRVC.         SCHLUMBERGER                   : Scn          - SERVICE COMPANY
STRT.F        600                            : top_depth    - START DEPTH
STOP.F        1360.33                        : bot_depth    - STOP DEPTH
STEP.F        0.82                           : increment    - STEP LENGTH
 NULL. -999.2500:NULL Value
~CURVE INFORMATION BLOCK
#MNEM UNIT       ERCB CURVE CODE    CURVE DESCRIPTION
#-----------   ------------------   ----------------------------------
DEPT.F        00 001 00 00         : DEPTH        - DEPTH
GR  .API      00 310 00 00         : GR           - GAMMA RAY
NPHI.V/V      00 330 00 00         : PHIN         - NEUTRON POROSITY (SANDSTONE)
ILD .OHMM     00 120 00 00         : RESD         - DEEP RESISTIVITY (OTHER)
~PARAMETER INFORMATION
#MNEM.UNIT           DATA             DESCRIPTION OF MNEMONIC
#---------         -----------     ------------------------------
GL  .F        2144.6               : gl           - GROUND LEVEL ELEVATION
EREF.F        2149                 : kb           - ELEVATION OF DEPTH REFERENCE
DATM.F        2149                 : datum        - DATUM ELEVATION
TDD .F        1373                 : tdd          - TOTAL DEPTH DRILLER
RUN .         ONE                  : Run          - RUN NUMBER
ENG .         BILL                 : Engineer     - RECORDING ENGINEER
WIT .         JIM                  : Witness      - WITNESSED BY
MUD .         GEL                  : Mud_type     - MUD TYPE
MATR.         SANDSTONE            : Logunit      - NEUTRON MATRIX
TMAX.F        80                   : BHT          - MAXIMUM RECORDED TEMPERATURE
BHTD.F        1373                 : BHTDEP       - MAXIMUM RECORDED TEMPERATURE
MATR.         1                    : LOGUNIT      - NEUTRON MATRIX
RMT .F        80                   : MDTP         - TEMPERATURE OF MUD
NEUT.         1                    : NEUTRON      - NEUTRON TYPE
RESI.         10                   : RESIST       - RESISTIVITY TYPE
RMC .OHMM     2                    : RMC          - RESISTIVITY OF MUD CAKE
RMF .OHMM     3.9                  : RMF          - RESISTIVITY OF MUD FILTRATE
SUFT.F        39.2                 : SUFT         - SURFACE TEMPERATURE
~A  DEPTH       GR     PHIN     RESD
  600.000  141.908    0.411    2.881
  600.820  144.318    0.403    3.120
  601.640  147.937    0.398    3.594
  602.461  150.969    0.389    4.068
  603.281  150.986    0.394    4.229
  604.101  151.020    0.399    4.234
  604.921  151.054    0.392    4.396
  605.741  151.097    0.383    4.557
  606.562  149.343    0.383    4.951
  607.382  141.628    0.386    5.423
  608.202  129.137    0.382    5.898
  609.022  110.693    0.378    6.215
  609.843   95.825    0.382    6.765
  610.663   82.158    0.394    7.236
  611.483   83.385    0.407    7.554
  612.303   84.006    0.413    7.561
  613.123   82.849    0.412    8.032
  613.944   79.911    0.392    8.895
  614.764   87.694    0.380   11.548
  615.584   98.458    0.373   13.343
  616.404  110.422    0.371   12.337
  617.224  118.205    0.381    9.305
  618.045  120.632    0.388    7.365
  618.865  121.850    0.383    7.684
  619.685  133.814    0.382    7.298
  620.505  143.982    0.385    5.824
  621.325  149.398    0.384    5.207
  622.146  153.008    0.378    4.669
  622.966  155.418    0.378    4.442
  623.786  151.876    0.381    4.292
  624.606  144.757    0.382    4.141
  625.427  140.023    0.381    4.069
  626.247  135.289    0.378    4.154
  627.067  131.755    0.372    4.235
  627.887  127.625    0.360    4.553
  628.707  125.267    0.349    4.635
  629.528  122.321    0.354    4.952
  630.348  117.586    0.361    5.424
  631.168  113.448    0.366    6.209
  631.988  108.714    0.375    7.071
  632.808  101.604    0.385    8.012
  633.629   98.658    0.389    8.718
  634.449   98.096    0.386    8.412
  635.269   97.534    0.389    6.782
  636.089   94.000    0.394    6.244
  636.909   92.238    0.393    8.040
  637.730   97.041    0.387    8.668
  638.550  108.996    0.388    8.986
  639.370  117.980    0.394    8.601
  640.190  123.379    0.401    6.895
  641.010  126.990    0.401    6.511
  641.831  132.993    0.397    6.440
  642.651  134.824    0.386    6.444
  643.471  122.929    0.382    6.839
  644.291  118.790    0.382    8.558
  645.112  109.287    0.386    9.497
  645.932  108.138    0.392   10.437
  646.752  112.336    0.395   11.222
  647.572  115.359    0.406   11.149
  648.392  113.614    0.406   11.078
  649.213  111.851    0.401   11.082
  650.033  108.318    0.397   11.400
  650.853  105.363    0.395   11.717
  651.673  100.041    0.395   11.957
  652.493  106.028    0.395   11.963
  653.314  111.435    0.395   11.655
  654.134  121.603    0.393   10.960
  654.954  123.425    0.386   10.343
  655.774  118.691    0.386    9.492
  656.594  112.764    0.392    9.964
  657.415  106.242    0.396   11.839
  658.235   93.767    0.387   12.545
  659.055   90.812    0.387   13.719
  659.875   88.462    0.386   14.347
  660.696   90.293    0.381   15.053
  661.516   95.096    0.371   13.191
  662.336  105.860    0.366   11.172
  663.156  121.400    0.368   10.321
  663.976  130.376    0.375    9.237
  664.797  127.429    0.378    7.530
  665.617  120.915    0.382    6.991
  666.437  114.393    0.386    9.020
  667.257  106.678    0.390   10.272
  668.077  106.125    0.391   10.978
  668.898  107.351    0.389   11.139
  669.718  107.386    0.389   10.677
  670.538  107.420    0.392   10.295
  671.358  105.666    0.394   11.156
  672.178  103.316    0.397   11.552
  672.999   99.774    0.399   11.482
  673.819  101.596    0.405   11.485
  674.639  105.803    0.410   11.412
  675.459  109.413    0.402   11.340
  676.280  114.233    0.402   10.880
  677.100  117.248    0.401   10.340
  677.920  120.271    0.397   10.034
  678.740  121.480    0.397    9.649
  679.560  125.100    0.396    9.032
  680.381  126.922    0.396    7.870
  681.201  129.945    0.397    7.642
  682.021  131.163    0.399    7.258
  682.841  133.003    0.400    6.952
  683.661  132.441    0.402    6.491
  684.482  133.071    0.400    6.186
  685.302  132.518    0.399    5.802
  686.122  128.959    0.400    9.624
  686.942  125.416    0.402   10.174
  687.762  121.278    0.404   10.179
  688.583  115.948    0.405    9.794
  689.403  114.790    0.405    8.245
  690.223  131.523    0.402    8.015
  691.043  137.518    0.389    7.164
  691.864  146.501    0.378    6.391
  692.684  153.689    0.371    5.696
  693.504  160.280    0.368    5.001
  694.324  154.958    0.373    4.539
  695.144  146.042    0.378    4.468
  695.965  129.983    0.379    5.096
  696.785  115.124    0.382    6.113
  697.605  107.996    0.387   15.072
  698.425   73.450    0.388   15.468
  699.245   57.986    0.389   15.318
  700.066   59.809    0.388   14.857
  700.886   64.620    0.386   14.706
  701.706   72.403    0.383   14.323
  702.526   80.186    0.384   13.940
  703.346   87.978    0.383   13.476
  704.167   93.386    0.382   12.783
  704.987   96.400    0.388   12.322
  705.807  100.607    0.392   11.859
  706.627  104.218    0.392   10.853
  707.448  106.040    0.388    9.924
  708.268  106.679    0.380    9.385
  709.088  106.713    0.373    9.157
  709.908  103.767    0.368    8.774
  710.728   95.456    0.367    8.623
  711.549  100.259    0.363    8.242
  712.369  105.062    0.361    7.934
  713.189  111.057    0.357    7.627
  714.009  117.665    0.358    7.321
  714.829  121.276    0.371    6.941
  715.650  121.319    0.377    6.866
  716.470  121.336    0.374    6.639
  717.290  121.387    0.369    6.567
  718.110  120.221    0.369    6.415
  718.930  116.082    0.373    6.343
  719.751  111.348    0.376    6.351
  720.571  106.018    0.377    6.357
  721.391  103.676    0.377    6.439
  722.211  103.114    0.377    6.445
  723.031  102.552    0.378    6.606
  723.852  101.395    0.379    6.846
  724.672  100.245    0.384    6.773
  725.492   99.692    0.389    6.622
  726.312   99.726    0.392    6.395
  727.133   99.156    0.396    6.478
  727.953   99.181    0.398    6.560
  728.773   99.224    0.395    6.647
  729.593   99.855    0.390    6.572
  730.413  100.502    0.385    6.422
  731.234  100.528    0.383    6.272
  732.054  101.158    0.382    6.124
  732.874  102.393    0.380    6.050
  733.694  103.032    0.378    5.901
  734.514  103.058    0.375    5.750
  735.335  103.679    0.374    5.291
  736.155  104.914    0.377    5.215
  736.975  105.545    0.379    4.910
  737.795  106.771    0.380    4.759
  738.615  105.613    0.382    5.076
  739.436   99.686    0.387    6.406
  740.256   88.992    0.392    7.734
  741.076   83.670    0.393    7.819
  741.896   82.503    0.384    7.124
  742.717   80.758    0.376    6.352
  743.537   79.004    0.381    6.046
  744.357   77.837    0.383    5.895
  745.177   76.100    0.390    6.367
  745.997   74.338    0.397    6.917
  746.818   71.392    0.402    7.469
  747.638   67.262    0.408    7.553
  748.458   65.508    0.409    7.403
  749.278   69.110    0.409    7.175
  750.098   73.930    0.409    6.947
  750.919   75.156    0.407    6.717
  751.739   75.787    0.404    6.570
  752.559   75.812    0.401    6.807
  753.379   75.855    0.399    7.124
  754.199   75.881    0.399    7.129
  755.020   75.924    0.398    6.745
  755.840   76.571    0.397    6.363
  756.660   75.992    0.396    6.213
  757.480   72.459    0.395    6.763
  758.301   68.908    0.396    7.237
  759.121   68.346    0.396    7.008
  759.941   67.793    0.395    6.857
  760.761   67.240    0.395    6.943
  761.581   66.678    0.395    7.647
  762.402   66.712    0.396    8.431
  763.222   66.150    0.396    6.725
  764.042   65.588    0.398    6.342
  764.862   64.430    0.400    6.034
  765.682   63.869    0.397    6.508
  766.503   65.095    0.394    7.447
  767.323   66.934    0.395    8.155
  768.143   67.548    0.398    7.928
  768.963   68.187    0.403    7.776
  769.783   68.238    0.407    7.627
  770.604   68.264    0.406    7.788
  771.424   67.693    0.400    8.026
  772.244   67.736    0.394    8.345
  773.064   67.779    0.390    8.196
  773.885   67.822    0.390    7.967
  774.705   67.243    0.393    7.739
  775.525   67.285    0.398    7.509
  776.345   67.924    0.400    7.360
  777.165   67.942    0.400    7.523
