~VERSION INFORMATION
 VERS.                 2.0:   CWLS LOG ASCII STANDARD -VERSION 2.0
 WRAP.                  NO:   ONE LINE PER DEPTH STEP
~WELL INFORMATION BLOCK
#MNEM.UNIT           DATA                    DESCRIPTION OF MNEMONIC
#---------    -------------------            -------------------------------
# Generated from Intellog Unique Number	CS_77_79/WELL/908
LOC .         AA/07-26-077-08W4/0            : Location     - LOCATION
UWI .         AA/07-26-077-08W4/0            : Uwi          - UNIQUE WELL ID
ENTR.         SP                             : Entered      - ENTERED BY
SRVC.         SCHLUMBERGER                   : Scn          - SERVICE COMPANY
STRT.M        120                            : top_depth    - START DEPTH
STOP.M        355                            : bot_depth    - STOP DEPTH
STEP.M        0.25                           : increment    - STEP LENGTH
 NULL. -999.2500:NULL Value
~CURVE INFORMATION BLOCK
#MNEM UNIT       ERCB CURVE CODE    CURVE DESCRIPTION
#-----------   ------------------   ----------------------------------
DEPT.M        00 001 00 00         : DEPTH        - DEPTH
ILD .OHMM     00 120 00 00         : RESD         - DEEP RESISTIVITY (DIL)
DPHI.V/V      00 890 00 00         : PHID         - DENSITY POROSITY (LIMESTONE)
NPHI.V/V      00 330 00 00         : PHIN         - NEUTRON POROSITY (LIMESTONE)
GR  .API      00 310 00 00         : GR           - GAMMA RAY
~PARAMETER INFORMATION
#MNEM.UNIT           DATA             DESCRIPTION OF MNEMONIC
#---------         -----------     ------------------------------
GL  .M        551.7                : gl           - GROUND LEVEL ELEVATION
EREF.M        555.2                : kb           - ELEVATION OF DEPTH REFERENCE
DATM.M        551.7                : datum        - DATUM ELEVATION
TDD .M        360                  : tdd          - TOTAL DEPTH DRILLER
RUN .         ONE                  : Run          - RUN NUMBER
ENG .         BILL                 : Engineer     - RECORDING ENGINEER
WIT .         JIM                  : Witness      - WITNESSED BY
MUD .         GEL                  : Mud_type     - MUD TYPE
MATR.         LIMESTONE            : Logunit      - NEUTRON MATRIX
TMAX.C        13                   : BHT          - MAXIMUM RECORDED TEMPERATURE
BHTD.M        360                  : BHTDEP       - MAXIMUM RECORDED TEMPERATURE
MATR.         1                    : LOGUNIT      - NEUTRON MATRIX
RMT .C        25                   : MDTP         - TEMPERATURE OF MUD
NEUT.         1                    : NEUTRON      - NEUTRON TYPE
RESI.         0                    : RESIST       - RESISTIVITY TYPE
RMC .OHMM     0.25                 : RMC          - RESISTIVITY OF MUD CAKE
RMF .OHMM     0.25                 : RMF          - RESISTIVITY OF MUD FILTRATE
SUFT.C        15                   : SUFT         - SURFACE TEMPERATURE
~A  DEPTH     RESD     PHID     PHIN       GR
  120.000    3.734    0.274    0.458   89.873
  120.250    3.734    0.275    0.453   86.768
  120.500    3.734    0.277    0.463   83.664
  120.750    3.596    0.275    0.473   89.239
  121.000    3.528    0.278    0.482  101.010
  121.250    3.398    0.280    0.484  100.385
  121.500    3.397    0.283    0.490   89.223
  121.750    3.397    0.285    0.493   91.075
  122.000    3.334    0.287    0.467   89.832
  122.250    3.397    0.285    0.482   86.728
  122.500    3.461    0.280    0.498   93.540
  122.750    3.526    0.274    0.477   97.253
  123.000    3.593    0.271    0.469   89.811
  123.250    3.593    0.268    0.463   93.522
  123.500    3.593    0.264    0.447   95.378
  123.750    3.592    0.258    0.472   92.894
  124.000    3.592    0.250    0.485   97.846
  124.250    3.660    0.245    0.457   99.082
  124.500    3.660    0.237    0.432   97.837
  124.750    3.660    0.232    0.429   89.154
  125.000    3.729    0.246    0.445   89.769
  125.250    3.800    0.255    0.441   87.284
  125.500    3.799    0.257    0.458   90.377
  125.750    3.871    0.257    0.472   93.472
  126.000    4.019    0.252    0.479   86.648
  126.250    4.019    0.246    0.460   90.981
  126.500    4.173    0.239    0.439   94.695
  126.750    4.333    0.235    0.425   92.210
  127.000    4.415    0.230    0.431   89.726
  127.250    4.760    0.223    0.424   94.060
  127.500    4.850    0.220    0.462   90.335
  127.750    4.850    0.225    0.472   96.527
  128.000    4.849    0.226    0.463   96.523
  128.250    4.759    0.228    0.455   93.419
  128.500    4.669    0.224    0.455   94.031
  128.750    4.582    0.223    0.456   94.028
  129.000    4.582    0.224    0.455   90.303
  129.250    4.582    0.224    0.450   91.538
  129.500    4.668    0.220    0.460   93.392
  129.750    4.757    0.218    0.472   91.527
  130.000    4.939    0.214    0.465   95.241
  130.250    5.032    0.207    0.445   97.096
  130.500    5.128    0.208    0.450   91.512
  130.750    5.525    0.214    0.431  100.804
  131.000    5.633    0.222    0.409   97.080
  131.250    6.188    0.234    0.404   87.157
  131.500    6.928    0.239    0.378   74.754
  131.750    7.193    0.222    0.351   67.312
  132.000    7.058    0.128    0.329   56.770
  132.250    6.424    0.138    0.339   54.904
  132.500    5.846    0.177    0.382   69.155
  132.750    5.321    0.217    0.401   85.266
  133.000    5.124    0.209    0.407   87.121
  133.250    5.221    0.209    0.408   86.495
  133.500    5.421    0.194    0.396   84.630
  133.750    7.189    0.170    0.365   79.046
  134.000    8.201    0.151    0.346   75.941
  134.250    9.714    0.167    0.349   75.936
  134.500   10.671    0.193    0.375   96.386
  134.750   11.505    0.222    0.391   94.521
  135.000   12.173    0.225    0.398   98.855
  135.250   13.627    0.220    0.383  101.949
  135.500   14.970    0.221    0.369   98.844
  135.750   15.254    0.221    0.374  100.698
  136.000   15.543    0.225    0.370   99.452
  136.250   15.252    0.233    0.380  103.167
  136.500   14.966    0.235    0.366   95.722
  136.750   14.412    0.232    0.365   92.620
  137.000   14.143    0.229    0.381   85.796
  137.250   14.411    0.233    0.381   91.988
  137.500   14.963    0.240    0.379  101.901
  137.750   15.536    0.243    0.380   93.217
  138.000   17.722    0.253    0.369   86.395
  138.250   18.751    0.265    0.374   78.332
  138.500   20.991    0.280    0.354   72.128
  138.750   22.630    0.284    0.350   69.644
  139.000   22.629    0.280    0.364   65.298
  139.250   22.205    0.273    0.354   64.054
  139.500   21.790    0.264    0.363   68.388
  139.750   20.592    0.254    0.355   73.341
  140.000   19.830    0.247    0.361   74.576
  140.250   18.391    0.242    0.352   71.472
  140.500   17.710    0.240    0.355   79.524
  140.750   17.709    0.231    0.359   88.196
  141.000   17.377    0.226    0.339   84.471
  141.250   17.376    0.223    0.326   79.507
  141.500   17.705    0.224    0.338   75.163
  141.750   17.704    0.227    0.336   70.819
  142.000   18.039    0.234    0.338   65.237
  142.250   18.730    0.254    0.341   70.809
  142.500   19.084    0.254    0.355   75.142
  142.750   19.815    0.257    0.365   71.416
  143.000   20.190    0.278    0.368   70.791
  143.250   20.963    0.291    0.367   72.026
  143.500   21.360    0.288    0.357   76.362
  143.750   21.764    0.283    0.357   86.892
  144.000   21.763    0.279    0.355   91.846
  144.250   21.356    0.274    0.352   92.460
  144.500   20.956    0.270    0.357   88.736
  144.750   20.564    0.263    0.375   86.870
  145.000   20.562    0.259    0.367   88.725
  145.250   21.350    0.259    0.368   93.059
  145.500   21.349    0.258    0.372   89.956
  145.750   22.165    0.254    0.378   84.991
  146.000   22.585    0.254    0.390   80.647
  146.250   22.584    0.256    0.377   76.923
  146.500   23.011    0.253    0.368   82.495
  146.750   23.010    0.252    0.361   80.631
  147.000   22.579    0.247    0.346   73.808
  147.250   21.743    0.236    0.343   55.208
  147.500   20.938    0.228    0.343   59.539
  147.750   20.164    0.230    0.364   59.537
  148.000   19.056    0.233    0.366   55.193
  148.250   16.702    0.233    0.368   66.343
  148.500   14.366    0.232    0.374   78.735
  148.750   12.127    0.220    0.385   97.325
  149.000   10.431    0.193    0.399  104.757
  149.250    8.480    0.180    0.410  105.372
  149.500    7.432    0.167    0.413  110.325
  149.750    6.638    0.158    0.411  105.359
  150.000    5.929    0.125    0.422  102.876
  150.250    5.295    0.141    0.430   99.152
  150.500    5.099    0.189    0.434  110.924
  150.750    4.911    0.195    0.424  104.719
  151.000    4.729    0.209    0.429  102.236
  151.250    4.640    0.229    0.429  107.809
  151.500    4.728    0.251    0.414  104.704
  151.750    5.496    0.271    0.398   94.781
  152.000    8.008    0.287    0.376   76.181
  152.250   11.450    0.294    0.342   60.681
  152.500   13.563    0.288    0.340   53.857
  152.750   19.761    0.276    0.344   54.471
  153.000   20.907    0.228    0.360   63.144
  153.250   20.516    0.271    0.366   64.997
  153.500   20.514    0.279    0.361   63.134
  153.750   20.513    0.272    0.353   62.508
  154.000   20.901    0.271    0.353   62.504
  154.250   20.511    0.273    0.356   61.258
  154.500   20.127    0.273    0.358   69.930
  154.750   19.382    0.271    0.351   73.025
  155.000   18.665    0.261    0.357   76.118
  155.250   17.310    0.252    0.354   85.409
  155.500   14.889    0.249    0.347   93.463
  155.750   13.298    0.241    0.363   99.656
  156.000   11.016    0.207    0.377  105.849
  156.250    9.298    0.180    0.391  110.183
  156.500    8.463    0.177    0.407  108.937
  156.750    7.418    0.166    0.412  111.411
  157.000    7.010    0.162    0.407  103.967
  157.250    7.142    0.160    0.412  106.443
  157.500    7.278    0.155    0.409  114.495
  157.750    7.700    0.178    0.399  117.589
  158.000    8.620    0.192    0.381  118.823
  158.250   10.404    0.199    0.372  118.197
  158.500   12.094    0.220    0.365  116.953
  158.750   13.039    0.241    0.360  105.791
  159.000   14.597    0.265    0.367   97.108
  159.250   16.037    0.275    0.372   92.143
  159.500   16.651    0.259    0.381   89.039
  159.750   16.339    0.243    0.386   90.894
  160.000   15.153    0.233    0.370   96.467
  160.250   14.869    0.234    0.366   95.222
  160.500   15.439    0.234    0.360  100.176
  160.750   16.030    0.235    0.350   99.550
  161.000   16.643    0.237    0.345   97.686
  161.250   16.959    0.240    0.343   97.061
  161.500   17.608    0.245    0.346   88.997
  161.750   18.282    0.253    0.350   79.694
  162.000   18.629    0.264    0.350   74.111
  162.250   18.981    0.271    0.354   69.767
  162.500   18.980    0.272    0.350   61.084
  162.750   18.625    0.259    0.348   61.078
  163.000   18.276    0.243    0.344   65.413
  163.250   17.599    0.212    0.334   74.705
