~VERSION INFORMATION
 VERS.                 2.0:   CWLS LOG ASCII STANDARD -VERSION 2.0
 WRAP.                  NO:   ONE LINE PER DEPTH STEP
~WELL INFORMATION BLOCK
#MNEM.UNIT           DATA                    DESCRIPTION OF MNEMONIC
#---------    -------------------            -------------------------------
# Generated from Intellog Unique Number	CC_80_83/WELL/2324
NULL.         -999.25                        : NULL_VALUE
WELL.         ARCO ACI McMURRAY              : Well_name    - WELL              
LOC .         09-26-083-12W4                 : Location     - LOCATION          
UWI .         AA/09-26-083-12W400            : Uwi          - UNIQUE WELL ID    
ENTR.         DW                             : Entered      - ENTERED BY        
SRVC.         SCHLUMBERGER                   : Scn          - SERVICE COMPANY   
DATE.         06 FEB 74                      : Date         - LOG DATE
STRT.M        137.16                         : top_depth    - START DEPTH       
STOP.M        366.98                         : bot_depth    - STOP DEPTH        
STEP.M        0.305                          : increment    - STEP LENGTH       
~CURVE INFORMATION BLOCK
#MNEM UNIT       ERCB CURVE CODE    CURVE DESCRIPTION
#-----------   ------------------   ----------------------------------
DEPT.M        00 001 00 00         : DEPTH        - DEPTH                       
DPHI.V/V      00 890 00 00         : PHID         - DENSITY POROSITY (LIMESTONE)
GR  .API      00 310 00 00         : GR           - GAMMA RAY                   
NPHI.V/V      00 330 00 00         : PHIN         - NEUTRON POROSITY (LIMESTONE)
ILD .OHMM     00 120 00 00         : RESD         - DEEP RESISTIVITY (DIL)      
~PARAMETER INFORMATION       
#MNEM.UNIT           DATA             DESCRIPTION OF MNEMONIC
#---------         -----------     ------------------------------
GL  .M        609.6                : gl           - GROUND LEVEL ELEVATION      
EREF.M        611.124              : kb           - ELEVATION OF DEPTH REFERENCE
DATM.M        611.124              : datum        - DATUM ELEVATION             
TDD .M        369.113              : tdd          - TOTAL DEPTH DRILLER         
RUN .         ONE                  : Run          - RUN NUMBER                  
ENG .         BILL                 : Engineer     - RECORDING ENGINEER          
WIT .         JIM                  : Witness      - WITNESSED BY                
MUD .         GEL                  : Mud_type     - MUD TYPE                    
MATR.         LIMESTONE            : Logunit      - NEUTRON MATRIX              
TMAX.C        18.3333              : BHT          - MAXIMUM RECORDED TEMPERATURE
BHTD.M        369.113              : BHTDEP       - MAXIMUM RECORDED TEMPERATURE
MATR.         1                    : LOGUNIT      - NEUTRON MATRIX              
RMT .C        25                   : MDTP         - TEMPERATURE OF MUD          
NEUT.         1                    : NEUTRON      - NEUTRON TYPE                
RESI.         0                    : RESIST       - RESISTIVITY TYPE            
RMC .OHMM     0.25                 : RMC          - RESISTIVITY OF MUD CAKE     
RMF .OHMM     0.25                 : RMF          - RESISTIVITY OF MUD FILTRATE 
SUFT.C        4                    : SUFT         - SURFACE TEMPERATURE         
~A  DEPTH     PHID       GR     PHIN     RESD
  137.160    0.306  101.209    0.579    2.809
  137.465    0.310   98.755    0.551    2.761
  137.770    0.304  100.362    0.505    2.765
  138.074    0.301   97.099    0.505    2.928
  138.379    0.305   86.514    0.511    3.339
  138.684    0.344   87.311    0.542    3.669
  138.989    0.371   85.264    0.565    4.033
  139.294    0.399   88.907    0.568    4.271
  139.598    0.326   93.770    0.556    4.357
  139.903    0.315   94.159    0.543    4.280
  140.208    0.324   91.707    0.506    3.979
  140.513    0.318   95.349    0.534    3.631
  140.818    0.336   95.741    0.555    3.439
  141.122    0.326   98.162    0.511    3.317
  141.427    0.348   92.456    0.545    3.321
  141.732    0.359   95.691    0.553    3.088
  142.037    0.342   95.678    0.570    2.870
  142.342    0.366   92.816    0.574    2.618
  142.646    0.352   80.202    0.572    2.481
  142.951    0.325   63.926    0.542    3.047
  143.256    0.264   44.401    0.447    3.540
  143.561    0.104   35.035    0.237    4.864
  143.865    0.143   54.939    0.205    6.937
  144.170    0.242   98.416    0.301    7.076
  144.475    0.305   99.617    0.500    5.261
  144.780    0.327   95.132    0.556    3.499
  145.085    0.333   91.863    0.569    2.751
  145.389    0.353   93.476    0.571    2.374
  145.694    0.347   91.831    0.572    2.291
  145.999    0.346   93.444    0.554    2.472
  146.304    0.327   95.460    0.543    2.568
  146.609    0.349   94.227    0.565    2.930
  146.913    0.354   92.990    0.570    3.102
  147.218    0.317   96.228    0.572    3.223
  147.523    0.342   89.299    0.544    3.543
  147.828    0.282   89.288    0.504    3.615
  148.133    0.306   93.742    0.495    3.756
  148.437    0.309   92.100    0.542    3.904
  148.742    0.298   90.053    0.533    3.981
  149.047    0.333   96.136    0.550    3.772
  149.352    0.315   93.275    0.566    3.506
  149.657    0.295   96.916    0.571    3.198
  149.961    0.301   92.834    0.557    3.029
  150.266    0.317   94.445    0.568    2.923
  150.571    0.307   96.056    0.492    2.926
  150.876    0.309   96.854    0.527    3.215
  151.181    0.301   95.214    0.562    3.736
  151.485    0.320   94.386    0.514    4.031
  151.790    0.345  101.279    0.531    3.818
  152.095    0.353   95.977    0.544    3.682
  152.400    0.347   89.460    0.571    3.619
  152.705    0.346   90.666    0.522    3.694
  153.009    0.365   89.835    0.532    3.839
  153.314    0.312   86.976    0.484    3.989
  153.619    0.334   79.237    0.488    4.070
  153.924    0.323   66.216    0.529    3.854
  154.228    0.225   59.289    0.466    4.825
  154.533    0.288   64.965    0.414    5.711
  154.838    0.283   71.046    0.405    7.559
  155.143    0.269   79.564    0.431   10.007
  155.448    0.291   74.266    0.399   10.995
  155.752    0.309   67.741    0.399   11.219
  156.057    0.326   68.546    0.424   10.822
  156.362    0.319   78.690    0.430   11.459
  156.667    0.277   82.335    0.417   12.592
  156.972    0.259   85.977    0.416   12.155
  157.276    0.294   74.581    0.405   11.723
  157.581    0.326   64.403    0.425   11.099
  157.886    0.341   66.012    0.410   11.537
  158.191    0.324   73.721    0.420   13.657
  158.496    0.291   83.459    0.412   15.582
  158.800    0.281   85.885    0.415   14.215
  159.105    0.321   78.959    0.434   11.385
  159.410    0.311   65.937    0.411    9.825
  159.715    0.315   69.985    0.400   10.023
  160.020    0.305   81.756    0.406   10.613
  160.324    0.266   83.776    0.393   11.672
  160.629    0.285   83.349    0.372   12.352
  160.934    0.288   86.177    0.382   12.597
  161.239    0.310   87.792    0.413    9.542
  161.544    0.369   84.120    0.468    6.229
  161.848    0.451   57.684    0.551    5.476
  162.153    0.438   53.603    0.528    5.797
  162.458    0.356   51.553    0.420    7.676
  162.763    0.338   50.321    0.406   10.544
  163.068    0.350   60.869    0.397   14.485
  163.372    0.355   65.735    0.397   20.276
  163.677    0.348   69.374    0.425   20.303
  163.982    0.362   69.363    0.430   18.874
  164.287    0.359   71.787    0.431   18.213
  164.591    0.366   85.185    0.417   18.930
  164.896    0.357   93.703    0.421   19.675
  165.201    0.322   91.657    0.429   17.617
  165.506    0.319   51.807    0.438   15.486
  165.811    0.358   38.785    0.452   14.939
  166.115    0.350   39.175    0.418   16.420
  166.420    0.358   42.413    0.406   19.800
  166.725    0.369   46.055    0.405   23.884
  167.030    0.359   44.412    0.391   27.250
  167.335    0.340   51.715    0.399   28.310
  167.639    0.330   63.487    0.409   25.835
  167.944    0.306   80.136    0.391   21.083
  168.249    0.280   96.785    0.387   17.524
  168.554    0.258  100.429    0.387   13.525
  168.859    0.263   96.348    0.450   10.436
  169.163    0.250   91.860    0.471    9.349
  169.468    0.265   95.908    0.451    8.855
  169.773    0.291   98.741    0.405    8.545
  170.078    0.251   94.660    0.405    8.395
  170.383    0.266   84.890    0.431    8.408
  170.687    0.292   73.086    0.433    8.902
  170.992    0.311   84.859    0.404    9.965
  171.297    0.315   85.656    0.387   12.252
  171.602    0.306   71.007    0.393   12.726
  171.907    0.309   80.341    0.394   13.477
  172.211    0.315   79.513    0.405   13.244
  172.516    0.302   79.090    0.416   12.545
  172.821    0.305   84.359    0.415   11.880
  173.126    0.313   81.089    0.410   11.677
  173.431    0.308   77.826    0.395   11.693
  173.735    0.305   79.842    0.421   11.709
  174.040    0.286   78.199    0.423   11.723
  174.345    0.309   74.526    0.410   11.527
  174.650    0.321   68.822    0.402   11.536
  174.954    0.332   79.778    0.425   11.342
  175.259    0.313   87.488    0.428   11.146
  175.564    0.281   92.350    0.414   10.755
  175.869    0.280   87.457    0.405   10.572
  176.174    0.300   74.839    0.418   10.584
  176.478    0.331   69.948    0.448   11.854
  176.783    0.349   84.971    0.469   13.025
  177.088    0.339   87.796    0.436   13.786
  177.393    0.331   89.004    0.431   15.151
  177.698    0.314   95.087    0.415   16.650
  178.002    0.289  106.453    0.409   16.065
  178.307    0.273  105.217    0.415   13.864
  178.612    0.282   95.854    0.439   12.185
  178.917    0.265   97.464    0.414   10.914
  179.222    0.245  101.919    0.413    9.775
  179.526    0.217   99.871    0.405    8.918
  179.831    0.196  103.108    0.413    7.988
  180.136    0.224  110.003    0.404    7.155
  180.441    0.231  107.954    0.402    6.530
  180.746    0.235  105.906    0.445    6.070
  181.050    0.210  102.639    0.453    5.852
  181.355    0.189   98.560    0.462    5.544
  181.660    0.162  101.389    0.432    5.447
  181.965    0.213  111.129    0.434    5.878
  182.270    0.239  119.244    0.446    6.108
  182.574    0.258  115.569    0.484    6.347
  182.879    0.250  113.521    0.514    5.278
  183.184    0.240  113.098    0.515    4.726
  183.489    0.251  118.774    0.527    3.930
  183.794    0.296  120.791    0.487    3.652
  184.098    0.292  109.394    0.472    3.459
  184.403    0.303   99.623    0.451    3.463
  184.708    0.336   94.731    0.472    4.848
  185.013    0.342   93.494    0.441    6.659
  185.318    0.343   89.415    0.427   10.041
  185.622    0.313   92.652    0.396   14.587
  185.927    0.284   90.605    0.387   16.643
  186.232    0.297   87.745    0.382   16.060
  186.537    0.323   84.475    0.412   14.119
  186.841    0.347   84.054    0.407   13.614
  187.146    0.341   92.575    0.426   14.420
  187.451    0.324  116.135    0.428   14.435
  187.756    0.298  120.996    0.449   11.565
  188.061    0.275  116.510    0.457    9.092
  188.365    0.254  107.147    0.419    7.699
  188.670    0.277   96.561    0.401    7.858
  188.975    0.311   95.733    0.408    8.317
  189.280    0.315  102.222    0.440    9.849
  189.585    0.306  103.423    0.449   11.877
  189.889    0.303   97.311    0.418   13.548
