~VERSION INFORMATION
 VERS.                 2.0:   CWLS LOG ASCII STANDARD -VERSION 2.0
 WRAP.                  NO:   ONE LINE PER DEPTH STEP
~WELL INFORMATION BLOCK
#MNEM.UNIT           DATA                    DESCRIPTION OF MNEMONIC
#---------    -------------------            -------------------------------
# Generated from Intellog Unique Number	CN_91_93/WELL/3084
WELL.         IMPERIAL OIL LTD.              : Well_name    - WELL
LOC .         AA/09-16-092-14W4/0            : Location     - LOCATION
UWI .         AA/09-16-092-14W400            : Uwi          - UNIQUE WELL ID
ENTR.         JOETTE                         : Entered      - ENTERED BY
SRVC.         SCHLUMBERGER                   : Scn          - SERVICE COMPANY
DATE.         04/10/92                       : Date         - LOG DATE
STRT.F        100                            : top_depth    - START DEPTH
STOP.F        539.633                        : bot_depth    - STOP DEPTH
STEP.F        0.82                           : increment    - STEP LENGTH
 NULL. -999.2500:NULL Value
~CURVE INFORMATION BLOCK
#MNEM UNIT       ERCB CURVE CODE    CURVE DESCRIPTION
#-----------   ------------------   ----------------------------------
DEPT.F        00 001 00 00         : DEPTH        - DEPTH
GR  .API      00 310 00 00         : GR           - GAMMA RAY
NPHI.V/V      00 330 00 00         : PHIN         - NEUTRON POROSITY (SANDSTONE)
ILD .OHMM     00 120 00 00         : RESD         - DEEP RESISTIVITY (DIL)
~PARAMETER INFORMATION
#MNEM.UNIT           DATA             DESCRIPTION OF MNEMONIC
#---------         -----------     ------------------------------
GL  .F        1528.8               : gl           - GROUND LEVEL ELEVATION
EREF.F        1531.8               : kb           - ELEVATION OF DEPTH REFERENCE
DATM.F        1531.8               : datum        - DATUM ELEVATION
TDD .F        545                  : tdd          - TOTAL DEPTH DRILLER
RUN .         ONE                  : Run          - RUN NUMBER
ENG .         BILL                 : Engineer     - RECORDING ENGINEER
WIT .         JIM                  : Witness      - WITNESSED BY
MUD .         GEL                  : Mud_type     - MUD TYPE
MATR.         SANDSTONE            : Logunit      - NEUTRON MATRIX
TMAX.F        43                   : BHT          - MAXIMUM RECORDED TEMPERATURE
BHTD.F        545                  : BHTDEP       - MAXIMUM RECORDED TEMPERATURE
RMT .F        101                  : MDTP         - TEMPERATURE OF MUD
MUDD.LB/G     1.1                  : MWT          - MUD DENSITY
NEUT.         1                    : NEUTRON      - NEUTRON TYPE
RESI.         0                    : RESIST       - RESISTIVITY TYPE
RM  .OHMM     4.7                  : RM           - RESISTIVITY OF MUD
RMC .OHMM     4.7                  : RMC          - RESISTIVITY OF MUD CAKE
RMF .OHMM     4.7                  : RMF          - RESISTIVITY OF MUD FILTRATE
SUFT.F        5                    : SUFT         - SURFACE TEMPERATURE
~A  DEPTH       GR     PHIN     RESD
# ...
  277.986   73.459    0.232   24.230
  278.806   72.170    0.184   30.609
  279.626   66.698    0.167   35.060
  280.446   60.964    0.204   39.068
  281.266   56.280    0.251   40.257
  282.087   61.534    0.277   39.966
  282.907   71.764    0.325   40.120
  283.727   80.155    0.361   40.271
  284.547   87.505    0.380   40.646
  285.367   94.590    0.375   39.612
  286.188  101.417    0.355   30.130
  287.008  102.750    0.355   17.088
  287.828  102.246    0.361   17.093
  288.648   97.297    0.370   18.505
  289.469  101.246    0.375   18.954
  290.289   94.989    0.370   18.293
  291.109   88.732    0.359   17.260
  291.929   82.475    0.361   19.265
  292.749   82.759    0.372   19.491
  293.570   78.857    0.380   18.754
  294.390   82.018    0.385   22.242
  295.210   83.353    0.379   18.689
  296.030   88.082    0.369   16.026
  296.850   90.199    0.365   14.622
  297.671   84.989    0.368   17.370
  298.491   79.255    0.364   18.781
  299.311   79.018    0.357   19.378
  300.131   74.852    0.355   21.163
  300.951   73.565    0.359   21.685
  301.772   76.206    0.359   22.578
  302.592   77.016    0.357   19.396
  303.412   77.561    0.366   19.770
  304.232   80.722    0.384   21.332
  305.052   80.223    0.402   21.484
  305.873   82.335    0.414   21.859
  306.693   89.424    0.413   22.976
  307.513   90.231    0.413   21.943
  308.333   96.269    0.410   11.051
  309.154   99.436    0.405   10.907
  309.974  102.859    0.355   12.839
  310.794   94.768    0.307   14.549
  311.614   92.959    0.279   15.293
  312.434   86.702    0.314   17.373
  313.255   86.986    0.328   18.637
  314.075   84.135    0.358   25.980
  314.895   82.585    0.370   30.580
  315.715   87.054    0.368   31.919
  316.535   93.881    0.369   29.180
  317.356   92.856    0.401   16.584
  318.176   90.000    0.406   15.402
  318.996   92.900    0.389   14.518
  319.816   99.988    0.377   14.523
  320.636   98.702    0.390   14.972
  321.457   95.326    0.401   15.494
  322.277   97.443    0.399   16.536
  323.097   96.939    0.386   15.947
  323.917  103.240    0.367   13.358
  324.738  108.499    0.340   12.102
  325.558  105.641    0.328   13.515
  326.378  101.739    0.333   15.521
  327.198   95.743    0.364   19.305
  328.018   94.719    0.407   23.460
  328.839   94.482    0.435   13.978
  329.659   92.411    0.453    9.905
  330.479   93.218    0.462    8.279
  331.299  106.323    0.461    7.320
  332.119  115.240    0.428    7.546
  332.940  112.387    0.412    8.143
  333.760  113.719    0.391    9.334
  334.580  110.338    0.376   10.746
  335.400  104.081    0.372   15.421
  336.220  102.536    0.357   14.685
  337.041  103.340    0.363   14.097
  337.861  112.524    0.372   14.174
  338.681  119.086    0.383   15.957
  339.501  114.922    0.333   22.633
  340.322  112.066    0.324   25.973
  341.142  102.931    0.339   23.680
  341.962   96.936    0.361   21.386
  342.782  102.190    0.370   17.907
  343.602  114.249    0.369   19.838
  344.423  111.655    0.371   21.992
  345.243  108.276    0.372   20.069
  346.063  105.420    0.370   19.110
  346.883  104.396    0.364   20.596
  347.703  103.635    0.362   22.529
  348.524  105.227    0.355   23.645
  349.344  101.848    0.338   22.833
  350.164   97.684    0.276   21.875
  350.984   92.212    0.241   21.732
  351.804   88.836    0.221   21.439
  352.625   93.828    0.208   22.999
  353.445   90.449    0.214   31.528
  354.265   81.317    0.255   33.756
  355.085   76.628    0.282   42.730
  355.906   74.818    0.287   42.437
  356.726   77.197    0.282   41.849
  357.546   75.914    0.288   41.482
  358.366   74.366    0.311   41.042
  359.186   74.388    0.333   40.008
  360.007   76.762    0.332   37.864
  360.827   83.588    0.327   24.453
  361.647   89.369    0.292   25.123
  362.467   84.943    0.300   24.980
  363.287   80.256    0.324   24.465
  364.108   76.356    0.346   23.802
  364.928   77.422    0.360   22.769
  365.748   80.845    0.370   21.809
  366.568   83.224    0.383   20.925
  367.388   84.554    0.388   21.671
  368.209   87.715    0.384   23.676
  369.029   88.525    0.363   26.052
  369.849   83.838    0.324   27.688
  370.669   82.552    0.297   26.877
  371.490   78.390    0.291   25.325
  372.310   75.532    0.300   24.662
  373.130   73.984    0.323   22.741
  373.950   76.363    0.335   21.336
  374.770   79.001    0.357   20.747
  375.591   83.732    0.366   26.607
  376.411   85.850    0.356   31.948
  377.231   84.566    0.309   40.254
  378.051   88.251    0.252   36.848
  378.871   86.180    0.235   30.404
  379.692   79.923    0.263   23.367
  380.512   71.050    0.321   20.555
  381.332   69.241    0.352   19.670
  382.152   74.495    0.350   20.637
  382.972   82.629    0.282   22.792
  383.793   91.808    0.265   26.576
  384.613  104.913    0.269   30.880
  385.433  103.627    0.299   33.775
  386.253   98.678    0.366   18.288
  387.073   92.683    0.387   15.624
  387.894   89.042    0.389   15.406
  388.714   99.270    0.392   17.783
  389.534  106.881    0.393   17.936
  390.354  110.307    0.385   17.495
  391.175  116.869    0.369   16.832
  391.995  109.828    0.369   21.136
  392.815  105.928    0.373   21.658
  393.635  106.735    0.382   15.362
  394.455  102.045    0.391   14.848
  395.276   98.410    0.391   17.373
  396.096  104.972    0.386   19.008
  396.916  108.654    0.378   21.755
  397.736  117.312    0.367   15.384
  398.556  114.456    0.363   14.203
  399.377  107.414    0.358   16.654
  400.197  101.945    0.359   17.695
  401.017   99.871    0.365   18.219
  401.837  104.602    0.363   17.632
  402.657  108.813    0.361   17.117
  403.478  107.529    0.370   16.751
  404.298  108.077    0.379   16.680
  405.118  110.977    0.387   17.056
  405.938  113.874    0.386   17.134
  406.759  118.081    0.381   17.731
  407.579  113.659    0.378   21.219
  408.399  109.236    0.379   16.109
  409.219  112.397    0.382   16.114
  410.039  112.155    0.384   16.934
  410.860  113.746    0.386   18.790
  411.680  118.741    0.384   31.766
  412.500  122.426    0.382   29.103
  413.320  122.451    0.378   15.987
  414.140  114.363    0.377   10.136
  414.961  106.795    0.378   10.363
  415.781   99.759    0.390   12.516
  416.601  103.179    0.402   13.114
  417.421  111.049    0.406   12.229
  418.241  122.585    0.406   12.086
  419.062  120.252    0.394   11.646
  419.882  119.754    0.383   11.204
  420.702  116.113    0.393   10.765
  421.522  110.118    0.407   11.362
  422.343  110.401    0.418   11.811
  423.163  121.152    0.421   13.150
  423.983  124.052    0.416   14.488
  424.803  120.934    0.401   14.122
  425.623  122.788    0.380   13.533
  426.444  122.030    0.373   13.242
  427.264  118.910    0.379   14.357
  428.084  112.130    0.392   15.399
  428.904  106.399    0.395   16.738
  429.724  111.650    0.395   16.965
  430.545  120.047    0.391   17.265
  431.365  125.301    0.384   17.864
  432.185  123.491    0.384   17.497
  433.005  118.807    0.381   15.351
  433.825  119.355    0.374   13.725
  434.646  121.467    0.373   13.804
  435.466  121.751    0.373   16.477
  436.286  117.587    0.373   17.372
  437.106  113.167    0.374   17.227
  437.927  114.499    0.376   16.861
  438.747  117.394    0.374   16.420
  439.567  122.389    0.358   15.905
  440.387  121.629    0.356   15.613
  441.207  118.508    0.368   16.953
  442.028  114.868    0.366   17.549
  442.848  113.846    0.353   36.678
  443.668  119.885    0.330   38.610
  444.488  123.569    0.320   40.615
  445.308  119.667    0.363   37.284
  446.129  111.841    0.394    8.528
  446.949   94.073    0.405    7.643
  447.769   82.061    0.419    7.426
  448.589   84.699    0.424    8.468
  449.409   95.450    0.431   11.067
  450.230  119.019    0.412   14.925
  451.050  122.968    0.317   20.044
  451.870  121.679    0.272   35.984
  452.690  123.274    0.223   41.992
  453.510  120.679    0.191   29.322
  454.331  105.263    0.173   15.913
  455.151   97.175    0.194   16.286
