~Version : LASO    vs 4.00
VERS.                2.00:   CWLS Log ASCII Standard -VERSION 2.0
WRAP.                  NO:
~Well Information Block
#MNEM.UNIT       Data                        Description of Mnemonic
#----.----      -------------------------- : -----------------------------
STRT.M            15.0000:
STOP.M           186.3750:
STEP.M             0.1250:
NULL.           -999.2500:
COMP.  MOBIL OIL OF CANADA                :COMPANY
WELL.  MOBIL CLARKE OV 2-19               :WELL
FLD.                                      :FIELD
LOC.   02-19-090-07W4                     :LOCATION
CTRY.  CANADA                             :COUNTRY
PROV.  ALBERTA                            :PROVINCE
SRVC.  DRESSER ATLAS                      :SERVICE COMPANY
DATE.  24-FEB-81                          :LOG DATE
UWI.   AA/02-19-090-07W400                :UNIQUE WELL ID
~Parameter Information Block
#MNEM.UNIT       Data                        Description of Mnemonic
#----.----      -------------------------- : -----------------------------
RUN .                   1                 : Run Number
GL  .M           444.6000                 : Ground Level Elevation
DREF.                  KB                 : Depth Reference
EREF.M           444.6000                 : Elevation of Depth Reference
TDL .M           186.3000                 : Total Depth Logger
TDD .M           185.0000                 : Total Depth Driller
CSGL.M            14.7000                 : Casing Bottom Logger
CSGD.M            14.7000                 : Casing Bottom Driller
CSGS.MM          219.0000                 : Casing Size
CSGW.KG/M          0.0000                 : Casing Weight
BHT .DEGC         20.0000                 : Bottom Hole Temperature
BS  .MM          159.0000                 : Bit Size
DFD .           9999.0000                 : Mud Weight (Density)
DFV .             90.0000                 : Mud Viscosity
RM  .OHMM          2.5000                 : Mud Resistivity
RMT .DEGC         20.0000                 : Mud Resistivity Temperature
~Curve Information Block
#MNEM.UNIT        API CODE    Curve Description
#---------    ------------    -------------------------------------------
DEPT.M                    :   DEPTH
CALI.MM       42 280  1  1:   3 DENSITY CALIPER
DPHI.V/V                  :   DPHI
DT  .US/M     60 520 32  1:   2 SONIC INTERVAL TRANSIT TIME (COMPENSATED)
GR  .GAPI     42 310  1  1:   4 GAMMA RAY
ILD .OHMM      5 120 45  1:   7 DEEP INDUCTION
NPHI.V/V      42 890  3  1:   5 NEUTRON POROSITY (SANDSTONE)
RHOB.K/M3     42 350  1  1:   6 BULK DENSITY
SN  .OHMM      5  40 16  1:   8 SHORT NORMAL
SP  .MV        5  10  1  1:   9 SPONTANEOUS POTENTIAL
~A  Depth           CALI        DPHI          DT          GR         ILD        NPHI        RHOB          SN          SP
# ...
149.0000        180.7750      0.3305    485.2000     75.4950     12.0550      0.3912   2114.1001     24.9500    -52.7100
149.1250        182.5750      0.3360    486.6400     76.7550     12.5700      0.3976   2137.2000     27.6350    -56.4750
149.2500        184.1000      0.3322    455.0800     75.9750     13.0850      0.4081   2153.1001     26.5350    -57.9600
149.3750        185.0000      0.3232    438.8000     74.1300     13.9900      0.4167   2149.3999     29.3400    -61.9800
149.5000        187.1000      0.3066    437.6000     71.5950     14.8950      0.4201   2156.2000     28.9750    -64.7100
149.6250        188.9000      0.3009    462.2400     70.2600     15.7350      0.4141   2161.6001     30.8650    -69.7050
149.7500        190.1000      0.2992    477.0800     68.9250     16.5700      0.4122   2159.2000     34.9500    -76.5600
149.8750        186.2000      0.2982    446.4800     68.2200     17.6050      0.4099   2156.8000     49.5250    -79.8150
150.0000        183.4750      0.2987    431.4000     67.8000     18.3800      0.3972   2156.8000     66.4000    -79.3050
150.1250        183.4750      0.2979    431.1600     66.1800     19.2200      0.3949   2164.1001     76.4000    -76.8600
150.2500        183.7750      0.2985    439.7600     63.3300     20.5100      0.3957   2161.6001     45.3200    -73.5600
150.3750        183.4750      0.3002    486.6400     57.0450     22.3200      0.3964   2151.3000     42.2700    -73.3200
150.5000        183.4750      0.3023    526.8400     53.3250     24.9650      0.3994   2141.5000     39.5850    -73.3500
150.6250        183.7750      0.3055    530.6801     54.0600     26.3850      0.4032   2122.6001     38.1850    -75.1800
150.7500        184.4000      0.3099    445.0400     55.2300     27.9350      0.4006   2105.5000     51.1500    -78.4500
150.8750        184.7000      0.3169    431.6400     56.4000     29.8700      0.3878   2112.2000     81.3500    -84.2550
151.0000        184.7000      0.3211    413.2000     56.9700     31.3550      0.3844   2129.3000    110.3500    -84.2550
151.1250        184.4000      0.3221    418.4800     56.0100     32.5850      0.3867   2136.6001    137.2000    -92.6700
151.2500        184.7000      0.3188    420.4000     55.7550     33.2950      0.3874   2135.3999    131.1000    -97.0500
151.3750        184.7000      0.3150    420.8800     53.9400     33.9400      0.3931   2126.3000    137.2000    -98.2350
151.5000        184.4000      0.3121    426.1200     44.8500     33.7450      0.3893   2122.6001    138.4000    -97.5300
151.6250        184.7000      0.3122    430.9200     38.7450     32.0650      0.3893   2114.7000    111.6000    -94.4100
151.7500        185.0000      0.3138    434.0400     40.4400     30.0650      0.3882   2103.7000     77.4500    -86.3550
151.8750        185.0000      0.3167    451.4800     42.5250     28.6450      0.3897   2095.2000     58.4500    -79.8900
152.0000        185.0000      0.3214    465.1200     44.6100     27.4850      0.3904   2090.8999     65.3500    -76.9350
152.1250        185.0000      0.3258    462.4800     46.6950     25.5450      0.3927   2095.2000     44.0350    -75.1800
152.2500        185.3000      0.3273    444.0800     49.3050     23.6100      0.3901   2103.1001     41.1100    -74.3700
152.3750        185.3000      0.3275    427.3200     49.2450     22.0600      0.3796   2104.3000     68.3000    -75.4350
152.5000        185.3000      0.3281    443.3600     48.9750     21.6750      0.3829   2095.8000     96.8000    -77.9700
152.6250        185.3000      0.3294    463.2000     48.2250     21.7350      0.3878   2084.2000    105.4000    -81.1200
152.7500        185.3000      0.3305    460.5600     48.2250     22.6400      0.3889   2079.8999     58.8500    -83.1000
152.8750        184.4000      0.3332    430.6800     46.4700     23.3500      0.3998   2075.7000     42.9400    -84.9600
153.0000        184.4000      0.3364    423.2400     44.4450     23.6100      0.4009   2073.8000     56.1500    -85.4850
153.1250        184.4000      0.3391    418.4800     42.9300     23.6750      0.4043   2076.3000     65.7000    -85.9350
153.2500        183.4750      0.3424    427.3200     42.6000     23.9950      0.4043   2076.8999     71.1500    -86.6700
153.3750        184.1000      0.3447    440.0000     42.5550     24.5800      0.4043   2075.1001     81.9500    -86.7000
153.5000        183.7750      0.3450    436.6400     42.5100     25.5450      0.4024   2075.1001     64.1500    -87.7650
153.6250        184.1000      0.3459    434.7200     42.4350     26.7750      0.4013   2071.3999     56.9500    -87.9750
153.7500        183.7750      0.3460    433.0800     42.3900     28.1950      0.4013   2078.1001     60.1000    -88.0050
153.8750        183.7750      0.3459    451.0000     43.2750     29.6150      0.4130   2094.6001     66.7500    -88.0350
154.0000        183.4750      0.3467    453.1600     44.0850     31.2900      0.4118   2098.2000     68.3500    -87.5100
154.1250        183.7750      0.3390    441.4400     42.7200     32.0650      0.4118   2096.3999     50.5000    -86.8950
154.2500        183.7750      0.3383    428.7600     41.6850     31.7450      0.4115   2092.1001     58.9500    -86.3250
154.3750        184.4000      0.3399    412.7200     41.4900     30.9700      0.4205   2078.7000     96.4000    -87.0450
154.5000        185.0000      0.3428    415.8400     41.2950     30.1950      0.4302   2065.3000    139.6000    -90.3150
154.6250        185.0000      0.3452    428.5200     41.1750     30.0000      0.4377   2070.8000    143.9000    -95.4750
154.7500        185.0000      0.3463    447.4000     42.3450     30.5200      0.4467   2082.3999     84.8000    -95.4900
154.8750        185.0000      0.3462    469.2000     42.8700     30.2600      0.4392   2089.1001     43.3050    -92.5050
155.0000        185.3000      0.3424    455.3200     42.7950     29.6800      0.4358   2095.8000     39.4650    -88.9350
155.1250        186.5000      0.3392    442.8800     42.6300     28.5800      0.4276   2102.5000     44.2800    -87.5100
155.2500        187.7000      0.3375    436.1600     42.1500     26.5150      0.4246   2109.2000     46.7200    -87.4650
155.3750        187.1000      0.3359    425.1600     42.7950     23.8050      0.4024   2110.3999     56.7000    -88.7700
155.5000        185.3000      0.3350    422.7600     43.6050     22.5750      0.3931   2098.8000     50.9000    -91.3050
155.6250        183.7750      0.3346    461.5200     43.0650     21.6100      0.3949   2090.3000     61.5000    -92.7000
155.7500        183.7750      0.3355    458.9200     42.6300     20.3800      0.4002   2088.5000     62.8500    -93.9450
155.8750        184.1000      0.3386    444.0800     42.0300     19.2850      0.4051   2088.5000     44.8900    -90.4950
156.0000        184.1000      0.3389    434.2800     41.1750     18.6400      0.3972   2098.2000     42.5150    -87.0150
156.1250        184.1000      0.3399    430.4400     41.4600     18.4450      0.3942   2097.0000     46.4750    -82.8000
156.2500        184.7000      0.3406    431.8800     41.8500     18.3800      0.3972   2083.6001     36.2950    -78.3300
156.3750        185.0000      0.3419    475.1600     42.6750     18.8950      0.4047   2078.7000     24.4650    -71.8500
156.5000        184.7000      0.3439    478.2800     46.1550     19.8650      0.4141   2078.7000     26.7800    -73.7100
156.6250        184.4000      0.3426    469.4400     47.5950     21.0900      0.4197   2082.3999     36.7200    -77.1600
156.7500        184.4000      0.3403    448.3600     48.4350     22.3200      0.4190   2098.8000     37.2700    -80.3100
156.8750        184.4000      0.3378    422.5200     49.8000     23.6750      0.4137   2112.2000     46.4750    -81.6150
157.0000        184.4000      0.3343    419.6800     46.9500     25.8050      0.4039   2108.6001     68.9999    -84.2550
157.1250        184.4000      0.3329    422.2800     44.4450     28.5800      0.4107   2109.8000    109.1500    -87.9150
157.2500        184.4000      0.3320    426.8400     42.3600     31.8750      0.4186   2114.1001    142.6500    -93.9450
