~VERSION INFORMATION
 VERS.                 2.0:   CWLS LOG ASCII STANDARD -VERSION 2.0
 WRAP.                  NO:   ONE LINE PER DEPTH STEP
~WELL INFORMATION BLOCK
#MNEM.UNIT           DATA                    DESCRIPTION OF MNEMONIC
#---------    -------------------            -------------------------------
# Generated from Intellog Unique Number	CN_94_101/WELL/2374
WELL.         01-22-100-13W4                 : Well_name    - WELL
LOC .         AA/01-22-100-13W4/0            : Location     - LOCATION
UWI .         AA/01-22-100-13W400            : Uwi          - UNIQUE WELL ID
ENTR.         TIM                            : Entered      - ENTERED BY
SRVC.         SCHLUMBERGER                   : Scn          - SERVICE COMPANY
DATE.         08/13/92                       : Date         - LOG DATE
STRT.M        320.04                         : top_depth    - START DEPTH
STOP.M        542.54                         : bot_depth    - STOP DEPTH
STEP.M        0.25                           : increment    - STEP LENGTH
 NULL. -999.2500:NULL Value
~CURVE INFORMATION BLOCK
#MNEM UNIT       ERCB CURVE CODE    CURVE DESCRIPTION
#-----------   ------------------   ----------------------------------
DEPT.M        00 001 00 00         : DEPTH        - DEPTH
NPHI.V/V      00 330 00 00         : PHIN         - NEUTRON POROSITY (SANDSTONE)
ILD .OHMM     00 120 00 00         : RESD         - DEEP RESISTIVITY (DIL)
GR  .API      00 310 00 00         : GR           - GAMMA RAY
~PARAMETER INFORMATION
#MNEM.UNIT           DATA             DESCRIPTION OF MNEMONIC
#---------         -----------     ------------------------------
GL  .M        768.706              : gl           - GROUND LEVEL ELEVATION
EREF.M        772.058              : kb           - ELEVATION OF DEPTH REFERENCE
DATM.M        772.058              : datum        - DATUM ELEVATION
TDD .M        544.068              : tdd          - TOTAL DEPTH DRILLER
RUN .         ONE                  : Run          - RUN NUMBER
ENG .         JO                   : Engineer     - RECORDING ENGINEER
WIT .         TIM                  : Witness      - WITNESSED BY
MUD .         GEL                  : Mud_type     - MUD TYPE
MATR.         SANDSTONE            : Logunit      - NEUTRON MATRIX
TMAX.C        21.1111              : BHT          - MAXIMUM RECORDED TEMPERATURE
BHTD.M        544.068              : BHTDEP       - MAXIMUM RECORDED TEMPERATURE
RMT .C        7.22222              : MDTP         - TEMPERATURE OF MUD
MUDD.KG/M     9400                 : MWT          - MUD DENSITY
NEUT.         1                    : NEUTRON      - NEUTRON TYPE
RESI.         0                    : RESIST       - RESISTIVITY TYPE
RM  .OHMM     11                   : RM           - RESISTIVITY OF MUD
RMC .OHMM     7.07                 : RMC          - RESISTIVITY OF MUD CAKE
RMF .OHMM     7.07                 : RMF          - RESISTIVITY OF MUD FILTRATE
SUFT.C        4                    : SUFT         - SURFACE TEMPERATURE
~A  DEPTH     PHIN     RESD       GR
# ...
  482.790    0.439    1.749   91.677
  483.040    0.389    1.930   91.675
  483.290    0.369    2.048   90.100
  483.540    0.378    2.008   86.954
  483.790    0.391    1.968   82.628
  484.040    0.391    1.855   73.587
  484.290    0.386    1.818   53.540
  484.540    0.385    1.647   42.140
  484.790    0.381    1.583   30.740
  485.040    0.320    1.521   25.628
  485.290    0.295    1.491   24.447
  485.540    0.271    1.491   24.052
  485.790    0.261    1.521   24.049
  486.040    0.266    1.712   25.619
  486.290    0.268    1.966   27.189
  486.540    0.268    2.594   32.295
  486.790    0.268    4.089   36.616
  487.040    0.266    5.395   40.543
  487.290    0.265    5.288   43.292
  487.540    0.266    4.008   45.648
  487.790    0.272    2.593   49.183
  488.040    0.276    1.926   53.110
  488.290    0.320    1.710   57.824
  488.540    0.447    1.644   63.324
  488.790    0.455    1.612   69.216
  489.040    0.447    1.644   76.681
  489.290    0.419    1.925   84.539
  489.540    0.393    2.301   84.144
  489.790    0.361    3.158   81.390
  490.040    0.328    5.605   75.493
  490.290    0.300   11.430   61.342
  490.540    0.278   36.027   51.514
  490.790    0.263   46.595   51.118
  491.040    0.263   47.522   52.294
  491.290    0.266   47.517   53.078
  491.540    0.268   46.581   53.076
  491.790    0.266   46.576   51.894
  492.040    0.265   45.658   51.105
  492.290    0.265   44.758   49.532
  492.540    0.266   44.753   46.384
  492.790    0.266   45.643   40.880
  493.040    0.266   43.007   33.803
  493.290    0.265   39.729   31.836
  493.540    0.263   37.435   31.047
  493.790    0.262   37.431   29.866
  494.040    0.268   32.583   29.077
  494.290    0.273   31.941   26.323
  494.540    0.279   35.965   27.107
  494.790    0.276   40.497   29.856
  495.040    0.275   48.389   35.355
  495.290    0.273   54.487   37.711
  495.540    0.273   57.815   37.708
  495.790    0.276   42.116   35.348
  496.040    0.280   35.239   36.524
  496.290    0.283   26.707   37.702
  496.540    0.283   19.074   36.913
  496.790    0.282   13.622   37.697
  497.040    0.282   11.398   41.232
  497.290    0.286    9.350   45.552
  497.540    0.287    8.302   49.480
  497.790    0.290    7.371   53.407
  498.040    0.289    6.946   56.156
  498.290    0.287    6.945   58.118
  498.540    0.283    7.225   57.723
  498.790    0.279    7.819   56.541
  499.040    0.276    8.804   53.788
  499.290    0.272    9.719   51.428
  499.540    0.269    8.132   50.638
  499.790    0.270    6.287   52.995
  500.040    0.272    5.056   56.922
  500.290    0.276    3.683   60.850
  500.540    0.276    2.630   69.887
  500.790    0.276    2.115   76.173
  501.040    0.273    1.916   81.280
  501.290    0.273    1.916   85.601
  501.540    0.273    1.915   89.922
  501.790    0.273    1.954   91.884
  502.040    0.274    2.073   84.414
  502.290    0.274    2.243   85.591
  502.540    0.279    2.428   90.698
  502.790    0.335    2.576   95.018
  503.040    0.356    3.467   94.622
  503.290    0.356    3.332   91.870
  503.540    0.359    3.266   88.723
  503.790    0.365    3.202   86.755
  504.040    0.368    3.201   84.001
  504.290    0.370    3.201   83.212
  504.540    0.375    3.265   81.245
  504.790    0.375    3.330   79.278
  505.040    0.375    3.464   77.310
  505.290    0.370    3.533   77.701
  505.540    0.368    3.675   79.664
  505.790    0.362    3.748   82.804
  506.040    0.358    3.899   81.229
  506.290    0.353    4.056   80.049
  506.540    0.349    4.219   78.474
  506.790    0.348    4.303   77.686
  507.040    0.349    4.566   78.469
  507.290    0.351    4.566   78.861
  507.540    0.351    4.844   79.251
  507.790    0.349    5.039   79.249
  508.040    0.349    5.039   78.853
  508.290    0.348    5.139   76.099
  508.540    0.348    5.139   75.310
  508.790    0.349    5.241   76.094
  509.040    0.349    5.345   76.484
  509.290    0.349    5.451   76.089
  509.540    0.352    5.559   74.515
  509.790    0.358    5.670   73.726
  510.040    0.363    5.783   74.118
  510.290    0.370    5.782   74.507
  510.540    0.374    4.935   72.933
  510.790    0.379    4.212   71.752
  511.040    0.382    3.666   70.570
  511.290    0.384    3.594   68.996
  511.540    0.384    3.454   68.207
  511.790    0.381    3.386   66.632
  512.040    0.373    3.386   67.416
  512.290    0.366    3.453   72.129
  512.540    0.362    3.522   72.520
  512.790    0.367    3.664   72.517
  513.040    0.376    3.811   72.516
  513.290    0.389    3.965   71.333
  513.540    0.400    3.964   70.545
  513.790    0.417    4.043   70.543
  514.040    0.452    4.043   70.147
  514.290    0.458    4.042   68.573
  514.540    0.472    4.042   68.177
  514.790    0.491    4.122   67.782
  515.040    0.508    4.204   67.779
  515.290    0.524    4.204   67.384
  515.540    0.534    4.287   66.988
  515.790    0.535    4.287   65.414
  516.040    0.538    4.372   64.233
  516.290    0.537    4.372   64.623
  516.540    0.532    4.371   65.014
  516.790    0.527    4.371   65.404
  517.040    0.521    4.285   64.222
  517.290    0.513    4.037   60.290
  517.540    0.510    3.656   59.108
  517.790    0.510    3.514   59.106
  518.040    0.510    3.514   60.676
  518.290    0.510    3.444   63.425
  518.540    0.507    3.444   67.353
  518.790    0.504    3.376   68.135
  519.040    0.504    3.310   68.133
  519.290    0.508    3.181   68.131
  519.540    0.510    3.181   68.915
  519.790    0.508    3.057   70.484
  520.040    0.503    2.997   70.874
  520.290    0.493    2.937   69.300
  520.540    0.484    2.823   71.263
  520.790    0.467    2.768   73.226
  521.040    0.459    2.660   75.974
  521.290    0.442    2.607   76.758
  521.540    0.429    2.607   78.327
  521.790    0.422    2.607   79.504
  522.040    0.412    2.607   79.108
  522.290    0.405    2.606   77.927
  522.540    0.400    2.606   76.353
  522.790    0.395    2.606   75.171
  523.040    0.395    2.605   72.024
  523.290    0.402    2.605   68.877
  523.540    0.407    2.605   78.701
  523.790    0.415    2.605   86.952
  524.040    0.421    2.553   87.342
  524.290    0.418    2.503   81.838
  524.540    0.407    2.358   77.512
  524.790    0.398    2.312   74.365
  525.040    0.390    2.222   73.184
  525.290    0.383    2.178   73.574
  525.540    0.390    2.135   82.611
  525.790    0.395    2.052   87.718
  526.040    0.404    2.012   90.859
  526.290    0.412    1.933   92.036
  526.540    0.423    1.822   92.427
  526.790    0.433    1.751   91.246
  527.040    0.442    1.555   88.885
  527.290    0.449    1.327   85.346
  527.540    0.443    1.067   80.626
  527.790    0.431    0.948   80.624
  528.040    0.421    0.858   81.015
  528.290    0.411    0.793   83.763
  528.540    0.409    0.777   86.512
  528.790    0.436    0.747   88.082
  529.040    0.463    0.732   88.079
  529.290    0.471    0.718   87.684
  529.540    0.481    0.704   75.891
  529.790    0.494    0.718   67.242
  530.040    0.504    0.732   55.056
  530.290    0.509    0.761   45.621
  530.540    0.477    0.792   40.902
  530.790    0.443    0.857   42.079
  531.040    0.402    0.874   47.972
  531.290    0.401    0.946   60.153
  531.540    0.408    0.984   65.652
  531.790    0.436    1.044   59.755
  532.040    0.439    1.086   55.429
  532.290    0.435    1.130   69.576
  532.540    0.425    1.176   77.039
  532.790    0.423    1.199   77.038
  533.040    0.428    1.199   78.214
  533.290    0.426    1.223   80.570
  533.540    0.421    1.223   85.284
  533.790    0.419    1.247   82.923
  534.040    0.419    1.247   82.134
  534.290    0.422    1.247   81.739
  534.540    0.428    1.247   82.522
  534.790    0.430    1.246   83.306
  535.040    0.430    1.222   82.124
  535.290    0.430    1.198   80.943
  535.540    0.422    1.198   79.762
  535.790    0.416    1.151   76.222
  536.040    0.405    1.106   73.076
  536.290    0.394    1.084   70.715
  536.540    0.385    1.063   69.926
  536.790    0.375    1.063   81.715
