~VERSION INFORMATION
 VERS.                 2.0:   CWLS LOG ASCII STANDARD -VERSION 2.0
 WRAP.                  NO:   ONE LINE PER DEPTH STEP
~WELL INFORMATION BLOCK
#MNEM.UNIT           DATA                    DESCRIPTION OF MNEMONIC
#---------    -------------------            -------------------------------
# Generated from Intellog Unique Number	CN_91_93/WELL/2960
NULL.         -999.25                        :  NULL VALUE
COMP.         SYNCRUDE CANADA LTD            :  COMPANY
WELL.         58-30-0-0                      : Well_name    - WELL              
LOC .         01-35-092-12W4                 : Location     - LOCATION          
UWI .         AA/01-35-092-12W400            : Uwi          - UNIQUE WELL ID    
ENTR.         JOETTE                         : Entered      - ENTERED BY        
SRVC.         BPB                            : Scn          - SERVICE COMPANY   
DATE.         09 JAN 87                      : Date         - LOG DATE          
STRT.M        10                             : top_depth    - START DEPTH       
STOP.M        98                             : bot_depth    - STOP DEPTH        
STEP.M        0.25                           : increment    - STEP LENGTH       
~CURVE INFORMATION BLOCK
#MNEM UNIT       ERCB CURVE CODE    CURVE DESCRIPTION
#-----------   ------------------   ----------------------------------
DEPT.M        00 001 00 00         : DEPTH        - DEPTH                       
GR  .API      00 310 00 00         : GR           - GAMMA RAY                   
NPHI.V/V      00 330 00 00         : PHIN         - NEUTRON POROSITY (SANDSTONE)
DPHI.V/V      00 890 00 00         : PHID         - DENSITY POROSITY (SANDSTONE)
ILD .OHMM     00 120 00 00         : RESD         - DEEP RESISTIVITY (DIL)      
~PARAMETER INFORMATION       
#MNEM.UNIT           DATA             DESCRIPTION OF MNEMONIC
#---------         -----------     ------------------------------
GL  .M        361.7                : gl           - GROUND LEVEL ELEVATION      
EREF.M        361.7                : kb           - ELEVATION OF DEPTH REFERENCE
DATM.M        361.7                : datum        - DATUM ELEVATION             
TDD .M        100.5                : tdd          - TOTAL DEPTH DRILLER         
RUN .         ONE                  : Run          - RUN NUMBER                  
ENG .         JO                   : Engineer     - RECORDING ENGINEER          
WIT .         TIM                  : Witness      - WITNESSED BY                
MUD .         GEL                  : Mud_type     - MUD TYPE                    
MATR.         SANDSTONE            : Logunit      - NEUTRON MATRIX              
TMAX.C        8                    : BHT          - MAXIMUM RECORDED TEMPERATURE
BHTD.M        100.5                : BHTDEP       - MAXIMUM RECORDED TEMPERATURE
RMT .C        7                    : MDTP         - TEMPERATURE OF MUD          
MUDD.KG/M     1.02                 : MWT          - MUD DENSITY                 
NEUT.         1                    : NEUTRON      - NEUTRON TYPE                
RESI.         0                    : RESIST       - RESISTIVITY TYPE            
RM  .OHMM     6.4                  : RM           - RESISTIVITY OF MUD          
RMC .OHMM     6.4                  : RMC          - RESISTIVITY OF MUD CAKE     
RMF .OHMM     6.4                  : RMF          - RESISTIVITY OF MUD FILTRATE 
SUFT.C        4                    : SUFT         - SURFACE TEMPERATURE         
~A  DEPTH       GR     PHIN     PHID     RESD
# ...
   53.500   22.721    0.376    0.294    9.548
   53.750   27.750    0.431    0.289    8.068
   54.000   33.076    0.407    0.282    8.295
   54.250   43.398    0.408    0.261    9.066
   54.500   55.491    0.402    0.258    6.601
   54.750   63.757    0.406    0.254    6.834
   55.000   68.197    0.412    0.246    7.569
   55.250   84.701    0.418    0.236    8.105
   55.500   80.609    0.434    0.239    5.668
   55.750   79.169    0.428    0.243    6.854
   56.000   76.546    0.390    0.238    7.644
   56.250   64.215    0.422    0.248    8.466
   56.500   66.890    0.437    0.264    7.919
   56.750   54.853    0.420    0.247    8.198
   57.000   84.892    0.430    0.237    8.204
   57.250   79.036    0.455    0.241    9.026
   57.500   68.470    0.406    0.239    8.500
   57.750   85.858    0.411    0.235    8.680
   58.000   83.238    0.399    0.237    9.421
   58.250   80.027    0.415    0.240    9.177
   58.500   68.875    0.413    0.240    9.061
   58.750   66.843    0.449    0.248   10.035
   59.000   80.407    0.449    0.249    9.515
   59.250   63.954    0.415    0.256    9.652
   59.500   72.514    0.434    0.245   10.265
   59.750   64.013    0.462    0.247    9.408
   60.000   70.510    0.498    0.251   10.562
   60.250   80.835    0.455    0.243    9.615
   60.500   88.806    0.392    0.241    9.820
   60.750   92.953    0.405    0.236    9.309
   61.000   83.272    0.403    0.244    9.901
   61.250   78.004    0.446    0.251    9.199
   61.500   85.093    0.426    0.240    9.652
   61.750   76.586    0.413    0.235    9.150
   62.000   69.847    0.398    0.232   10.993
   62.250   86.939    0.413    0.223   11.380
   62.500   79.023    0.428    0.237   13.396
   62.750   80.522    0.438    0.243   12.194
   63.000   81.726    0.450    0.249   12.539
   63.250   74.105    0.474    0.265   10.813
   63.500   57.066    0.407    0.287   10.461
   63.750   43.558    0.364    0.319   13.630
   64.000   26.816    0.364    0.332   17.519
   64.250   26.252    0.378    0.301  156.958
   64.500   32.170    0.387    0.294  208.671
   64.750   30.427    0.396    0.292  346.856
   65.000   33.988    0.411    0.286  160.535
   65.250   26.660    0.389    0.282  171.901
   65.500   34.041    0.384    0.283   70.913
   65.750   48.190    0.371    0.282  153.454
   66.000   82.054    0.383    0.280  209.624
   66.250   41.773    0.489    0.314   30.719
   66.500   33.858    0.382    0.320   58.458
   66.750   39.181    0.372    0.290  243.823
   67.000   40.971    0.371    0.278  405.286
   67.250   52.476    0.412    0.281   41.777
   67.500   23.963    0.406    0.321   75.314
   67.750   28.698    0.381    0.339  185.329
   68.000   25.193    0.439    0.350  387.710
   68.250   15.512    0.456    0.357   67.746
   68.500   18.187    0.395    0.357   78.140
   68.750   24.982    0.405    0.348  191.015
   69.000   18.831    0.376    0.320  171.542
   69.250   19.153    0.388    0.315  317.705
   69.500   24.477    0.391    0.311  326.670
   69.750   27.155    0.383    0.305  338.194
   70.000   28.357    0.379    0.306  305.777
   70.250   22.792    0.360    0.293  340.989
   70.500   27.527    0.406    0.295  269.316
   70.750   28.732    0.389    0.299   76.579
   71.000   31.702    0.403    0.296   72.601
   71.250   54.092    0.386    0.275  196.412
   71.500   86.485    0.353    0.252  290.994
   71.750   38.258    0.444    0.256   15.147
   72.000   40.345    0.438    0.285    8.646
   72.250   24.189    0.393    0.296   35.819
   72.500   31.866    0.394    0.305   81.820
   72.750   25.421    0.391    0.308  110.277
   73.000   46.046    0.402    0.321  170.147
   73.250   99.624    0.414    0.287  157.003
   73.500   86.701    0.386    0.262   79.344
   73.750   76.432    0.414    0.253   27.639
   74.000   54.980    0.436    0.261    9.693
   74.250   32.943    0.422    0.290   21.698
   74.500   30.320    0.432    0.302   79.047
   74.750   32.995    0.360    0.298  140.588
   75.000   40.967    0.384    0.303   61.225
   75.250   33.054    0.430    0.302   30.113
   75.500   29.548    0.401    0.300   80.917
   75.750   29.870    0.391    0.299  182.370
   76.000   29.307    0.387    0.294  172.883
   76.250   23.157    0.401    0.294  155.270
   76.500   31.422    0.398    0.293  129.442
   76.750   49.399    0.394    0.292  274.482
   77.000   58.841    0.412    0.294  132.300
   77.250   37.684    0.442    0.309   31.340
   77.500   31.827    0.406    0.321  127.244
   77.750   32.441    0.405    0.319  168.028
   78.000   22.760    0.415    0.310  170.448
   78.250   28.378    0.407    0.310  204.758
   78.500   31.936    0.406    0.314  213.404
   78.750   41.672    0.415    0.315  162.930
   79.000   57.884    0.388    0.310  163.056
   79.250   63.502    0.381    0.307  166.527
   79.500   62.059    0.392    0.299  238.531
   79.750   42.666    0.431    0.300  229.203
   80.000   35.630    0.442    0.300  184.737
   80.250   40.365    0.406    0.303  179.945
   80.500   33.038    0.385    0.313  156.226
   80.750   27.184    0.429    0.317  150.128
   81.000   24.267    0.452    0.311  122.651
   81.250   25.469    0.428    0.308  128.697
   81.500   31.970    0.400    0.305  117.946
   81.750   41.120    0.428    0.298  193.417
   82.000   41.148    0.411    0.311  245.270
   82.250   37.349    0.410    0.300  240.529
   82.500   32.963    0.432    0.280   63.930
   82.750   47.701    0.442    0.273   84.421
   83.000   65.678    0.412    0.268   60.238
   83.250   65.412    0.424    0.269   16.900
   83.500   51.021    0.433    0.271   16.240
   83.750   47.812    0.450    0.271   41.062
   84.000   31.068    0.467    0.295   12.325
   84.250   30.507    0.440    0.308   46.762
   84.500   36.128    0.402    0.308  177.443
   84.750   42.331    0.447    0.304  161.511
   85.000   46.477    0.405    0.292  159.464
   85.250   59.747    0.404    0.294   83.360
   85.500   57.713    0.419    0.294  154.399
   85.750   65.096    0.393    0.297  173.348
   86.000   66.006    0.411    0.313  180.668
   86.250   35.140    0.434    0.315  129.790
   86.500   38.995    0.427    0.309  182.161
   86.750   33.724    0.416    0.316  168.102
   87.000   32.284    0.415    0.314  172.832
   87.250   39.961    0.398    0.299  131.965
   87.500   47.929    0.426    0.291   20.138
   87.750   36.775    0.424    0.304   48.892
   88.000   35.629    0.464    0.327   48.596
   88.250   35.362    0.449    0.342   81.878
   88.500   32.445    0.417    0.333   86.497
   88.750   35.121    0.427    0.327   34.035
   89.000   31.912    0.422    0.336   34.058
   89.250   26.053    0.445    0.344   63.942
   89.500   26.963    0.432    0.347  149.079
   89.750   30.819    0.412    0.339  223.858
   90.000   33.497    0.406    0.321  176.804
   90.250   32.048    0.419    0.305   82.379
   90.500   18.834    0.403    0.304  148.509
   90.750   25.040    0.380    0.298  212.722
   91.000   29.481    0.425    0.291  259.043
   91.250   22.742    0.405    0.299  259.243
   91.500   33.361    0.370    0.301  146.967
   91.750   42.804    0.371    0.307  151.103
   92.000   36.656    0.382    0.296   71.368
   92.250   37.861    0.431    0.290   29.045
   92.500   49.948    0.436    0.280   75.965
   92.750   72.632    0.353    0.257   17.515
   93.000   87.076    0.378    0.225   11.140
   93.250   90.634    0.421    0.223   12.091
   93.500   88.605    0.408    0.214   11.008
   93.750   91.572    0.391    0.216   10.227
   94.000   83.951    0.435    0.226    9.122
   94.250   52.199    0.438    0.233    9.379
   94.500   40.459    0.409    0.246   24.531
   94.750   49.018    0.399    0.154   16.921
   95.000   54.048    0.304    0.053   15.508
   95.250   54.075    0.246   -0.067   19.402
   95.500   39.684    0.174   -0.041   29.736
   95.750   35.005    0.139   -0.004   51.470
   96.000   34.739    0.130   -0.000   35.508
   96.250   37.414    0.156    0.017   28.424
   96.500   53.035    0.177    0.006   24.517
   96.750   54.828    0.187    0.015   24.369
