~VERSION INFORMATION
 VERS.                 2.0:   CWLS LOG ASCII STANDARD -VERSION 2.0
 WRAP.                  NO:   ONE LINE PER DEPTH STEP
~WELL INFORMATION BLOCK
#MNEM.UNIT           DATA                    DESCRIPTION OF MNEMONIC
#---------    -------------------            -------------------------------
# Generated from Intellog Unique Number	CC_88_90/WELL/3019
WELL.         HUDSON'S BAY OIL & GAS CO. LTD : Well_name    - WELL
LOC .         AA/03-05-089-11W4/0            : Location     - LOCATION
UWI .         AA/03-05-089-11W400            : Uwi          - UNIQUE WELL ID
ENTR.         JOETTE                         : Entered      - ENTERED BY
SRVC.         COMPUTALOG                     : Scn          - SERVICE COMPANY
DATE.         03/11/92                       : Date         - LOG DATE
STRT.M        45.720                         : top_depth    - START DEPTH
STOP.M        146.720                        : bot_depth    - STOP DEPTH
STEP.M        0.25                           : increment    - STEP LENGTH
 NULL. -999.2500:NULL Value
~CURVE INFORMATION BLOCK
#MNEM UNIT       ERCB CURVE CODE    CURVE DESCRIPTION
#-----------   ------------------   ----------------------------------
DEPT.M        00 001 00 00         : DEPTH        - DEPTH
GR  .API      00 310 00 00         : GR           - GAMMA RAY
NPHI.V/V      00 330 00 00         : PHIN         - NEUTRON POROSITY (SANDSTONE)
ILD .OHMM     00 120 00 00         : RESD         - DEEP RESISTIVITY (DIL)
~PARAMETER INFORMATION
#MNEM.UNIT           DATA             DESCRIPTION OF MNEMONIC
#---------         -----------     ------------------------------
GL  .M        441.564              : gl           - GROUND LEVEL ELEVATION
EREF.M        441.564              : kb           - ELEVATION OF DEPTH REFERENCE
DATM.M        441.564              : datum        - DATUM ELEVATION
TDD .M        163.373              : tdd          - TOTAL DEPTH DRILLER
RUN .         ONE                  : Run          - RUN NUMBER
ENG .         JO                   : Engineer     - RECORDING ENGINEER
WIT .         TIM                  : Witness      - WITNESSED BY
MUD .         GEL                  : Mud_type     - MUD TYPE
MATR.         SANDSTONE            : Logunit      - NEUTRON MATRIX
TMAX.C        10                   : BHT          - MAXIMUM RECORDED TEMPERATURE
BHTD.M        163.373              : BHTDEP       - MAXIMUM RECORDED TEMPERATURE
RMT .C        11.6667              : MDTP         - TEMPERATURE OF MUD
MUDD.KG/M     9083.33              : MWT          - MUD DENSITY
NEUT.         1                    : NEUTRON      - NEUTRON TYPE
RESI.         0                    : RESIST       - RESISTIVITY TYPE
RM  .OHMM     6.54                 : RM           - RESISTIVITY OF MUD
RMC .OHMM     6.54                 : RMC          - RESISTIVITY OF MUD CAKE
RMF .OHMM     6.24                 : RMF          - RESISTIVITY OF MUD FILTRATE
SUFT.C        4                    : SUFT         - SURFACE TEMPERATURE
~A  DEPTH       GR     PHIN     RESD
   45.720   85.425    0.510    5.460
   45.970   84.199    0.521    5.543
   46.220   87.275    0.529    5.206
   46.470   96.496    0.523    4.868
   46.720  112.478    0.514    5.288
   46.970  106.336    0.495    6.126
   47.220  105.725    0.466    7.301
   47.470  119.863    0.465    8.560
   47.720  127.241    0.473    8.307
   47.970  113.723    0.473    7.886
   48.220  111.268    0.475    7.633
   48.470  124.792    0.480    6.960
   48.720  121.108    0.467    8.219
   48.970  110.048    0.449   11.662
   49.220  109.437    0.444    9.644
   49.470  105.138    0.438   12.584
   49.720  102.683    0.442   14.934
   49.970  103.916    0.448   10.481
   50.220  112.523    0.462    9.640
   50.470  105.765    0.465    9.975
   50.720   93.477    0.459   10.562
   50.970  100.855    0.478    8.964
   51.220   95.942    0.495    5.687
   51.470  108.237    0.495    6.526
   51.720  115.614    0.477    7.113
   51.970  119.920    0.479    9.380
   52.220  127.297    0.480    9.043
   52.470  112.551    0.477    7.698
   52.720  104.565    0.475    8.033
   52.970  107.641    0.482    8.367
   53.220  118.706    0.482    7.862
   53.470  121.168    0.483    7.357
   53.720  121.171    0.488    6.683
   53.970  109.497    0.490    7.018
   54.220   90.449    0.485    7.018
   54.470   89.838    0.473    6.596
   54.720   93.528    0.464    6.931
   54.970   94.760    0.456   12.223
   55.220  108.899    0.449   14.573
   55.470  120.578    0.431   19.109
   55.720  126.727    0.453    9.783
   55.970  125.501    0.468    9.698
   56.220  106.453    0.466    8.184
   56.470   84.331    0.474    7.259
   56.720   97.856    0.481    6.082
   56.970   89.255    0.477    6.921
   57.220   91.102    0.470    7.592
   57.470   99.094    0.461    5.910
   57.720   99.712    0.455    9.522
   57.970  102.173    0.439   12.293
   58.220   96.030    0.435   11.536
   58.470  102.794    0.443   11.030
   58.720  124.307    0.461   10.021
   58.970  135.987    0.490    6.912
   59.220  129.230    0.516    3.298
   59.470  116.941    0.540    3.213
   59.720  102.195    0.535    3.212
   59.970  112.646    0.534    3.211
   60.220  114.493    0.535    3.294
   60.470  118.183    0.532    3.461
   60.720  121.874    0.513    3.964
   60.970  118.189    0.487    4.803
   61.220  115.734    0.477    7.070
   61.470  118.196    0.451    7.657
   61.720  120.043    0.438    8.916
   61.970  108.984    0.453   11.602
   62.220  100.998    0.473    8.493
   62.470  102.229    0.486    7.988
   62.720  113.295    0.479    7.819
   62.970  102.850    0.471    7.230
   63.220  101.625    0.470    7.144
   63.470  104.701    0.467    7.395
   63.720  110.849    0.451    7.562
   63.970  112.082    0.452    8.737
   64.220  105.325    0.443   12.264
   64.470  109.630    0.408   15.455
   64.720  109.633    0.419   18.226
   64.970  107.792    0.433    9.825
   65.220  108.410    0.448    8.983
   65.470   99.809    0.467    6.462
   65.720   99.812    0.476    6.965
   65.970   97.972    0.470    7.636
   66.220   83.225    0.454    6.962
   66.470   88.145    0.443    7.045
   66.720   94.909    0.449    7.548
   66.970   89.380    0.460    7.883
   67.220   91.842    0.471    7.966
   67.470  101.678    0.465    7.797
   67.720  102.296    0.465    7.628
   67.970   93.081    0.471    7.627
   68.220  105.375    0.471    7.121
   68.470  120.742    0.459    6.868
   68.720  120.131    0.431    9.723
   68.970  117.061    0.434   16.863
   69.220  120.137    0.445    9.385
   69.470  109.079    0.449    8.376
   69.720   99.249    0.442    7.787
   69.970   94.949    0.418    8.626
   70.220   98.640    0.396   20.133
   70.470   99.258    0.296   34.413
   70.720  100.490    0.168   40.292
   70.970   98.650    0.134   15.678
   71.220   91.892    0.233   10.888
   71.470   96.197    0.315    9.963
   71.720  108.492    0.414    9.458
   71.970   94.975    0.432   13.237
   72.220   95.593    0.424   13.655
   72.470  102.356    0.420   12.815
   72.720   92.526    0.418   11.469
   72.970  101.747    0.408   16.089
   73.220  100.522    0.364   18.104
   73.470   89.463    0.313   22.471
   73.720   88.852    0.308   41.707
   73.970   94.386    0.338   39.689
   74.220   98.691    0.405   14.151
   74.470   95.621    0.430   12.301
   74.720   88.864    0.439   10.200
   74.970   91.325    0.419   10.871
   75.220  118.369    0.419   19.691
   75.470  104.852    0.449    8.601
   75.720   93.178    0.461    7.675
   75.970   90.723    0.463    8.682
   76.220   89.498    0.459    8.261
   76.470  112.239    0.466    7.084
   76.720  123.919    0.480    5.823
   76.970  113.475    0.488    6.409
   77.220  114.708    0.476    6.912
   77.470  114.710    0.480    7.331
   77.720  104.266    0.489    7.330
   77.970   98.738    0.475    6.909
   78.220   97.512    0.459    6.740
   78.470  109.806    0.445    7.327
   78.720  120.258    0.439    8.922
   78.970  110.427    0.438    9.341
   79.220  107.357    0.447    8.247
   79.470  109.819    0.460    8.666
   79.720  108.593    0.449    9.085
   79.970  108.597    0.438   10.680
   80.220  116.589    0.435    9.923
   80.470  112.290    0.437    9.082
   80.720   93.241    0.436   11.097
   80.970   87.099    0.444    8.996
   81.220   82.800    0.447    8.742
   81.470   80.960    0.448    8.909
   81.720   72.974    0.434    8.908
   81.970   64.987    0.450    8.823
   82.220   74.823    0.463    8.822
   82.470   83.430    0.451   10.921
   82.720   88.350    0.435    9.828
   82.970   96.957    0.421    9.406
   83.220  116.012    0.413   12.261
   83.470  106.797    0.431   15.368
   83.720  117.862    0.447   14.275
   83.970  127.084    0.471   11.166
   84.220  120.327    0.473    8.224
   84.470  116.642    0.476    8.391
   84.720  120.948    0.478    8.138
   84.970  124.024    0.482    7.465
   85.220  128.329    0.491    6.792
   85.470  116.655    0.499    6.119
   85.720  110.512    0.508    5.529
   85.970   95.766    0.516    5.024
   86.220   90.239    0.512    4.519
   86.470   97.002    0.517    4.686
   86.720  102.536    0.518    4.601
   86.970  110.528    0.482    5.104
   87.220  106.844    0.468    6.699
   87.470  111.764    0.476   13.418
   87.720  106.850    0.482    8.797
   87.970  108.697    0.486    6.611
   88.220  105.627    0.490    5.350
   88.470   93.954    0.486    5.433
   88.720   93.957    0.472    6.188
   88.970  104.408    0.471    6.523
   89.220  102.567    0.455    7.194
   89.470  110.560    0.442    8.453
   89.720  116.708    0.442   10.552
   89.970  103.806    0.454    8.450
   90.220   81.685    0.454    7.021
   90.470   82.302    0.457    6.768
   90.720  101.972    0.468    7.859
   90.970  102.590    0.450    8.782
   91.220   88.457    0.436    9.536
   91.470   79.857    0.425    9.535
   91.720   83.548    0.425   10.375
   91.970   81.093    0.438   15.498
   92.220   77.408    0.444    8.356
   92.470   94.619    0.441    8.103
   92.720  107.528    0.437    9.362
   92.970  105.073    0.447   11.965
   93.220   96.472    0.454    8.520
   93.470  105.079    0.463    7.678
   93.720  108.770    0.466    6.921
   93.970   95.867    0.462    6.920
   94.220   91.568    0.465    7.087
   94.470   87.884    0.454    7.926
   94.720   89.116    0.443   10.025
   94.970   77.443    0.427   11.116
   95.220   80.519    0.434    9.350
   95.470  111.865    0.440    8.761
   95.720  114.941    0.424    8.340
   95.970  114.329    0.421    8.003
   96.220  111.260    0.402   11.698
   96.470   84.836    0.360   18.165
   96.720   81.767    0.331   21.608
   96.970   84.843    0.327   30.428
   97.220   89.148    0.352   37.483
   97.470  103.900    0.429   42.606
   97.720  130.330    0.446    8.247
   97.970  124.188    0.441    8.078
   98.220  111.899    0.446    7.908
   98.470  104.529    0.450    7.907
   98.720  105.146    0.445    7.822
   98.970   91.013    0.436    7.821
   99.220   85.486    0.443    8.072
   99.470   83.031    0.435    7.903
   99.720   82.420    0.446    8.070
