~VERSION INFORMATION
 VERS.                 2.0:   CWLS LOG ASCII STANDARD -VERSION 2.0
 WRAP.                  NO:   ONE LINE PER DEPTH STEP
~WELL INFORMATION BLOCK
#MNEM.UNIT           DATA                    DESCRIPTION OF MNEMONIC
#---------    -------------------            -------------------------------
# Generated from Intellog Unique Number	CN_94_101/WELL/2856
WELL.         06-25-095-16W4                 : Well_name    - WELL
LOC .         AA/06-25-095-16W4/0            : Location     - LOCATION
UWI .         AA/06-25-095-16W400            : Uwi          - UNIQUE WELL ID
ENTR.         JOETTE                         : Entered      - ENTERED BY
SRVC.         SCHLUMBERGER                   : Scn          - SERVICE COMPANY
DATE.         07/27/92                       : Date         - LOG DATE
STRT.F        400                            : top_depth    - START DEPTH
STOP.F        1079.95                        : bot_depth    - STOP DEPTH
STEP.F        0.82                           : increment    - STEP LENGTH
 NULL. -999.2500:NULL Value
~CURVE INFORMATION BLOCK
#MNEM UNIT       ERCB CURVE CODE    CURVE DESCRIPTION
#-----------   ------------------   ----------------------------------
DEPT.F        00 001 00 00         : DEPTH        - DEPTH
GR  .API      00 310 00 00         : GR           - GAMMA RAY
ILD .OHMM     00 120 00 00         : RESD         - DEEP RESISTIVITY (DIL)
DPHI.V/V      00 890 00 00         : PHID         - DENSITY POROSITY (SANDSTONE)
NPHI.V/V      00 330 00 00         : PHIN         - NEUTRON POROSITY (SANDSTONE)
~PARAMETER INFORMATION
#MNEM.UNIT           DATA             DESCRIPTION OF MNEMONIC
#---------         -----------     ------------------------------
GL  .F        1876.64              : gl           - GROUND LEVEL ELEVATION
EREF.F        1887.47              : kb           - ELEVATION OF DEPTH REFERENCE
DATM.F        1887.47              : datum        - DATUM ELEVATION
TDD .F        1100                 : tdd          - TOTAL DEPTH DRILLER
RUN .         ONE                  : Run          - RUN NUMBER
ENG .         JO                   : Engineer     - RECORDING ENGINEER
WIT .         TIM                  : Witness      - WITNESSED BY
MUD .         GEL                  : Mud_type     - MUD TYPE
MATR.         SANDSTONE            : Logunit      - NEUTRON MATRIX
TMAX.F        62.6                 : BHT          - MAXIMUM RECORDED TEMPERATURE
BHTD.F        1100                 : BHTDEP       - MAXIMUM RECORDED TEMPERATURE
RMT .F        44.6                 : MDTP         - TEMPERATURE OF MUD
MUDD.LB/G     1.073                : MWT          - MUD DENSITY
NEUT.         1                    : NEUTRON      - NEUTRON TYPE
RESI.         0                    : RESIST       - RESISTIVITY TYPE
RM  .OHMM     0.35                 : RM           - RESISTIVITY OF MUD
RMC .OHMM     0.35                 : RMC          - RESISTIVITY OF MUD CAKE
RMF .OHMM     0.35                 : RMF          - RESISTIVITY OF MUD FILTRATE
SUFT.F        39.2                 : SUFT         - SURFACE TEMPERATURE
~A  DEPTH       GR     RESD     PHID     PHIN
# ...
  685.433  106.063    7.890    0.275    0.428
  686.253  108.951    7.461    0.265    0.409
  687.073  111.268    7.054    0.261    0.345
  687.894  108.298    6.915    0.251    0.327
  688.714  107.109    6.784    0.242    0.335
  689.534  105.336    6.295    0.237    0.347
  690.354  102.387    5.955    0.243    0.353
  691.175  101.775    5.327    0.243    0.362
  691.995  104.670    4.593    0.247    0.376
  692.815  107.557    4.589    0.250    0.395
  693.635  109.867    4.670    0.252    0.412
  694.455  111.593    4.335    0.253    0.412
  695.276  113.312    4.023    0.253    0.399
  696.096  112.123    4.407    0.247    0.407
  696.916  110.927    5.697    0.249    0.418
  697.736  111.484    5.588    0.252    0.426
  698.556  112.048    4.998    0.248    0.438
  699.377  114.358    4.726    0.248    0.442
  700.197  116.084    4.723    0.247    0.427
  701.017  112.544    4.895    0.241    0.410
  701.837  111.925    5.563    0.229    0.396
  702.657  111.905    6.560    0.197    0.397
  703.478  111.871    7.184    0.210    0.410
  704.298  112.428    6.545    0.234    0.429
  705.118  113.576    6.304    0.251    0.444
  705.938  114.704    5.960    0.243    0.435
  706.759  116.443    6.178    0.237    0.416
  707.579  119.915    5.735    0.234    0.398
  708.399  120.472    4.855    0.228    0.399
  709.219  119.860    4.264    0.217    0.392
  710.039  119.249    3.815    0.199    0.434
  710.860  116.300    3.540    0.159    0.448
  711.680  112.767    3.807    0.130    0.455
  712.500  112.155    4.248    0.112    0.436
  713.320  123.821    5.697    0.128    0.465
  714.140  131.967    8.855    0.188    0.476
  714.961  134.284    5.584    0.197    0.390
  715.781  133.088    3.721    0.184    0.283
  716.601  128.964    2.770    0.174    0.299
  717.421  123.087    3.033    0.172    0.342
  718.241  118.976    3.323    0.165    0.369
  719.062  113.683    3.319    0.148    0.434
  719.882  114.247    3.316    0.188    0.473
  720.702  123.569    3.501    0.211    0.487
  721.522  128.209    3.980    0.226    0.499
  722.343  127.604    4.779    0.225    0.506
  723.163  126.409    6.410    0.224    0.493
  723.983  126.381    7.697    0.224    0.477
  724.803  125.763    7.834    0.222    0.460
  725.623  125.158    7.973    0.222    0.437
  726.444  124.546    8.416    0.215    0.410
  727.264  123.928    8.724    0.210    0.377
  728.084  124.478    9.209    0.210    0.373
  728.904  124.451    9.373    0.203    0.355
  729.724  124.424    9.541    0.205    0.333
  730.545  122.637    9.530    0.208    0.341
  731.365  121.454    9.350    0.208    0.355
  732.185  118.506    8.679    0.214    0.349
  733.005  115.550    7.905    0.219    0.345
  733.825  113.770    7.613    0.227    0.355
  734.646  113.742    7.467    0.228    0.362
  735.466  115.461    7.597    0.225    0.368
  736.286  116.609    7.875    0.221    0.374
  737.106  115.414    8.018    0.224    0.381
  737.927  114.218    8.011    0.225    0.385
  738.747  114.184    7.711    0.224    0.388
  739.567  114.741    7.565    0.222    0.380
  740.387  115.298    7.560    0.220    0.360
  741.207  115.855    7.690    0.217    0.361
  742.028  116.419    7.973    0.211    0.359
  742.848  115.216    8.894    0.165    0.354
  743.668  112.851    9.565    0.132    0.352
  744.488  112.240    9.556    0.134    0.357
  745.308  115.141    8.550    0.144    0.357
  746.129  116.282    8.085    0.169    0.332
  746.949  114.502    7.644    0.241    0.319
  747.769  112.715    7.635    0.240    0.329
  748.589  112.103    7.770    0.239    0.354
  749.409  110.323    7.765    0.240    0.356
  750.230  106.199    7.613    0.237    0.357
  751.050  109.100    7.333    0.230    0.359
  751.870  113.747    7.059    0.227    0.364
  752.690  114.882    7.055    0.225    0.370
  753.510  113.693    7.312    0.223    0.376
  754.331  111.321    7.579    0.207    0.372
  755.151  110.710    7.574    0.176    0.366
  755.971  110.105    7.567    0.109    0.363
  756.791  112.415    8.443    0.093    0.364
  757.612  115.309   10.520    0.125    0.372
  758.432  118.788   10.319    0.173    0.374
  759.252  119.916    8.114    0.204    0.362
  760.072  119.318    6.039    0.227    0.326
  760.892  117.531    5.020    0.227    0.337
  761.713  115.757    6.029    0.217    0.400
  762.533  111.049    7.938    0.185    0.417
  763.353  112.190    9.360    0.212    0.391
  764.173  117.415    6.238    0.229    0.381
  764.993  120.316    5.281    0.245    0.368
  765.814  125.541    3.930    0.257    0.360
  766.634  126.105    3.148    0.250    0.349
  767.454  123.740    2.816    0.246    0.441
  768.274  120.200    4.218    0.237    0.461
  769.094  117.836    5.658    0.240    0.477
  769.915  116.647    6.921    0.245    0.445
  770.735  115.451    4.130    0.260    0.398
  771.555  119.507    2.604    0.271    0.377
  772.375  119.479    2.125    0.271    0.438
  773.196  119.452    2.163    0.249    0.464
  774.016  117.088    3.299    0.236    0.480
  774.836  114.716    3.613    0.219    0.486
  775.656  116.435    4.184    0.210    0.466
  776.476  117.590    4.933    0.203    0.429
  777.297  119.900    5.816    0.196    0.405
  778.117  121.035    6.858    0.196    0.391
  778.937  121.592    7.794    0.191    0.380
  779.757  123.902    6.846    0.163    0.378
  780.577  123.290    5.690    0.147    0.382
  781.398  120.933    5.479    0.114    0.395
  782.218  117.393    6.002    0.080    0.426
  783.038  115.028    7.077    0.109    0.433
  783.858  115.585    9.491    0.166    0.434
  784.678  116.733   10.984    0.196    0.357
  785.499  119.621   10.580    0.191    0.283
  786.319  122.522    8.792    0.194    0.321
  787.139  127.169    8.782    0.201    0.344
  787.959  128.895    8.774    0.205    0.359
  788.780  124.193    8.929    0.208    0.358
  789.600  119.484    9.087    0.211    0.349
  790.420  116.536    9.081    0.201    0.335
  791.240  116.495    9.073    0.193    0.338
  792.060  119.403    9.063    0.182    0.349
  792.881  124.043    8.889    0.178    0.350
  793.701  122.840    8.720    0.198    0.342
  794.521  121.651    8.714    0.208    0.338
  795.341  119.871    8.545    0.199    0.337
  796.161  118.091    8.538    0.199    0.340
  796.982  116.895    8.528    0.203    0.344
  797.802  116.290    8.681    0.190    0.346
  798.622  116.263    8.832    0.201    0.344
  799.442  116.236    8.990    0.194    0.348
  800.262  115.033    9.149    0.185    0.354
  801.083  114.408    9.139    0.184    0.360
  801.903  114.387    9.130    0.181    0.363
  802.723  115.529    9.124    0.175    0.360
  803.543  115.501    9.114    0.165    0.356
  804.364  114.312    9.106    0.135    0.356
  805.184  112.518    9.791    0.121    0.354
  806.004  111.914   11.336    0.046    0.352
  806.824  111.886   17.298   -0.024    0.346
  807.644  112.443   55.096    0.001    0.335
  808.465  113.000   73.894    0.077    0.304
  809.285  114.726   45.753    0.097    0.258
  810.105  116.452   19.244    0.186    0.263
  810.925  115.256   12.362    0.234    0.284
  811.745  112.307    9.903    0.247    0.322
  812.566  108.774    8.538    0.254    0.347
  813.386  104.650    7.779    0.253    0.353
  814.206  101.701    7.630    0.239    0.347
  815.026  102.265    7.212    0.226    0.341
  815.846  109.249    6.948    0.219    0.349
  816.667  113.312    6.941    0.215    0.356
  817.487  112.109    7.330    0.212    0.360
  818.307  109.160    7.883    0.217    0.359
  819.127  107.380    7.732    0.169    0.359
  819.948  107.353    7.446    0.132    0.361
  820.768  107.326    8.007    0.135    0.362
  821.588  107.305   10.349    0.113    0.363
  822.408  107.855    9.782    0.092    0.369
  823.228  108.413   10.142    0.053    0.373
  824.049  106.626   24.517    0.027    0.380
  824.869  104.838   66.172    0.010    0.362
  825.689  104.825   71.163    0.021    0.278
  826.509  107.128   36.656    0.105    0.245
  827.329  110.022   23.542    0.136    0.245
