~VERSION INFORMATION
 VERS.                 2.0:   CWLS LOG ASCII STANDARD -VERSION 2.0
 WRAP.                  NO:   ONE LINE PER DEPTH STEP
~WELL INFORMATION BLOCK
#MNEM.UNIT           DATA                    DESCRIPTION OF MNEMONIC
#---------    -------------------            -------------------------------
# Generated from Intellog Unique Number	CN_94_101/WELL/4993
WELL.         08-33-098-12W4                 : Well_name    - WELL
LOC .         AA/08-33-098-12W4/0            : Location     - LOCATION
UWI .         AA/08-33-098-12W400            : Uwi          - UNIQUE WELL ID
ENTR.         TIM                            : Entered      - ENTERED BY
SRVC.         SCHLUMBERGER                   : Scn          - SERVICE COMPANY
DATE.         08/11/92                       : Date         - LOG DATE
STRT.M        60.96                          : top_depth    - START DEPTH
STOP.M        267.71                         : bot_depth    - STOP DEPTH
STEP.M        0.25                           : increment    - STEP LENGTH
 NULL. -999.2500:NULL Value
~CURVE INFORMATION BLOCK
#MNEM UNIT       ERCB CURVE CODE    CURVE DESCRIPTION
#-----------   ------------------   ----------------------------------
DEPT.M        00 001 00 00         : DEPTH        - DEPTH
GR  .API      00 310 00 00         : GR           - GAMMA RAY
ILD .OHMM     00 120 00 00         : RESD         - DEEP RESISTIVITY (DIL)
NPHI.V/V      00 330 00 00         : PHIN         - NEUTRON POROSITY (SANDSTONE)
RHOB.KG/M3    00 350 00 00         : DENS         - BULK DENSITY
~PARAMETER INFORMATION
#MNEM.UNIT           DATA             DESCRIPTION OF MNEMONIC
#---------         -----------     ------------------------------
GL  .M        499.872              : gl           - GROUND LEVEL ELEVATION
EREF.M        502.92               : kb           - ELEVATION OF DEPTH REFERENCE
DATM.M        502.92               : datum        - DATUM ELEVATION
TDD .M        267.614              : tdd          - TOTAL DEPTH DRILLER
RUN .         ONE                  : Run          - RUN NUMBER
ENG .         JO                   : Engineer     - RECORDING ENGINEER
WIT .         TIM                  : Witness      - WITNESSED BY
MUD .         GEL                  : Mud_type     - MUD TYPE
MATR.         SANDSTONE            : Logunit      - NEUTRON MATRIX
TMAX.C        10                   : BHT          - MAXIMUM RECORDED TEMPERATURE
BHTD.M        267.614              : BHTDEP       - MAXIMUM RECORDED TEMPERATURE
RMT .C        10                   : MDTP         - TEMPERATURE OF MUD
MUDD.KG/M     1000                 : MWT          - MUD DENSITY
NEUT.         1                    : NEUTRON      - NEUTRON TYPE
RESI.         0                    : RESIST       - RESISTIVITY TYPE
RM  .OHMM     13.8                 : RM           - RESISTIVITY OF MUD
RMC .OHMM     13.8                 : RMC          - RESISTIVITY OF MUD CAKE
RMF .OHMM     13.8                 : RMF          - RESISTIVITY OF MUD FILTRATE
SUFT.C        4                    : SUFT         - SURFACE TEMPERATURE
~A  DEPTH       GR     RESD     PHIN     DENS
   60.960   53.427    8.715    0.416 2067.820
   61.210   50.811    9.214    0.412 2089.780
   61.460   49.242    9.742    0.408 2099.780
   61.710   47.151   10.111    0.407 2101.780
   61.960   46.628   10.301    0.406 2103.790
   62.210   45.060   10.692    0.407 2105.800
   62.460   44.538   10.893    0.407 2109.820
   62.710   44.018   11.098    0.409 2115.810
   62.960   44.020   11.099    0.409 2137.770
   63.210   45.071   10.898    0.410 2143.770
   63.460   46.121   10.504    0.413 2143.790
   63.710   47.695    9.756    0.417 2141.810
   63.960   49.269    8.733    0.422 2151.800
   64.210   52.414    8.262    0.428 2167.770
   64.460   55.559    7.259    0.434 2179.760
   64.710   66.561    6.868    0.440 2173.790
   64.960   73.897    6.263    0.445 2159.850
   65.210   79.138    5.817    0.452 2189.790
   65.460   79.665    5.503    0.458 2187.810
   65.710   80.715    5.112    0.463 2122.010
   65.960   81.765    4.748    0.468 2060.190
   66.210   81.768    4.492    0.469 2169.910
   66.460   82.294    4.250    0.470 2199.850
   66.710   82.821    4.022    0.471 2189.900
   66.960   83.347    3.948    0.470 2173.950
   67.210   83.873    3.806    0.469 2126.100
   67.460   84.399    3.806    0.466 2098.200
   67.710   83.878    3.807    0.463 2076.270
   67.960   81.787    3.807    0.456 2054.350
   68.210   79.693    3.952    0.441 2142.130
   68.460   75.506    4.101    0.437 2180.040
   68.710   72.367    4.257    0.441 2205.990
   68.960   71.844    4.418    0.446 2237.920
   69.210   70.800    4.670    0.447 2271.850
   69.460   68.183    5.220    0.449 2265.880
   69.710   64.519    5.519    0.446 2255.920
   69.960   59.284    6.283    0.443 2232.010
   70.210   54.573    6.643    0.421 2024.590
   70.460   50.385    7.563    0.375 1992.700
   70.710   46.721    7.995    0.358 2000.690
   70.960   46.201    8.772    0.357 2010.690
   71.210   47.252    8.774    0.360 2014.700
   71.460   48.301    8.456    0.366 2024.680
   71.710   48.827    8.001    0.372 2064.590
   71.960   50.401    7.570    0.382 2082.560
   72.210   51.975    6.776    0.392 2110.500
   72.460   54.073    6.530    0.416 2130.460
   72.710   55.123    5.954    0.431 2150.430
   72.960   56.698    5.530    0.434 2168.390
   73.210   56.177    5.137    0.437 2192.350
   73.460   55.131    4.771    0.441 2232.260
   73.710   52.514    4.772    0.445 2242.250
   73.960   49.899    5.045    0.443 2236.280
   74.210   48.330    5.535    0.438 2224.330
   74.460   45.714    6.073    0.429 2180.470
   74.710   45.193    6.914    0.426 2094.720
   74.960   47.290    7.585    0.426 2056.850
   75.210   47.817    7.873    0.426 2110.720
   75.460   47.820    8.021    0.428 2132.670
   75.710   47.300    8.172    0.428 2148.650
   75.960   46.777    8.173    0.429 2156.640
   76.210   46.779    8.174    0.429 2136.710
   76.460   46.258    8.175    0.429 2102.830
   76.710   46.786    8.177    0.431 2074.920
   76.960   47.836    8.178    0.431 2056.990
   77.210   48.361    8.030    0.432 2049.030
   77.460   48.889    7.739    0.432 2043.060
   77.710   49.414    7.459    0.433 2053.050
   77.960   49.941    7.190    0.433 2094.960
   78.210   50.991    6.802    0.433 2098.960
   78.460   53.089    6.556    0.437 2140.860
   78.710   55.187    6.438    0.441 2160.830
   78.960   60.427    6.320    0.450 2168.820
   79.210   65.144    6.205    0.452 2198.760
   79.460   68.291    6.092    0.435 2212.740
   79.710   69.340    5.982    0.430 2224.730
   79.960   71.439    5.873    0.433 2228.730
   80.210   73.012    5.661    0.438 2236.720
   80.460   75.110    5.456    0.443 2250.710
   80.710   76.159    5.258    0.449 2258.700
   80.960   79.306    4.795    0.459 2248.750
   81.210   81.404    4.536    0.471 2238.790
   81.460   82.453    4.136    0.481 2228.830
   81.710   84.028    3.914    0.483 2194.940
   81.960   85.078    3.772    0.481 2143.110
   82.210   85.605    3.703    0.478 2011.490
   82.460   86.655    3.636    0.481 2043.430
   82.710   87.705    3.505    0.484 2041.440
   82.960   88.231    3.378    0.490 2031.490
   83.210   89.282    3.196    0.495 2035.490
   83.460   89.807    3.080    0.498 2033.520
   83.710   90.858    2.969    0.500 2035.530
   83.960   91.909    2.861    0.504 2117.320
   84.210   92.435    2.862    0.508 2163.210
   84.460   92.437    2.916    0.509 2215.090
   84.710   91.393    2.971    0.504 2191.170
   84.960   89.300    3.083    0.494 2167.260
   85.210   87.731    3.200    0.486 2173.260
   85.460   86.162    3.321    0.483 2213.160
   85.710   84.070    3.384    0.476 2239.110
   85.960   81.978    3.512    0.473 2261.070
   86.210   81.456    3.513    0.467 2253.110
   86.460   79.887    3.513    0.464 2243.150
   86.710   77.795    3.386    0.467 2205.270
   86.960   75.702    3.263    0.474 2149.450
   87.210   73.086    3.031    0.476 2125.530
   87.460   70.993    2.921    0.476 2103.610
   87.710   67.853    2.977    0.474 2111.610
   87.960   64.190    3.389    0.465 2111.630
   88.210   58.954    4.232    0.449 2111.640
   88.460   50.053    5.188    0.414 2105.670
   88.710   42.198    6.600    0.344 2103.700
   88.960   33.296    8.876    0.320 2093.740
   89.210   33.299   12.617    0.311 2083.790
   89.460   37.492   13.844    0.317 2081.810
   89.710   38.019   13.098    0.332 2079.830
   89.960   34.880   12.165    0.365 2077.860
   90.210   33.310   11.725    0.390 2077.870
   90.460   31.741   11.300    0.394 2093.850
   90.710   30.173   10.115    0.395 2105.840
   90.960   29.651    9.571    0.395 2109.850
   91.210   28.083    9.224    0.395 2109.860
   91.460   29.133    8.890    0.395 2105.890
   91.710   31.754    9.058    0.395 2099.930
   91.960   33.329    9.229    0.396 2097.950
   92.210   34.379    9.403    0.396 2091.980
   92.460   37.000    9.063    0.399 2086.020
   92.710   39.622    8.734    0.401 2080.050
   92.960   43.291    7.964    0.402 2090.040
   93.210   46.436    7.535    0.405 2119.970
   93.460   50.105    7.262    0.405 2143.930
   93.710   55.346    6.500    0.402 2175.860
   93.960   61.635    6.038    0.401 2199.810
   94.210   63.732    5.404    0.400 2209.800
   94.460   66.877    5.113    0.397 2219.800
   94.710   69.499    5.114    0.397 2219.810
   94.960   70.549    5.210    0.395 2217.830
   95.210   71.076    5.211    0.394 2213.860
   95.460   68.984    5.510    0.395 2209.890
   95.710   67.415    5.510    0.397 2203.920
   95.960   65.846    5.614    0.406 2193.970
   96.210   63.229    5.615    0.409 2190.000
   96.460   60.089    5.828    0.411 2188.020
   96.710   57.998    6.049    0.411 2184.050
   96.960   57.477    6.050    0.411 2182.070
   97.210   57.479    5.940    0.411 2170.120
   97.460   57.481    5.940    0.412 2162.170
   97.710   57.485    5.832    0.417 2160.180
   97.960   57.487    5.622    0.426 2158.210
   98.210   57.489    5.520    0.434 2158.220
   98.460   58.539    5.419    0.440 2158.240
   98.710   61.161    5.321    0.443 2158.260
   98.960   62.211    5.224    0.444 2158.290
   99.210   63.785    4.943    0.444 2156.310
   99.460   64.311    4.853    0.443 2154.320
   99.710   65.362    4.592    0.442 2148.370
   99.960   65.888    4.425    0.442 2142.390
  100.210   65.891    4.679    0.440 2128.460
  100.460   65.893    4.947    0.438 2124.480
  100.710   65.897    5.327    0.436 2120.510
  100.960   65.898    5.738    0.430 2116.540
  101.210   60.664    6.533    0.427 2110.580
  101.460   58.048    7.036    0.422 2106.600
  101.710   58.574    7.302    0.421 2100.630
  101.960   59.624    7.579    0.422 2096.670
  102.210   60.674    7.579    0.422 2096.680
  102.460   61.200    7.581    0.417 2108.660
  102.710   61.728    7.443    0.412 2116.660
  102.960   61.730    7.444    0.409 2126.650
  103.210   62.257    7.309    0.413 2136.640
  103.460   62.259    7.045    0.414 2148.630
  103.710   62.262    6.917    0.418 2158.620
  103.960   62.788    6.918    0.420 2170.600
  104.210   62.267    7.180    0.421 2186.580
