~VERSION INFORMATION
 VERS.                 2.0:   CWLS LOG ASCII STANDARD -VERSION 2.0
 WRAP.                  NO:   ONE LINE PER DEPTH STEP
~WELL INFORMATION BLOCK
#MNEM.UNIT           DATA                    DESCRIPTION OF MNEMONIC
#---------    -------------------            -------------------------------
# Generated from Intellog Unique Number	CW_76_78/WELL/2565
WELL.         05-14-078-24W4                 : Well_name    - WELL
LOC .         AA/05-14-078-24W4/0            : Location     - LOCATION
UWI .         AA/05-14-078-24W4/0            : Uwi          - UNIQUE WELL ID
ENTR.         MAX                            : Entered      - ENTERED BY
SRVC.         SCHLUMBERGER                   : Scn          - SERVICE COMPANY
STRT.M        290                            : top_depth    - START DEPTH
STOP.M        545                            : bot_depth    - STOP DEPTH
STEP.M        0.25                           : increment    - STEP LENGTH
 NULL. -999.2500:NULL Value
~CURVE INFORMATION BLOCK
#MNEM UNIT       ERCB CURVE CODE    CURVE DESCRIPTION
#-----------   ------------------   ----------------------------------
DEPT.M        00 001 00 00         : DEPTH        - DEPTH
ILD .OHMM     00 120 00 00         : RESD         - DEEP RESISTIVITY (DIL)
NPHI.V/V      00 330 00 00         : PHIN         - NEUTRON POROSITY (SANDSTONE)
DPHI.V/V      00 890 00 00         : PHID         - DENSITY POROSITY (SANDSTONE)
CALI.MM       00 280 01 00         : CAL          - CALIPER
GR  .API      00 310 00 00         : GR           - GAMMA RAY
~PARAMETER INFORMATION
#MNEM.UNIT           DATA             DESCRIPTION OF MNEMONIC
#---------         -----------     ------------------------------
GL  .M        597.38               : gl           - GROUND LEVEL ELEVATION
EREF.M        602.13               : kb           - ELEVATION OF DEPTH REFERENCE
DATM.M        597.38               : datum        - DATUM ELEVATION
TDD .M        547                  : tdd          - TOTAL DEPTH DRILLER
RUN .         ONE                  : Run          - RUN NUMBER
ENG .         BILL                 : Engineer     - RECORDING ENGINEER
WIT .         JIM                  : Witness      - WITNESSED BY
MUD .         GEL                  : Mud_type     - MUD TYPE
MATR.         SANDSTONE            : Logunit      - NEUTRON MATRIX
TMAX.C        41.1                 : BHT          - MAXIMUM RECORDED TEMPERATURE
BHTD.M        547                  : BHTDEP       - MAXIMUM RECORDED TEMPERATURE
RMT .C        17.7                 : MDTP         - TEMPERATURE OF MUD
MUDD.KG/M     1115                 : MWT          - MUD DENSITY
NEUT.         1                    : NEUTRON      - NEUTRON TYPE
RESI.         0                    : RESIST       - RESISTIVITY TYPE
RM  .OHMM     6.28                 : RM           - RESISTIVITY OF MUD
RMC .OHMM     0.25                 : RMC          - RESISTIVITY OF MUD CAKE
RMF .OHMM     5.71                 : RMF          - RESISTIVITY OF MUD FILTRATE
SUFT.C        -20                  : SUFT         - SURFACE TEMPERATURE
~A  DEPTH     RESD     PHIN     PHID      CAL       GR
# ...
  509.000   13.407    0.394    0.246  195.468   84.114
  509.250   14.046    0.412    0.271  194.477   96.368
  509.500   16.905    0.456    0.264  193.985   83.522
  509.750   24.250    0.468    0.240  193.990   72.768
  510.000   34.469    0.237    0.217  193.994   57.233
  510.250   43.443    0.189    0.112  193.999   48.571
  510.500   49.923    0.130    0.046  194.005   44.391
  510.750   52.786    0.131    0.032  194.010   44.095
  511.000   43.489    0.153    0.036  194.015   48.282
  511.250   29.781    0.186    0.054  193.523   51.571
  511.500   20.022    0.223    0.091  193.030   57.551
  511.750   15.897    0.303    0.186  193.034   65.920
  512.000   14.364    0.330    0.219  193.041   71.900
  512.250   11.725    0.359    0.219  193.044   72.501
  512.500    9.840    0.362    0.195  193.051   76.089
  512.750    9.666    0.366    0.170  193.553   79.978
  513.000    9.402    0.367    0.155  193.560   77.590
  513.250    8.735    0.360    0.148  194.062   78.490
  513.500    8.343    0.381    0.202  194.565   85.066
  513.750    8.043    0.414    0.217  195.069   97.320
  514.000    7.683    0.454    0.230  195.073  102.105
  514.250    7.475    0.430    0.274  195.079  102.107
  514.500    7.342    0.401    0.241  196.080   93.446
  514.750    7.012    0.374    0.227  196.085   89.265
  515.000    6.637    0.374    0.238  195.592   79.108
  515.250    6.398    0.365    0.241  192.111   76.123
  515.500    6.168    0.352    0.219  191.618   80.609
  515.750    6.057    0.398    0.202  193.616   87.783
  516.000    6.115    0.460    0.177  195.114   95.555
  516.250    6.115    0.539    0.232  197.611  101.236
  516.500    6.177    0.604    0.291  198.115  102.435
  516.750    6.352    0.592    0.289  197.622   91.980
  517.000    6.352    0.538    0.267  196.631   83.914
  517.250    6.536    0.438    0.252  195.639   72.862
  517.500    6.910    0.364    0.253  194.150   73.462
  517.750    7.375    0.419    0.330  193.160   78.545
  518.000    7.798    0.505    0.366  193.165   76.756
  518.250    8.020    0.437    0.300  193.170   75.862
  518.500    7.876    0.350    0.268  192.677   76.463
  518.750    7.593    0.355    0.266  190.192   75.570
  519.000    7.186    0.369    0.269  189.699   72.285
  519.250    7.188    0.369    0.233  191.198   71.691
  519.500    7.191    0.376    0.220  193.196   79.165
  519.750    7.193    0.384    0.188  194.197   81.558
  520.000    7.129    0.391    0.157  194.203   80.067
  520.250    6.937    0.384    0.146  194.208   79.772
  520.500    6.812    0.387    0.178  194.212   81.867
  520.750    6.815    0.412    0.227  195.214   85.754
  521.000    6.817    0.439    0.269  195.218   91.135
  521.250    7.077    0.565    0.352  195.224   95.919
  521.500    7.346    0.555    0.330  195.230  102.197
  521.750    7.555    0.506    0.306  196.728  105.787
  522.000    7.628    0.389    0.273  198.725  107.881
  522.250    7.702    0.365    0.200  198.730  103.701
  522.500    7.704    0.362    0.201  198.238   98.923
  522.750    7.779    0.346    0.202  197.248   90.858
  523.000    7.781    0.356    0.198  197.252   86.080
  523.250    7.784    0.341    0.174  196.759   82.199
  523.500    7.786    0.328    0.151  196.266   80.111
  523.750    7.789    0.317    0.145  195.276   91.469
  524.000    7.721    0.338    0.179  195.281   94.460
  524.250    7.724    0.345    0.207  196.781   98.347
  524.500    7.655    0.345    0.207  197.781  104.028
  524.750    7.587    0.363    0.193  197.787  105.824
  525.000    7.660    0.387    0.175  196.797   99.253
  525.250    7.663    0.419    0.148  195.806   97.762
  525.500    7.666    0.430    0.159  195.810   96.571
  525.750    7.739    0.401    0.199  195.815   94.183
  526.000    7.814    0.364    0.207  196.817   91.497
  526.250    7.817    0.374    0.208  197.320   89.109
  526.500    7.748    0.388    0.205  197.324   87.917
  526.750    7.538    0.389    0.202  196.831   89.414
  527.000    7.200    0.395    0.198  196.837   96.290
  527.250    6.329    0.413    0.195  197.340  101.672
  527.500    5.825    0.437    0.211  197.843  105.261
  527.750    5.616    0.498    0.207  200.837  103.471
  528.000    5.723    0.518    0.173  200.842   97.796
  528.250    5.941    0.494    0.157  199.851   99.592
  528.500    6.054    0.486    0.147  199.359  101.089
  528.750    6.112    0.502    0.118  199.862   87.049
  529.000    6.058    0.462    0.090  198.372   73.605
  529.250    5.949    0.382    0.063  197.381   67.633
  529.500    5.896    0.349    0.111  197.387   75.106
  529.750    5.684    0.414    0.135  199.385   88.256
  530.000    5.480    0.443    0.142  201.382   91.247
  530.250    5.332    0.459    0.158  201.884  100.215
  530.500    5.285    0.456    0.168  201.392   99.023
  530.750    5.238    0.453    0.156  201.396  100.221
  531.000    5.144    0.479    0.166  201.900  101.420
  531.250    5.098    0.483    0.151  201.905   98.734
  531.500    5.007    0.447    0.138  198.923  100.529
  531.750    5.008    0.440    0.154  198.430  104.417
  532.000    4.918    0.443    0.199  199.929  106.512
  532.250    4.920    0.440    0.214  201.428  105.618
  532.500    4.877    0.441    0.216  201.434  105.920
  532.750    4.878    0.456    0.201  201.439  107.118
  533.000    4.880    0.458    0.193  201.443  109.213
  533.250    4.882    0.438    0.191  201.448  114.296
  533.500    4.452    0.424    0.177  201.454  116.391
  533.750    3.702    0.448    0.192  201.957  113.406
  534.000    3.194    0.464    0.178  203.456   93.090
  534.250    3.166    0.444    0.130  202.465   88.910
  534.500    3.256    0.400    0.077  197.989   95.487
  534.750    3.443    0.359    0.135  198.492   97.582
  535.000    3.675    0.372    0.175  201.485   99.677
  535.250    3.958    0.426    0.182  200.993  102.966
  535.500    4.185    0.434    0.172  200.997  105.659
  535.750    4.225    0.440    0.159  201.003  103.272
  536.000    3.854    0.452    0.141  201.506  102.080
  536.250    3.547    0.464    0.127  201.511   99.991
  536.500    3.484    0.470    0.109  201.516   93.121
  536.750    3.485    0.432    0.103  201.023   78.781
  537.000    3.584    0.314    0.138  197.542   70.418
  537.250    3.790    0.330    0.212  197.050   72.214
  537.500    4.045    0.359    0.224  198.051   75.802
  537.750    4.160    0.348    0.177  199.053   78.495
  538.000    3.973    0.351    0.154  200.551   83.876
  538.250    3.795    0.462    0.138  203.046   95.533
  538.500    3.832    0.481    0.115  203.052  100.019
  538.750    3.978    0.458    0.127  202.061   79.105
  539.000    4.017    0.397    0.171  200.572   77.316
  539.250    4.246    0.352    0.172  198.586   80.307
  539.500    4.703    0.357    0.159  198.591   82.103
  539.750    4.927    0.396    0.151  200.588   81.209
  540.000    5.114    0.431    0.154  200.593   77.627
  540.250    5.309    0.415    0.185  198.107   76.434
  540.500    5.410    0.428    0.267  197.118   75.840
  540.750    5.461    0.519    0.292  200.110   76.142
  541.000    5.217    0.595    0.249  205.095   77.939
  541.250    4.983    0.586    0.286  215.559   80.032
  541.500    4.587    0.520    0.286  216.062   83.323
  541.750    4.145    0.496    0.237  207.601   85.118
  542.000    4.033    0.508    0.189  197.645   85.719
  542.250    3.961    0.530    0.166  194.663   85.125
  542.500    3.962    0.559    0.142  194.170   84.232
  542.750    4.037    0.572    0.148  195.171   82.143
  543.000    4.229    0.572    0.219  195.675   78.860
  543.250    4.684    0.558    0.246  195.680   80.954
  543.500    5.235    0.545    0.172  197.678   84.244
  543.750    5.797    0.535    0.139  203.161   86.936
  544.000    6.421    0.514    0.125  202.667   89.031
  544.250    6.726    0.450    0.118  202.176   90.528
  544.500    6.982    0.434    0.125  203.176   92.325
  544.750    7.248    0.426    0.123  204.177   95.017
  545.000    7.593    0.421    0.119  203.186   95.916
