~VERSION INFORMATION
 VERS.                 2.0:   CWLS LOG ASCII STANDARD -VERSION 2.0
 WRAP.                  NO:   ONE LINE PER DEPTH STEP
~WELL INFORMATION BLOCK
#MNEM.UNIT           DATA                    DESCRIPTION OF MNEMONIC
#---------    -------------------            -------------------------------
# Generated from Intellog Unique Number	CN_91_93/WELL/3670
WELL.         04-04-093-09W4                 : Well_name    - WELL
LOC .         AA/04-04-093-09W4/0            : Location     - LOCATION
UWI .         AA/04-04-093-09W400            : Uwi          - UNIQUE WELL ID
ENTR.         JOETTE                         : Entered      - ENTERED BY
SRVC.         SCHLUMBERGER                   : Scn          - SERVICE COMPANY
DATE.         03\22\92                       : Date         - LOG DATE
STRT.M        0                              : top_depth    - START DEPTH
STOP.M        125                            : bot_depth    - STOP DEPTH
STEP.M        0.25                           : increment    - STEP LENGTH
 NULL. -999.2500:NULL Value
~CURVE INFORMATION BLOCK
#MNEM UNIT       ERCB CURVE CODE    CURVE DESCRIPTION
#-----------   ------------------   ----------------------------------
DEPT.M        00 001 00 00         : DEPTH        - DEPTH
CALI.MM       00 280 01 00         : CAL          - CALIPER
GR  .API      00 310 00 00         : GR           - GAMMA RAY
NPHI.V/V      00 330 00 00         : PHIN         - NEUTRON POROSITY (SANDSTONE)
DPHI.V/V      00 890 00 00         : PHID         - DENSITY POROSITY (SANDSTONE)
ILD .OHMM     00 120 00 00         : RESD         - DEEP RESISTIVITY (DIL)
~PARAMETER INFORMATION
#MNEM.UNIT           DATA             DESCRIPTION OF MNEMONIC
#---------         -----------     ------------------------------
GL  .M        341.6                : gl           - GROUND LEVEL ELEVATION
EREF.M        341.6                : kb           - ELEVATION OF DEPTH REFERENCE
DATM.M        341.6                : datum        - DATUM ELEVATION
TDD .M        125.8                : tdd          - TOTAL DEPTH DRILLER
RUN .         ONE                  : Run          - RUN NUMBER
ENG .         JO                   : Engineer     - RECORDING ENGINEER
WIT .         TIM                  : Witness      - WITNESSED BY
MUD .         GEL                  : Mud_type     - MUD TYPE
MATR.         SANDSTONE            : Logunit      - NEUTRON MATRIX
TMAX.C        16                   : BHT          - MAXIMUM RECORDED TEMPERATURE
BHTD.M        125.8                : BHTDEP       - MAXIMUM RECORDED TEMPERATURE
RMT .C        14                   : MDTP         - TEMPERATURE OF MUD
MUDD.KG/M     9000                 : MWT          - MUD DENSITY
NEUT.         1                    : NEUTRON      - NEUTRON TYPE
RESI.         0                    : RESIST       - RESISTIVITY TYPE
RM  .OHMM     4.8                  : RM           - RESISTIVITY OF MUD
RMC .OHMM     4.8                  : RMC          - RESISTIVITY OF MUD CAKE
RMF .OHMM     4.8                  : RMF          - RESISTIVITY OF MUD FILTRATE
SUFT.C        4                    : SUFT         - SURFACE TEMPERATURE
~A  DEPTH      CAL       GR     PHIN     PHID     RESD
    0.000  116.179   90.151    0.327    0.158    0.000
    0.250  115.219   90.823    0.327    0.158    0.000
    0.500  115.334   90.864    0.329    0.158    0.000
    0.750  115.425   90.919    0.331    0.158    0.000
    1.000  115.539   90.987    0.332    0.159    0.000
    1.250  115.608   89.808    0.335    0.164    0.000
    1.500  115.722   87.408    0.324    0.169    0.000
    1.750  115.836   86.202    0.326    0.156    0.000
    2.000  115.905   81.334    0.328    0.129    0.000
    2.250  115.973   80.141    0.321    0.111    0.000
    2.500  116.087   82.047    0.315    0.089    0.000
    2.750  116.156   82.102    0.316    0.076    0.000
    3.000  117.275   85.256    0.312    0.069    0.000
    3.250  117.390   89.012    0.290    0.043    0.000
    3.500  117.458   95.854    0.262   -0.001    0.000
    3.750  117.572   94.058    0.212   -0.005    0.000
    4.000  117.641   87.929    0.188   -0.006    0.000
    4.250  117.755   79.346    0.190   -0.005    0.000
    4.500  117.824   72.627    0.208   -0.004    0.000
    4.750  117.938   70.214    0.261   -0.000    0.000
    5.000  118.006   75.191    0.274    0.009    0.000
    5.250  118.143   88.834    0.302    0.020    0.000
    5.500  118.235   91.371    0.283    0.013    0.000
    5.750  118.303   89.561    0.281    0.010    0.000
    6.000  116.361   87.161    0.291    0.021    0.000
    6.250  117.458   90.904    0.311    0.030    0.000
    6.500  117.549   99.597    0.328    0.037    0.000
    6.750  117.663  103.381    0.336    0.043    0.000
    7.000  117.732  100.351    0.330    0.050    0.000
    7.250  117.823   95.442    0.317    0.054    0.000
    7.500  117.937   94.263    0.309    0.024    0.000
    7.750  118.006   99.282    0.303    0.028    0.000
    8.000  118.120   95.017    0.300    0.033    0.000
    8.250  118.234   91.987    0.305    0.037    0.000
    8.500  118.280   93.893    0.312    0.045    0.000
    8.750  118.394   98.253    0.321    0.054    0.000
    9.000  118.486  103.244    0.323    0.061    0.000
    9.250  118.577  101.448    0.325    0.056    0.000
    9.500  118.668   99.652    0.324    0.042    0.000
    9.750  118.737   99.089    0.320    0.024    0.000
   10.000  118.828  101.626    0.314    0.023    0.000
   10.250  117.937  104.135    0.312    0.020    0.000
   10.500  118.028   99.871    0.318    0.012    0.000
   10.750  118.120  101.160    0.315    0.009    0.000
   11.000  118.234  107.398    0.309    0.002    0.000
   11.250  118.279  110.538    0.298    0.002    0.000
   11.500  119.422  110.593    0.293    0.003    0.000
   11.750  119.513  103.244    0.294    0.005    0.000
   12.000  119.582  103.915    0.301    0.007    0.000
   12.250  119.696  105.821    0.313    0.013    0.000
   12.500  119.787   95.373    0.319    0.024    0.000
   12.750  119.856   89.258    0.334    0.036    0.000
   13.000  119.970   85.611    0.342    0.055    0.000
   13.250  119.056   85.062    0.338    0.067    0.000
   13.500  119.102   91.287    0.328    0.061    0.000
   13.750  119.216   89.491    0.323    0.049    0.000
   14.000  118.279   92.014    0.326    0.036    0.000
   14.250  118.347   93.303    0.329    0.017    0.000
   14.500  118.439   91.507    0.323    0.011    0.000
   14.750  118.530   90.327    0.325    0.012    0.000
   15.000  118.644   86.680    0.331    0.015    0.000
   15.250  118.759   91.671    0.336    0.013    0.000
   15.500  118.827   99.761    0.314    0.011    0.000
   15.750  118.919   96.730    0.323    0.015    0.000
   16.000  119.010   96.785    0.324    0.008    0.000
   16.250  119.147   96.223    0.315    0.010    0.000
   16.500  119.193   99.966    0.305    0.016    0.000
   16.750  120.335  103.133    0.305    0.015    0.000
   17.000  120.426   97.635    0.315    0.009    0.000
   17.250  120.495   95.195    0.328    0.005    0.000
   17.500  120.609   96.511    0.331    0.005    0.000
   17.750  120.701   93.467    0.308    0.006    0.000
   18.000  120.792   88.572    0.255    0.004    0.000
   18.250  119.855   78.138    0.220    0.002    0.000
   18.500  119.946   68.938    0.228    0.008    0.000
   18.750  120.038   67.155    0.237    0.017    0.000
   19.000  120.129   73.366    0.248    0.015    0.000
   19.250  119.215   80.839    0.256    0.004    0.000
   19.500  119.261   77.809    0.265    0.009    0.000
   19.750  119.375   75.999    0.267    0.016    0.000
   20.000  119.466   76.671    0.263    0.020    0.000
   20.250  119.558   77.959    0.252    0.024    0.000
   20.500  119.672   75.560    0.238    0.022    0.000
   20.750  118.735   80.564    0.221    0.010    0.000
   21.000  118.826   75.052    0.190    0.018    0.000
   21.250  118.895   78.206    0.165    0.068    0.000
   21.500  118.986   83.183    0.160    0.162    0.000
   21.750  119.077   90.025    0.159    0.270    0.000
   22.000  119.169   90.080    0.161    0.377    0.000
   22.250  119.283   79.646    0.161    0.390    0.000
   22.500  119.374   79.700    0.160    0.392    0.000
   22.750  127.692   84.705    0.160    0.398    0.000
   23.000  127.784   84.746    0.160    0.400    0.000
   23.250  126.892   85.418    0.160    0.373    0.000
   23.500  125.910   85.486    0.160    0.386    0.000
   23.750  124.973   89.860    0.161    0.380    0.000
   24.000  125.064   92.383    0.161    0.348    0.000
   24.250  124.150   92.438    0.162    0.338    0.000
   24.500  124.219   93.110    0.162    0.341    0.000
   24.750  124.333   95.029    0.164    0.334    0.000
   25.000  124.401   95.701    0.168    0.330   42.101
   25.250  124.538   90.189    0.173    0.329   40.391
   25.500  124.607   90.861    0.182    0.325   38.751
   25.750  124.675   90.299    0.220    0.318   38.230
   26.000  124.812   86.652    0.352    0.314   41.071
   26.250  124.858   81.153    0.405    0.308   61.193
   26.500  124.995   78.123    0.404    0.303   67.649
   26.750  125.041   81.894    0.406    0.302   43.600
   27.000  125.155   80.701    0.414    0.301   37.320
   27.250  125.246   85.075    0.396    0.305   34.303
   27.500  125.338   78.973    0.383    0.311   33.858
   27.750  126.457   82.716    0.381    0.316   33.896
   28.000  126.572   84.622    0.389    0.312   33.919
   28.250  126.617   83.443    0.398    0.301   35.934
   28.500  126.709   85.349    0.386    0.302   40.870
   28.750  126.846   81.715    0.359    0.298   46.494
   29.000  126.914   77.437    0.370    0.308   43.956
   29.250  127.006   78.109    0.393    0.319   41.577
   29.500  127.120   81.866    0.406    0.327   39.870
   29.750  127.211   82.565    0.411    0.286   39.915
   30.000  127.280   85.074    0.405    0.283   40.522
   30.250  127.371   91.916    0.398    0.266   41.139
   30.500  127.462   90.737    0.399    0.269   41.176
   30.750  127.554   93.891    0.396    0.275   41.232
   31.000  127.668   91.464    0.393    0.270   41.260
   31.250  127.737   85.966    0.389    0.267   41.288
   31.500  127.874   80.467    0.375    0.265   43.124
   31.750  127.919   77.437    0.367    0.269   47.002
   32.000  128.056   78.726    0.366    0.276   43.820
   32.250  128.102   88.653    0.383    0.282   40.854
   32.500  128.216  103.529    0.410    0.271   38.097
   32.750  128.285  112.839    0.421    0.227   37.064
   33.000  127.348  121.546    0.422    0.222   40.965
   33.250  127.439  114.183    0.405    0.249   64.602
   33.500  127.530   87.076    0.371    0.264   78.882
   33.750  127.645   74.174    0.356    0.295   83.568
   34.000  127.736   66.824    0.375    0.291   89.818
   34.250  127.873   73.666    0.384    0.290   93.833
   34.500  127.919   80.508    0.379    0.302   88.713
   34.750  128.010   80.577    0.374    0.304   82.707
   35.000  128.101   78.150    0.377    0.297   77.126
   35.250  128.193   83.154    0.381    0.295   77.196
   35.500  128.330   85.074    0.373    0.289   77.249
   35.750  128.398   82.030    0.361    0.277   71.004
   36.000  128.467   81.468    0.381    0.258   61.674
   36.250  129.609  103.145    0.389    0.232   66.272
