~VERSION INFORMATION
 VERS.                 2.0:   CWLS LOG ASCII STANDARD -VERSION 2.0
 WRAP.                  NO:   ONE LINE PER DEPTH STEP
~WELL INFORMATION BLOCK
#MNEM.UNIT           DATA                    DESCRIPTION OF MNEMONIC
#---------    -------------------            -------------------------------
# Generated from Intellog Unique Number	CN_94_101/WELL/2654
WELL.         06-01-094-15W4                 : Well_name    - WELL
LOC .         AA/06-01-094-15W4/0            : Location     - LOCATION
UWI .         AA/06-01-094-15W400            : Uwi          - UNIQUE WELL ID
ENTR.         JOETTE                         : Entered      - ENTERED BY
SRVC.         SCHLUMBERGER                   : Scn          - SERVICE COMPANY
DATE.         06/18/92                       : Date         - LOG DATE
STRT.F        60                             : top_depth    - START DEPTH
STOP.F        510.295                        : bot_depth    - STOP DEPTH
STEP.F        0.8202                         : increment    - STEP LENGTH
 NULL. -999.2500:NULL Value
~CURVE INFORMATION BLOCK
#MNEM UNIT       ERCB CURVE CODE    CURVE DESCRIPTION
#-----------   ------------------   ----------------------------------
DEPT.F        00 001 00 00         : DEPTH        - DEPTH
GR  .API      00 310 00 00         : GR           - GAMMA RAY
DPHI.V/V      00 890 00 00         : PHID         - DENSITY POROSITY (SANDSTONE)
ILD .OHMM     00 120 00 00         : RESD         - DEEP RESISTIVITY (DIL)
~PARAMETER INFORMATION
#MNEM.UNIT           DATA             DESCRIPTION OF MNEMONIC
#---------         -----------     ------------------------------
GL  .M        435.498              : gl           - GROUND LEVEL ELEVATION
EREF.M        436.26               : kb           - ELEVATION OF DEPTH REFERENCE
DATM.M        436.26               : datum        - DATUM ELEVATION
TDD .M        155.448              : tdd          - TOTAL DEPTH DRILLER
RUN .         ONE                  : Run          - RUN NUMBER
ENG .         JO                   : Engineer     - RECORDING ENGINEER
WIT .         TIM                  : Witness      - WITNESSED BY
MUD .         GEL                  : Mud_type     - MUD TYPE
MATR.         SANDSTONE            : Logunit      - NEUTRON MATRIX
TMAX.F        40                   : BHT          - MAXIMUM RECORDED TEMPERATURE
BHTD.F        510                  : BHTDEP       - MAXIMUM RECORDED TEMPERATURE
RMT .F        45                   : MDTP         - TEMPERATURE OF MUD
MUDD.LB/G     1                    : MWT          - MUD DENSITY
NEUT.         1                    : NEUTRON      - NEUTRON TYPE
RESI.         0                    : RESIST       - RESISTIVITY TYPE
RM  .OHMM     10.1                 : RM           - RESISTIVITY OF MUD
RMC .OHMM     10.1                 : RMC          - RESISTIVITY OF MUD CAKE
RMF .OHMM     10.1                 : RMF          - RESISTIVITY OF MUD FILTRATE
SUFT.F        39.2                 : SUFT         - SURFACE TEMPERATURE
~A  DEPTH       GR     PHID     RESD
# ...
  237.986   65.048    0.128   14.022
  238.806   65.067    0.145   16.149
  239.626   67.554    0.156   15.568
  240.446   71.103    0.164   14.913
  241.266   74.299    0.180   15.870
  242.087   72.199    0.182   14.628
  242.907   71.524    0.188   13.534
  243.727   71.891    0.184   13.098
  244.547   72.615    0.178   13.175
  245.367   74.397    0.175   12.594
  246.188   74.064    0.170   11.719
  247.008   70.207    0.170   10.991
  247.828   67.413    0.174   11.507
  248.648   66.732    0.168   12.317
  249.469   67.804    0.168   13.199
  250.289   70.286    0.175   14.447
  251.109   73.830    0.171   14.011
  251.929   78.436    0.170   13.651
  252.749   79.165    0.177   13.362
  253.570   78.123    0.186   13.218
  254.390   76.385    0.195   13.002
  255.210   76.047    0.199   11.030
  256.030   75.362    0.183   11.985
  256.850   75.387    0.167   12.428
  257.671   74.702    0.163   11.701
  258.491   72.964    0.207   12.583
  259.311   75.093    0.220   13.318
  260.131   76.170    0.206   10.907
  260.951   72.313    0.192    9.812
  261.772   68.456    0.176    8.425
  262.592   68.833    0.176   11.285
  263.412   71.667    0.192   12.240
  264.232   80.507    0.224   13.781
  265.052   82.284    0.246   15.323
  265.873   79.484    0.406   16.937
  266.693   77.747    0.451    7.058
  267.513   78.119    0.445    5.964
  268.333   79.905    0.395    6.187
  269.154   79.920    0.389    6.630
  269.974   78.887    0.365    8.684
  270.794   78.197    0.338   10.371
  271.614   75.045    0.334   12.938
  272.434   71.893    0.362   16.895
  273.255   73.675    0.365   18.509
  274.075   78.633    0.371   16.463
  274.895   79.710    0.380   10.830
  275.715   76.915    0.383   11.420
  276.535   77.987    0.385   11.277
  277.356   81.531    0.347   11.354
  278.176   84.727    0.332   13.628
  278.996   80.518    0.325   15.315
  279.816   77.718    0.321   16.197
  280.636   80.557    0.323   16.789
  281.457   82.696    0.327   16.426
  282.277   81.306    0.331   16.502
  283.097   79.206    0.334   16.360
  283.917   76.054    0.335   16.436
  284.738   72.902    0.330   17.466
  285.558   70.455    0.316   18.860
  286.378   71.894    0.315   19.011
  287.198   73.676    0.320   18.355
  288.018   75.457    0.333   17.994
  288.839   76.882    0.343   16.828
  289.659   77.959    0.349   17.490
  290.479   78.698    0.350   17.346
  291.299   78.008    0.354   16.838
  292.119   76.970    0.354   17.207
  292.940   76.642    0.346   18.237
  293.760   78.419    0.324   18.387
  294.580   79.844    0.320   19.049
  295.400   83.750    0.325   19.053
  296.220   80.593    0.328   18.253
  297.041   75.326    0.346   18.256
  297.861   71.826    0.331   17.309
  298.681   71.846    0.287   18.850
  299.501   71.156    0.242   20.684
  300.322   67.651    0.190   20.468
  301.142   60.623    0.132   26.841
  301.962   56.413    0.106   29.408
  302.782   54.671    0.074   28.899
  303.602   57.862   -0.019   28.170
  304.423   60.701    0.053   26.125
  305.243   63.897    0.085   23.419
  306.063   66.736    0.266   21.447
  306.883   69.580    0.302   20.645
  307.703   68.895    0.295   19.478
  308.524   68.205    0.308   18.604
  309.344   66.110    0.326   18.314
  310.164   64.373    0.328   18.685
  310.984   62.630    0.330   20.884
  311.804   63.712    0.336   21.914
  312.625   65.136    0.329   20.966
  313.445   72.561    0.338   21.116
  314.265   73.291    0.343   19.802
  315.085   74.715    0.337   18.049
  315.906   77.207    0.307   16.516
  316.726   77.926    0.235   17.544
  317.546   69.135    0.191   19.598
  318.366   60.350    0.215   18.797
  319.186   54.731    0.253   16.531
  320.007   62.851    0.282   14.558
  320.827   70.629    0.379   12.586
  321.647   78.754    0.381   12.296
  322.467   82.650    0.374   12.887
  323.287   85.142    0.379   12.891
  324.108   82.694    0.371   12.821
  324.928   81.309    0.356   12.678
  325.748   83.086    0.361   12.682
  326.568   82.758    0.364   14.297
  327.388   80.663    0.367   14.594
  328.209   79.273    0.372   12.621
  329.029   79.645    0.369   13.137
  329.849   80.370    0.359   13.580
  330.669   80.389    0.332   13.218
  331.490   79.704    0.329   13.369
  332.310   79.019    0.335   15.349
  333.130   79.391    0.338   14.401
  333.950   81.173    0.344   15.796
  334.770   81.907    0.347   18.874
  335.591   79.807    0.351   21.881
  336.411   77.365    0.359   17.564
  337.231   79.847    0.361   12.737
  338.051   89.039    0.360   13.180
  338.871   88.349    0.367   14.063
  339.692   82.725    0.378   16.262
  340.512   80.282    0.390   17.071
  341.332   76.783    0.399   11.878
  342.152   83.856    0.407   11.004
  342.972   85.275    0.400   10.496
  343.793   84.947    0.394    9.255
  344.613   82.852    0.387   11.161
  345.433   83.577    0.389   13.508
  346.253   85.711    0.399   14.902
  347.073   87.845    0.400   13.223
  347.894   90.337    0.395   11.177
  348.714   91.409    0.387   10.815
  349.534   90.728    0.383   10.599
  350.354   90.748    0.379   10.456
  351.175   91.120    0.375   12.511
  351.995   85.148    0.372   15.369
  352.815   85.873    0.370   15.300
  353.635   89.422    0.366   11.936
  354.455   91.908    0.359   11.721
  355.276   94.047    0.348   13.481
  356.096   91.947    0.311   16.340
  356.916   87.033    0.320   18.101
  357.736   81.414    0.328   20.375
  358.556   79.672    0.338   17.084
  359.377   82.516    0.347   17.820
  360.197   81.826    0.360   19.727
  361.017   82.907    0.367   14.021
  361.837   85.041    0.358   12.999
  362.657   85.418    0.318   13.663
  363.478   84.028    0.313   14.033
  364.298   83.338    0.315   13.817
  365.118   84.420    0.339   14.041
  365.938   86.197    0.349   14.704
  366.759   89.393    0.357   15.000
  367.579   88.708    0.366   15.224
  368.399   84.851    0.381   14.861
  369.219   80.289    0.389   15.158
  370.039   83.128    0.392   14.869
  370.860   85.967    0.399    8.651
  371.680   88.111    0.406    7.776
  372.500   87.773    0.407    7.414
  373.320   86.383    0.399    9.247
  374.140   85.698    0.392    9.691
  374.961   89.947    0.384   12.330
  375.781   79.041    0.377   19.143
  376.601   67.779    0.308   21.781
  377.421   56.874    0.259   21.566
  378.241   50.197    0.223   19.520
  379.062   50.922    0.172   23.404
  379.882   51.294    0.180   29.118
  380.702   51.323    0.192   33.514
  381.522   51.695    0.223   26.710
  382.343   52.772    0.269   24.591
  383.163   53.497    0.321   20.349
  383.983   52.454    0.335   17.424
  384.803   51.064    0.334   15.305
  385.623   50.736    0.325   15.090
  386.444   50.051    0.317   15.972
  387.264   49.013    0.317   16.415
  388.084   49.043    0.326   15.761
  388.904   49.405    0.325   15.984
  389.724   49.782    0.327   15.914
  390.545   47.330    0.336   15.259
  391.365   48.407    0.331   15.996
  392.185   51.608    0.326   15.267
  393.005   51.633    0.323   17.906
  393.825   50.585    0.331   17.837
  394.646   47.785    0.326   19.232
  395.466   45.338    0.324   19.894
  396.286   46.415    0.325   16.604
  397.106   53.845    0.343   12.655
  397.927   56.679    0.369    7.827
  398.747   63.752    0.395    6.806
  399.567   66.234    0.401    6.590
  400.387   71.544    0.413    6.596
  401.207   76.498    0.417    6.671
  402.028   81.456    0.396    7.117
  402.848   85.353    0.395    7.265
  403.668   77.619    0.402    7.417
  404.488   73.410    0.394    7.347
  405.308   68.496    0.349    7.349
  406.129   64.286    0.284    7.720
  406.949   60.439    0.292   13.800
  407.769   60.449    0.306   18.416
  408.589   61.178    0.316   21.129
  409.409   61.203    0.322   21.864
  410.230   61.212    0.315   21.722
  411.050   61.937    0.303   19.456
  411.870   62.676    0.292   18.582
  412.690   61.629    0.281   19.317
  413.510   57.772    0.268   20.053
  414.331   53.562    0.254   21.009
  415.151   51.120    0.281   18.305
