~VERSION INFORMATION
 VERS.                 2.0:   CWLS LOG ASCII STANDARD -VERSION 2.0
 WRAP.                  NO:   ONE LINE PER DEPTH STEP
~WELL INFORMATION BLOCK
#MNEM.UNIT           DATA                    DESCRIPTION OF MNEMONIC
#---------    -------------------            -------------------------------
# Generated from Intellog Unique Number	CW_76_78/WELL/2567
WELL.         06-06-078-25W4                 : Well_name    - WELL
LOC .         AA/06-06-078-25W4/0            : Location     - LOCATION
UWI .         AA/06-06-078-25W4/0            : Uwi          - UNIQUE WELL ID
ENTR.         MAX                            : Entered      - ENTERED BY
SRVC.         SCHLUMBERGER                   : Scn          - SERVICE COMPANY
STRT.M        350                            : top_depth    - START DEPTH
STOP.M        590                            : bot_depth    - STOP DEPTH
STEP.M        0.25                           : increment    - STEP LENGTH
 NULL. -999.2500:NULL Value
~CURVE INFORMATION BLOCK
#MNEM UNIT       ERCB CURVE CODE    CURVE DESCRIPTION
#-----------   ------------------   ----------------------------------
DEPT.M        00 001 00 00         : DEPTH        - DEPTH
ILD .OHMM     00 120 00 00         : RESD         - DEEP RESISTIVITY (DIL)
NPHI.V/V      00 330 00 00         : PHIN         - NEUTRON POROSITY (SANDSTONE)
DPHI.V/V      00 890 00 00         : PHID         - DENSITY POROSITY (SANDSTONE)
CALI.MM       00 280 01 00         : CAL          - CALIPER
GR  .API      00 310 00 00         : GR           - GAMMA RAY
~PARAMETER INFORMATION
#MNEM.UNIT           DATA             DESCRIPTION OF MNEMONIC
#---------         -----------     ------------------------------
GL  .M        645.28               : gl           - GROUND LEVEL ELEVATION
EREF.M        650.03               : kb           - ELEVATION OF DEPTH REFERENCE
DATM.M        645.28               : datum        - DATUM ELEVATION
TDD .M        594                  : tdd          - TOTAL DEPTH DRILLER
RUN .         ONE                  : Run          - RUN NUMBER
ENG .         BILL                 : Engineer     - RECORDING ENGINEER
WIT .         JIM                  : Witness      - WITNESSED BY
MUD .         GEL                  : Mud_type     - MUD TYPE
MATR.         SANDSTONE            : Logunit      - NEUTRON MATRIX
TMAX.C        34.4                 : BHT          - MAXIMUM RECORDED TEMPERATURE
BHTD.M        594                  : BHTDEP       - MAXIMUM RECORDED TEMPERATURE
RMT .C        18                   : MDTP         - TEMPERATURE OF MUD
MUDD.KG/M     8.5                  : MWT          - MUD DENSITY
NEUT.         1                    : NEUTRON      - NEUTRON TYPE
RESI.         0                    : RESIST       - RESISTIVITY TYPE
RM  .OHMM     6.56                 : RM           - RESISTIVITY OF MUD
RMC .OHMM     0.25                 : RMC          - RESISTIVITY OF MUD CAKE
RMF .OHMM     5.94                 : RMF          - RESISTIVITY OF MUD FILTRATE
SUFT.C        -20                  : SUFT         - SURFACE TEMPERATURE
~A  DEPTH     RESD     PHIN     PHID      CAL       GR
# ...
  496.000   13.020    0.394    0.161  218.836   83.459
  496.250   13.033    0.399    0.150  218.864   83.475
  496.500   13.165    0.402    0.141  218.391   82.886
  496.750   13.424    0.400    0.150  217.912   80.790
  497.000   14.080    0.378    0.147  217.437   79.298
  497.250   14.626    0.358    0.149  217.467   80.221
  497.500   15.056    0.343    0.154  217.494   82.651
  497.750   15.352    0.361    0.141  217.521   83.877
  498.000   15.367    0.364    0.136  217.545   83.287
  498.250   14.958    0.359    0.125  217.576   81.192
  498.500   14.160    0.368    0.149  218.106   85.130
  498.750   12.796    0.380    0.149  219.142   89.373
  499.000   11.672    0.388    0.140  220.675   92.404
  499.250   11.257    0.395    0.148  223.216   91.517
  499.500   11.060    0.400    0.149  224.755   87.612
  499.750   11.175    0.378    0.121  225.285   83.102
  500.000   11.610    0.357    0.095  223.301   81.612
  500.250   12.173    0.367    0.132  220.311   82.234
  500.500   13.129    0.378    0.140  220.338   81.642
  500.750   14.024    0.360    0.117  221.371   76.831
  501.000   15.408    0.336    0.083  220.396   70.813
  501.250   18.576    0.313    0.062  218.908   65.097
  501.500   19.842    0.296    0.038  217.433   59.986
  501.750   23.269    0.300    0.106  216.954   58.192
  502.000   23.076    0.323    0.136  215.476   59.113
  502.250   22.670    0.368    0.170  213.492   60.938
  502.500   22.482    0.371    0.185  213.016   60.956
  502.750   23.146    0.351    0.137  213.040   60.067
  503.000   24.952    0.320    0.084  214.073   58.573
  503.250   29.535    0.302    0.097  216.618   58.895
  503.500   30.971    0.315    0.148  217.151   65.549
  503.750   30.151    0.364    0.200  216.169   67.374
  504.000   28.010    0.391    0.231  215.187   77.045
  504.250   22.015    0.403    0.204  217.233   80.984
  504.500   19.167    0.406    0.194  220.274   83.416
  504.750   16.380    0.414    0.177  220.304   80.717
  505.000   14.527    0.414    0.162  220.332   76.507
  505.250   13.753    0.403    0.155  219.856   71.696
  505.500   14.424    0.404    0.138  219.887   65.980
  505.750   15.696    0.389    0.096  219.407   58.453
  506.000   18.235    0.295    0.083  218.429   56.659
  506.250   19.662    0.311    0.130  218.456   66.032
  506.500   18.272    0.361    0.143  219.486   68.157
  506.750   16.817    0.371    0.150  220.016   75.115
  507.000   15.924    0.376    0.156  220.043   77.549
  507.250   15.941    0.375    0.123  220.070   78.466
  507.500   15.941    0.378    0.121  219.594   78.181
  507.750   15.974    0.373    0.106  219.119   75.783
  508.000   15.986    0.358    0.111  218.147   74.291
  508.250   16.001    0.353    0.127  218.174   74.609
  508.500   16.001    0.364    0.119  218.201   77.039
  508.750   16.188    0.364    0.098  218.232   78.262
  509.000   16.048    0.356    0.101  217.749   76.772
  509.250   15.915    0.357    0.134  217.274   77.392
  509.500   15.915    0.363    0.137  217.301   80.425
  509.750   15.951    0.368    0.107  217.328   77.125
  510.000   15.815    0.359    0.138  217.862   76.236
  510.250   15.540    0.370    0.130  217.386   79.571
  510.500   15.412    0.381    0.125  217.413   78.982
  510.750   15.139    0.373    0.120  216.937   77.490
  511.000   15.013    0.373    0.105  216.965   77.810
  511.250   14.888    0.381    0.103  216.995   78.428
  511.500   14.628    0.380    0.114  217.019   78.746
  511.750   14.628    0.379    0.116  217.050   77.859
  512.000   14.390    0.384    0.132  217.580   77.270
  512.250   13.749    0.393    0.132  218.106   78.797
  512.500   13.386    0.396    0.126  218.640   80.625
  512.750   13.386    0.390    0.118  219.170   79.433
  513.000   13.284    0.386    0.133  219.200   79.451
  513.250   13.052    0.383    0.162  218.718   80.974
  513.500   13.187    0.391    0.135  218.249   80.992
  513.750   13.449    0.386    0.120  217.770   80.101
  514.000   13.974    0.370    0.115  217.298   80.118
  514.250   14.248    0.369    0.110  217.328   80.436
  514.500   14.132    0.384    0.139  216.849   80.152
  514.750   14.015    0.381    0.151  216.873   79.867
  515.000   13.898    0.379    0.133  216.900   77.771
  515.250   13.898    0.379    0.126  217.430   76.579
  515.500   13.803    0.382    0.119  217.461   77.200
  515.750   13.682    0.386    0.136  217.488   78.727
  516.000   13.570    0.376    0.119  217.512   79.948
  516.250   13.583    0.396    0.164  218.545   79.967
  516.500   14.114    0.376    0.163  218.073   76.964
  516.750   15.218    0.301    0.134  216.088   70.644
  517.000   16.408    0.287    0.109  214.101   65.533
  517.250   18.539    0.292    0.146  215.140   66.756
  517.500   19.255    0.320    0.162  215.167   69.488
  517.750   19.636    0.350    0.170  214.688   71.918
  518.000   19.473    0.368    0.145  214.719   71.027
  518.250   20.046    0.357    0.131  215.249   66.820
  518.500   21.612    0.341    0.104  213.268   60.500
  518.750   24.645    0.305    0.063  214.801   57.197
  519.000   30.269    0.328    0.081  215.837   55.405
  519.250   32.337    0.359    0.133  214.349   55.723
  519.500   33.909    0.364    0.161  211.868   57.850
  519.750   32.706    0.347    0.103  213.900   58.773
  520.000   30.113    0.324    0.069  217.954   60.901
  520.250   26.956    0.344    0.114  217.981   64.540
  520.500   21.783    0.353    0.098  217.009   68.477
  520.750   20.054    0.374    0.098  217.036   72.420
  521.000   16.824    0.380    0.174  217.064   74.848
  521.250   16.824    0.375    0.184  217.084   76.672
  521.500   16.098    0.381    0.168  217.614   75.182
  521.750   15.807    0.380    0.138  218.650   72.785
  522.000   15.974    0.374    0.131  219.683   75.217
  522.250   16.600    0.357    0.119  219.204   77.345
  522.500   16.612    0.355    0.163  217.227   79.170
  522.750   16.322    0.358    0.150  219.265   82.809
  523.000   15.308    0.363    0.149  220.291   84.633
  523.250   14.355    0.369    0.138  220.828   87.367
  523.500   13.339    0.373    0.135  221.362   87.386
  523.750   13.106    0.366    0.142  221.382   84.079
  524.000   13.745    0.352    0.140  221.916   76.251
  524.250   16.881    0.327    0.114  221.939   69.327
  524.500   20.164    0.288    0.080  219.456   64.818
  524.750   25.469    0.260    0.078  213.445   63.627
  525.000   28.770    0.271    0.104  208.946   63.646
  525.250   31.900    0.297    0.131  207.971   65.171
  525.500   33.772    0.287    0.134  208.498   63.678
  525.750   34.112    0.256    0.045  211.039   62.488
  526.000   33.210    0.261    0.038  211.576   63.411
  526.250   32.641    0.290    0.052  211.597   66.744
  526.500   32.359    0.311    0.103  212.633   72.493
  526.750   29.240    0.337    0.134  213.666   80.053
  527.000   23.630    0.345    0.151  216.207   82.181
  527.250   20.959    0.341    0.155  217.747   82.199
  527.500   18.252    0.334    0.149  218.780   84.933
  527.750   16.956    0.343    0.140  219.813   86.458
  528.000   16.053    0.346    0.146  220.343   85.869
  528.250   15.340    0.343    0.141  220.876   86.489
  528.500   15.224    0.359    0.137  221.403   89.221
  528.750   14.809    0.375    0.160  221.929   91.651
  529.000   14.149    0.384    0.161  222.962   91.064
  529.250   13.148    0.379    0.139  222.490   85.951
  529.500   12.331    0.364    0.134  220.003   80.236
  529.750   12.809    0.362    0.116  213.500   76.632
  530.000   13.812    0.368    0.126  212.011   75.439
  530.250   15.175    0.379    0.162  212.011   75.456
  530.500   14.771    0.381    0.151  211.580   75.474
  530.750   14.651    0.373    0.129  211.091   75.189
  531.000   15.080    0.359    0.114  210.612   75.812
  531.250   15.963    0.343    0.089  210.639   75.221
  531.500   16.428    0.334    0.045  212.681   71.617
  531.750   16.442    0.372    0.133  214.723   71.935
  532.000   15.857    0.380    0.148  215.749   77.080
  532.250   15.153    0.374    0.161  214.268   74.683
