~VERSION INFORMATION
 VERS.                 2.0:   CWLS LOG ASCII STANDARD -VERSION 2.0
 WRAP.                  NO:   ONE LINE PER DEPTH STEP
~WELL INFORMATION BLOCK
#MNEM.UNIT           DATA                    DESCRIPTION OF MNEMONIC
#---------    -------------------            -------------------------------
# Generated from Intellog Unique Number	CX_WELLS/WELL/3021
WELL.         UNION OIL COMPANY OF CALIFORNI : Well_name    - WELL
LOC .         AA/03-36-090-11W4/0            : Location     - LOCATION
UWI .         AA/03-36-090-11W400            : Uwi          - UNIQUE WELL ID
ENTR.         JOETTE                         : Entered      - ENTERED BY
SRVC.         COMPUTALOG                     : Scn          - SERVICE COMPANY
DATE.         03/06/92                       : Date         - LOG DATE
STRT.M        30.480                         : top_depth    - START DEPTH
STOP.M        131.480                        : bot_depth    - STOP DEPTH
STEP.M        0.25                           : increment    - STEP LENGTH
 NULL. -999.2500:NULL Value
~CURVE INFORMATION BLOCK
#MNEM UNIT       ERCB CURVE CODE    CURVE DESCRIPTION
#-----------   ------------------   ----------------------------------
DEPT.M        00 001 00 00         : DEPTH        - DEPTH
GR  .API      00 310 00 00         : GR           - GAMMA RAY
NPHI.V/V      00 330 00 00         : PHIN         - NEUTRON POROSITY (SANDSTONE)
ILD .OHMM     00 120 00 00         : RESD         - DEEP RESISTIVITY (DIL)
~PARAMETER INFORMATION
#MNEM.UNIT           DATA             DESCRIPTION OF MNEMONIC
#---------         -----------     ------------------------------
GL  .M        403.25               : gl           - GROUND LEVEL ELEVATION
EREF.M        403.25               : kb           - ELEVATION OF DEPTH REFERENCE
DATM.M        403.25               : datum        - DATUM ELEVATION
TDD .M        153.924              : tdd          - TOTAL DEPTH DRILLER
RUN .         ONE                  : Run          - RUN NUMBER
ENG .         JO                   : Engineer     - RECORDING ENGINEER
WIT .         TIM                  : Witness      - WITNESSED BY
MUD .         GEL                  : Mud_type     - MUD TYPE
MATR.         SANDSTONE            : Logunit      - NEUTRON MATRIX
TMAX.C        22                   : BHT          - MAXIMUM RECORDED TEMPERATURE
BHTD.M        153.924              : BHTDEP       - MAXIMUM RECORDED TEMPERATURE
RMT .C        1.66667              : MDTP         - TEMPERATURE OF MUD
MUDD.KG/M     9083.33              : MWT          - MUD DENSITY
NEUT.         1                    : NEUTRON      - NEUTRON TYPE
RESI.         0                    : RESIST       - RESISTIVITY TYPE
RM  .OHMM     7.5                  : RM           - RESISTIVITY OF MUD
RMC .OHMM     7.5                  : RMC          - RESISTIVITY OF MUD CAKE
RMF .OHMM     4.78                 : RMF          - RESISTIVITY OF MUD FILTRATE
SUFT.C        4                    : SUFT         - SURFACE TEMPERATURE
~A  DEPTH       GR     PHIN     RESD
# ...
   84.730   84.881    0.490   18.399
   84.980   82.425    0.493   15.762
   85.230   80.585    0.499    8.939
   85.480   91.650    0.510    9.140
   85.730  115.622    0.507    9.002
   85.980  122.385    0.495    8.661
   86.230  116.857    0.491    8.186
   86.480  121.162    0.497    7.777
   86.730  121.780    0.507    7.707
   86.980  121.783    0.511    8.244
   87.230  108.880    0.508    8.646
   87.480   92.905    0.502    8.372
   87.730   83.075    0.495    8.235
   87.980  100.286    0.503    7.961
   88.230  124.257    0.517    7.892
   88.480  124.875    0.548    8.159
   88.730  116.889    0.554    8.359
   88.980  111.361    0.547    9.571
   89.230   97.229    0.542    7.137
   89.480   84.940    0.531    6.122
   89.730   64.663    0.522    5.039
   89.980   41.313    0.511    4.225
   90.230   43.774    0.499    4.222
   90.480   40.705    0.477    5.840
   90.730   33.333    0.479    7.389
   90.980   35.179    0.500    7.995
   91.230   59.151    0.505    8.937
   91.480   99.101    0.515    8.799
   91.730  105.250    0.505    8.593
   91.980  108.326    0.493    8.387
   92.230   84.361    0.489    8.047
   92.480   68.385    0.490    7.639
   92.730   48.722    0.504    9.257
   92.980   46.267    0.520   11.076
   93.230   60.406    0.581   12.560
   93.480   65.940    0.572    5.331
   93.730   57.953    0.563    3.573
   93.980   45.050    0.553    3.232
   94.230   45.668    0.539    3.297
   94.480   51.203    0.532    3.767
   94.730   58.581    0.531    4.642
   94.980   58.584    0.525    5.719
   95.230   54.900    0.506    5.514
   95.480   57.975    0.489    4.835
   95.730   63.510    0.483    5.237
   95.980   61.669    0.485    6.180
   96.230   61.673    0.513    7.798
   96.480   55.530    0.518    7.524
   96.730   62.908    0.531    7.184
   96.980   75.817    0.555    9.679
   97.230   83.809    0.558    8.326
   97.480   83.198    0.551    4.069
   97.730   78.284    0.560    3.390
   97.980   67.840    0.553    3.725
   98.230   57.396    0.534    4.127
   98.480   47.566    0.530    4.259
   98.730   35.892    0.527    4.189
   98.980   32.823    0.523    4.185
   99.230   35.284    0.520    4.184
   99.480   38.360    0.517    4.248
   99.730   37.134    0.519    4.380
   99.980   40.210    0.523    4.376
  100.230   46.359    0.533    4.374
  100.480   38.987    0.540    4.371
  100.730   43.907    0.534    4.706
  100.980   48.826    0.527    5.040
  101.230   48.830    0.526    4.970
  101.480   46.989    0.521    5.035
  101.730   46.377    0.512    4.761
  101.980   46.381    0.494    4.421
  102.230   42.697    0.472    4.486
  102.480   48.231    0.464    6.036
  102.730   48.849    0.467    7.923
  102.980   36.560    0.484    7.650
  103.230   29.189    0.487   10.415
  103.480   25.505    0.474   10.885
  103.730   21.820    0.473    9.329
  103.980   31.042    0.473    8.448
  104.230   48.867    0.467    8.108
  104.480   44.568    0.458    8.037
  104.730   42.728    0.447    8.034
  104.980   45.190    0.439    8.099
  105.230   47.651    0.440    8.231
  105.480   71.622    0.442    8.633
  105.730   87.604    0.446    8.968
  105.980   92.523    0.443   10.247
  106.230   94.370    0.438   10.380
  106.480   77.780    0.440   10.917
  106.730   71.638    0.457   12.197
  106.980   86.391    0.471   17.596
  107.230   96.841    0.477   18.199
  107.480   96.230    0.470   18.130
  107.730   95.618    0.456   18.059
  107.980   82.716    0.442   18.394
  108.230   72.272    0.441   18.795
  108.480   64.285    0.446   18.456
  108.730   64.903    0.478   17.980
  108.980   82.728    0.484   16.290
  109.230   82.117    0.493   14.732
  109.480   75.360    0.495   13.178
  109.730   75.363    0.473   10.203
  109.980   77.210    0.448    9.458
  110.230   71.068    0.420    9.252
  110.480   69.227    0.405    9.587
  110.730   66.772    0.387   11.001
  110.980   63.702    0.399   13.294
  111.230   46.498    0.436   17.951
  111.480   45.886    0.442   19.432
  111.730   55.722    0.454   19.025
  111.980   73.548    0.472   18.482
  112.230   83.999    0.477   16.318
  112.480   79.700    0.455   14.965
  112.730   66.797    0.434   10.371
  112.980   48.978    0.431   11.245
  113.230   71.105    0.433   12.795
  113.480   95.691    0.438   13.940
  113.730  123.964    0.437   14.409
  113.980  115.978    0.427   13.259
  114.230  115.981    0.426   12.919
  114.480  124.588    0.434   17.168
  114.730  120.904    0.451   18.381
  114.980   92.637    0.460   18.513
  115.230   76.047    0.458   17.093
  115.480   47.780    0.465   15.537
  115.730   63.762    0.466   13.238
  115.980  106.785    0.462   12.560
  116.230  104.330    0.475   17.959
  116.480  106.176    0.475   20.792
  116.730   93.888    0.455   10.526
  116.980   61.934    0.445   10.927
  117.230   44.115    0.440   11.330
  117.480   65.014    0.440   12.677
  117.730   74.235    0.436   28.002
  117.980   83.457    0.430   37.992
  118.230  113.573    0.413   38.461
  118.480   96.984    0.392   38.526
  118.730   55.196    0.385   38.319
  118.980   39.221    0.389   38.047
  119.230   52.744    0.399   35.681
  119.480   66.882    0.408   32.640
  119.730   77.948    0.420   28.856
  119.980   87.169    0.407   21.223
  120.230   83.485    0.418   22.436
  120.480   75.499    0.428   16.018
  120.730   73.044    0.433   17.501
  120.980   77.349    0.415   20.266
  121.230   74.894    0.417   21.748
  121.480   76.126    0.421   23.771
  121.730   67.525    0.431   22.755
  121.980   63.841    0.444   21.267
  122.230   65.688    0.457   19.779
  122.480   59.545    0.456   17.142
  122.730   54.632    0.456   15.383
  122.980   60.781    0.460   15.786
  123.230   63.242    0.460   16.459
  123.480   58.944    0.466   16.523
  123.730   62.020    0.468   15.235
  123.980   70.627    0.472   15.235
  124.230   73.703    0.471   17.120
  124.480   74.935    0.462   15.161
  124.730   74.324    0.457   14.685
  124.980   71.869    0.453   14.682
  125.230   63.883    0.456   14.746
  125.480   63.885    0.467   14.676
  125.730   66.347    0.483   13.930
  125.980   67.579    0.461   12.915
  126.230   76.187    0.457   12.304
  126.480   71.887    0.450   12.301
  126.730   69.432    0.452   12.230
  126.980   66.362    0.451   11.687
  127.230   66.980    0.444   10.807
  127.480   68.213    0.444   10.601
  127.730   65.757    0.442   10.463
  127.980   67.605    0.437   10.123
  128.230   76.212    0.438    9.513
  128.480   74.371    0.443    9.306
  128.730   70.072    0.445    9.438
  128.980   72.534    0.454    9.301
  129.230   71.308    0.461    9.026
  129.480   67.623    0.458    8.888
  129.730   65.168    0.454    8.954
  129.980   74.390    0.451   10.099
  130.230   71.935    0.459   10.230
  130.480   59.032    0.462   10.430
  130.730   39.369    0.455   10.631
  130.980   20.320    0.451   11.099
  131.230   21.553    0.447   11.233
  131.480   25.243    0.449   11.094
