~VERSION INFORMATION
 VERS.                 2.0:   CWLS LOG ASCII STANDARD -VERSION 2.0
 WRAP.                  NO:   ONE LINE PER DEPTH STEP
~WELL INFORMATION BLOCK
#MNEM.UNIT           DATA                    DESCRIPTION OF MNEMONIC
#---------    -------------------            -------------------------------
# Generated from Intellog Unique Number	CN_94_101/WELL/3734
WELL.         PEX/NOVA                       : Well_name    - WELL
LOC .         AA/06-31-096-09W4/0            : Location     - LOCATION
UWI .         AA/06-31-096-09W400            : Uwi          - UNIQUE WELL ID
ENTR.         JOETTE                         : Entered      - ENTERED BY
SRVC.         SCHLUMBERGER                   : Scn          - SERVICE COMPANY
DATE.         08/10/92                       : Date         - LOG DATE
STRT.M        65                             : top_depth    - START DEPTH
STOP.M        180                            : bot_depth    - STOP DEPTH
STEP.M        0.25                           : increment    - STEP LENGTH
 NULL. -999.2500:NULL Value
~CURVE INFORMATION BLOCK
#MNEM UNIT       ERCB CURVE CODE    CURVE DESCRIPTION
#-----------   ------------------   ----------------------------------
DEPT.M        00 001 00 00         : DEPTH        - DEPTH
GR  .API      00 310 00 00         : GR           - GAMMA RAY
ILD .OHMM     00 120 00 00         : RESD         - DEEP RESISTIVITY (DIL)
NPHI.V/V      00 330 00 00         : PHIN         - NEUTRON POROSITY (SANDSTONE)
DPHI.V/V      00 890 00 00         : PHID         - DENSITY POROSITY (SANDSTONE)
~PARAMETER INFORMATION
#MNEM.UNIT           DATA             DESCRIPTION OF MNEMONIC
#---------         -----------     ------------------------------
GL  .M        336.8                : gl           - GROUND LEVEL ELEVATION
EREF.M        336.8                : kb           - ELEVATION OF DEPTH REFERENCE
DATM.M        336.8                : datum        - DATUM ELEVATION
TDD .M        183.2                : tdd          - TOTAL DEPTH DRILLER
RUN .         ONE                  : Run          - RUN NUMBER
ENG .         JO                   : Engineer     - RECORDING ENGINEER
WIT .         TIM                  : Witness      - WITNESSED BY
MUD .         GEL                  : Mud_type     - MUD TYPE
MATR.         SANDSTONE            : Logunit      - NEUTRON MATRIX
TMAX.C        18                   : BHT          - MAXIMUM RECORDED TEMPERATURE
BHTD.M        183.2                : BHTDEP       - MAXIMUM RECORDED TEMPERATURE
RMT .C        18                   : MDTP         - TEMPERATURE OF MUD
MUDD.KG/M     1010                 : MWT          - MUD DENSITY
NEUT.         1                    : NEUTRON      - NEUTRON TYPE
RESI.         0                    : RESIST       - RESISTIVITY TYPE
RM  .OHMM     9.5                  : RM           - RESISTIVITY OF MUD
RMC .OHMM     9.5                  : RMC          - RESISTIVITY OF MUD CAKE
RMF .OHMM     9.5                  : RMF          - RESISTIVITY OF MUD FILTRATE
SUFT.C        4                    : SUFT         - SURFACE TEMPERATURE
~A  DEPTH       GR     RESD     PHIN     PHID
# ...
  152.000   41.158   52.846    0.404    0.297
  152.250   35.298   72.980    0.408    0.315
  152.500   26.482   67.194    0.399    0.330
  152.750   23.577   50.878    0.410    0.341
  153.000   26.014   53.125    0.396    0.331
  153.250   30.794   62.025    0.408    0.349
  153.500   42.084   61.261    0.410    0.366
  153.750   36.822   59.630    0.412    0.349
  154.000   35.705   54.157    0.415    0.330
  154.250   39.302   53.465    0.411    0.331
  154.500   42.915   66.032    0.418    0.348
  154.750   37.054   56.684    0.406    0.329
  155.000   30.610   60.030    0.406    0.300
  155.250   31.266   60.953    0.391    0.282
  155.500   29.558   73.193    0.392    0.287
  155.750   24.880   75.352    0.397    0.300
  156.000   26.120   69.378    0.397    0.288
  156.250   28.550   59.566    0.398    0.291
  156.500   28.017   59.642    0.398    0.293
  156.750   19.208   67.746    0.400    0.293
  157.000   23.988   67.821    0.396    0.293
  157.250   27.002   62.444    0.400    0.286
  157.500   26.469   56.696    0.412    0.285
  157.750   28.899   59.199    0.410    0.299
  158.000   33.087   73.103    0.395    0.321
  158.250   33.153   55.344    0.400    0.308
  158.500   33.809   67.393    0.395    0.299
  158.750   30.904   74.440    0.413    0.317
  159.000   37.465   72.468    0.425    0.327
  159.250   29.247   68.615    0.425    0.309
  159.500   28.123   63.175    0.409    0.294
  159.750   27.597   61.512    0.403    0.268
  160.000   35.340   63.336    0.406    0.266
  160.250   48.404   55.144    0.372    0.284
  160.500   73.881   45.393    0.395    0.306
  160.750   36.099   63.589    0.405    0.324
  161.000   24.925   61.925    0.389    0.352
  161.250   29.727   56.215    0.394    0.322
  161.500   22.085   59.514    0.394    0.292
  161.750   23.333   66.641    0.381    0.297
  162.000   34.039   66.726    0.387    0.297
  162.250   35.870   64.078    0.404    0.309
  162.500   35.929   70.755    0.397    0.291
  162.750   27.112   64.251    0.388    0.279
  163.000   24.813   57.517    0.391    0.281
  163.250   35.519   58.411    0.388    0.297
  163.500   34.971   60.153    0.387    0.310
  163.750   39.766   66.400    0.395    0.310
  164.000   30.950   71.298    0.387    0.299
  164.250   26.892   54.737    0.385    0.287
  164.500   25.162   54.807    0.383    0.282
  164.750   25.818   53.373    0.388    0.285
  165.000   30.605   54.947    0.389    0.298
  165.250   26.526   55.026    0.383    0.292
  165.500   27.182   47.901    0.397    0.280
  165.750   31.955   38.349    0.401    0.232
  166.000   32.604   32.931    0.385    0.185
  166.250   35.027   26.731    0.389    0.198
  166.500   39.230   19.679    0.389    0.216
  166.750   39.887   16.202    0.387    0.224
  167.000   34.617   18.142    0.393    0.203
  167.250   23.444   25.054    0.402    0.206
  167.500   28.231   15.816    0.418    0.240
  167.750   43.068    4.627    0.435    0.275
  168.000   66.779   25.154    0.451    0.300
  168.250   62.699   24.152    0.441    0.323
  168.500   49.745   39.451    0.442    0.316
  168.750   47.438   34.343    0.416    0.301
  169.000   49.868   32.990    0.416    0.301
  169.250   48.744   33.481    0.420    0.286
  169.500   41.124   31.261    0.412    0.258
  169.750   42.365   27.989    0.410    0.239
  170.000   61.332   30.486    0.418    0.243
  170.250   79.132   27.671    0.421    0.286
  170.500   66.776   15.839    0.436    0.253
  170.750   79.839   22.181    0.467    0.184
  171.000  100.587   27.015    0.452    0.214
  171.250  102.426   11.368    0.451    0.266
  171.500   36.853   19.362    0.442    0.317
  171.750   33.955   23.913    0.436    0.342
  172.000   34.604   31.667    0.418    0.329
  172.250   28.758   38.026    0.414    0.309
  172.500   25.853   32.648    0.407    0.302
  172.750   29.458   36.563    0.399    0.309
  173.000   27.758   37.119    0.408    0.324
  173.250   26.626   32.318    0.414    0.322
  173.500   22.553   31.477    0.406    0.302
  173.750   29.107   30.643    0.424    0.291
  174.000   28.574   26.684    0.419    0.289
  174.250   36.915   26.714    0.410    0.292
  174.500   32.237   28.286    0.406    0.286
  174.750   31.711   29.125    0.417    0.259
  175.000   35.900   32.618    0.417    0.212
  175.250   54.291   40.839    0.390    0.136
  175.500   53.758   45.730    0.319    0.088
  175.750   79.243   15.178    0.260    0.078
  176.000  143.743   18.740    0.385    0.091
  176.250  115.419    5.560    0.429    0.106
  176.500   68.776   11.204    0.377    0.101
  176.750   51.684   79.398    0.218    0.093
  177.000   46.422  114.361    0.148    0.099
  177.250   49.435   92.861    0.130    0.101
  177.500   45.363  130.045    0.085    0.096
  177.750   42.465   54.715    0.023    0.096
  178.000   36.605   99.950    0.030    0.102
  178.250   32.539  123.425    0.036    0.107
  178.500   30.824  121.905    0.083    0.107
  178.750   30.291  138.381    0.113    0.099
  179.000   35.071  106.238    0.120    0.092
  179.250   34.538   60.822    0.113    0.094
  179.500   31.064   74.053    0.097    0.094
  179.750   31.107   91.445    0.072    0.094
  180.000   36.486   74.242    0.090    0.097
