~Version : LASO    vs 4.00
VERS.                2.00:   CWLS Log ASCII Standard -VERSION 2.0
WRAP.                  NO:
~Well Information Block
#MNEM.UNIT       Data                        Description of Mnemonic
#----.----      -------------------------- : -----------------------------
STRT.M            30.0000:
STOP.M           204.0000:
STEP.M             0.2000:
NULL.           -999.2500:
COMP.  MOBIL OIL OF CANADA                    :COMPANY
WELL.  MOBIL CLARKE OV PROGRAM 2-81 4-3       :WELL
FLD.                                          :FIELD
LOC.   04-03-090-07W4                         :LOCATION
CTRY.  CANADA                                 :COUNTRY
PROV.  ALBERTA                                :PROVINCE
SRVC.  SCHLUMBERGER                           :SERVICE COMPANY
DATE.  26-JAN-81                              :LOG DATE
UWI.   AA/04-03-090-07W400                    :UNIQUE WELL ID
~Parameter Information Block
#MNEM.UNIT       Data                        Description of Mnemonic
#----.----      -------------------------- : -----------------------------
RUN .                   1                 : Run Number
GL  .M           466.8000                 : Ground Level Elevation
DREF.                  GD                 : Depth Reference
EREF.M           466.8000                 : Elevation of Depth Reference
TDL .M           205.0000                 : Total Depth Logger
TDD .M           205.0000                 : Total Depth Driller
BHT .DEGC         19.0000                 : Bottom Hole Temperature
BS  .MM          159.0000                 : Bit Size
DFD .            980.0000                 : Mud Weight (Density)
DFV .             38.0000                 : Mud Viscosity
DFPH.             10.0000                 : Mud pH
~Curve Information Block
#MNEM.UNIT        API CODE    Curve Description
#---------    ------------    -------------------------------------------
DEPT.M                    :   DEPTH
CALI.MM       42 280  1  1:   3 DENSITY CALIPER
DPHI.V/V                  :   DPHI
DT  .US/M     60 520  0  1:   2 SONIC INTERVAL TRANSIT TIME (COMPENSATED)
GR  .GAPI     42 310  1  1:   4 GAMMA RAY
ILD .OHMM      5 120 46  1:   7 DEEP INDUCTION
ILM .OHMM      5 120 44  1:   8 MEDIUM INDUCTION
NPHI.V/V      42 890  3  1:   5 NEUTRON POROSITY (SANDSTONE)
RHOB.K/M3     42 350  1  1:   6 BULK DENSITY
SFLU.OHMM      5 220  1  1:   9 FOCUSSED RESISTIVITY
SP  .MV        5  10  1  1:   10 SPONTANEOUS POTENTIAL
~A  Depth           CALI        DPHI          DT          GR         ILD         ILM        NPHI        RHOB        SFLU          SP
# ...
91.0000         183.6750      0.3045    485.4000     82.2750      6.1920      5.9133      0.2940   2242.2000      7.4444    -47.8800
91.2000         183.6750      0.3228    526.4800     89.6850      5.2946      5.0099      0.3360   2158.1001      4.0535    -46.6050
91.4000         186.2250      0.3538    505.7200     96.1800      4.1289      4.0910      0.3720   2023.9000      2.7786    -46.6050
91.6000         190.0250      0.3707    486.2000     98.2800      3.8004      3.8711      0.4292   2032.9000      2.8565    -46.0950
91.8000         191.3000      0.3704    503.4400     99.5850      3.6294      3.7656      0.5652   2049.8999      3.1321    -46.3500
92.0000         196.3750      0.3639    534.7200    100.2750      3.7310      3.8356      0.6076   2051.8999      3.3100    -46.3500
92.2000         192.5750      0.3653    557.7200     98.2800      3.8711      3.9795      0.6092   2047.9000      3.4027    -46.0950
92.4000         184.9500      0.3631    573.1600     96.1800      4.1289      4.2056      0.5592   2045.9000      3.8004    -46.0950
92.6000         179.8750      0.3618    577.8800     95.0850      4.4038      4.4446      0.5542   2053.8999      4.2056    -45.8400
92.8000         179.8750      0.3593    569.6400     93.8850      5.2460      5.2460      0.5604   2074.8999      4.4857    -46.8600
93.0000         179.8750      0.3527    566.3600     96.0750      5.6994      5.8591      0.5524   2079.8999      5.1979    -47.3700
93.2000         179.8750      0.3445    560.6000     97.1850      6.0790      6.3655      0.5284   2082.0000      7.0442    -47.6250
93.4000         181.1250      0.3358    567.6000     94.7850      6.8522      7.0442      0.5184   2121.0000     10.9605    -47.6250
93.6000         182.4000      0.3280    579.5200     94.8750      7.2415      7.2415      0.5226   2112.0000      9.7237    -47.3700
93.8000         183.6750      0.3244    541.7200     95.2800      7.3762      7.3762      0.5104   2117.0000      8.4690    -47.1150
94.0000         181.1250      0.3216    533.0800     96.2850      7.3085      7.1094      0.4940   2118.0000      8.0878    -46.8600
94.2000         182.4000      0.3233    526.9200     95.7750      7.1751      6.9796      0.5000   2120.0000      7.2415    -46.3500
94.4000         179.8750      0.3257    529.8000     93.7800      7.1751      6.9796      0.5072   2101.0000      6.4244    -46.3500
94.6000         183.6750      0.3340    534.3200     91.1850      7.2415      7.3085      0.5012   2094.0000      7.4444    -46.8600
94.8000         179.8750      0.3322    537.6000     89.6850      7.3085      7.4444      0.4898   2098.0000      8.4690    -47.1150
95.0000         177.3250      0.3312    536.7600     89.4750      7.5133      7.5828      0.4752   2091.0000      8.7062    -47.8800
95.2000         173.5250      0.3319    535.5200     89.1750      8.0136      8.0878      0.4530   2108.0000      9.1165    -50.6850
95.4000         172.2500      0.3311    536.1600     89.1750      8.1626      8.0878      0.4236   2104.0000      9.8136    -51.1950
95.6000         173.5250      0.3340    528.9600     90.3750      8.0136      8.1626      0.4556   2094.0000      9.2009    -50.6850
95.8000         174.7750      0.3377    528.7600     89.3850      7.7238      8.0136      0.4740   2094.0000      8.7062    -50.1750
96.0000         176.0500      0.3393    538.2000     88.2750      7.0442      6.9796      0.4644   2082.0000     11.0619    -49.6650
96.2000         177.3250      0.3395    529.3600     92.1750      6.7894      6.5438      0.4574   2088.0000      8.2382    -48.1350
96.4000         181.1250      0.3372    524.8400     94.6800      6.6655      6.3655      0.4642   2096.0000      5.4429    -46.8600
96.6000         183.6750      0.3347    524.8400     90.8850      6.3655      6.3655      0.4660   2121.0000      5.2460    -47.3700
96.8000         187.5000      0.3215    530.0000     90.4800      6.3071      6.4244      0.4808   2129.0000      6.3071    -47.8800
97.0000         187.5000      0.3278    561.6400     89.7750      6.3071      6.4838      0.4990   2116.0000      7.3085    -48.3900
97.2000         191.3000      0.3372    548.2800     91.4850      6.2493      6.4244      0.4844   2096.0000      7.8674    -47.8800
97.4000         178.6000      0.3321    542.7200     93.9750      6.3071      6.1920      0.4764   2084.0000      7.5133    -47.8800
97.6000         176.0500      0.3230    536.3600     96.2850      6.2493      6.0790      0.4684   2105.0000      6.5438    -47.6250
97.8000         179.8750      0.3141    531.4400     97.1850      6.1920      6.0790      0.4696   2142.0000      5.5441    -46.3500
98.0000         178.6000      0.3213    528.9600     98.1750      6.0790      6.0790      0.4684   2130.0000      5.7521    -46.3500
98.2000         177.3250      0.3255    530.6000     99.8850      6.0790      6.1920      0.4784   2122.0000      6.0232    -46.3500
98.4000         177.3250      0.3202    532.2400    100.0800      6.0790      6.3071      0.4952   2122.0000      7.1751    -45.8400
98.6000         177.3250      0.3140    533.6801     97.4850      6.0790      6.3071      0.4996   2134.0000      7.5828    -45.3300
98.8000         177.3250      0.3173    535.5200     97.0800      6.0232      6.1920      0.4760   2124.0000      7.4444    -45.3300
99.0000         176.0500      0.3154    539.4400     99.1800      5.9133      5.9680      0.4660   2132.0000      6.9796    -45.0750
99.2000         177.3250      0.3229    541.9200    101.6850      5.5954      5.5954      0.4644   2118.0000      5.7521    -45.0750
99.4000         177.3250      0.3337    533.4800    100.6800      5.4429      5.4429      0.4728   2100.0000      5.1979    -45.3300
99.6000         178.6000      0.3323    526.9200    100.0800      5.3930      5.3930      0.4786   2086.0000      4.7844    -45.0750
99.8000         182.4000      0.3267    519.9200    101.1750      5.6994      5.4933      0.4552   2112.0000      4.6540    -45.0750
100.0000        186.2250      0.3249    524.4400     99.2850      6.0232      5.8591      0.4372   2116.0000      4.4857    -45.0750
100.2000        179.8750      0.3293    534.3200     97.4850      6.4244      6.4838      0.5158   2098.0000      4.6540    -45.3300
100.4000        182.4000      0.3431    538.4000     92.5800      7.0442      7.6530      0.5204   2064.8999     11.2676    -48.3900
100.6000        170.9750      0.3490    534.7200     89.8800      7.3085      7.8674      0.5220   2063.8999     15.6975    -49.9200
100.8000        172.2500      0.3367    529.8000     89.8800      7.5828      7.7952      0.4980   2082.0000     15.6975    -49.9200
101.0000        173.5250      0.3291    528.1200     92.6850      7.9402      7.3762      0.4712   2116.0000      8.4690    -47.6250
101.2000        174.7750      0.3265    524.0400     91.4850      7.9402      7.3762      0.4498   2106.0000      6.3071    -46.6050
101.4000        177.3250      0.3260    506.3600     88.8750      7.7952      7.5133      0.4334   2108.0000      5.6472    -46.3500
101.6000        177.3250      0.3206    502.2000     84.6750      7.7238      7.6530      0.4424   2117.0000      7.5828    -46.6050
101.8000        177.3250      0.3155    506.5600     84.3750      7.8674      7.7952      0.4500   2134.0000      8.9501    -46.8600
102.0000        178.6000      0.3105    514.1600     85.5750      8.0136      8.0878      0.4588   2142.0000      9.6345    -47.1150
102.2000        178.6000      0.3123    514.1600     85.1850      8.2382      8.3144      0.4524   2138.0000     10.1819    -47.6250
102.4000        177.3250      0.3271    511.6800     84.0750      8.7062      8.0878      0.4474   2099.0000     10.9605    -47.6250
102.6000        177.3250      0.3339    504.7200     85.6800      8.9501      8.0136      0.4510   2098.0000      9.2860    -46.8600
102.8000        179.8750      0.3384    497.3200     85.5750      9.2009      8.1626      0.4656   2090.0000      7.6530    -46.0950
103.0000        178.6000      0.3372    500.9600     83.8800      9.7237      9.0330      0.4554   2085.0000      8.1626    -46.6050
