~VERSION INFORMATION
 VERS.                 2.0:   CWLS LOG ASCII STANDARD -VERSION 2.0
 WRAP.                  NO:   ONE LINE PER DEPTH STEP
~WELL INFORMATION BLOCK
#MNEM.UNIT           DATA                    DESCRIPTION OF MNEMONIC
#---------    -------------------            -------------------------------
# Generated from Intellog Unique Number	CW_82_90/WELL/3056
WELL.         06-34-085-19W4                 : Well_name    - WELL
LOC .         AA/06-34-085-19W4/0            : Location     - LOCATION
UWI .         AA/06-34-085-19W4/0            : Uwi          - UNIQUE WELL ID
ENTR.         JJ                             : Entered      - ENTERED BY
SRVC.         SCHLUMBERGER                   : Scn          - SERVICE COMPANY
DATE.         22 JAN 81                      : Date         - LOG DATE
STRT.M        200                            : top_depth    - START DEPTH
STOP.M        322                            : bot_depth    - STOP DEPTH
STEP.M        0.25                           : increment    - STEP LENGTH
 NULL. -999.2500:NULL Value
~CURVE INFORMATION BLOCK
#MNEM UNIT       ERCB CURVE CODE    CURVE DESCRIPTION
#-----------   ------------------   ----------------------------------
DEPT.M        00 001 00 00         : DEPTH        - DEPTH
ILD .OHMM     00 120 00 00         : RESD         - DEEP RESISTIVITY (DIL)
CALI.MM       00 280 01 00         : CAL          - CALIPER
GR  .API      00 310 00 00         : GR           - GAMMA RAY
NPHI.V/V      00 330 00 00         : PHIN         - NEUTRON POROSITY (SANDSTONE)
DPHI.V/V      00 890 00 00         : PHID         - DENSITY POROSITY (SANDSTONE)
~PARAMETER INFORMATION
#MNEM.UNIT           DATA             DESCRIPTION OF MNEMONIC
#---------         -----------     ------------------------------
GL  .M        588.9                : gl           - GROUND LEVEL ELEVATION
EREF.M        592                  : kb           - ELEVATION OF DEPTH REFERENCE
DATM.M        592                  : datum        - DATUM ELEVATION
TDD .M        322                  : tdd          - TOTAL DEPTH DRILLER
RUN .         ONE                  : Run          - RUN NUMBER
ENG .         BRANDSTROM           : Engineer     - RECORDING ENGINEER
WIT .         SHALLLCROSS          : Witness      - WITNESSED BY
BASE.         EDM                  : Branch       - HOME BASE OF LOGGING UNIT
MUD .         GEL CHEM             : Mud_type     - MUD TYPE
MATR.         SANDSTONE            : Logunit      - NEUTRON MATRIX
TMAX.C        26                   : BHT          - MAXIMUM RECORDED TEMPERATURE
BHTD.M        323                  : BHTDEP       - MAXIMUM RECORDED TEMPERATURE
RMT .C        13                   : MDTP         - TEMPERATURE OF MUD
MUDD.KG/M     1100                 : MWT          - MUD DENSITY
NEUT.         1                    : NEUTRON      - NEUTRON TYPE
RESI.         0                    : RESIST       - RESISTIVITY TYPE
RM  .OHMM     2.45                 : RM           - RESISTIVITY OF MUD
RMC .OHMM     0                    : RMC          - RESISTIVITY OF MUD CAKE
RMF .OHMM     2.03                 : RMF          - RESISTIVITY OF MUD FILTRATE
SUFT.C        5                    : SUFT         - SURFACE TEMPERATURE
~A  DEPTH     RESD      CAL       GR     PHIN     PHID
# ...
  273.000   13.437  233.349   89.071    0.416    0.185
  273.250   13.137  234.440   91.833    0.420    0.182
  273.500   12.916  235.210   91.119    0.439    0.202
  273.750   13.062  235.467   94.188    0.438    0.196
  274.000   13.259  235.216   97.820    0.431    0.203
  274.250   13.309  234.641   98.098    0.434    0.206
  274.500   13.333  233.561   93.786    0.443    0.176
  274.750   13.383  232.685   89.225    0.440    0.159
  275.000   13.357  232.314   92.545    0.444    0.172
  275.250   12.767  231.748   94.748    0.466    0.203
  275.500   12.389  231.381   94.031    0.447    0.191
  275.750   11.886  231.028   93.264    0.439    0.188
  276.000   11.534  230.661   92.918    0.464    0.172
  276.250   11.276  229.788   91.581    0.460    0.157
  276.500   11.339  228.288   87.396    0.439    0.122
  276.750   11.467  227.199   78.311    0.399    0.077
  277.000   11.597  227.561   81.502    0.331    0.112
  277.250   11.575  230.614   93.319    0.365    0.188
  277.500   11.596  232.423   94.215    0.389    0.181
  277.750   11.595  233.292   90.775    0.418    0.188
  278.000   12.017  232.937   89.820    0.432    0.182
  278.250   12.665  230.815   90.152    0.404    0.172
  278.500   12.930  228.179   91.672    0.391    0.175
  278.750   13.224  228.441   87.737    0.392    0.190
  279.000   13.075  227.660   86.404    0.384    0.195
  279.250   12.545  225.130   82.029    0.371    0.208
  279.500   11.746  226.210   79.396    0.365    0.218
  279.750   11.657  228.951   79.175    0.349    0.194
  280.000   12.685  226.628   80.821    0.318    0.113
  280.250   14.066  225.434   80.725    0.309    0.097
  280.500   15.079  227.350   83.052    0.324    0.105
  280.750   16.752  229.158   86.182    0.350    0.118
  281.000   18.541  227.355   88.139    0.385    0.150
  281.250   20.367  224.193   88.048    0.412    0.174
  281.500   21.874  221.875   88.138    0.412    0.193
  281.750   24.577  220.894   88.111    0.398    0.209
  282.000   26.997  220.230   88.755    0.392    0.222
  282.250   26.197  219.953   88.290    0.390    0.216
  282.500   22.496  219.493   84.602    0.393    0.203
  282.750   19.833  219.343   81.779    0.375    0.177
  283.000   17.784  220.419   78.277    0.344    0.137
  283.250   17.127  223.165   78.805    0.335    0.083
  283.500   16.902  226.423   84.972    0.359    0.150
  283.750   17.125  229.678   90.777    0.392    0.212
  284.000   17.648  232.408   94.340    0.413    0.223
  284.250   18.883  236.178   97.594    0.430    0.194
  284.500   20.938  237.168   98.682    0.438    0.186
  284.750   22.235  231.949  101.687    0.436    0.182
  285.000   22.956  231.383  106.429    0.434    0.173
  285.250   21.014  231.946  109.745    0.440    0.184
  285.500   17.676  233.041  104.073    0.440    0.163
  285.750   15.555  233.500   98.957    0.444    0.162
  286.000   12.889  233.856   94.334    0.442    0.178
  286.250   11.068  234.018   88.414    0.429    0.171
  286.500    9.154  233.968   80.382    0.381    0.139
  286.750    7.920  233.705   73.405    0.342    0.089
  287.000    6.650  233.438   77.468    0.334    0.097
  287.250    6.674  232.872   85.066    0.365    0.135
  287.500    7.713  232.406   90.928    0.397    0.183
  287.750   10.130  232.052   95.237    0.427    0.166
  288.000   13.838  231.890   97.931    0.439    0.147
  288.250   17.242  232.151   96.906    0.449    0.146
  288.500   20.190  234.062  100.286    0.455    0.143
  288.750   21.320  235.972  100.382    0.437    0.134
  289.000   19.153  233.851   93.715    0.414    0.130
  289.250   15.227  233.596   94.114    0.409    0.129
  289.500   10.959  234.268   97.308    0.415    0.146
  289.750    8.297  235.448  100.017    0.421    0.187
  290.000    7.032  236.953  101.288    0.429    0.174
  290.250    7.960  237.415  102.308    0.444    0.170
  290.500    9.304  237.166  103.387    0.468    0.177
  290.750   10.220  235.555  105.157    0.456    0.155
  291.000   10.752  233.022  107.167    0.448    0.150
  291.250   10.751  232.451  109.867    0.443    0.185
  291.500   10.432  234.051  111.075    0.434    0.190
  291.750   10.066  231.002  106.580    0.435    0.184
  292.000    9.532  227.234   97.246    0.457    0.169
  292.250    8.775  228.115   91.323    0.409    0.156
  292.500    8.216  230.650   95.508    0.378    0.143
  292.750    7.520  231.836  102.491    0.359    0.146
  293.000    7.284  232.302  105.060    0.368    0.170
  293.250    7.283  232.245  101.619    0.381    0.173
  293.500    8.773  232.397   97.988    0.388    0.169
  293.750   11.456  232.550   94.112    0.378    0.184
  294.000   13.240  233.019   93.590    0.379    0.174
  294.250   15.329  233.179   93.553    0.384    0.170
  294.500   17.094  232.191   89.865    0.395    0.180
  294.750   17.320  226.251   82.953    0.401    0.174
  295.000   16.649  223.613   79.385    0.387    0.155
  295.250   16.064  222.321   77.366    0.359    0.125
  295.500   15.617  221.875   79.758    0.336    0.093
  295.750   15.558  221.817   84.067    0.328    0.123
  296.000   16.244  221.354   85.149    0.330    0.182
  296.250   17.512  220.995   86.053    0.333    0.145
  296.500   19.750  220.637   88.250    0.327    0.149
  296.750   21.533  220.274   90.761    0.320    0.184
  297.000   22.738  220.209   87.442    0.307    0.211
  297.250   23.652  220.048   81.148    0.303    0.220
  297.500   23.386  220.300   79.072    0.309    0.224
  297.750   23.036  220.677   77.868    0.317    0.228
  298.000   23.297  221.135   76.225    0.324    0.213
  298.250   24.188  221.708   74.575    0.327    0.207
  298.500   25.542  222.578   73.303    0.332    0.200
  298.750   26.669  223.244   76.003    0.339    0.189
  299.000   28.374  224.035   79.136    0.349    0.200
  299.250   29.350  224.807   78.918    0.356    0.207
  299.500   30.358  225.273   77.829    0.343    0.165
  299.750   30.933  225.420   75.071    0.327    0.139
  300.000   30.990  225.363   73.303    0.315    0.117
  300.250   30.526  224.908   74.143    0.317    0.081
  300.500   30.354  225.049   77.335    0.332    0.130
  300.750   30.696  226.241   80.899    0.355    0.161
  301.000   30.927  226.241   82.727    0.364    0.163
  301.250   31.276  233.507   78.480    0.374    0.135
  301.500   31.630  232.699   73.241    0.381    0.116
  301.750   31.807  224.585   71.969    0.360    0.093
  302.000   30.460  228.580   77.829    0.342    0.067
  302.250   28.681  229.243   83.874    0.321    0.124
  302.500   25.476  228.462   86.881    0.334    0.189
  302.750   25.476  227.479   87.789    0.360    0.207
  303.000   25.619  226.916   88.245    0.390    0.185
  303.250   26.006  226.445   89.086    0.389    0.164
  303.500   26.201  226.701   90.048    0.395    0.146
  303.750   24.763  227.384   91.749    0.410    0.159
  304.000   22.711  229.084   98.477    0.419    0.187
  304.250   20.518  230.793   93.549    0.434    0.160
  304.500   19.247  231.764   87.689    0.447    0.121
  304.750   17.852  232.037   83.748    0.456    0.048
  305.000   16.904  230.842   88.307    0.402    0.026
  305.250   15.977  228.617   94.726    0.398    0.152
  305.500   15.214  227.425  100.403    0.444    0.192
  305.750   14.625  226.861  102.106    0.438    0.179
  306.000   13.927  226.603  104.122    0.423    0.197
  306.250   13.337  226.242  106.199    0.434    0.194
  306.500   12.324  226.089  102.446    0.449    0.187
  306.750   11.009  226.866  104.712    0.454    0.196
  307.000    9.743  229.512  105.795    0.440    0.148
  307.250    8.509  233.163  107.188    0.451    0.122
  307.500    7.446  239.410  108.710    0.452    0.133
  307.750    6.406  247.938  107.189    0.445    0.137
  308.000    5.886  245.817  101.578    0.437    0.162
  308.250    5.388  236.262   92.183    0.423    0.152
  308.500    5.378  229.391   87.439    0.415    0.137
  308.750    5.615  229.746   82.754    0.352    0.094
  309.000    6.076  236.317   77.267    0.360    0.183
  309.250    6.662  245.663   72.273    0.377    0.224
