~VERSION INFORMATION
 VERS.                 2.0:   CWLS LOG ASCII STANDARD -VERSION 2.0
 WRAP.                  NO:   ONE LINE PER DEPTH STEP
~WELL INFORMATION BLOCK
#MNEM.UNIT           DATA                    DESCRIPTION OF MNEMONIC
#---------    -------------------            -------------------------------
# Generated from Intellog Unique Number	CC_88_90/WELL/3017
WELL.         WESTERN HEMISPHERE PETROLEM CO : Well_name    - WELL
LOC .         WESTERN HEMISPHERE PETROLEM CO : Location     - LOCATION
UWI .         AA/02-07-088-10W400            : Uwi          - UNIQUE WELL ID
ENTR.         JOETTE                         : Entered      - ENTERED BY
SRVC.         SCHLUMBERGER                   : Scn          - SERVICE COMPANY
DATE.         03/06/92                       : Date         - LOG DATE
STRT.M        30.480                         : top_depth    - START DEPTH
STOP.M        131.480                        : bot_depth    - STOP DEPTH
STEP.M        0.25                           : increment    - STEP LENGTH
 NULL. -999.2500:NULL Value
~CURVE INFORMATION BLOCK
#MNEM UNIT       ERCB CURVE CODE    CURVE DESCRIPTION
#-----------   ------------------   ----------------------------------
DEPT.M        00 001 00 00         : DEPTH        - DEPTH
GR  .API      00 310 00 00         : GR           - GAMMA RAY
NPHI.V/V      00 330 00 00         : PHIN         - NEUTRON POROSITY (SANDSTONE)
ILD .OHMM     00 120 00 00         : RESD         - DEEP RESISTIVITY (DIL)
~PARAMETER INFORMATION
#MNEM.UNIT           DATA             DESCRIPTION OF MNEMONIC
#---------         -----------     ------------------------------
GL  .M        401.117              : gl           - GROUND LEVEL ELEVATION
EREF.M        401.117              : kb           - ELEVATION OF DEPTH REFERENCE
DATM.M        401.117              : datum        - DATUM ELEVATION
TDD .M        139.294              : tdd          - TOTAL DEPTH DRILLER
RUN .         ONE                  : Run          - RUN NUMBER
ENG .         JO                   : Engineer     - RECORDING ENGINEER
WIT .         TIM                  : Witness      - WITNESSED BY
MUD .         GEL                  : Mud_type     - MUD TYPE
MATR.         SANDSTONE            : Logunit      - NEUTRON MATRIX
TMAX.C        10.5556              : BHT          - MAXIMUM RECORDED TEMPERATURE
BHTD.M        139.294              : BHTDEP       - MAXIMUM RECORDED TEMPERATURE
RMT .C        10.5556              : MDTP         - TEMPERATURE OF MUD
MUDD.KG/M     1090                 : MWT          - MUD DENSITY
NEUT.         1                    : NEUTRON      - NEUTRON TYPE
RESI.         0                    : RESIST       - RESISTIVITY TYPE
RM  .OHMM     7                    : RM           - RESISTIVITY OF MUD
RMC .OHMM     7                    : RMC          - RESISTIVITY OF MUD CAKE
RMF .OHMM     7                    : RMF          - RESISTIVITY OF MUD FILTRATE
SUFT.C        4                    : SUFT         - SURFACE TEMPERATURE
~A  DEPTH       GR     PHIN     RESD
   30.480   85.425    0.575   16.191
   30.730   84.199    0.577   14.050
   30.980   87.275    0.575   14.402
   31.230   96.496    0.555   15.287
   31.480  112.478    0.566   16.172
   31.730  106.336    0.574   17.235
   31.980  105.725    0.547   18.476
   32.230  119.863    0.536   19.184
   32.480  127.241    0.544   18.645
   32.730  113.723    0.557   17.750
   32.980  111.268    0.560   17.034
   33.230  124.792    0.560   16.674
   33.480  121.108    0.560   17.024
   33.730  110.048    0.547   17.733
   33.980  109.437    0.544   20.753
   34.230  105.138    0.544   20.393
   34.480  102.683    0.538   19.499
   34.730  103.916    0.546   20.740
   34.980  112.523    0.540   25.717
   35.230  105.765    0.500   29.449
   35.480   93.477    0.484   32.112
   35.730  100.855    0.439   41.005
   35.980   95.942    0.407   34.239
   36.230  108.237    0.455   31.388
   36.480  115.614    0.497   29.426
   36.730  119.920    0.528   18.211
   36.980  127.297    0.550   22.832
   37.230  112.551    0.551   21.227
   37.480  104.565    0.557   19.799
   37.730  107.641    0.554   20.863
   37.980  118.706    0.535   20.678
   38.230  121.168    0.538   23.877
   38.480  121.171    0.550   30.812
   38.730  109.497    0.558   28.139
   38.980   90.449    0.560   18.704
   39.230   89.838    0.560   18.166
   39.480   93.528    0.561   18.161
   39.730   94.760    0.564   17.979
   39.980  108.899    0.564   17.796
   40.230  120.578    0.558   17.435
   40.480  126.727    0.545   16.719
   40.730  125.501    0.544   22.409
   40.980  106.453    0.545   20.447
   41.230   84.331    0.535   17.417
   41.480   97.856    0.525   18.480
   41.730   89.255    0.523   21.145
   41.980   91.102    0.500   28.791
   42.230   99.094    0.484   33.768
   42.480   99.712    0.491   43.372
   42.730  102.173    0.482   27.888
   42.980   96.030    0.486   27.884
   43.230  102.794    0.510   28.945
   43.480  124.307    0.518   28.940
   43.730  135.987    0.521   30.005
   43.980  129.230    0.514   29.466
   44.230  116.941    0.507   27.148
   44.480  102.195    0.499   28.033
   44.730  112.646    0.494   24.826
   44.980  114.493    0.504   23.220
   45.230  118.183    0.511   28.732
   45.480  121.874    0.511   26.948
   45.730  118.189    0.504   23.029
   45.980  115.734    0.493   29.964
   46.230  118.196    0.480   43.303
   46.480  120.043    0.483   37.783
   46.730  108.984    0.502   22.833
   46.980  100.998    0.518   19.803
   47.230  102.229    0.514   20.333
   47.480  113.295    0.517   18.725
   47.730  102.850    0.527   17.831
   47.980  101.625    0.544   17.472
   48.230  104.701    0.557   18.000
   48.480  110.849    0.554   18.707
   48.730  112.082    0.551   18.880
   48.980  105.325    0.547   18.521
   49.230  109.630    0.543   17.981
   49.480  109.633    0.535   17.265
   49.730  107.792    0.522   17.439
   49.980  108.410    0.518   18.323
   50.230   99.809    0.521   18.854
   50.480   99.812    0.527   19.382
   50.730   97.972    0.526   19.022
   50.980   83.225    0.528   20.618
   51.230   88.145    0.522   19.547
   51.480   94.909    0.510   18.297
   51.730   89.380    0.523   19.182
   51.980   91.842    0.535   19.356
   52.230  101.678    0.532   19.884
   52.480  102.296    0.523   19.524
   52.730   93.081    0.523   19.876
   52.980  105.375    0.523   20.405
   53.230  120.742    0.522   20.934
   53.480  120.131    0.520   21.820
   53.730  117.061    0.519   21.814
   53.980  120.137    0.512   24.657
   54.230  109.079    0.501   21.272
   54.480   99.249    0.510   18.242
   54.730   94.949    0.538   16.636
   54.980   98.640    0.554   16.098
   55.230   99.258    0.546   15.558
   55.480  100.490    0.529   14.841
   55.730   98.650    0.525   14.661
   55.980   91.892    0.536   13.944
   56.230   96.197    0.552   13.405
   56.480  108.492    0.558   13.222
   56.730   94.975    0.559   13.219
   56.980   95.593    0.562   13.034
   57.230  102.356    0.568   13.031
   57.480   92.526    0.577   12.849
   57.730  101.747    0.587   12.844
   57.980  100.522    0.593   13.196
   58.230   89.463    0.581   13.547
   58.480   88.852    0.568   13.899
   58.730   94.386    0.543   15.850
   58.980   98.691    0.542   14.779
   59.230   95.621    0.546   14.597
   59.480   88.864    0.543   14.415
   59.730   91.325    0.537   14.230
   59.980  118.369    0.537   14.938
   60.230  104.852    0.543   15.290
   60.480   93.178    0.544   16.175
   60.730   90.723    0.539   17.415
   60.980   89.498    0.528   17.945
   61.230  112.239    0.527   17.050
   61.480  123.919    0.534   16.155
   61.730  113.475    0.534   16.150
   61.980  114.708    0.533   16.504
   62.230  114.710    0.528   17.567
   62.480  104.266    0.521   18.808
   62.730   98.738    0.517   18.980
   62.980   97.512    0.509   20.044
   63.230  109.806    0.500   23.243
   63.480  120.258    0.497   21.102
   63.730  110.427    0.500   17.716
   63.980  107.357    0.503   18.780
   64.230  109.819    0.497   21.267
   64.480  108.593    0.500   21.084
   64.730  108.597    0.513   18.232
   64.980  116.589    0.521   17.872
   65.230  112.290    0.516   17.334
   65.480   93.241    0.512   17.329
   65.730   87.099    0.512   17.859
   65.980   82.800    0.512   20.701
   66.230   80.960    0.522   21.408
   66.480   72.974    0.529   19.802
   66.730   64.987    0.520   19.084
   66.980   74.823    0.503   20.326
   67.230   83.430    0.493   26.549
   67.480   88.350    0.481   23.876
   67.730   96.957    0.478   19.957
   67.980  116.012    0.485   20.130
   68.230  106.797    0.497   20.659
   68.480  117.862    0.494   23.146
   68.730  127.084    0.484   23.497
   68.980  120.327    0.475   21.180
   69.230  116.642    0.471   22.421
   69.480  120.948    0.468   32.558
   69.730  124.024    0.474   22.945
   69.980  128.329    0.490   18.848
   70.230  116.655    0.510   19.555
   70.480  110.512    0.517   19.728
   70.730   95.766    0.514   19.012
   70.980   90.239    0.516   18.474
   71.230   97.002    0.524   19.181
   71.480  102.536    0.526   19.354
   71.730  110.528    0.520   18.994
   71.980  106.844    0.502   19.523
   72.230  111.764    0.504   23.967
   72.480  106.850    0.514   22.717
   72.730  108.697    0.539   17.552
   72.980  105.627    0.553   15.768
   73.230   93.954    0.571   15.230
   73.480   93.957    0.584   14.334
   73.730  104.408    0.597   14.154
   73.980  102.567    0.582   13.613
   74.230  110.560    0.553   14.498
   74.480  116.708    0.543   14.851
   74.730  103.806    0.531   15.735
   74.980   81.685    0.514   16.265
   75.230   82.302    0.501   16.615
   75.480  101.972    0.508   17.323
   75.730  102.590    0.517   18.564
   75.980   88.457    0.531   19.627
   76.230   79.857    0.537   18.377
   76.480   83.548    0.536   18.015
   76.730   81.093    0.521   18.191
   76.980   77.408    0.505   18.542
   77.230   94.619    0.487   19.250
   77.480  107.528    0.467   23.336
   77.730  105.073    0.454   28.671
   77.980   96.472    0.503   34.894
   78.230  105.079    0.534   21.188
   78.480  108.770    0.556   16.736
   78.730   95.867    0.581   14.594
   78.980   91.568    0.575   16.369
   79.230   87.884    0.569   17.076
   79.480   89.116    0.556   17.426
   79.730   77.443    0.541   17.601
   79.980   80.519    0.532   17.598
   80.230  111.865    0.519   17.593
   80.480  114.941    0.499   17.943
   80.730  114.329    0.490   18.473
   80.980  111.260    0.493   19.892
   81.230   84.836    0.500   21.310
   81.480   81.767    0.512   19.349
   81.730   84.843    0.513   17.209
   81.980   89.148    0.516   17.204
   82.230  103.900    0.525   16.131
   82.480  130.330    0.554   15.415
   82.730  124.188    0.585   14.877
   82.980  111.899    0.587   14.695
   83.230  104.529    0.576   14.514
   83.480  105.146    0.571   14.508
   83.730   91.013    0.571   14.504
   83.980   85.486    0.574   14.498
   84.230   83.031    0.565   14.494
   84.480   82.420    0.533   14.488
