~Version : LASO    vs 4.00 - DATA COPYRIGHT - RILEYS DATASHARE INTERNATIONAL
 VERS.                2.0 :   CWLS Log ASCII Standard -VERSION 2.0
 WRAP.                 NO :   One line per depth step
~Well Information Block
#MNEM.UNIT       Data                        Description of Mnemonic
#----.----      -------------------------- : -----------------------------
 STRT.M             0.0000                 : Start Depth
 STOP.M           204.7500                 : End Depth
 STEP.M             0.1250                 : Depth Increment
 NULL.           -999.25                   : NULL Value
 COMP.                                     : COMPANY
 WELL.    MOBIL CLARKE OV 7-25             : WELL NAME
 FLD .    WILDCAT                          : FIELD NAME
 LOC .    07-25-090-08W4                   : WELL LOCATION
 PROV.    ALBERTA                          : PROVINCE
 SRVC.    DRESSER ATLAS                    : LOGGING SERVICE COMPANY
 DATE.    19-FEB-81                        : DATE LOGGED
 UWI .    AA/07-25-090-08W400              : UNIQUE WELL ID
~Curve Information Block
#MNEM.UNIT        API CODE                   Curve Description
#----.----      LG--CV-CL--M               : -----------------
 DEPT.M          0   1  0  0               : 1 DEPTH
 DT  .US/M      60 520 42  1               : 2 SONIC INTERVAL TRANSIT TIME (COMPENSATED)
 CALI.MM        42 280  1  1               : 3 DENSITY CALIPER
 GR  .GAPI      42 310  1  1               : 4 GAMMA RAY
 NPHI.V/V       42 890  3  1               : 5 NEUTRON POROSITY (SANDSTONE)
 RHOB.K/M3      42 350  1  1               : 6 BULK DENSITY
 IL  .OHMM       5 120 45  1               : 7 INDUCTION
 SFL .OHMM       5 220  6  1               : 8 FOCUSSED RESISTIVITY
 SP  .MV         5  10  1  1               : 9 SPONTANEOUS POTENTIAL
~Parameter Information Block
#MNEM.UNIT       Data                        Description of Mnemonic
#----.----      -------------------------- : -----------------------------
 RUN .                   1                 : Run Number
 GL  .M           449.0000                 : Ground Level Elevation
 DREF.                  KB                 : Depth Reference
 EREF.M           449.0000                 : Elevation of Depth Reference
 TDL .M           202.0000                 : Total Depth Logger
 TDD .M           205.0000                 : Total Depth Driller
 BHT .DEGC         20.0000                 : Bottom Hole Temperature
 BS  .MM          159.0000                 : Bit Size
 DFD .           9999.0000                 : Mud Weight (Density)
 DFV .            150.0000                 : Mud Viscosity
 RM  .OHMM          4.1000                 : Mud Resistivity
 RMT .DEGC         20.0000                 : Mud Resistivity Temperature
 RMF .OHMM          3.9000                 : Mud Filtrate Resistivity
 RMFT.DEGC          8.0000                 : RMF Temperature
 RMC .OHMM          7.8000                 : Mud Cake Resistivity
 RMCT.DEGC          8.0000                 : RMC Temperature
~Asc DEPTH      DT         CALI       GR         NPHI       RHOB       IL         SFL        SP   
# ...
  141.7500   434.6800   161.3250    56.1600     0.3172  2151.5000    30.5000    32.4750  -151.5900
  141.8750   437.3600   161.6250    60.7650     0.3205  2161.3000    29.2750    38.0500  -151.3950
  142.0000   438.6000   161.3250    67.5900     0.3172  2174.8000    28.4150    42.7050  -150.0900
  142.1250   437.3600   161.6250    70.1700     0.3132  2173.6001    28.4150    41.1150  -148.0650
  142.2500   433.2000   163.1500    71.0850     0.3113  2166.2000    28.8450    35.6600  -146.5950
  142.3750   428.5200   163.4750    72.3750     0.3088  2157.7000    29.5200    30.9400  -145.2900
  142.5000   423.1200   164.3750    71.0850     0.3077  2146.0000    30.3750    31.9850  -145.8450
  142.6250   416.2400   169.6000    69.7950     0.3092  2135.0000    31.2950    36.6400  -147.1500
  142.7500   412.8000   164.0750    67.5900     0.3106  2127.0000    32.4650    43.2550  -147.5100
  142.8750   411.0800   165.3000    65.1900     0.3187  2116.6001    33.8750    49.0150  -148.0650
  143.0000   409.8400   165.3000    58.3650     0.3209  2103.7000    35.9600    49.0150  -149.3700
  143.1250   430.7200   161.3250    49.8900     0.3184  2098.2000    38.5350    54.1000  -150.6450
  143.2500   454.8000   160.7000    45.6600     0.3143  2099.5000    41.0500    62.4000  -152.7000
  143.3750   485.2800   158.8750    43.9950     0.3088  2094.6001    42.7700    70.8500  -154.7400
  143.5000   539.0800   157.9500    42.3450     0.3095  2092.1001    44.0600    70.4000  -155.6700
  143.6250   576.6800   158.2500    41.2350     0.3132  2090.3000    44.6700    74.6000  -155.2950
  143.7500   575.9200   158.5750    42.7050     0.3169  2073.7000    44.8550    81.8000  -154.3650
  143.8750   544.4800   157.9500    44.5500     0.3176  2057.2000    44.9150    82.1500  -154.0050
  144.0000   507.6400   158.2500    43.8150     0.3202  2045.5000    45.2250    77.0500  -153.4500
  144.1250   509.1200   157.3500    40.8600     0.3238  2033.3000    45.5900    64.7500  -152.5200
  144.2500   505.9200   157.6500    40.5000     0.3238  2017.3000    45.5900    52.4500  -151.0200
  144.3750   500.2400   158.8750    41.2350     0.3095  2005.7000    45.8350    49.0150  -149.5500
  144.5000   506.6400   158.8750    42.9000     0.2974  1996.6000    46.1450    52.0500  -148.8150
  144.6250   576.9200   157.6500    44.9250     0.2816  1992.3000    46.5100    59.8500  -148.8150
  144.7500   585.2800   159.4750    46.5750     0.2710  1995.4000    47.3700    66.7000  -149.7450
  144.8750   578.8800   160.1000    45.6600     0.2508  1999.7000    48.7200    73.5500  -150.4650
  145.0000   500.2400   162.5500    43.9950     0.2456  2006.3000    50.3150    79.7000  -149.5500
  145.1250   203.4400   159.8000    41.9700     0.2431  2037.6000    51.4500    86.0500  -148.4400
  145.2500   297.3200   159.1750    41.9700     0.2423  2067.6001    52.4000    90.3500  -148.0650
  145.3750   453.6000   162.5500    42.7050     0.2434  2073.7000    53.0500    90.9500  -147.5100
  145.5000   511.0800   160.7000    42.5250     0.2467  2071.8999    53.5000    90.9500  -146.9550
  145.6250   559.9600   160.7000    40.5000     0.2512  2073.1001    52.8000    89.9999  -146.5950
  145.7500   537.6000   161.3250    37.7400     0.2563  2079.2000    51.1000    90.1500  -146.0400
  145.8750   497.5600   161.6250    37.1850     0.2625  2086.6001    47.9250    87.5500  -145.2900
  146.0000   487.9600   164.3750    36.8100     0.2618  2090.8999    44.0600    73.4000  -144.0000
  146.1250   501.4400   163.1500    36.2550     0.2647  2092.1001    40.9300    63.9999  -142.6950
  146.2500   512.5600   160.7000    36.2550     0.2725  2096.3999    38.3500    58.5500  -141.7800
  146.3750   529.0000   159.8000    39.2100     0.2860  2105.0000    36.7550    53.7500  -140.8500
  146.5000   534.1600   160.7000    43.9950     0.2838  2119.1001    35.6550    45.7100  -139.5450
  146.6250   546.2000   159.4750    47.6850     0.2809  2135.0000    35.3450    37.7400  -138.2550
  146.7500   557.0400   159.1750    51.9150     0.2765  2135.0000    35.7750    34.6150  -137.3250
  146.8750   555.8000   160.1000    55.7850     0.2750  2122.1001    36.4500    35.0450  -136.7700
  147.0000   528.5200   159.1750    57.0750     0.2776  2106.8000    37.0050    39.8850  -136.3950
  147.1250   461.6800   157.9500    58.5600     0.2743  2096.3999    37.2500    54.4000  -136.0350
  147.2500   431.2400   157.0250    55.9800     0.2692  2083.5000    36.6350    75.6000  -137.1450
  147.3750   423.1200   156.7250    51.7350     0.2603  2074.3000    34.6700    95.5500  -138.9900
  147.5000   436.1200   156.7250    46.3950     0.2695  2073.7000    31.8500    97.2000  -139.9200
  147.6250   463.9200   155.8000    41.6100     0.2860  2074.3000    28.8450    99.8500  -141.2250
  147.7500   486.5200   155.5000    40.3200     0.3007  2086.6001    25.4700    99.0500  -142.1400
  147.8750   510.6000   156.1250    39.5700     0.3106  2104.3999    22.9550    88.3500  -142.3350
  148.0000   544.4800   157.0250    41.6100     0.3117  2115.3999    21.6050    53.7000  -140.6700
  148.1250   526.3200   157.0250    45.4800     0.3146  2127.0000    20.9900    28.6750  -136.7700
  148.2500   500.4800   157.0250    51.5550     0.3235  2135.6001    20.7450    17.8300  -132.5100
  148.3750   464.6400   156.7250    57.2700     0.3484  2141.1001    20.4400    15.1300  -129.9150
  148.5000   417.2000   156.7250    62.2350     0.3580  2147.2000    20.1950    17.7650  -129.9150
  148.6250   399.7600   156.7250    67.0350     0.3602  2151.5000    20.4400    25.3650  -132.1350
  148.7500   395.6000   157.0250    67.2150     0.3492  2147.8999    21.4200    38.6000  -135.6600
  148.8750   393.8800   158.5750    62.9850     0.3279  2135.0000    23.5650    53.7000  -139.3650
  149.0000   395.8400   159.8000    57.4500     0.3227  2114.2000    27.3700    56.0500  -143.0700
  149.1250   417.4800   158.5750    51.0000     0.3172  2088.3999    31.9700    52.3000  -145.4850
  149.2500   421.8800   155.5000    41.7900     0.3161  2079.8000    37.7400    54.7000  -147.3300
  149.3750   428.5200   154.2750    39.0300     0.3176  2080.5000    42.2800    63.9000  -148.9950
  149.5000   429.5200   154.2750    39.5700     0.3169  2079.8000    46.2650    80.9000  -151.0200
  149.6250   419.2000   154.2750    39.9450     0.3154  2086.0000    48.6600    93.5500  -152.7000
  149.7500   407.8800   154.5750    39.0300     0.3132  2097.6001    50.4400    97.5000  -153.0750
  149.8750   396.5600   154.5750    38.4750     0.3293  2101.8999    51.6000    83.4500  -151.5900
  150.0000   393.6400   154.9000    37.5450     0.3341  2097.0000    52.6000    73.9999  -149.9250
  150.1250   387.7200   156.1250    38.2800     0.3389  2087.2000    53.3500    68.6500  -149.1900
  150.2500   389.2000   156.4250    40.1250     0.3411  2086.0000    54.1500    69.9999  -149.7450
  150.3750   389.4400   156.4250    43.0800     0.3374  2093.3000    54.6500    72.7000  -151.3950
  150.5000   387.9600   156.4250    44.1900     0.3352  2098.2000    54.9500    78.4500  -153.4500
  150.6250   397.0800   156.4250    44.5500     0.3352  2109.8999    54.9999    87.6500  -155.4750
  150.7500   408.8800   156.7250    43.6350     0.3334  2133.8000    53.2500   100.3000  -157.7100
  150.8750   411.3200   156.4250    41.9700     0.3264  2129.5000    50.7000   101.2000  -158.6250
  151.0000   413.2800   157.0250    39.5700     0.3217  2109.8999    47.4950    96.5500  -157.8900
  151.1250   414.7600   157.9500    36.9900     0.3180  2106.2000    44.6100    95.2000  -156.0450
  151.2500   414.0400   156.7250    35.5200     0.3158  2103.7000    42.1550    97.7000  -154.7400
  151.3750   409.3600   155.2000    36.9900     0.3213  2100.7000    40.5000    95.7000  -153.2550
  151.5000   403.4400   153.9750    39.2100     0.3172  2101.3000    39.5200    69.3000  -150.0900
  151.6250   413.5200   152.7500    39.3900     0.3165  2112.3000    38.2900    44.2400  -145.6650
  151.7500   416.2400   154.9000    40.8600     0.3172  2127.0000    36.9400    35.7800  -142.6950
