~VERSION INFORMATION
 VERS.                 2.0:   CWLS LOG ASCII STANDARD -VERSION 2.0
 WRAP.                  NO:   ONE LINE PER DEPTH STEP
~WELL INFORMATION BLOCK
#MNEM.UNIT           DATA                    DESCRIPTION OF MNEMONIC
#---------    -------------------            -------------------------------
# Generated from Intellog Unique Number	CX_WELLS/WELL/3877
WELL.         H.B. S.M.T.                    : Well_name    - WELL
LOC .         AA/05-30-087-16W4/0            : Location     - LOCATION
UWI .         AA/05-30-087-16W400            : Uwi          - UNIQUE WELL ID
ENTR.         TIM                            : Entered      - ENTERED BY
SRVC.         SCHLUMBERGER                   : Scn          - SERVICE COMPANY
STRT.F        100                            : top_depth    - START DEPTH
STOP.F        739.764                        : bot_depth    - STOP DEPTH
STEP.F        0.82                           : increment    - STEP LENGTH
 NULL. -999.2500:NULL Value
~CURVE INFORMATION BLOCK
#MNEM UNIT       ERCB CURVE CODE    CURVE DESCRIPTION
#-----------   ------------------   ----------------------------------
DEPT.F        00 001 00 00         : DEPTH        - DEPTH
GR  .API      00 310 00 00         : GR           - GAMMA RAY
NPHI.V/V      00 330 00 00         : PHIN         - NEUTRON POROSITY (SANDSTONE)
ILD .OHMM     00 120 00 00         : RESD         - DEEP RESISTIVITY (DIL)
~PARAMETER INFORMATION
#MNEM.UNIT           DATA             DESCRIPTION OF MNEMONIC
#---------         -----------     ------------------------------
GL  .F        1686                 : gl           - GROUND LEVEL ELEVATION
EREF.F        1686                 : kb           - ELEVATION OF DEPTH REFERENCE
DATM.F        1686                 : datum        - DATUM ELEVATION
TDD .F        747                  : tdd          - TOTAL DEPTH DRILLER
RUN .         ONE                  : Run          - RUN NUMBER
ENG .         BILL                 : Engineer     - RECORDING ENGINEER
WIT .         JIM                  : Witness      - WITNESSED BY
MUD .         GEL                  : Mud_type     - MUD TYPE
MATR.         SANDSTONE            : Logunit      - NEUTRON MATRIX
TMAX.F        50                   : BHT          - MAXIMUM RECORDED TEMPERATURE
BHTD.F        747                  : BHTDEP       - MAXIMUM RECORDED TEMPERATURE
MATR.         1                    : LOGUNIT      - NEUTRON MATRIX
RMT .F        50                   : MDTP         - TEMPERATURE OF MUD
NEUT.         1                    : NEUTRON      - NEUTRON TYPE
RESI.         6                    : RESIST       - RESISTIVITY TYPE
RMC .OHMM     6                    : RMC          - RESISTIVITY OF MUD CAKE
RMF .OHMM     6                    : RMF          - RESISTIVITY OF MUD FILTRATE
SUFT.F        39.2                 : SUFT         - SURFACE TEMPERATURE
~A  DEPTH       GR     PHIN     RESD
  100.000   37.909    0.428   19.666
  100.820   36.978    0.438   16.744
  101.640   32.488    0.438   14.182
  102.461   22.647    0.409   15.269
  103.281   10.568    0.384   20.359
  104.101    6.524    0.361   34.190
  104.921    4.248    0.353   38.185
  105.741    3.340    0.354   38.177
  106.562    4.185    0.350   38.535
  107.382    5.937    0.350   37.430
  108.202    5.014    0.353   36.698
  109.022    3.645    0.355   36.685
  109.843    4.060    0.362   36.679
  110.663    5.820    0.367   35.578
  111.483   11.139    0.378   31.564
  112.303   16.459    0.387   22.451
  113.123   19.095    0.406   19.163
  113.944   17.280    0.428   23.159
  114.764   15.895    0.415   21.696
  115.584   18.101    0.413   18.774
  116.404   20.307    0.418   16.578
  117.224   22.505    0.425   15.477
  118.045   24.696    0.435   15.101
  118.865   26.894    0.437   15.095
  119.685   29.084    0.430   15.088
  120.505   29.960    0.424   15.078
  121.325   31.713    0.432   15.436
  122.146   33.011    0.437   15.790
  122.966   32.980    0.434   16.510
  123.786   30.711    0.429   18.323
  124.606   27.113    0.421   20.863
  125.427   24.860    0.403   27.046
  126.247   20.362    0.398   27.038
  127.067   17.655    0.405   22.660
  127.887   14.948    0.411   19.738
  128.707   21.159    0.419   15.723
  129.528   28.255    0.414   17.166
  130.348   26.440    0.408   17.526
  131.168   25.063    0.403   17.515
  131.988   25.032    0.403   17.143
  132.808   27.676    0.408   16.770
  133.629   30.328    0.411   16.764
  134.449   33.417    0.411   16.756
  135.269   37.399    0.411   16.381
  136.089   36.030    0.413   16.007
  136.909   36.883    0.416   15.270
  137.730   38.635    0.415   14.898
  138.550   39.495    0.415   14.527
  139.370   39.456    0.416   14.153
  140.190   40.763    0.418   14.144
  141.010   43.399    0.425   14.134
  141.831   44.275    0.427   14.126
  142.651   45.136    0.433   13.753
  143.471   45.996    0.439   13.383
  144.291   49.078    0.449   13.006
  145.112   51.730    0.455   12.638
  145.932   55.266    0.459   12.263
  146.752   58.794    0.460   11.889
  147.572   56.079    0.465   11.883
  148.392   53.819    0.468   11.142
  149.213   55.571    0.469   10.771
  150.033   58.223    0.470   10.397
  150.853   62.650    0.472   10.026
  151.673   64.849    0.472    9.652
  152.493   66.601    0.473    9.644
  153.314   66.570    0.472   10.726
  154.134   69.213    0.460   12.543
  154.954   72.749    0.448   18.725
  155.774   62.009    0.411   20.538
  156.594   58.410    0.399   28.906
  157.415   44.994    0.395   36.910
  158.235   38.275    0.400   33.624
  159.055   36.898    0.402   32.153
  159.875   39.542    0.407   32.877
  160.696   42.624    0.400   33.593
  161.516   43.484    0.396   33.589
  162.336   43.453    0.398   34.671
  163.156   43.867    0.400   35.755
  163.976   44.290    0.404   36.477
  164.797   43.813    0.406   36.100
  165.617   41.990    0.410   35.730
  166.437   39.275    0.411   35.358
  167.257   38.360    0.409   35.711
  168.077   37.867    0.404   35.701
  168.898   37.852    0.402   35.697
  169.718   38.266    0.399   35.684
  170.538   39.111    0.399   35.678
  171.358   39.087    0.403   36.034
  172.178   38.164    0.411   36.026
  172.999   35.904    0.418   36.746
  173.819   33.197    0.426   37.464
  174.639   32.266    0.416   38.546
  175.459   36.694    0.407   39.266
  176.280   38.000    0.408   39.624
  177.100   33.948    0.409   39.980
  177.920   32.587    0.399   39.608
  178.740   36.115    0.391   39.963
  179.560   37.421    0.388   40.319
  180.381   36.498    0.391   40.675
  181.201   35.575    0.402   41.027
  182.021   35.097    0.407   41.019
  182.841   34.605    0.405   41.012
  183.661   34.143    0.403   41.368
  184.482   33.658    0.403   41.720
  185.302   32.719    0.403   42.080
  186.122   32.250    0.403   42.432
  186.942   31.780    0.403   42.786
  187.762   30.849    0.402   42.782
  188.583   30.818    0.401   42.769
  189.403   29.887    0.400   43.127
  190.223   29.410    0.400   43.121
  191.043   30.716    0.399   43.112
  191.864   33.806    0.398   43.466
  192.684   36.896    0.397   43.822
  193.504   35.081    0.394   44.542
  194.324   32.813    0.391   44.534
  195.144   30.998    0.386   43.069
  195.965   30.974    0.376   39.783
  196.785   30.935    0.364   34.676
  197.605   31.334    0.356   37.579
  198.425   31.326    0.366   41.941
  199.245   31.295    0.377   45.939
  200.066   31.248    0.380   44.838
  200.886   31.224    0.385   43.737
  201.706   31.185    0.388   44.455
  202.526   31.154    0.388   45.177
  203.346   29.785    0.382   45.893
  204.167   27.962    0.378   44.792
  204.987   26.593    0.377   41.873
  205.807   25.216    0.376   33.852
  206.627   24.755    0.374   25.832
  207.448   27.845    0.404   17.445
  208.268   38.961    0.432   12.703
  209.088   46.956    0.454   11.238
  209.908   72.348    0.470   10.137
  210.728   80.789    0.477    9.764
  211.549   88.338    0.484    9.754
  212.369   91.874    0.488    9.746
  213.189   92.273    0.489    9.735
  214.009   91.365    0.492    9.725
  214.829   88.659    0.493    9.721
  215.650   89.965    0.493    9.712
  216.470   91.271    0.493   10.432
  217.290   89.887    0.492   10.422
  218.110   85.850    0.489   10.778
  218.930   83.143    0.483   12.226
  219.751   83.558    0.471   11.852
  220.571   79.952    0.460   11.117
  221.391   67.881    0.460   10.014
  222.211   58.470    0.468   11.099
  223.031   62.906    0.437   18.740
  223.852   63.758    0.416   23.464
  224.672   59.276    0.383   34.020
  225.492   55.662    0.373   38.015
  226.312   56.522    0.366   42.741
  227.133   54.700    0.349   55.480
  227.953   53.338    0.332   71.495
  228.773   51.523    0.315   70.759
  229.593   49.263    0.309   62.370
  230.413   47.894    0.312   61.273
  231.234   45.171    0.314   57.987
  232.054   44.264    0.311   54.701
  232.874   41.541    0.305   60.882
  233.694   40.626    0.301   61.238
  234.514   39.257    0.300   57.950
  235.335   39.226    0.298   57.580
  236.155   41.862    0.295   59.756
  236.975   43.169    0.294   59.384
  237.795   43.137    0.293   58.283
  238.615   42.660    0.293   56.452
  239.436   41.283    0.293   55.351
  240.256   39.468    0.298   53.884
  241.076   37.215    0.307   53.149
  241.896   35.838    0.316   52.413
  242.717   34.907    0.323   52.404
  243.537   35.330    0.329   51.663
  244.357   37.074    0.334   51.291
  245.177   38.381    0.336   50.556
  245.997   38.357    0.336   49.456
  246.818   37.411    0.336   47.988
  247.638   37.387    0.338   46.159
  248.458   37.356    0.342   43.964
  249.278   35.103    0.345   42.865
  250.098   20.341    0.350   41.036
  250.919   22.539    0.355   38.114
  251.739   24.745    0.363   35.190
  252.559   24.706    0.371   34.089
  253.379   22.445    0.377   32.622
  254.199   19.293    0.384   30.793
  255.020   15.694    0.389   28.235
  255.840   13.879    0.385   28.957
  256.660   16.070    0.382   32.591
  257.480   16.492    0.380   35.130
  258.301   16.445    0.374   36.214
  259.121   16.422    0.363   37.663
  259.941   16.836    0.351   40.930
  260.761   17.689    0.342   40.193
  261.581   18.096    0.342   38.000
  262.402   18.080    0.344   31.072
  263.222   18.495    0.346   28.879
  264.042   19.347    0.354   24.500
  264.862   20.638    0.363   24.856
  265.682   21.068    0.367   27.033
  266.503   21.037    0.366   28.481
  267.323   18.768    0.362   28.109
  268.143   16.961    0.365   27.370
  268.963   17.806    0.369   25.537
  269.783   20.904    0.371   24.804
  270.604   24.440    0.375   25.160
  271.424   25.292    0.378   29.886
  272.244   23.915    0.381   34.246
  273.064   22.116    0.383   34.236
  273.885   18.963    0.387   34.230
  274.705   14.465    0.393   34.950
  275.525   10.859    0.401   36.034
  276.345   11.720    0.410   38.939
  277.165   13.034    0.389   43.301
