~VERSION INFORMATION
 VERS.                 2.0:   CWLS LOG ASCII STANDARD -VERSION 2.0
 WRAP.                  NO:   ONE LINE PER DEPTH STEP
~WELL INFORMATION BLOCK
#MNEM.UNIT           DATA                    DESCRIPTION OF MNEMONIC
#---------    -------------------            -------------------------------
# Generated from Intellog Unique Number	CN_91_93/WELL/2675
WELL.         07-02-091-17W4                 : Well_name    - WELL
LOC .         AA/07-02-091-17W4/0            : Location     - LOCATION
UWI .         AA/07-02-091-17W400            : Uwi          - UNIQUE WELL ID
ENTR.         JOETTE                         : Entered      - ENTERED BY
SRVC.         SCHLUMBERGER                   : Scn          - SERVICE COMPANY
DATE.         02/11/92                       : Date         - LOG DATE
STRT.M        75                             : top_depth    - START DEPTH
STOP.M        240                            : bot_depth    - STOP DEPTH
STEP.M        0.25                           : increment    - STEP LENGTH
 NULL. -999.2500:NULL Value
~CURVE INFORMATION BLOCK
#MNEM UNIT       ERCB CURVE CODE    CURVE DESCRIPTION
#-----------   ------------------   ----------------------------------
DEPT.M        00 001 00 00         : DEPTH        - DEPTH
GR  .API      00 310 00 00         : GR           - GAMMA RAY
CALI.MM       00 280 01 00         : CAL          - CALIPER
NPHI.V/V      00 330 00 00         : PHIN         - NEUTRON POROSITY (SANDSTONE)
DPHI.V/V      00 890 00 00         : PHID         - DENSITY POROSITY (SANDSTONE)
ILD .OHMM     00 120 00 00         : RESD         - DEEP RESISTIVITY (DIL)
~PARAMETER INFORMATION
#MNEM.UNIT           DATA             DESCRIPTION OF MNEMONIC
#---------         -----------     ------------------------------
GL  .M        501                  : gl           - GROUND LEVEL ELEVATION
EREF.M        504.29               : kb           - ELEVATION OF DEPTH REFERENCE
DATM.M        504.29               : datum        - DATUM ELEVATION
TDD .M        241                  : tdd          - TOTAL DEPTH DRILLER
RUN .         ONE                  : Run          - RUN NUMBER
ENG .         JO                   : Engineer     - RECORDING ENGINEER
WIT .         TIM                  : Witness      - WITNESSED BY
MUD .         GEL                  : Mud_type     - MUD TYPE
MATR.         SANDSTONE            : Logunit      - NEUTRON MATRIX
TMAX.C        1.66667              : BHT          - MAXIMUM RECORDED TEMPERATURE
BHTD.M        241                  : BHTDEP       - MAXIMUM RECORDED TEMPERATURE
RMT .C        18                   : MDTP         - TEMPERATURE OF MUD
MUDD.KG/M     1000                 : MWT          - MUD DENSITY
NEUT.         1                    : NEUTRON      - NEUTRON TYPE
RESI.         0                    : RESIST       - RESISTIVITY TYPE
RM  .OHMM     7.3                  : RM           - RESISTIVITY OF MUD
RMC .OHMM     7.3                  : RMC          - RESISTIVITY OF MUD CAKE
RMF .OHMM     7.3                  : RMF          - RESISTIVITY OF MUD FILTRATE
SUFT.C        4                    : SUFT         - SURFACE TEMPERATURE
~A  DEPTH       GR      CAL     PHIN     PHID     RESD
# ...
  148.000   93.536  183.513    0.421    0.253   14.246
  148.250   94.457  183.536    0.418    0.227   14.234
  148.500   93.256  183.051    0.418    0.176   14.357
  148.750   96.901  182.565    0.408    0.196   14.343
  149.000  107.813  187.630    0.414    0.202   13.939
  149.250  101.771  196.233    0.445    0.174   13.303
  149.500   98.152  189.691    0.458    0.223   12.463
  149.750   94.531  198.793    0.468    0.247   11.673
  150.000   90.606  205.373    0.447    0.207   11.347
  150.250   86.683  207.918    0.447    0.220   11.445
  150.500   83.671  194.821    0.449    0.199   12.541
  150.750   85.801  186.768    0.436    0.202   12.763
  151.000   86.417  181.239    0.424    0.133   12.637
  151.250   85.220  181.261    0.437    0.168   15.046
  151.500   82.813  181.282    0.391    0.190   17.105
  151.750   83.428  181.809    0.331    0.083   15.445
  152.000   90.705  186.365    0.321    0.108   13.073
  152.250  101.010  199.506    0.439    0.172    8.949
  152.500  110.408  199.529    0.572    0.221    6.357
  152.750  111.634  199.045    0.613    0.239    4.772
  153.000  110.737  199.045    0.638    0.252    3.893
  153.250  109.234  198.583    0.570    0.239    4.188
  153.500  101.681  198.601    0.544    0.214    5.318
  153.750   96.544  199.128    0.516    0.189    7.477
  154.000   92.622  202.173    0.478    0.156    9.067
  154.250   95.056  185.544    0.440    0.120   11.100
  154.500  104.151  185.059    0.414    0.132   11.940
  154.750  105.978  193.155    0.425    0.204   11.821
  155.000  105.689  198.728    0.444    0.202   11.491
  155.250  102.370  200.259    0.496    0.189   11.064
  155.500   93.603  203.814    0.539    0.174   11.368
  155.750   90.891  202.825    0.575    0.177   13.535
  156.000   89.391  192.754    0.475    0.128   14.033
  156.250   90.010  180.663    0.399    0.134   15.096
  156.500   93.048  179.172    0.410    0.150   16.240
  156.750   99.720  179.172    0.414    0.184   16.376
  157.000   97.311  179.728    0.418    0.181   16.067
  157.250   91.571  180.242    0.421    0.178   16.067
  157.500   87.954  180.767    0.424    0.219   15.888
  157.750   85.241  181.295    0.426    0.221   16.179
  158.000   81.619  180.306    0.428    0.205   17.087
  158.250   73.760  179.819    0.426    0.201   18.895
  158.500   69.837  178.833    0.366    0.221   23.131
  158.750   65.916  178.351    0.337    0.197   28.313
  159.000   63.504  178.366    0.350    0.187   28.313
  159.250   63.520  178.894    0.369    0.200   33.376
  159.500   65.649  180.937    0.381    0.257   31.263
  159.750   71.718  183.478    0.401    0.287   26.215
  160.000   74.755  197.118    0.430    0.317   26.215
  160.250   75.070  217.322    0.521    0.343   24.082
  160.500   71.451  203.725    0.535    0.355   22.991
  160.750   69.646  193.649    0.537    0.344   22.991
  161.000   69.658  189.129    0.541    0.327   22.328
  161.250   72.394  186.124    0.527    0.330   22.520
  161.500   75.741  184.124    0.493    0.320   27.307
  161.750   76.963  183.138    0.477    0.298   27.307
  162.000   78.184  183.161    0.472    0.283   27.779
  162.250   78.805  183.176    0.464    0.248   31.873
  162.500   78.513  182.707    0.446    0.148   31.262
  162.750   78.221  181.705    0.386    0.127   31.262
  163.000   77.025  180.717    0.371    0.141   30.081
  163.250   79.461  181.246    0.315    0.099   27.926
  163.500   80.985  182.780    0.331    0.131   25.449
  163.750   80.996  182.780    0.345    0.174   23.840
  164.000   80.708  183.833    0.366    0.225   23.840
  164.250   79.205  184.857    0.395    0.223   22.936
  164.500   81.035  182.859    0.394    0.219   23.134
  164.750   83.472  182.377    0.411    0.246   24.658
  165.000   82.876  182.398    0.432    0.232   26.529
  165.250   79.254  182.938    0.426    0.219   28.800
  165.500   76.240  183.447    0.423    0.216   30.979
  165.750   74.133  183.975    0.405    0.202   31.831
  166.000   73.540  184.502    0.380    0.153   30.649
  166.250   78.698  183.513    0.277    0.077   29.252
  166.500   85.673  183.024    0.309    0.078   25.220
  166.750   92.650  183.047    0.352    0.114   16.636
  167.000   94.478  184.079    0.402    0.172   13.826
  167.250   96.611  185.108    0.427    0.183   12.482
  167.500   96.623  186.135    0.436    0.185   12.245
  167.750   93.911  186.660    0.429    0.194   12.931
  168.000   91.499  186.660    0.394    0.117   13.784
  168.250  101.804  186.705    0.405    0.109   14.422
  168.500  102.726  185.212    0.425    0.158   14.537
  168.750   97.895  184.723    0.412    0.177   14.803
  169.000   97.002  184.758    0.408    0.164   14.803
  169.250   96.710  184.264    0.408    0.165   14.918
  169.500   95.510  184.791    0.414    0.166   14.909
  169.750   95.522  186.827    0.414    0.154   14.490
  170.000  101.286  188.361    0.417    0.176   13.954
  170.250  100.390  189.390    0.445    0.187   13.808
  170.500   97.376  188.404    0.444    0.178   13.678
  170.750   96.480  188.422    0.435    0.166   13.543
  171.000   97.098  192.985    0.441    0.175   13.658
  171.250   97.413  192.499    0.471    0.197   13.775
  171.500   94.703  186.470    0.454    0.204   14.150
  171.750   92.898  183.962    0.442    0.176   14.672
  172.000   96.238  181.462    0.445    0.126   15.211
  172.250  105.939  184.010    0.411    0.105   14.784
  172.500  100.502  188.064    0.424    0.150   12.630
  172.750   98.700  199.689    0.437    0.176   12.051
  173.000   95.382  201.220    0.476    0.183   12.042
  173.250   92.974  188.123    0.498    0.185   12.485
  173.500   93.892  183.605    0.479    0.163   12.485
  173.750   98.447  192.707    0.432    0.137   12.816
  174.000  103.301  187.687    0.436    0.128   12.816
  174.250  104.223  186.693    0.450    0.153   13.394
  174.500  105.750  188.731    0.449    0.197   13.514
  174.750  108.788  199.347    0.464    0.187   13.628
  175.000  109.103  201.390    0.472    0.163   12.532
  175.250  101.547  189.804    0.442    0.145   12.640
  175.500  100.046  183.267    0.416    0.156   13.473
  175.750  106.116  187.322    0.392    0.138   13.473
  176.000  106.430  191.883    0.435    0.187   13.957
  176.250  106.138  191.398    0.462    0.247   14.604
  176.500  106.754  186.373    0.452    0.286   14.604
  176.750  102.226  181.853    0.411    0.153   14.585
  177.000  105.872  182.380    0.393    0.128   14.710
  177.250  110.729  186.941    0.393    0.105   14.296
  177.500  111.044  195.541    0.457    0.161   13.392
  177.750  113.481  189.000    0.494    0.211   13.015
  178.000  114.400  183.982    0.511    0.254   12.887
  178.250  112.596  182.991    0.416    0.239   12.878
  178.500  109.277  183.513    0.449    0.225   12.749
  178.750  108.382  184.043    0.461    0.221   12.392
  179.000  110.513  183.559    0.440    0.215   11.290
  179.250  109.919  181.054    0.407    0.200   10.578
  179.500  111.143  197.722    0.460    0.252    9.728
  179.750  110.548  207.833    0.496    0.212    9.283
  180.000  102.086  198.269    0.526    0.198    9.283
  180.250  105.430  182.649    0.487    0.203    9.612
  180.500  112.403  180.149    0.432    0.222    9.878
  180.750  115.745  185.215    0.436    0.116   10.050
  181.000  114.247  197.846    0.470    0.193   10.328
  181.250  110.322  203.419    0.487    0.197   10.328
  181.500  107.307  199.907    0.497    0.207   10.407
  181.750  104.293  197.912    0.510    0.183   10.210
  182.000  106.727  174.721    0.525    0.166    9.835
  182.250  108.556  179.787    0.482    0.190    9.383
  182.500  106.449  206.045    0.447    0.192    9.376
  182.750  102.221  201.020    0.469    0.139    9.455
  183.000  102.233  202.557    0.494    0.199    9.805
  183.250  101.035  186.931    0.388    0.190   10.547
  183.500   93.176  176.356    0.391    0.126   11.346
  183.750   77.447  210.688    0.423    0.181   12.433
  184.000   62.626  198.094    0.435    0.212   13.879
  184.250   52.042  184.997    0.435    0.266   17.625
