~Version : LASO    vs 4.00
VERS.                2.00:   CWLS Log ASCII Standard -VERSION 2.0
WRAP.                  NO:
~Well Information Block
#MNEM.UNIT       Data                        Description of Mnemonic
#----.----      -------------------------- : -----------------------------
STRT.M            13.0000:
STOP.M           191.0000:
STEP.M             0.2000:
NULL.           -999.2500:
COMP.  MOBIL OIL OF CANADA          :COMPANY
WELL.  MOBIL CLARKE OV 4-1          :WELL
FLD.                                :FIELD
LOC.   04-01-091-08W4               :LOCATION
CTRY.  CANADA                       :COUNTRY
PROV.  ALBERTA                      :PROVINCE
SRVC.  SCHLUMBERGER                 :SERVICE COMPANY
DATE.  12-FEB-81                    :LOG DATE
UWI.   AA/04-01-091-08W400          :UNIQUE WELL ID
~Parameter Information Block
#MNEM.UNIT       Data                        Description of Mnemonic
#----.----      -------------------------- : -----------------------------
RUN .                   1                 : Run Number
GL  .M           444.1000                 : Ground Level Elevation
DREF.                  GD                 : Depth Reference
EREF.M           444.1000                 : Elevation of Depth Reference
TDL .M           191.5000                 : Total Depth Logger
TDD .M           192.0000                 : Total Depth Driller
CSGL.M            15.0000                 : Casing Bottom Logger
CSGD.M            15.0000                 : Casing Bottom Driller
CSGS.MM          179.0000                 : Casing Size
CSGW.KG/M          0.0000                 : Casing Weight
BHT .DEGC         12.0000                 : Bottom Hole Temperature
BS  .MM          158.0000                 : Bit Size
DFD .           1080.0000                 : Mud Weight (Density)
DFV .             85.0000                 : Mud Viscosity
DFPH.             12.6000                 : Mud pH
~Curve Information Block
#MNEM.UNIT        API CODE    Curve Description
#---------    ------------    -------------------------------------------
DEPT.M                    :   DEPTH
CALI.MM       42 280  1  1:   3 DENSITY CALIPER
DPHI.V/V                  :   DPHI
DT  .US/M     60 520  0  1:   2 SONIC INTERVAL TRANSIT TIME (COMPENSATED)
GR  .GAPI     42 310  1  1:   4 GAMMA RAY
ILD .OHMM      5 120 46  1:   7 DEEP INDUCTION
ILM .OHMM      5 120 44  1:   8 MEDIUM INDUCTION
NPHI.V/V      42 890  3  1:   5 NEUTRON POROSITY (SANDSTONE)
RHOB.K/M3     42 350  1  1:   6 BULK DENSITY
SFLU.OHMM      5 220  1  1:   9 FOCUSSED RESISTIVITY
SP  .MV        5  10  1  1:   10 SPONTANEOUS POTENTIAL
~A  Depth           CALI        DPHI          DT          GR         ILD         ILM        NPHI        RHOB        SFLU          SP
# ...
98.4000         177.1750      0.1912    518.3200    106.8600      5.7521    406.4713      0.5029   2333.6001      5.7521    -60.9600
98.6000         177.1750      0.1964    516.9200    109.8600      5.5954    402.7448      0.4966   2336.6001      5.7521    -60.4650
98.8000         177.1750      0.1946    512.8400    113.1600      5.5441    395.3939      0.4912   2358.3999      5.6472    -60.2100
99.0000         177.1750      0.1863    508.4400    114.8700      5.4429    399.0524      0.4916   2383.1001      5.4429    -59.9550
99.2000         177.1750      0.1787    506.3200    117.3600      5.2946    414.0282      0.4994   2338.6001      5.0563    -59.9550
99.4000         177.1750      0.1882    507.5600    118.0650      5.3930    417.8592      0.4974   2340.5000      4.8734    -60.2100
99.6000         177.1750      0.1939    509.2400    115.0650      5.5441    402.7448      0.5005   2344.5000      4.6540    -59.9550
99.8000         178.4250      0.1882    509.3600    109.9650      5.8591    381.0921      0.4842   2379.2000      4.7406    -60.2100
100.0000        179.6500      0.1825    506.4400    109.8600      5.9680    384.6183      0.4764   2380.1001      6.1352    -60.9600
100.2000        177.1750      0.1773    502.9200    109.9650      5.9680    410.2324      0.4626   2370.2000      8.6264    -62.2200
100.4000        173.4500      0.1791    482.6400    107.5500      6.1352    417.8592      0.4470   2338.6001     10.1819    -62.9700
100.6000        174.7000      0.1836    476.2800    109.2600      6.1352    410.2324      0.4568   2379.2000      7.1094    -61.9650
100.8000        177.1750      0.1789    475.8800    110.0550      6.0232    402.7448      0.4643   2354.3999      4.8734    -59.9550
101.0000        183.3750      0.1840    490.8000    107.4600      5.4429    425.6277      0.4751   2338.6001      5.6994    -59.2050
101.2000        183.3750      0.1899    494.8400    105.8550      5.1979    406.4713      0.4830   2346.5000      5.8591    -59.2050
101.4000        183.3750      0.1923    495.0000    107.6550      5.0563    395.3939      0.4931   2342.5000      5.1031    -58.9500
101.6000        180.9000      0.1897    506.4400    112.9650      4.7406    381.0921      0.5107   2346.5000      4.4857    -58.9500
101.8000        179.6500      0.1947    514.2800    113.8650      4.6540    395.3939      0.5221   2326.7000      4.8287    -58.7100
102.0000        179.6500      0.1953    516.6000    113.4600      4.6114    410.2324      0.5299   2308.8999      4.6540    -58.4550
102.2000        179.6500      0.2027    515.6000    113.2650      4.6114    421.7256      0.5327   2316.8000      4.0163    -57.9450
102.4000        180.9000      0.2036    512.8000    112.8600      4.6114    399.0524      0.5459   2301.8999      3.8711    -57.9450
102.6000        182.1250      0.2089    513.5600    109.8600      4.6114    402.7448      0.5457   2334.6001      4.4446    -58.4550
102.8000        180.9000      0.2109    515.2800    107.3550      4.6971    410.2324      0.5287   2378.2000      5.1979    -58.7100
103.0000        184.6000      0.2067    517.5600    104.6550      5.0563    425.6277      0.5105   2378.2000      4.7844    -58.7100
103.2000        184.6000      0.1953    517.6400    104.4600      5.1031    417.8592      0.5159   2354.3999      4.2056    -58.4550
103.4000        184.6000      0.1730    516.4400    102.3450      5.0099    417.8592      0.5097   2314.8000      4.4038    -58.4550
103.6000        190.8000      0.1699    506.4800     98.0400      4.2056    395.3939      0.5085   2320.7000      7.4444    -58.2000
103.8000        190.8000      0.1868    501.4800     98.9550      3.9069    395.3939      0.5188   2301.8999      6.2493    -57.4500
104.0000        188.3250      0.2011    493.2400     99.4500      3.7310    406.4713      0.5492   2300.8999      3.6968    -56.4450
104.2000        182.1250      0.2055    510.6400    101.9550      3.4981    395.3939      0.5928   2291.0000      2.1470    -55.6950
104.4000        190.8000      0.2051    525.8000    103.4550      3.3716    395.3939      0.5940   2275.2000      2.1470    -55.9500
104.6000        192.0500      0.2115    533.3200    105.4500      3.3406    402.7448      0.5842   2273.2000      2.2900    -56.1900
104.8000        179.6500      0.2181    530.6000    108.7650      3.5631    417.8592      0.5443   2283.1001      3.5631    -57.1950
105.0000        179.6500      0.2194    524.5600    109.4550      3.8004    395.3939      0.5344   2307.8999      4.5272    -57.4500
105.2000        182.1250      0.2144    514.2400    107.9550      4.1289    402.7448      0.5261   2320.7000      4.5691    -56.9550
105.4000        183.3750      0.1918    502.8800    108.2550      4.4038    377.5982      0.5122   2363.3000      4.7844    -56.7000
105.6000        185.8500      0.1721    490.5600    114.6600      4.8287    406.4713      0.4953   2393.0000      5.6472    -57.4500
105.8000        183.3750      0.1621    490.6000    115.2600      5.0099    410.2324      0.4850   2398.0000      4.5691    -57.9450
106.0000        180.9000      0.1601    494.3200    114.0600      5.2460    417.8592      0.4760   2391.0000      4.0910    -58.4550
106.2000        182.1250      0.1587    500.4000    110.1600      5.7521    399.0524      0.4624   2390.0000      5.1979    -58.9500
106.4000        182.1250      0.1643    500.6000    107.6550      6.1352    410.2324      0.4653   2401.8999      5.8054    -59.2050
106.6000        183.3750      0.1611    495.6000    105.0600      6.6043    425.6277      0.4634   2393.0000      6.6655    -59.4600
106.8000        179.6500      0.1629    475.5200     97.6500      7.3085    402.7448      0.4567   2431.6001      9.5462    -59.4600
107.0000        177.1750      0.1704    462.3600     92.6400      7.5133    414.0282      0.4480   2483.1001     14.4487    -59.7000
107.2000        173.4500      0.1840    436.6800     90.4350      7.5828    384.6183      0.4254   2548.5000     14.9910    -60.4650
107.4000        174.7000      0.1950    420.5200     95.9400      7.4444    410.2324      0.4262   2417.8000      7.3085    -61.4550
107.6000        175.9250      0.1886    432.6000     97.2450      7.1094    417.8592      0.4480   2340.5000      6.7271    -60.7050
107.8000        175.9250      0.1805    454.0000     99.1500      6.7894    406.4713      0.4612   2362.3000      6.7271    -59.9550
108.0000        182.1250      0.1815    486.3200    104.0550      6.3655    402.7448      0.4793   2369.3000      6.4244    -58.9500
108.2000        179.6500      0.1776    485.3600    107.5500      6.3655    417.8592      0.4774   2385.1001      6.4244    -58.9500
108.4000        178.4250      0.1738    487.6400    108.7650      6.4244    414.0282      0.4733   2370.2000      6.4838    -58.9500
108.6000        178.4250      0.1799    492.3600    108.6600      6.4244    410.2324      0.4784   2370.2000      6.6655    -58.9500
108.8000        178.4250      0.1864    492.8000    109.7550      5.7521    402.7448      0.4684   2349.5000      7.3762    -58.4550
109.0000        178.4250      0.1780    486.8400    109.2600      5.1503    377.5982      0.4624   2354.3999      7.3762    -57.9450
109.2000        178.4250      0.1733    481.6000    106.5600      4.4857    395.3939      0.4633   2376.2000      6.7271    -57.7050
109.4000        175.9250      0.1792    478.4000    100.5450      3.4660    421.7256      0.4799   2376.2000      5.0099    -56.9550
109.6000        174.7000      0.1890    477.8400     98.0400      3.1321    417.8592      0.5015   2328.7000      3.1033    -56.1900
109.8000        174.7000      0.2172    477.8400     97.8450      2.8303    410.2324      0.5249   2330.6001      2.0885    -54.9450
110.0000        175.9250      0.2409    525.2800     94.0500      2.4651    410.2324      0.5882   2223.7000      1.7212    -54.6900
110.2000        173.4500      0.2716    540.8000     92.2350      2.3759    425.6277      0.5875   2192.0000      1.8358    -54.9450
110.4000        172.2250      0.2661    548.4800     91.0350      2.3541    402.7448      0.5771   2191.0000      1.9945    -54.9450
