~VERSION INFORMATION
 VERS.                 2.0:   CWLS LOG ASCII STANDARD -VERSION 2.0
 WRAP.                  NO:   ONE LINE PER DEPTH STEP
~WELL INFORMATION BLOCK
#MNEM.UNIT           DATA                    DESCRIPTION OF MNEMONIC
#---------    -------------------            -------------------------------
# Generated from Intellog Unique Number	CC_84_87/WELL/1181
NULL.         -999.25                        : NULL_VALUE
WELL.         SUN CHEECHAM-19                : Well_name    - WELL              
LOC .         09-29-084-07W4                 : Location     - LOCATION          
UWI .         AA/09-29-084-07W4/0            : Uwi          - UNIQUE WELL ID    
ENTR.         JHS                            : Entered      - ENTERED BY        
SRVC.         SCHLUMBERGER                   : Scn          - SERVICE COMPANY   
DATE.         20 JAN 80                      : Date         - LOG DATE
STRT.M        140                            : top_depth    - START DEPTH       
STOP.M        430.094                        : bot_depth    - STOP DEPTH        
STEP.M        0.3                            : increment    - STEP LENGTH       
~CURVE INFORMATION BLOCK
#MNEM UNIT       ERCB CURVE CODE    CURVE DESCRIPTION
#-----------   ------------------   ----------------------------------
DEPT.M        00 001 00 00         : DEPTH        - DEPTH                       
ILD .OHMM     00 120 00 00         : RESD         - DEEP RESISTIVITY (DIL)      
GR  .API      00 310 00 00         : GR           - GAMMA RAY                   
NPHI.V/V      00 330 00 00         : PHIN         - NEUTRON POROSITY (LIMESTONE)
DPHI.V/V      00 890 00 00         : PHID         - DENSITY POROSITY (LIMESTONE)
~PARAMETER INFORMATION       
#MNEM.UNIT           DATA             DESCRIPTION OF MNEMONIC
#---------         -----------     ------------------------------
GL  .M        597.9                : gl           - GROUND LEVEL ELEVATION      
EREF.M        600.85               : kb           - ELEVATION OF DEPTH REFERENCE
DATM.M        600.85               : datum        - DATUM ELEVATION             
TDD .M        434                  : tdd          - TOTAL DEPTH DRILLER         
RUN .         ONE                  : Run          - RUN NUMBER                  
ENG .         BILL                 : Engineer     - RECORDING ENGINEER          
WIT .         JIM                  : Witness      - WITNESSED BY                
MUD .         GEL                  : Mud_type     - MUD TYPE                    
MATR.         LIMESTONE            : Logunit      - NEUTRON MATRIX              
TMAX.C        20                   : BHT          - MAXIMUM RECORDED TEMPERATURE
BHTD.M        434                  : BHTDEP       - MAXIMUM RECORDED TEMPERATURE
MATR.         1                    : LOGUNIT      - NEUTRON MATRIX              
RMT .C        25                   : MDTP         - TEMPERATURE OF MUD          
NEUT.         1                    : NEUTRON      - NEUTRON TYPE                
RESI.         0                    : RESIST       - RESISTIVITY TYPE            
RMC .OHMM     0.25                 : RMC          - RESISTIVITY OF MUD CAKE     
RMF .OHMM     0.25                 : RMF          - RESISTIVITY OF MUD FILTRATE 
SUFT.C        15                   : SUFT         - SURFACE TEMPERATURE         
~A  DEPTH     RESD       GR     PHIN     PHID
# ...
  192.201    9.690  112.473    0.439    0.270
  192.501    9.691  109.515    0.434    0.265
  192.801    9.874  101.172    0.440    0.250
  193.101   10.249   86.856    0.429    0.247
  193.401   10.836   78.519    0.411    0.286
  193.701   11.457   76.761    0.393    0.283
  194.001   12.340   82.761    0.377    0.259
  194.301   13.048   83.984    0.367    0.261
  194.601   13.293   85.207    0.371    0.281
  194.901   13.052   81.650    0.388    0.297
  195.201   13.055   78.687    0.395    0.308
  195.501   13.057   79.314    0.395    0.293
  195.801   13.059   82.330    0.405    0.280
  196.101   13.062   76.979    0.410    0.285
  196.401   13.308   71.628    0.412    0.283
  196.701   13.309   69.872    0.408    0.290
  197.001   13.313   70.491    0.402    0.297
  197.301   13.315   72.309    0.401    0.302
  197.601   13.565   68.154    0.402    0.311
  197.901   13.568   62.805    0.404    0.321
  198.201   13.570   65.827    0.409    0.317
  198.501   13.572   67.640    0.412    0.308
  198.801   13.326   69.467    0.414    0.310
  199.101   13.328   74.279    0.410    0.298
  199.401   13.086   76.691    0.401    0.303
  199.701   12.613   76.719    0.393    0.321
  200.001   12.383   76.150    0.388    0.299
  200.301   12.158   73.786    0.399    0.290
  200.601   11.718   72.020    0.405    0.295
  200.901   11.505   70.854    0.408    0.301
  201.201   11.507   70.884    0.406    0.299
  201.501   11.298   76.290    0.399    0.299
  201.801   11.300   80.502    0.391    0.295
  202.101   11.095   78.746    0.390    0.296
  202.401   11.096   81.157    0.401    0.301
  202.701   10.895   84.773    0.409    0.290
  203.001   10.696   84.796    0.421    0.298
  203.301   10.699   84.236    0.430    0.294
  203.601   10.504   85.450    0.424    0.291
  203.901   10.123   86.674    0.414    0.281
  204.201    9.939   96.266    0.411    0.280
  204.501    9.579  106.453    0.415    0.270
  204.801    9.233  111.865    0.419    0.239
  205.101    8.899  117.865    0.417    0.247
  205.401    8.576  119.687    0.415    0.251
  205.701    8.114  122.704    0.428    0.211
  206.001    7.821  126.322    0.445    0.224
  206.301    7.822  122.163    0.439    0.203
  206.601    7.970  125.776    0.427    0.186
  206.901    8.120  138.953    0.435    0.215
  207.201    7.541  152.128    0.453    0.218
  207.501    6.876  158.137    0.459    0.233
  207.801    6.505  158.759    0.455    0.236
  208.101    6.042  154.006    0.451    0.246
  208.401    6.043  151.047    0.450    0.252
  208.701    6.157  144.499    0.456    0.249
  209.001    6.632  138.558    0.454    0.248
  209.301    6.756  136.796    0.430    0.227
  209.601    7.413  135.619    0.412    0.226
  209.901    7.985  130.867    0.416    0.233
  210.201    8.442  130.298    0.428    0.214
  210.501    8.601  132.122    0.426    0.248
  210.801    8.764  139.318    0.428    0.268
  211.101    8.605  138.756    0.431    0.240
  211.401    8.293  133.400    0.434    0.231
  211.701    8.295  124.460    0.463    0.261
  212.001    8.451  116.721    0.463    0.270
  212.301    8.453  111.972    0.451    0.293
  212.601    8.773  111.403    0.428    0.289
  212.901    9.106  111.431    0.418    0.281
  213.201    9.277  114.441    0.403    0.304
  213.501    9.629  107.893    0.421    0.315
  213.801    9.631  103.738    0.441    0.303
  214.101    9.813  107.352    0.427    0.295
  214.401    9.458  103.197    0.430    0.310
  214.701    9.285   94.263    0.437    0.296
  215.001    9.818   85.921    0.465    0.320
  215.301   10.772   73.402    0.458    0.349
  215.601   12.265   66.855    0.444    0.331
  215.901   14.226   65.089    0.426    0.340
  216.201   16.810   65.722    0.421    0.358
  216.501   17.774   63.958    0.418    0.351
  216.801   17.451   62.189    0.431    0.347
  217.101   17.133   61.614    0.444    0.363
  217.401   16.514   60.464    0.443    0.351
  217.701   16.516   61.077    0.439    0.346
  218.001   16.216   62.298    0.428    0.330
  218.301   16.219   64.119    0.411    0.343
  218.601   16.221   63.551    0.413    0.355
  218.901   16.224   61.782    0.434    0.338
  219.201   16.227   61.213    0.445    0.361
  219.501   16.231   63.643    0.453    0.349
  219.801   15.935   64.858    0.471    0.352
  220.101   15.938   60.705    0.485    0.332
  220.401   15.648   63.722    0.460    0.333
  220.701   15.651   65.537    0.436    0.334
  221.001   15.366   64.376    0.428    0.335
  221.301   15.369   66.793    0.437    0.319
  221.601   15.090   65.624    0.463    0.316
  221.901   15.092   62.661    0.476    0.338
  222.201   15.094   65.082    0.473    0.348
  222.501   14.820   65.708    0.458    0.341
  222.801   14.284   63.949    0.442    0.348
  223.101   14.024   65.766    0.433    0.341
  223.401   13.517   66.986    0.431    0.337
  223.701   13.028   65.226    0.445    0.322
  224.001   12.790   68.237    0.437    0.313
  224.301   12.557   70.660    0.426    0.344
  224.601   12.103   67.699    0.419    0.338
  224.901   11.883   68.920    0.422    0.309
  225.201   11.667   71.341    0.439    0.325
  225.501   11.669   70.769    0.444    0.315
  225.801   11.671   73.786    0.427    0.331
  226.101   11.891   70.236    0.428    0.332
  226.401   11.893   68.466    0.433    0.342
  226.701   12.118   63.112    0.436    0.344
  227.001   12.120   64.938    0.439    0.339
  227.301   12.122   67.355    0.444    0.344
  227.601   12.124   68.582    0.453    0.333
  227.901   12.353   69.200    0.463    0.329
  228.201   12.586   66.244    0.459    0.317
  228.501   12.823   62.684    0.442    0.306
  228.801   14.070   58.531    0.399    0.281
  229.101   15.154   54.373    0.305    0.158
  229.401   16.322   52.008    0.342    0.158
  229.701   15.159   55.625    0.402    0.229
  230.001   13.821   60.436    0.436    0.301
  230.301   12.601   61.060    0.441    0.350
  230.601   11.278   59.295    0.433    0.361
  230.901   10.670   58.730    0.419    0.353
  231.201   10.096   56.366    0.433    0.337
  231.501   10.097   54.001    0.437    0.351
  231.801    9.731   54.031    0.434    0.361
  232.101    9.379   57.648    0.446    0.367
  232.401    9.040   61.255    0.462    0.368
  232.701    8.396   60.095    0.465    0.350
  233.001    8.243   60.124    0.451    0.359
  233.301    7.945   61.343    0.440    0.351
  233.601    7.800   63.761    0.436    0.351
  233.901    7.518   63.790    0.451    0.357
  234.201    7.381   63.814    0.444    0.358
  234.501    7.247   66.836    0.423    0.345
  234.801    7.115   71.048    0.431    0.357
  235.101    6.987   72.272    0.435    0.346
  235.401    6.987   72.894    0.431    0.328
  235.701    6.861   74.121    0.435    0.332
  236.001    6.861   74.143    0.441    0.341
  236.301    6.613   72.980    0.441    0.333
  236.601    6.614   68.232    0.438    0.309
  236.901    6.615   65.867    0.432    0.290
  237.201    6.740   65.290    0.427    0.289
  237.501    6.741   67.111    0.427    0.302
  237.801    6.497   73.124    0.444    0.312
  238.101    6.034   77.930    0.456    0.326
  238.401    5.709   79.752    0.461    0.340
  238.701    5.502   79.778    0.460    0.349
  239.001    5.206   79.207    0.439    0.345
  239.301    4.926   81.629    0.427    0.327
  239.601    4.747   87.034    0.435    0.304
  239.901    4.492   97.220    0.446    0.262
  240.201    4.329  111.592    0.445    0.276
  240.501    4.172  111.027    0.444    0.241
  240.801    4.096  111.056    0.450    0.248
  241.101    3.948  112.277    0.462    0.264
  241.401    3.877  109.913    0.484    0.265
  241.701    3.806  103.369    0.486    0.270
  242.001    3.951  101.005    0.479    0.282
  242.301    4.025   91.468    0.459    0.290
  242.601    4.335   83.731    0.447    0.307
  242.901    4.669   80.171    0.440    0.317
  243.201    4.670   77.807    0.427    0.318
  243.501    4.585   80.226    0.425    0.305
  243.801    4.338   87.427    0.429    0.312
  244.101    4.181   99.408    0.455    0.248
