~VERSION INFORMATION
 VERS.                 2.0:   CWLS LOG ASCII STANDARD -VERSION 2.0
 WRAP.                  NO:   ONE LINE PER DEPTH STEP
~WELL INFORMATION BLOCK
#MNEM.UNIT           DATA                    DESCRIPTION OF MNEMONIC
#---------    -------------------            -------------------------------
# Generated from Intellog Unique Number	CC_84_87/WELL/1046
NULL.         -999.25                        : NULL_VALUE
WELL.         COSEKA TOTAL LYNTON            : Well_name    - WELL              
LOC .         01-35-087-07W4                 : Location     - LOCATION          
UWI .         AA/01-35-087-07W400            : Uwi          - UNIQUE WELL ID    
ENTR.         DW                             : Entered      - ENTERED BY        
SRVC.         SCHLUMBERGER                   : Scn          - SERVICE COMPANY   
DATE.         17 FEB 81                      : Date         - LOG DATE
STRT.M        30                             : top_depth    - START DEPTH       
STOP.M        165.001                        : bot_depth    - STOP DEPTH        
STEP.M        0.3                            : increment    - STEP LENGTH       
~CURVE INFORMATION BLOCK
#MNEM UNIT       ERCB CURVE CODE    CURVE DESCRIPTION
#-----------   ------------------   ----------------------------------
DEPT.M        00 001 00 00         : DEPTH        - DEPTH                       
DPHI.V/V      00 890 00 00         : PHID         - DENSITY POROSITY (LIMESTONE)
NPHI.V/V      00 330 00 00         : PHIN         - NEUTRON POROSITY (LIMESTONE)
GR  .API      00 310 00 00         : GR           - GAMMA RAY                   
ILD .OHMM     00 120 00 00         : RESD         - DEEP RESISTIVITY (DIL)      
~PARAMETER INFORMATION       
#MNEM.UNIT           DATA             DESCRIPTION OF MNEMONIC
#---------         -----------     ------------------------------
GL  .M        411.42               : gl           - GROUND LEVEL ELEVATION      
EREF.M        412.92               : kb           - ELEVATION OF DEPTH REFERENCE
DATM.M        412.92               : datum        - DATUM ELEVATION             
TDD .M        166                  : tdd          - TOTAL DEPTH DRILLER         
RUN .         ONE                  : Run          - RUN NUMBER                  
ENG .         BILL                 : Engineer     - RECORDING ENGINEER          
WIT .         JIM                  : Witness      - WITNESSED BY                
MUD .         GEL                  : Mud_type     - MUD TYPE                    
MATR.         LIMESTONE            : Logunit      - NEUTRON MATRIX              
TMAX.C        13.3                 : BHT          - MAXIMUM RECORDED TEMPERATURE
BHTD.M        165                  : BHTDEP       - MAXIMUM RECORDED TEMPERATURE
MATR.         1                    : LOGUNIT      - NEUTRON MATRIX              
RMT .C        25                   : MDTP         - TEMPERATURE OF MUD          
NEUT.         1                    : NEUTRON      - NEUTRON TYPE                
RESI.         0                    : RESIST       - RESISTIVITY TYPE            
RMC .OHMM     0.25                 : RMC          - RESISTIVITY OF MUD CAKE     
RMF .OHMM     0.25                 : RMF          - RESISTIVITY OF MUD FILTRATE 
SUFT.C        4                    : SUFT         - SURFACE TEMPERATURE         
~A  DEPTH     PHID     PHIN       GR     RESD
# ...
   82.200    0.254    0.458  106.412    5.112
   82.500    0.279    0.476  108.870    5.307
   82.800    0.259    0.490  110.695    5.506
   83.100    0.250    0.517  106.289    5.824
   83.400    0.263    0.532  109.992    6.278
   83.700    0.270    0.525  110.573    6.153
   84.000    0.265    0.517  107.417    5.806
   84.300    0.261    0.509  104.252    4.981
   84.600    0.257    0.500  101.095    4.037
   84.900    0.258    0.464   97.940    3.462
   85.200    0.260    0.445   96.652    3.395
   85.500    0.277    0.453  100.351    3.590
   85.800    0.277    0.494  102.183    4.098
   86.100    0.311    0.530  108.375    5.989
   86.400    0.272    0.560  107.085    7.236
   86.700    0.290    0.528  107.047    7.951
   87.000    0.249    0.494  109.501    8.569
   87.300    0.261    0.476  108.215    8.402
   87.600    0.249    0.465  107.551    7.923
   87.900    0.249    0.461  107.508    7.769
   88.200    0.253    0.449   99.361    7.469
   88.500    0.279    0.455   93.704    7.752
   88.800    0.265    0.472   93.655    8.046
   89.100    0.267    0.465   95.490    8.674
   89.400    0.272    0.460   96.078    9.531
   89.700    0.271    0.471   96.035    9.520
   90.000    0.254    0.464   94.127    8.984
   90.300    0.240    0.462   94.701    8.159
   90.600    0.131    0.440   92.795    7.135
   90.900    0.199    0.414   97.120    6.605
   91.200    0.255    0.422  102.693    6.352
   91.500    0.229    0.469  101.396    5.882
   91.800    0.255    0.499   99.490    4.767
   92.100    0.262    0.512  101.946    3.193
   92.400    0.233    0.492  101.281    2.792
   92.700    0.264    0.468   98.121    2.736
   93.000    0.305    0.453   93.716    2.840
   93.300    0.331    0.497   86.817    3.121
   93.600    0.339    0.557   84.281    3.561
   93.900    0.323    0.608   87.353    3.988
   94.200    0.334    0.573   89.185    4.299
   94.500    0.310    0.510   86.028    4.907
   94.800    0.304    0.519   90.977    5.289
   95.100    0.336    0.528   94.050    5.085
   95.400    0.282    0.515   91.522    4.984
   95.700    0.329    0.497   87.727    5.075
   96.000    0.290    0.480   87.689    5.472
   96.300    0.312    0.484   87.656    6.365
   96.600    0.305    0.496   88.234    6.993
   96.900    0.301    0.509   89.445    7.257
   97.200    0.295    0.496   87.531    6.467
   97.500    0.229    0.453   83.746    5.765
   97.800    0.241    0.436   82.464    4.761
   98.100    0.113    0.436   81.175    4.084
   98.400    0.195    0.369   84.875    3.781
   98.700    0.279    0.376   98.558    3.636
   99.000    0.273    0.464  102.258    3.633
   99.300    0.270    0.514  104.711    3.698
   99.600    0.269    0.512  104.673    3.695
   99.900    0.283    0.504   99.015    3.554
  100.200    0.292    0.500   93.978    3.483
  100.500    0.278    0.528   96.440    3.546
  100.800    0.286    0.553   98.893    3.680
  101.100    0.287    0.532   99.477    3.892
  101.400    0.277    0.544   99.427    4.117
  101.700    0.262    0.523   99.395    4.437
  102.000    0.261    0.526   98.108    4.519
  102.300    0.256    0.523   93.698    4.513
  102.600    0.278    0.518   93.651    4.684
  102.900    0.295    0.538   94.862    4.954
  103.200    0.294    0.531   94.827    5.655
  103.500    0.277    0.526   97.902    7.660
  103.800    0.297    0.521   95.367   14.065
  104.100    0.292    0.497   89.710   16.993
  104.400    0.315    0.458   80.316   17.304
  104.700    0.303    0.413   77.158   16.642
  105.000    0.272    0.375   78.364   14.828
  105.300    0.268    0.380   77.694   13.472
  105.600    0.273    0.397   79.524   10.916
  105.900    0.277    0.406   80.739    8.846
  106.200    0.266    0.397   80.689    7.306
  106.500    0.250    0.389   82.527    8.180
  106.800    0.242    0.388   83.731   10.873
  107.100    0.259    0.421   87.436   15.591
  107.400    0.287    0.433   91.137   21.937
  107.700    0.278    0.421   89.218   23.648
  108.000    0.303    0.440   83.566   20.675
  108.300    0.308    0.440   79.163   18.075
  108.600    0.277    0.375   82.233   16.734
  108.900    0.277    0.355   79.079   16.406
  109.200    0.273    0.352   67.813   16.702
  109.500    0.261    0.342   69.020   16.370
  109.800    0.246    0.384   75.841   16.048
  110.100    0.261    0.409   77.668   14.580
  110.400    0.271    0.409   73.884   13.751
  110.700    0.280    0.402   77.585   14.007
  111.000    0.275    0.391   85.657   14.814
  111.300    0.246    0.399   94.342   15.373
  111.600    0.236    0.424   89.318   13.700
  111.900    0.266    0.426   64.327   11.755
  112.200    0.276    0.386   61.793    8.496
  112.500    0.243    0.345   66.117    7.717
  112.800    0.236    0.380   76.056    7.563
  113.100    0.241    0.405   85.371    7.415
  113.400    0.227    0.434  102.795    7.550
  113.700    0.215    0.447  100.876    7.688
  114.000    0.208    0.460   98.346    7.978
  114.300    0.227    0.480   95.183    7.526
  114.600    0.198    0.469   92.022    7.239
  114.900    0.195    0.456   92.608    7.230
  115.200    0.227    0.437   96.308    7.502
  115.500    0.215    0.437  102.509    7.643
  115.800    0.203    0.444  103.710    7.931
  116.100    0.194    0.458  103.044    7.771
  116.400    0.200    0.468   96.770    7.762
  116.700    0.244    0.452   94.856    7.757
  117.000    0.242    0.437   92.947    7.749
  117.300    0.204    0.425   89.165    8.041
  117.600    0.186    0.437   91.617    8.033
  117.900    0.190    0.437   99.062    8.179
  118.200    0.203    0.431  100.889    8.017
  118.500    0.193    0.425   94.615    7.710
  118.800    0.186    0.419   90.209    7.558
  119.100    0.206    0.409   96.403    7.407
  119.400    0.206    0.408   98.856    7.541
  119.700    0.228    0.413   99.444    7.532
  120.000    0.217    0.439  101.886    7.525
  120.300    0.213    0.481  102.471    7.518
  120.600    0.226    0.505   94.329    7.367
  120.900    0.227    0.490   85.556    7.364
  121.200    0.187    0.427   86.140    7.217
  121.500    0.202    0.416   96.081    7.071
  121.800    0.214    0.451  105.390    7.203
  122.101    0.209    0.474  100.986    7.334
  122.401    0.211    0.432  103.439    7.756
  122.701    0.215    0.435  105.889    8.521
  123.001    0.212    0.447   98.367    8.509
  123.301    0.192    0.455   95.210    8.504
  123.601    0.210    0.442   90.175    8.022
  123.901    0.260    0.444   85.149    7.715
  124.201    0.282    0.418   83.238    7.562
  124.501    0.194    0.394   92.551    7.701
  124.801    0.213    0.410   97.501    8.462
  125.101    0.216    0.458   98.706    9.298
  125.401    0.216    0.440   93.051    9.110
  125.701    0.231    0.437   88.019    8.762
  126.001    0.253    0.428   84.239    8.426
  126.301    0.297    0.408   84.821    7.798
  126.601    0.184    0.381   89.773    7.647
  126.901    0.204    0.401   99.087    7.492
  127.201    0.221    0.412   98.422    7.631
  127.501    0.220    0.427   94.639    7.915
  127.801    0.205    0.447   92.102    8.063
  128.101    0.204    0.452   94.547    8.367
  128.401    0.210    0.461   93.264    8.361
  128.701    0.219    0.421   88.238    8.191
  129.001    0.206    0.399   84.456    8.342
  129.301    0.223    0.398   88.158    8.658
  129.601    0.198    0.400   87.490    9.333
  129.901    0.203    0.404   84.329    9.873
  130.201    0.226    0.422   80.550   10.050
  130.501    0.230    0.414   79.883   10.041
  130.801    0.235    0.394   80.454   10.030
  131.101    0.248    0.386   80.428   10.019
  131.401    0.257    0.373   79.137   10.008
  131.701    0.220    0.366   77.229   10.002
  132.001    0.220    0.383   72.198    9.615
  132.301    0.254    0.398   67.166    9.247
  132.601    0.282    0.406   67.748    8.893
  132.901    0.276    0.401   73.946    8.715
  133.201    0.226    0.361   88.875    8.708
  133.501    0.213    0.385   93.199    8.866
  133.801    0.219    0.412   85.674    8.859
  134.101    0.218    0.420   80.644    8.848
