~VERSION INFORMATION
 VERS.                 2.0:   CWLS LOG ASCII STANDARD -VERSION 2.0
 WRAP.                  NO:   ONE LINE PER DEPTH STEP
~WELL INFORMATION BLOCK
#MNEM.UNIT           DATA                    DESCRIPTION OF MNEMONIC
#---------    -------------------            -------------------------------
# Generated from Intellog Unique Number	CX_WELLS/WELL/3840
WELL.         COSENA                         : Well_name    - WELL
LOC .         AA/06-15-087-07W4/0            : Location     - LOCATION
UWI .         AA/06-15-087-07W400            : Uwi          - UNIQUE WELL ID
ENTR.         T                              : Entered      - ENTERED BY
SRVC.         SCHLUMBERGER                   : Scn          - SERVICE COMPANY
STRT.M        40                             : top_depth    - START DEPTH
STOP.M        195                            : bot_depth    - STOP DEPTH
STEP.M        0.25                           : increment    - STEP LENGTH
 NULL. -999.2500:NULL Value
~CURVE INFORMATION BLOCK
#MNEM UNIT       ERCB CURVE CODE    CURVE DESCRIPTION
#-----------   ------------------   ----------------------------------
DEPT.M        00 001 00 00         : DEPTH        - DEPTH
GR  .API      00 310 00 00         : GR           - GAMMA RAY
NPHI.V/V      00 330 00 00         : PHIN         - NEUTRON POROSITY (SANDSTONE)
DPHI.V/V      00 890 00 00         : PHID         - DENSITY POROSITY (SANDSTONE)
ILD .OHMM     00 120 00 00         : RESD         - DEEP RESISTIVITY (DIL)
~PARAMETER INFORMATION
#MNEM.UNIT           DATA             DESCRIPTION OF MNEMONIC
#---------         -----------     ------------------------------
GL  .M        440.9                : gl           - GROUND LEVEL ELEVATION
EREF.M        442.45               : kb           - ELEVATION OF DEPTH REFERENCE
DATM.M        442.45               : datum        - DATUM ELEVATION
TDD .M        209                  : tdd          - TOTAL DEPTH DRILLER
RUN .         ONE                  : Run          - RUN NUMBER
ENG .         BILL                 : Engineer     - RECORDING ENGINEER
WIT .         JIM                  : Witness      - WITNESSED BY
MUD .         GEL                  : Mud_type     - MUD TYPE
MATR.         SANDSTONE            : Logunit      - NEUTRON MATRIX
TMAX.C        15                   : BHT          - MAXIMUM RECORDED TEMPERATURE
BHTD.M        209                  : BHTDEP       - MAXIMUM RECORDED TEMPERATURE
MATR.         1                    : LOGUNIT      - NEUTRON MATRIX
RMT .C        25                   : MDTP         - TEMPERATURE OF MUD
NEUT.         1                    : NEUTRON      - NEUTRON TYPE
RESI.         9.8                  : RESIST       - RESISTIVITY TYPE
RMC .OHMM     9.8                  : RMC          - RESISTIVITY OF MUD CAKE
RMF .OHMM     9.8                  : RMF          - RESISTIVITY OF MUD FILTRATE
SUFT.C        4                    : SUFT         - SURFACE TEMPERATURE
~A  DEPTH       GR     PHIN     PHID     RESD
# ...
  127.000   71.425    0.351    0.190   10.226
  127.250   74.749    0.349    0.218   11.511
  127.500   75.571    0.357    0.238   14.272
  127.750   76.393    0.398    0.261   15.452
  128.000   77.215    0.410    0.273   18.774
  128.250   76.199    0.376    0.280   22.388
  128.500   75.796    0.370    0.286   23.454
  128.750   77.283    0.354    0.292   23.124
  129.000   77.492    0.311    0.293   22.799
  129.250   75.199    0.310    0.291   20.121
  129.500   71.734    0.312    0.288   17.401
  129.750   68.321    0.316    0.282   15.073
  130.000   72.765    0.317    0.269   10.398
  130.250   79.764    0.333    0.255    9.890
  130.500   81.863    0.358    0.258   10.959
  130.750   82.737    0.375    0.260   11.662
  131.000   82.946    0.393    0.258   12.392
  131.250   85.658    0.402    0.259   13.188
  131.500   87.704    0.401    0.242   14.636
  131.750   89.191    0.391    0.225   14.980
  132.000   89.295    0.374    0.215   14.540
  132.250   89.505    0.358    0.218   14.069
  132.500   84.150    0.344    0.220   14.155
  132.750   80.073    0.353    0.232   14.219
  133.000   78.445    0.367    0.260   13.545
  133.250   76.152    0.365    0.273   12.645
  133.500   67.735    0.351    0.278   12.027
  133.750   72.896    0.310    0.249   11.857
  134.000   76.885    0.296    0.236   11.708
  134.250   76.482    0.324    0.190   11.561
  134.500   78.581    0.339    0.175   11.632
  134.750   79.910    0.344    0.178   11.272
  135.000   82.674    0.352    0.202   10.908
  135.250   84.108    0.359    0.218    9.823
  135.500   84.930    0.366    0.223    9.505
  135.750   85.804    0.374    0.215    9.226
  136.000   85.297    0.389    0.210    9.443
  136.250   83.669    0.398    0.210   10.049
  136.500   79.591    0.403    0.212   11.136
  136.750   76.126    0.402    0.223   10.575
  137.000   73.221    0.401    0.250    9.719
  137.250   70.368    0.394    0.279    9.390
  137.500   72.415    0.379    0.285    9.993
  137.750   78.801    0.346    0.281   10.835
  138.000   85.187    0.357    0.229   12.681
  138.250   89.071    0.382    0.196   14.544
  138.500   93.007    0.412    0.198   18.345
  138.750   91.991    0.442    0.225   19.922
  139.000   91.028    0.443    0.248   20.452
  139.250   90.573    0.412    0.266   20.577
  139.500   88.945    0.399    0.280   19.971
  139.750   71.850    0.374    0.283   19.661
  140.000   66.547    0.358    0.281   17.706
  140.250   66.757    0.358    0.276   16.790
  140.500   67.579    0.388    0.271   15.143
  140.750   69.013    0.405    0.265   15.476
  141.000   71.724    0.410    0.259   17.500
  141.250   68.259    0.407    0.249   17.885
  141.500   60.402    0.397    0.255   20.575
  141.750   64.338    0.392    0.272   22.697
  142.000   65.773    0.399    0.271   26.604
  142.250   60.470    0.396    0.242   25.304
  142.500   53.278    0.394    0.250   24.485
  142.750   47.311    0.396    0.274   23.801
  143.000   48.185    0.396    0.292   23.031
  143.250   49.672    0.386    0.300   21.840
  143.500   50.441    0.386    0.292   20.418
  143.750   51.980    0.397    0.288   19.788
  144.000   52.697    0.400    0.287   19.177
  144.250   54.132    0.390    0.281   18.556
  144.500   54.341    0.387    0.275   17.703
  144.750   58.942    0.388    0.273   17.784
  145.000   59.764    0.388    0.276   17.865
  145.250   59.309    0.388    0.281   17.640
  145.500   60.183    0.389    0.282   16.778
  145.750   57.942    0.390    0.275   15.639
  146.000   56.315    0.383    0.274   13.802
  146.250   56.524    0.386    0.276   12.430
  146.500   60.355    0.399    0.275   12.009
  146.750   64.956    0.405    0.268   11.656
  147.000   65.778    0.387    0.263   11.492
  147.250   69.050    0.385    0.258   12.021
  147.500   78.498    0.397    0.254   12.575
  147.750   78.094    0.408    0.258   11.324
  148.000   74.017    0.414    0.263   11.148
  148.250   73.666    0.424    0.265   11.428
  148.500   72.038    0.430    0.263   13.354
  148.750   69.081    0.440    0.264   19.261
  149.000   56.990    0.440    0.292   17.293
  149.250   49.850    0.434    0.295   15.527
  149.500   46.280    0.409    0.302   12.974
  149.750   42.868    0.402    0.311   11.649
  150.000   43.077    0.395    0.320   10.459
  150.250   43.234    0.393    0.316    9.948
  150.500   44.721    0.390    0.288   10.603
  150.750   49.829    0.419    0.287   11.057
  151.000   58.665    0.424    0.282   11.989
  151.250   63.266    0.417    0.276   12.798
  151.500   63.475    0.409    0.266   12.875
  151.750   68.024    0.403    0.257   13.198
  152.000   64.559    0.391    0.265   13.550
  152.250   61.654    0.386    0.287   14.131
  152.500   58.136    0.382    0.289   15.659
  152.750   55.283    0.377    0.293   16.355
  153.000   58.607    0.373    0.293   17.056
  153.250   56.927    0.375    0.293   16.867
  153.500   54.074    0.377    0.292   16.630
  153.750   48.107    0.379    0.291   16.396
  154.000   46.427    0.380    0.291   16.546
  154.250   45.412    0.381    0.292   16.935
  154.500   45.009    0.381    0.298   17.064
  154.750   44.606    0.380    0.300   16.875
  155.000   44.203    0.378    0.308   16.978
  155.250   43.852    0.378    0.314   17.029
  155.500   44.061    0.380    0.311   17.185
  155.750   44.271    0.382    0.307   17.237
  156.000   45.705    0.382    0.305   16.115
  156.250   47.191    0.384    0.302   15.328
  156.500   48.573    0.384    0.302   14.579
  156.750   50.060    0.386    0.308   14.107
  157.000   49.604    0.384    0.315   13.672
  157.250   45.527    0.375    0.309   14.824
  157.500   40.837    0.376    0.299   15.776
  157.750   43.548    0.383    0.299   18.148
  158.000   46.155    0.393    0.309   19.648
  158.250   47.081    0.399    0.311   23.430
  158.500   45.349    0.404    0.322   29.006
  158.750   41.936    0.405    0.330   32.749
  159.000   39.644    0.394    0.341   31.690
  159.250   39.853    0.377    0.346   29.538
  159.500   40.115    0.376    0.343   25.585
  159.750   40.989    0.377    0.334   22.971
  160.000   41.093    0.381    0.327   19.897
  160.250   42.020    0.382    0.327   15.967
  160.500   42.737    0.384    0.330   11.031
  160.750   43.051    0.385    0.331   10.674
  161.000   43.261    0.387    0.328    9.809
  161.250   43.470    0.388    0.326    9.839
  161.500   43.119    0.386    0.321   10.487
  161.750   42.611    0.386    0.312   11.804
  162.000   41.648    0.386    0.307   14.613
  162.250   41.245    0.382    0.307   20.271
  162.500   40.842    0.369    0.308   22.429
  162.750   40.387    0.375    0.309   22.181
  163.000   38.812    0.377    0.316   22.282
  163.250   38.304    0.373    0.324   21.968
  163.500   36.676    0.370    0.324   22.554
  163.750   35.660    0.364    0.322   23.085
  164.000   36.482    0.360    0.319   24.604
  164.250   37.409    0.350    0.315   26.183
  164.500   38.178    0.355    0.302   29.473
  164.750   39.000    0.361    0.293   34.494
  165.000   39.874    0.367    0.295   36.082
  165.250   38.859    0.375    0.297   37.686
  165.500   36.566    0.382    0.301   40.166
  165.750   35.551    0.380    0.301   42.679
  166.000   39.539    0.370    0.301   48.115
  166.250   42.811    0.369    0.302   60.690
  166.500   45.470    0.373    0.307   97.787
  166.750   45.731    0.375    0.317  135.444
  167.000   44.611    0.379    0.322  171.101
  167.250   41.758    0.387    0.325  159.724
  167.500   38.241    0.391    0.327  146.561
  167.750   33.551    0.379    0.317  136.402
  168.000   31.976    0.373    0.295  122.654
  168.250   32.797    0.371    0.294  112.205
  168.500   32.954    0.370    0.297   97.336
  168.750   33.829    0.371    0.298   89.044
  169.000   34.038    0.370    0.304   78.465
  169.250   34.195    0.370    0.308   77.832
  169.500   33.844    0.370    0.294   79.543
  169.750   34.614    0.367    0.285   84.649
  170.000   37.377    0.370    0.291   90.219
  170.250   40.036    0.371    0.292   96.010
