~Version : LASO    vs 4.00 - DATA COPYRIGHT - RILEYS DATASHARE INTERNATIONAL
VERS.                2.00:   CWLS Log ASCII Standard -VERSION 2.0
WRAP.                  NO:
~Well Information Block
#MNEM.UNIT       Data                        Description of Mnemonic
#----.----      -------------------------- : -----------------------------
COMP.                                     : COMPANY
FLD .    WILDCAT                          : FIELD NAME
LOC .    03-06-091-07W4                   : WELL LOCATION
UWI .    AA/03-06-091-07W400              : UNIQUE WELL ID
STRT.M             9.0000:
STOP.M           161.0000:
STEP.M             0.1250:
NULL.           -999.2500:
COMP.  MOBIL OIL CANADA:COMPANY
WELL.  MOBIL CLARKE OV 3-6:WELL
FLD.   :FIELD
LOC.   03-06-091-07W4:LOCATION
CTRY.  CANADA:COUNTRY
PROV.  ALBERTA:PROVINCE
SRVC.  DRESSER ATLAS:SERVICE COMPANY
DATE.  08-FEB-81:LOG DATE
UWI.   AA/03-06-091-07W4/0:UNIQUE WELL ID
~Parameter Information Block
#MNEM.UNIT       Data                        Description of Mnemonic
#----.----      -------------------------- : -----------------------------
RUN .                   1                 : Run Number
GL  .M           418.1000                 : Ground Level Elevation
DREF.                  KB                 : Depth Reference
EREF.M           419.1000                 : Elevation of Depth Reference
TDL .M           162.8000                 : Total Depth Logger
TDD .M           160.0000                 : Total Depth Driller
BHT .DEGC         10.0000                 : Bottom Hole Temperature
BS  .MM          171.0000                 : Bit Size
DFD .           1090.0000                 : Mud Weight (Density)
DFV .             85.0000                 : Mud Viscosity
RM  .OHMM          1.9000                 : Mud Resistivity
RMT .DEGC         10.0000                 : Mud Resistivity Temperature
RMF .OHMM          1.1000                 : Mud Filtrate Resistivity
RMFT.DEGC         18.0000                 : RMF Temperature
RMC .OHMM          1.8000                 : Mud Cake Resistivity
RMCT.DEGC         18.0000                 : RMC Temperature
~Curve Information Block
#MNEM.UNIT        API CODE    Curve Description
#---------    ------------    -------------------------------------------
DEPT.M                    :   DEPTH
CALI.MM       42 280  1  1:   3 DENSITY CALIPER
DPHI.V/V                  :   DPHI
DT  .US/M     60 520 32  1:   2 SONIC INTERVAL TRANSIT TIME (COMPENSATED)
GR  .GAPI     42 310  1  1:   4 GAMMA RAY
ILD .OHMM      5 120 46  1:   7 DEEP INDUCTION
NPHI.V/V      42 890  3  1:   5 NEUTRON POROSITY (SANDSTONE)
RHOB.K/M3     42 350  1  1:   6 BULK DENSITY
SFL .OHMM      5 220  6  1:   8 FOCUSSED RESISTIVITY
SP  .MV        5  10  1  1:   9 SPONTANEOUS POTENTIAL
~A  Depth           CALI        DPHI          DT          GR         ILD        NPHI        RHOB         SFL          SP
# ...
109.5000        201.2750      0.3216    391.0000     21.4950   1374.9999      0.2839   2114.6001    249.3000    -65.4900
109.6250        201.3000      0.3204    390.2800     21.8700   1735.9999      0.2843   2104.3000    241.9999    -62.6000
109.7500        201.3250      0.3202    401.8000     22.7850   1873.9999      0.2834   2103.7000    172.3000    -60.9200
109.8750        201.3750      0.3182    423.8400     24.2550   1878.9999      0.2841   2104.8999    124.6000    -60.6800
110.0000        201.4000      0.3177    442.2400     25.3650   1878.9999      0.2842   2108.5000    123.4000    -63.2000
110.1250        201.4500      0.3194    443.4400     27.1950   1878.9999      0.2852   2103.1001    150.3000    -65.3700
110.2500        201.4750      0.3252    443.2000     27.1950   1879.9999      0.2836   2101.8000    190.7000    -66.6900
110.3750        201.5000      0.3283    434.1200     25.7250   1879.9999      0.2806   2101.2000    222.4000    -66.9300
110.5000        201.5500      0.3294    412.3200     24.4350   1879.9999      0.2788   2098.2000    252.9999    -67.2900
110.6250        201.5750      0.3279    414.5200     23.8950   1879.9999      0.2774   2104.3000    245.7000    -68.1300
110.7500        201.6250      0.3240    418.6800     23.5200   1879.9999      0.2753   2101.8000    241.9999    -69.0900
110.8750        201.6500      0.3229    419.4400     23.7000   1876.9999      0.2738   2103.1001    262.8000    -69.9300
111.0000        201.7000      0.3251    418.4400     22.7850   1876.9999      0.2716   2107.8999    285.9999    -70.0500
111.1250        201.7250      0.3268    414.0400     22.6050   1876.9999      0.2726   2114.0000    294.6000    -70.0500
111.2500        201.7500      0.3288    408.1600     22.7850   1876.9999      0.2755   2104.3000    287.2000    -69.9300
111.3750        201.8000      0.3286    414.5200     22.7850   1875.9999      0.2749   2098.2000    289.7000    -70.4100
111.5000        201.8250      0.3268    429.0000     23.3400   1870.9999      0.2736   2095.8000    293.3000    -71.2600
111.6250        201.8750      0.3246    433.6400     23.8950   1862.9999      0.2724   2097.0000    298.2000    -72.1000
111.7500        201.9000      0.3247    439.2800     24.6300   1845.9999      0.2712   2097.6001    293.3000    -72.2200
111.8750        201.9250      0.3255    448.6000     24.8100   1765.9999      0.2675   2106.1001    284.8000    -72.2200
112.0000        201.9750      0.3247    459.4000     24.6300   1796.9999      0.2632   2107.8999    274.9999    -72.5800
112.1250        202.0000      0.3247    472.8800     23.8950   1837.9999      0.2559   2107.8999    276.2000    -73.0600
112.2500        202.0500      0.3259    482.1600     22.6050   1871.9999      0.2473   2106.1001    277.5000    -73.7800
112.3750        202.0750      0.3294    486.3600     21.8700   1877.9999      0.2317   2093.8999    277.5000    -74.7400
112.5000        202.1250      0.3425    494.6800     21.3150   1877.9999      0.2276   2080.6001    296.9999    -75.3400
112.6250        202.1500      0.3524    500.0400     21.6900   1877.9999      0.2297   2070.8000    320.2000    -75.8200
112.7500        202.1750      0.3494    500.2800     21.3150   1878.9999      0.2264   2063.5000    339.8000    -76.1800
112.8750        202.2250      0.3458    498.6000     21.1350   1879.9999      0.2262   2058.7000    364.3000    -76.9000
113.0000        202.2500      0.3421    511.8400     20.9550   1881.9999      0.2272   2057.5000    419.3000    -77.7500
113.1250        202.3000      0.3407    509.6400     21.1350   1881.9999      0.2307   2075.7000    480.4000    -78.3500
113.2500        202.3250      0.3405    507.4400     21.4950   1882.9999      0.2377   2073.8999    471.8000    -78.4700
113.3750        202.3500      0.3413    505.7200     21.6900   1883.9999      0.2449   2072.0000    459.6000    -78.5900
113.5000        202.4000      0.3395    508.1600     21.4950   1883.9999      0.2522   2076.8999    450.9999    -78.7100
113.6250        202.4250      0.3360    541.4800     21.6900   1884.9999      0.2617   2086.6001    438.8000    -79.1900
113.7500        202.4750      0.3345    559.1200     22.2300   1884.9999      0.2682   2096.3999    433.9000    -80.0300
113.8750        202.5000      0.3343    529.0000     22.2300   1882.9999      0.2775   2092.7000    430.3000    -80.7500
114.0000        202.5500      0.3322    475.5600     22.4250   1879.9999      0.2861   2089.1001    424.2000    -81.5900
114.1250        202.8750      0.3308    466.4800     21.8700   1873.9999      0.2947   2090.3000    414.4000    -82.3100
114.2500        202.5500      0.3296    455.2000     20.4000   1861.9999      0.3032   2103.7000    409.5000    -82.9100
114.3750        202.8750      0.3287    444.6800     20.2200   1743.9999      0.3055   2114.0000    408.3000    -83.3900
114.5000        203.7750      0.3282    420.4000     20.5800   1544.9999      0.3069   2109.1001    428.9999    -84.1200
114.6250        206.2250      0.3270    416.4800     20.4000   1141.9999      0.3061   2099.3999    450.9999    -84.2400
114.7500        207.7500      0.3262    414.2800     20.9550    756.2999      0.3009   2098.2000    480.4000    -84.2400
114.8750        208.3750      0.3247    409.6400     21.8700    427.9000      0.2949   2094.5000    501.2000    -84.4800
115.0000        208.6750      0.3224    400.0800     21.6900    317.9999      0.2958   2098.8000    509.7000    -84.7200
115.1250        208.9750      0.3210    397.8800     21.6900    248.4000      0.2979   2115.2000    501.2000    -84.8400
115.2500        208.6750      0.3226    397.1200     21.4950    200.8000      0.2983   2128.6001    477.9000    -85.0800
115.3750        208.9750      0.3249    396.1600     21.4950    138.5000      0.2994   2132.8999    473.1000    -84.9600
115.5000        209.9000      0.3234    396.1600     21.6900    121.4000      0.3015   2134.1001    485.3000    -84.6000
115.6250        210.5250      0.3260    398.3600     21.6900    107.9999      0.3048   2129.8000    510.9999    -84.0000
115.7500        210.8250      0.3265    397.8800     20.7600     99.1300      0.3046   2126.2000    491.4000    -83.5100
115.8750        210.5250      0.3266    396.8800     20.7600     93.4900      0.3017   2121.3000    408.3000    -82.9100
116.0000        210.8250      0.3257    398.3600     21.1350     90.1900      0.2973   2117.0000    283.6000    -81.8300
116.1250        210.5250      0.3218    397.8800     20.4000     89.0900      0.2916   2104.3000    216.3000    -80.1500
116.2500        210.5250      0.3180    394.6800     20.0250     91.9000      0.2865   2102.5000    146.6000    -78.5900
116.3750        210.5250      0.3143    392.2400     20.4000    101.9000      0.2815   2112.2000    119.8000    -77.2600
116.5000        210.5250      0.3106    388.5600     20.5800    109.2000      0.2766   2122.5000    105.1000    -76.0600
116.6250        210.5250      0.3070    388.0400     20.0250    126.3000      0.2735   2131.0000     98.6500    -75.2200
116.7500        210.2000      0.3024    388.3200     20.2200    151.9999      0.2700   2136.5000     92.2800    -74.5000
116.8750        210.5250      0.2994    388.5600     20.4000    276.5000      0.2664   2142.6001     94.6100    -73.1800
117.0000        210.5250      0.2968    391.2400     20.7600    411.9999      0.2618   2149.3000     83.4700    -71.3800
117.1250        210.2000      0.2951    392.4800     21.1350    662.3000      0.2596   2165.1001     68.4200    -70.0500
117.2500        210.5250      0.2929    392.7200     21.1350    998.0999      0.2573   2166.8999     63.5200    -68.6100
117.3750        210.5250      0.2923    392.4800     22.4250   1290.9999      0.2540   2164.5000     70.5000    -66.9300
117.5000        210.2000      0.2904    394.2000     22.9650   1180.9999      0.2522   2165.1001     74.4100    -65.0100
117.6250        210.2000      0.2881    398.8400     24.2550   1017.9999      0.2507   2165.1001     80.6600    -62.2400
117.7500        212.0500      0.2869    402.5200     24.8100    852.7999      0.2554   2171.2000    112.4000    -59.9600
