~VERSION INFORMATION
 VERS.                 2.0:   CWLS LOG ASCII STANDARD -VERSION 2.0
 WRAP.                  NO:   ONE LINE PER DEPTH STEP
~WELL INFORMATION BLOCK
#MNEM.UNIT           DATA                    DESCRIPTION OF MNEMONIC
#---------    -------------------            -------------------------------
# Generated from Intellog Unique Number	CN_94_101/WELL/2800
WELL.         03-25-096-16W4                 : Well_name    - WELL
LOC .         AA/03-25-096-16W4/0            : Location     - LOCATION
UWI .         AA/03-25-096-16W400            : Uwi          - UNIQUE WELL ID
ENTR.         JOETTE                         : Entered      - ENTERED BY
SRVC.         SCHLUMBERGER                   : Scn          - SERVICE COMPANY
DATE.         07/07/92                       : Date         - LOG DATE
STRT.M        140                            : top_depth    - START DEPTH
STOP.M        395                            : bot_depth    - STOP DEPTH
STEP.M        0.25                           : increment    - STEP LENGTH
 NULL. -999.2500:NULL Value
~CURVE INFORMATION BLOCK
#MNEM UNIT       ERCB CURVE CODE    CURVE DESCRIPTION
#-----------   ------------------   ----------------------------------
DEPT.M        00 001 00 00         : DEPTH        - DEPTH
CALI.MM       00 280 01 00         : CAL          - CALIPER
GR  .API      00 310 00 00         : GR           - GAMMA RAY
NPHI.V/V      00 330 00 00         : PHIN         - NEUTRON POROSITY (SANDSTONE)
DPHI.V/V      00 890 00 00         : PHID         - DENSITY POROSITY (SANDSTONE)
ILD .OHMM     00 120 00 00         : RESD         - DEEP RESISTIVITY (DIL)
~PARAMETER INFORMATION
#MNEM.UNIT           DATA             DESCRIPTION OF MNEMONIC
#---------         -----------     ------------------------------
GL  .M        651.2                : gl           - GROUND LEVEL ELEVATION
EREF.M        655                  : kb           - ELEVATION OF DEPTH REFERENCE
DATM.M        655                  : datum        - DATUM ELEVATION
TDD .M        398                  : tdd          - TOTAL DEPTH DRILLER
RUN .         ONE                  : Run          - RUN NUMBER
ENG .         JO                   : Engineer     - RECORDING ENGINEER
WIT .         TIM                  : Witness      - WITNESSED BY
MUD .         GEL                  : Mud_type     - MUD TYPE
MATR.         SANDSTONE            : Logunit      - NEUTRON MATRIX
TMAX.C        20                   : BHT          - MAXIMUM RECORDED TEMPERATURE
BHTD.M        398                  : BHTDEP       - MAXIMUM RECORDED TEMPERATURE
RMT .C        13                   : MDTP         - TEMPERATURE OF MUD
MUDD.KG/M     1120                 : MWT          - MUD DENSITY
NEUT.         1                    : NEUTRON      - NEUTRON TYPE
RESI.         0                    : RESIST       - RESISTIVITY TYPE
RM  .OHMM     0.84                 : RM           - RESISTIVITY OF MUD
RMC .OHMM     0.84                 : RMC          - RESISTIVITY OF MUD CAKE
RMF .OHMM     0.88                 : RMF          - RESISTIVITY OF MUD FILTRATE
SUFT.C        4                    : SUFT         - SURFACE TEMPERATURE
~A  DEPTH      CAL       GR     PHIN     PHID     RESD
  140.000  182.405  100.347    0.463    0.266    4.518
  140.250  181.541  101.588    0.480    0.258    4.613
  140.500  183.640  105.812    0.509    0.253    4.622
  140.750  185.771  108.851    0.537    0.262    4.629
  141.000  184.906  111.908    0.502    0.260    4.643
  141.250  184.011  113.149    0.505    0.250    4.651
  141.500  185.153  115.020    0.496    0.250    4.662
  141.750  186.265  115.669    0.484    0.261    4.581
  142.000  188.364  116.336    0.484    0.265    4.593
  142.250  189.507  116.410    0.496    0.260    4.436
  142.500  190.557  115.891    0.495    0.258    4.363
  142.750  191.668  114.779    0.485    0.253    4.291
  143.000  192.780  115.465    0.493    0.251    4.221
  143.250  192.903  115.539    0.500    0.262    4.077
  143.500  193.058  115.020    0.513    0.261    4.083
  143.750  193.181  113.908    0.506    0.265    4.014
  144.000  191.359  112.778    0.503    0.268    4.022
  144.250  191.421  112.870    0.509    0.275    4.030
  144.500  189.599  112.352    0.514    0.271    4.114
  144.750  189.691  111.240    0.508    0.266    4.279
  145.000  188.857  109.535    0.492    0.253    4.454
  145.250  189.012  106.645    0.485    0.250    4.630
  145.500  189.073  103.755    0.477    0.243    4.818
  145.750  189.228  100.253    0.459    0.235    5.297
  146.000  190.339   96.769    0.427    0.248    6.520
  146.250  192.470   93.268    0.436    0.241    7.731
  146.500  195.589   86.820    0.407    0.235   10.059
  146.750  196.669   78.594    0.387    0.240   10.659
  147.000  196.793   79.872    0.372    0.200   11.725
  147.250  195.959   79.353    0.390    0.179   12.904
  147.500  195.032   75.870    0.382    0.185   14.194
  147.750  191.234   71.182    0.366    0.223   15.317
  148.000  185.398   67.087    0.339    0.241   17.166
  148.250  179.592   58.268    0.326    0.264   21.527
  148.500  180.766   48.856    0.301    0.258   26.483
  148.750  180.827   43.575    0.288    0.267   30.238
  149.000  173.045   38.906    0.290    0.289   26.100
  149.250  170.174   37.795    0.308    0.317   23.385
  149.500  173.292   43.205    0.295    0.274   21.347
  149.750  175.423   49.819    0.235    0.293   20.629
  150.000  172.582   49.912    0.177    0.331   22.668
  150.250  170.729   45.817    0.157    0.230   48.820
  150.500  169.864   38.165    0.200    0.216   65.963
  150.750  169.988   25.195    0.158    0.274   92.466
  151.000  168.135   19.322    0.129    0.400  118.137
  151.250  167.270   17.043    0.120    0.407  130.016
  151.500  168.382   18.284    0.107    0.396  118.684
  151.750  170.512   18.377    0.090    0.394  108.340
  152.000  170.574   17.247    0.123    0.412   98.897
  152.250  170.728   16.135    0.155    0.402   91.930
  152.500  169.864   19.192    0.177    0.407   93.901
  152.750  172.951   21.045    0.182    0.394  101.329
  153.000  179.961   21.730    0.162    0.352  115.756
  153.250  180.084   21.804    0.157    0.357  124.914
  153.500  176.255   20.100    0.153    0.383  140.062
  153.750  171.469   18.395    0.156    0.373  142.992
  154.000  168.597   17.283    0.157    0.373  123.490
  154.250  164.799   17.339    0.151    0.360  108.488
  154.500  163.903   18.006    0.153    0.364   72.162
  154.750  163.038   19.284    0.164    0.369   49.748
  155.000  167.145   19.933    0.196    0.370   43.749
  155.250  168.257   21.192    0.241    0.351   32.546
  155.500  166.404   21.285    0.297    0.348   28.607
  155.750  169.492   19.580    0.334    0.337   26.100
  156.000  169.615   19.061    0.362    0.322   22.113
  156.250  168.781   19.710    0.357    0.321   18.734
  156.500  167.947   27.510    0.371    0.304   16.179
  156.750  168.009   35.885    0.396    0.286   14.761
  157.000  169.152   43.685    0.388    0.303   12.982
  157.250  169.275   47.909    0.402    0.288   11.410
  157.500  168.410   50.355    0.429    0.297   10.416
  157.750  168.503   50.447    0.448    0.305   11.905
  158.000  167.669   48.724    0.447    0.302   12.847
  158.250  166.835   40.498    0.407    0.321   14.397
  158.500  166.897   36.459    0.377    0.349   15.845
  158.750  167.020   34.736    0.369    0.367   16.481
  159.000  168.132   31.215    0.374    0.329   16.201
  159.250  171.220   35.477    0.399    0.318   15.640
  159.500  175.296   39.108    0.414    0.316   14.827
  159.750  173.443   40.961    0.415    0.320   13.797
  160.000  181.502   42.220    0.408    0.323   13.066
  160.250  184.590   42.906    0.411    0.301   12.607
  160.500  179.773   42.943    0.415    0.297   11.946
  160.750  175.944   43.610    0.418    0.294   10.910
  161.000  181.039   43.091    0.434    0.292   10.338
  161.250  184.096   40.794    0.412    0.296    9.800
  161.500  179.279   51.577    0.445    0.278    9.629
  161.750  173.473   53.411    0.459    0.273    9.654
  162.000  173.627   57.042    0.447    0.283    9.851
  162.250  172.763   60.674    0.452    0.251   10.067
  162.500  168.903   60.192    0.450    0.269   10.083
  162.750  167.050   59.654    0.461    0.259    9.912
  163.000  167.204   56.764    0.459    0.221    9.932
  163.250  167.297   52.077    0.417    0.156   10.331
  163.500  167.420   48.019    0.403    0.134   10.953
  163.750  167.574   50.465    0.423    0.207   11.613
  164.000  166.740   48.741    0.447    0.263   12.538
  164.250  166.802   48.815    0.400    0.304   12.794
  164.500  166.926   50.075    0.396    0.306   13.558
  164.750  167.049   48.389    0.400    0.316   14.368
  165.000  167.172   44.313    0.401    0.303   14.944
  165.250  167.296   43.201    0.407    0.303   15.552
  165.500  166.462   43.257    0.410    0.294   15.886
  165.750  165.566   43.924    0.409    0.278   15.902
  166.000  164.763   44.591    0.400    0.309   15.640
  166.250  164.825   44.072    0.390    0.313   15.390
  166.500  164.948   44.164    0.396    0.315   15.145
  166.750  165.072   44.831    0.405    0.319   14.620
  167.000  164.207   47.870    0.409    0.310   14.114
  167.250  164.361   50.316    0.415    0.308   13.868
  167.500  164.516   51.575    0.427    0.304   13.140
  167.750  165.596   49.871    0.429    0.278   12.930
  168.000  165.812   46.406    0.422    0.278   12.476
  168.250  165.874   46.480    0.424    0.286   12.283
  168.500  165.967   47.128    0.432    0.297   12.540
  168.750  166.152   47.203    0.418    0.304   13.037
  169.000  165.225   46.684    0.435    0.293   13.316
  169.250  165.380   42.015    0.449    0.314   14.104
  169.500  165.503   37.920    0.466    0.339   16.407
  169.750  165.627   35.048    0.485    0.429   18.734
  170.000  165.750   41.051    0.492    0.498   23.071
  170.250  167.881   45.275    0.505    0.514   24.908
  170.500  168.930   44.756    0.530    0.475   26.382
  170.750  171.030   42.459    0.591    0.446   29.567
  171.000  171.154   35.418    0.570    0.438   32.523
  171.250  169.332   30.731    0.474    0.408   37.892
  171.500  166.491   24.283    0.414    0.390   39.372
  171.750  165.626   26.154    0.368    0.358   40.952
  172.000  166.768   28.600    0.368    0.365   42.640
  172.250  167.818   29.860    0.361    0.364   41.895
  172.500  170.906   29.934    0.354    0.355   39.003
  172.750  173.037   30.619    0.350    0.350   37.652
  173.000  174.148   30.675    0.348    0.339   36.330
  173.250  174.272   31.360    0.348    0.344   35.054
  173.500  176.402   32.009    0.352    0.355   33.857
  173.750  176.495   32.675    0.356    0.353   33.317
  174.000  176.649   34.547    0.360    0.348   33.351
  174.250  176.742   34.621    0.358    0.357   33.437
  174.500  176.865   33.509    0.416    0.363   33.523
  174.750  175.012   31.805    0.405    0.353   33.557
  175.000  173.159   30.100    0.401    0.362   34.277
  175.250  170.318   30.767    0.427    0.362   34.329
  175.500  167.508   31.434    0.442    0.357   34.418
  175.750  167.632   32.082    0.452    0.358   34.471
  176.000  167.755   32.175    0.446    0.350   35.228
  176.250  168.867   32.249    0.433    0.349   35.282
