~VERSION INFORMATION
 VERS.                 2.0:   CWLS LOG ASCII STANDARD -VERSION 2.0
 WRAP.                  NO:   ONE LINE PER DEPTH STEP
~WELL INFORMATION BLOCK
#MNEM.UNIT           DATA                    DESCRIPTION OF MNEMONIC
#---------    -------------------            -------------------------------
# Generated from Intellog Unique Number	CN_94_101/WELL/4988
WELL.         TEXACO                         : Well_name    - WELL
LOC .         AA/07-08-101-12W4/0            : Location     - LOCATION
UWI .         AA/07-08-101-12W400            : Uwi          - UNIQUE WELL ID
ENTR.         TIM                            : Entered      - ENTERED BY
SRVC.         SCHLUMBERGER                   : Scn          - SERVICE COMPANY
DATE.         08/11/92                       : Date         - LOG DATE
STRT.M        380                            : top_depth    - START DEPTH
STOP.M        665                            : bot_depth    - STOP DEPTH
STEP.M        0.25                           : increment    - STEP LENGTH
NULL. -999.2500:NULL Value
~CURVE INFORMATION BLOCK
#MNEM UNIT       ERCB CURVE CODE    CURVE DESCRIPTION
#-----------   ------------------   ----------------------------------
DEPT.M        00 001 00 00         : DEPTH        - DEPTH
GR  .API      00 310 00 00         : GR           - GAMMA RAY
ILD .OHMM     00 120 00 00         : RESD         - DEEP RESISTIVITY (DIL)
NPHI.V/V      00 330 00 00         : PHIN         - NEUTRON POROSITY (SANDSTONE)
DPHI.V/V      00 890 00 00         : PHID         - DENSITY POROSITY (SANDSTONE)
~PARAMETER INFORMATION
#MNEM.UNIT           DATA             DESCRIPTION OF MNEMONIC
#---------         -----------     ------------------------------
GL  .M        814.2                : gl           - GROUND LEVEL ELEVATION
EREF.M        817.6                : kb           - ELEVATION OF DEPTH REFERENCE
DATM.M        817.6                : datum        - DATUM ELEVATION
TDD .M        667                  : tdd          - TOTAL DEPTH DRILLER
RUN .         ONE                  : Run          - RUN NUMBER
ENG .         JO                   : Engineer     - RECORDING ENGINEER
WIT .         TIM                  : Witness      - WITNESSED BY
MUD .         GEL                  : Mud_type     - MUD TYPE
MATR.         SANDSTONE            : Logunit      - NEUTRON MATRIX
TMAX.C        25                   : BHT          - MAXIMUM RECORDED TEMPERATURE
BHTD.M        667                  : BHTDEP       - MAXIMUM RECORDED TEMPERATURE
RMT .C        10                   : MDTP         - TEMPERATURE OF MUD
MUDD.KG/M     1050                 : MWT          - MUD DENSITY
NEUT.         1                    : NEUTRON      - NEUTRON TYPE
RESI.         0                    : RESIST       - RESISTIVITY TYPE
RM  .OHMM     0.84                 : RM           - RESISTIVITY OF MUD
RMC .OHMM     0.84                 : RMC          - RESISTIVITY OF MUD CAKE
RMF .OHMM     0.84                 : RMF          - RESISTIVITY OF MUD FILTRATE
SUFT.C        4                    : SUFT         - SURFACE TEMPERATURE
~A  DEPTH       GR     RESD     PHIN     PHID
# ...
  467.000   67.344   10.235    0.411    0.274
  467.250   65.527   11.271    0.395    0.245
  467.500   63.748   11.287    0.373    0.202
  467.750   63.167   10.676    0.344    0.163
  468.000   66.310    9.543    0.379    0.120
  468.250   70.689    6.795    0.465    0.087
  468.500   77.554    4.749    0.482    0.120
  468.750   80.684    3.862    0.505    0.236
  469.000   85.681    3.388    0.519    0.261
  469.250   90.073    3.087    0.531    0.282
  469.500   93.859    3.034    0.542    0.287
  469.750   97.595    3.039    0.551    0.294
  470.000  101.986    3.041    0.559    0.290
  470.250  103.892    3.163    0.559    0.283
  470.500  104.548    3.549    0.549    0.275
  470.750  105.217    3.907    0.542    0.267
  471.000  104.044    4.222    0.542    0.259
  471.250  103.502    4.475    0.549    0.263
  471.500  102.921    4.654    0.558    0.274
  471.750  103.577    4.750    0.551    0.277
  472.000  104.246    4.667    0.543    0.276
  472.250  104.915    3.942    0.544    0.272
  472.500  106.203    3.458    0.547    0.271
  472.750  106.872    3.211    0.570    0.270
  473.000  108.159    3.157    0.565    0.267
  473.250  108.841    3.159    0.552    0.264
  473.500  108.891    3.164    0.541    0.263
  473.750  109.560    3.229    0.538    0.269
  474.000  110.229    3.358    0.537    0.279
  474.250  110.898    3.494    0.537    0.287
  474.500  111.567    3.705    0.535    0.290
  474.750  111.605    3.778    0.535    0.292
  475.000  111.668    3.933    0.534    0.292
  475.250  109.876    3.935    0.534    0.289
  475.500  108.678    4.095    0.533    0.288
  475.750  107.492    4.262    0.533    0.286
  476.000  104.476    4.348    0.532    0.285
  476.250  103.277    4.522    0.534    0.282
  476.500  100.867    4.705    0.535    0.282
  476.750   99.668    4.892    0.536    0.281
  477.000   97.876    5.185    0.533    0.284
  477.250   97.296    5.395    0.528    0.287
  477.500   96.715    5.502    0.517    0.285
  477.750   96.160    5.722    0.506    0.285
  478.000   95.580    5.731    0.489    0.285
  478.250   94.419    5.739    0.491    0.286
  478.500   94.457    5.641    0.501    0.289
  478.750   93.902    5.546    0.527    0.292
  479.000   93.940    5.552    0.540    0.294
  479.250   93.359    5.355    0.526    0.294
  479.500   92.186    5.264    0.526    0.286
  479.750   92.249    5.169    0.526    0.281
  480.000   92.274    4.984    0.528    0.280
  480.250   92.956    4.808    0.538    0.282
  480.500   92.994    4.723    0.550    0.285
  480.750   94.306    4.555    0.559    0.291
  481.000   94.344    4.476    0.560    0.297
  481.250   95.001    4.481    0.549    0.300
  481.500   95.064    4.491    0.538    0.299
  481.750   95.102    4.494    0.529    0.299
  482.000   94.559    4.502    0.533    0.301
  482.250   94.585    4.507    0.540    0.303
  482.500   94.042    4.515    0.548    0.309
  482.750   94.106    4.522    0.551    0.313
  483.000   94.144    4.530    0.546    0.307
  483.250   94.207    4.533    0.546    0.302
  483.500   94.232    4.454    0.547    0.306
  483.750   94.295    4.379    0.553    0.313
  484.000   94.952    4.387    0.560    0.319
  484.250   95.633    4.309    0.563    0.320
  484.500   96.315    4.315    0.538    0.310
  484.750   96.340    4.240    0.522    0.300
  485.000   97.009    4.248    0.518    0.295
  485.250   98.309    4.173    0.523    0.292
  485.500   99.584    4.100    0.547    0.289
  485.750  102.120    4.029    0.553    0.289
  486.000  105.288    3.812    0.559    0.289
  486.250  106.576    3.746    0.557    0.287
  486.500  107.850    3.753    0.553    0.285
  486.750  109.769    3.758    0.550    0.280
  487.000  109.794    3.765    0.550    0.279
  487.250  111.712    3.629    0.550    0.280
  487.500  112.381    3.434    0.552    0.281
  487.750  113.668    3.250    0.557    0.282
  488.000  113.732    3.252    0.562    0.281
  488.250  113.139    3.516    0.570    0.276
  488.500  111.965    3.725    0.568    0.267
  488.750  111.385    3.873    0.552    0.258
  489.000  110.211    4.105    0.536    0.250
  489.250  110.262    4.193    0.517    0.224
  489.500  110.313    4.119    0.522    0.202
  489.750  111.612    3.897    0.533    0.229
  490.000  112.294    3.687    0.538    0.249
  490.250  112.319    3.835    0.516    0.268
  490.500  110.540    4.386    0.490    0.276
  490.750  109.947    4.919    0.445    0.269
  491.000  108.761    5.841    0.436    0.259
  491.250  108.206    6.938    0.429    0.250
  491.500  108.244    7.787    0.428    0.254
  491.750  108.307    8.414    0.428    0.257
  492.000  107.765    8.916    0.431    0.256
  492.250  107.184    9.270    0.432    0.250
  492.500  106.591    9.290    0.438    0.243
  492.750  106.023    8.951    0.440    0.246
  493.000  105.456    8.313    0.445    0.252
  493.250  104.901    8.013    0.449    0.255
  493.500  104.333    7.439    0.455    0.259
  493.750  103.765    7.173    0.479    0.262
  494.000  103.197    6.919    0.492    0.267
  494.250  102.617    6.927    0.498    0.274
  494.500  102.074    6.811    0.486    0.282
  494.750  101.494    6.952    0.464    0.287
  495.000  101.545    7.090    0.453    0.280
  495.250  100.989    7.664    0.442    0.269
  495.500  101.027    7.816    0.440    0.261
  495.750   99.236    8.138    0.445    0.258
  496.000   99.261    7.991    0.455    0.259
  496.250   98.087    7.563    0.463    0.259
  496.500   97.507    7.293    0.435    0.254
  496.750   97.596    7.032    0.430    0.242
  497.000   97.633    7.177    0.421    0.231
  497.250   97.671    7.464    0.421    0.223
  497.500   97.722    8.066    0.422    0.216
  497.750   97.167    8.226    0.428    0.230
  498.000   97.205    8.556    0.433    0.250
  498.250   97.268    8.407    0.445    0.263
  498.500   97.950    7.955    0.456    0.273
  498.750   98.606    7.385    0.465    0.270
  499.000   98.657    6.602    0.466    0.262
  499.250   98.657    6.131    0.468    0.257
  499.500   98.127    5.912    0.461    0.257
  499.750  100.664    5.921    0.437    0.259
  500.000  100.083    6.040    0.437    0.254
  500.250   98.897    6.049    0.442    0.250
  500.500   97.724    6.296    0.446    0.252
  500.750   97.799    6.421    0.470    0.257
  501.000   97.812    6.314    0.475    0.264
  501.250   97.863    5.862    0.485    0.270
  501.500   97.939    5.542    0.500    0.278
  501.750   97.383    5.244    0.489    0.268
  502.000   96.790    5.253    0.474    0.253
  502.250   94.999    5.570    0.463    0.233
  502.500   94.418    5.683    0.451    0.217
  502.750   93.850    6.028    0.480    0.199
  503.000   94.532    6.150    0.491    0.215
  503.250   97.069    6.159    0.513    0.243
  503.500   97.725    5.716    0.539    0.256
  503.750   99.025    4.827    0.550    0.336
  504.000   99.669    4.001    0.563    0.337
  504.250  101.600    3.379    0.582    0.343
  504.500  102.862    2.907    0.585    0.346
  504.750  104.149    2.599    0.570    0.322
  505.000  105.436    2.507    0.558    0.317
  505.250  106.736    2.559    0.548    0.317
  505.500  107.418    2.562    0.551    0.321
  505.750  107.481    2.424    0.583    0.324
  506.000  107.506    2.337    0.591    0.326
  506.250  108.188    2.211    0.600    0.324
  506.500  108.251    2.133    0.592    0.317
  506.750  108.289    2.095    0.586    0.310
  507.000  108.946    2.263    0.576    0.302
  507.250  109.615    2.589    0.565    0.297
  507.500  110.284    2.904    0.547    0.297
  507.750  110.334    3.257    0.532    0.290
  508.000  110.397    3.724    0.515    0.279
  508.250  110.448    4.179    0.495    0.270
  508.500  109.880    4.779    0.483    0.264
  508.750  109.300    5.463    0.460    0.260
  509.000  108.745    6.249    0.453    0.255
  509.250  107.559    6.750    0.450    0.253
  509.500  106.978    7.018    0.441    0.245
  509.750  105.792    7.444    0.441    0.243
  510.000  105.237    7.594    0.448    0.246
  510.250  104.682    7.608    0.459    0.250
