~VERSION INFORMATION
 VERS.                 2.0:   CWLS LOG ASCII STANDARD -VERSION 2.0
 WRAP.                  NO:   ONE LINE PER DEPTH STEP
~WELL INFORMATION BLOCK
#MNEM.UNIT           DATA                    DESCRIPTION OF MNEMONIC
#---------    -------------------            -------------------------------
# Generated from Intellog Unique Number	CN_94_101/WELL/4977
WELL.         04-13-098-11W4                 : Well_name    - WELL
LOC .         AA/04-13-098-11W4/0            : Location     - LOCATION
UWI .         AA/04-13-098-11W400            : Uwi          - UNIQUE WELL ID
ENTR.         TIM                            : Entered      - ENTERED BY
SRVC.         SCHLUMBERGER                   : Scn          - SERVICE COMPANY
DATE.         08/11/92                       : Date         - LOG DATE
STRT.M        0                              : top_depth    - START DEPTH
STOP.M        85                             : bot_depth    - STOP DEPTH
STEP.M        0.25                           : increment    - STEP LENGTH
 NULL. -999.2500:NULL Value
~CURVE INFORMATION BLOCK
#MNEM UNIT       ERCB CURVE CODE    CURVE DESCRIPTION
#-----------   ------------------   ----------------------------------
DEPT.M        00 001 00 00         : DEPTH        - DEPTH
NPHI.V/V      00 330 00 00         : PHIN         - NEUTRON POROSITY (SANDSTONE)
ILD .OHMM     00 120 00 00         : RESD         - DEEP RESISTIVITY (DIL)
GR  .API      00 310 00 00         : GR           - GAMMA RAY
DPHI.V/V      00 890 00 00         : PHID         - DENSITY POROSITY (SANDSTONE)
~PARAMETER INFORMATION
#MNEM.UNIT           DATA             DESCRIPTION OF MNEMONIC
#---------         -----------     ------------------------------
GL  .M        283.86               : gl           - GROUND LEVEL ELEVATION
EREF.M        283.86               : kb           - ELEVATION OF DEPTH REFERENCE
DATM.M        283.86               : datum        - DATUM ELEVATION
TDD .M        91.4                 : tdd          - TOTAL DEPTH DRILLER
RUN .         ONE                  : Run          - RUN NUMBER
ENG .         JO                   : Engineer     - RECORDING ENGINEER
WIT .         TIM                  : Witness      - WITNESSED BY
MUD .         GEL                  : Mud_type     - MUD TYPE
MATR.         SANDSTONE            : Logunit      - NEUTRON MATRIX
TMAX.C        5                    : BHT          - MAXIMUM RECORDED TEMPERATURE
BHTD.M        91                   : BHTDEP       - MAXIMUM RECORDED TEMPERATURE
RMT .C        5                    : MDTP         - TEMPERATURE OF MUD
MUDD.KG/M     1000                 : MWT          - MUD DENSITY
NEUT.         1                    : NEUTRON      - NEUTRON TYPE
RESI.         0                    : RESIST       - RESISTIVITY TYPE
RM  .OHMM     5.8                  : RM           - RESISTIVITY OF MUD
RMC .OHMM     5.8                  : RMC          - RESISTIVITY OF MUD CAKE
RMF .OHMM     5.8                  : RMF          - RESISTIVITY OF MUD FILTRATE
SUFT.C        4                    : SUFT         - SURFACE TEMPERATURE
~A  DEPTH     PHIN     RESD       GR     PHID
# ...
   43.500    0.570   77.481   70.209    0.409
   43.750    0.569   82.058   68.525    0.413
   44.000    0.570   84.543   67.964    0.415
   44.250    0.563   84.607   63.239    0.418
   44.500    0.546   84.736   60.955    0.417
   44.750    0.540   80.283   62.194    0.412
   45.000    0.552   76.007   67.075    0.409
   45.250    0.563   73.026   74.978    0.415
   45.500    0.537   77.340   81.059    0.414
   45.750    0.545   86.648   88.361    0.405
   46.000    0.554   93.022   83.016    0.401
   46.250    0.561  102.771   70.487    0.407
   46.500    0.536  105.803   62.141    0.417
   46.750    0.540  108.966   55.634    0.421
   47.000    0.548  109.172   58.694    0.422
   47.250    0.553  109.338   70.218    0.423
   47.500    0.558  109.463   71.478    0.422
   47.750    0.567  108.191   76.358    0.418
   48.000    0.568  108.314   79.458    0.413
   48.250    0.551  109.962   77.115    0.402
   48.500    0.538  114.886   72.410    0.408
   48.750    0.531  120.030   69.466    0.414
   49.000    0.525  121.903   64.742    0.409
   49.250    0.534  122.088   57.015    0.398
   49.500    0.545  120.578   54.072    0.402
   49.750    0.556  119.086   49.367    0.408
   50.000    0.551  114.416   60.251    0.411
   50.250    0.542  112.914   68.153    0.411
   50.500    0.533  111.560   64.629    0.412
   50.750    0.533  111.687   61.085    0.416
   51.000    0.537  113.473   61.163    0.422
   51.250    0.540  112.069   60.060    0.429
   51.500    0.564  109.105   53.515    0.440
   51.750    0.579  101.939   45.169    0.449
   52.000    0.598   99.281   42.245    0.448
   52.250    0.594  102.249   45.344    0.440
   52.500    0.563  106.786   43.621    0.438
   52.750    0.546  109.936   43.079    0.438
   53.000    0.536  119.729   44.358    0.437
   53.250    0.556  132.227   45.036    0.436
   53.500    0.552  148.084   43.914    0.434
   53.750    0.530  163.667   44.592    0.432
   54.000    0.533  173.269   44.070    0.430
   54.250    0.541  180.958   43.548    0.428
   54.500    0.553  186.438   43.626    0.429
   54.750    0.566  189.348   40.702    0.432
   55.000    0.585  189.564   42.000    0.434
   55.250    0.585  187.360   46.320    0.440
   55.500    0.572  187.574   46.359    0.447
   55.750    0.562  187.787   45.256    0.448
   56.000    0.562  185.534   45.934    0.451
   56.250    0.550  185.746   45.392    0.456
   56.500    0.551  183.517   43.088    0.460
   56.750    0.546  176.253   41.365    0.455
   57.000    0.535  164.551   42.644    0.449
   57.250    0.540  137.435   45.705    0.429
   57.500    0.550   99.786   50.585    0.420
   57.750    0.557   88.132   58.487    0.388
   58.000    0.557   69.609   61.587    0.340
   58.250    0.564   61.456   65.248    0.356
   58.500    0.572   51.349   73.150    0.369
   58.750    0.558   49.316   75.029    0.352
   59.000    0.563   46.042   73.306    0.301
   59.250    0.571   32.965   89.632    0.302
   59.500    0.562   28.712   67.439    0.352
   59.750    0.556   31.269   48.286    0.393
   60.000    0.541   45.680   40.559    0.431
   60.250    0.529   74.622   37.035    0.434
   60.500    0.524   93.451   35.312    0.432
   60.750    0.517  107.664   35.991    0.428
   61.000    0.520   99.121   48.096    0.410
   61.250    0.553   87.545   56.578    0.397
   61.500    0.569   77.320   65.081    0.420
   61.750    0.575   65.487   64.559    0.410
   62.000    0.581   60.314   47.207    0.366
   62.250    0.533   61.255   46.084    0.354
   62.500    0.516   63.087   58.789    0.419
   62.750    0.564   59.772   61.288    0.380
   63.000    0.589   57.406   57.745    0.366
   63.250    0.541   58.302   46.416    0.404
   63.500    0.520   55.994   40.471    0.401
   63.750    0.543   53.778   42.950    0.391
   64.000    0.536   50.188   45.430    0.385
   64.250    0.536   46.224   47.329    0.378
   64.500    0.553   41.415   46.186    0.378
   64.750    0.548   38.665   43.263    0.393
   65.000    0.528   38.724   37.337    0.397
   65.250    0.532   39.882   37.415    0.390
   65.500    0.531   38.842   37.493    0.395
   65.750    0.531   35.291   36.371    0.404
   66.000    0.528   33.411   35.248    0.406
   66.250    0.518   30.345   38.347    0.399
   66.500    0.509   25.691   40.827    0.394
   66.750    0.519   20.577   40.905    0.395
   67.000    0.545   18.696   41.583    0.394
   67.250    0.550   18.208   44.043    0.390
   67.500    0.557   17.488   45.922    0.378
   67.750    0.565   16.796   42.398    0.370
   68.000    0.582   16.351   38.274    0.380
   68.250    0.598   16.155   39.553    0.380
   68.500    0.590   16.180   48.055    0.354
   68.750    0.617   16.204   53.536    0.350
   69.000    0.625   16.004   51.813    0.379
   69.250    0.593   15.376   47.689    0.395
   69.500    0.590   15.174   43.565    0.397
   69.750    0.582   14.579   44.243    0.399
   70.000    0.569   13.617   49.724    0.421
   70.250    0.527   13.252   58.207    0.457
   70.500    0.751   12.040   68.511    0.484
   70.750    0.885   10.931   90.821    0.291
   71.000    0.899    9.130  128.160    0.352
   71.250    0.871    8.063  144.467    0.417
   71.500    0.781    7.747  128.316    0.403
   71.750    0.731    7.979  109.164    0.366
   72.000    0.649    8.450  115.865    0.301
   72.250    0.628    9.203  126.149    0.258
   72.500    0.611    9.743  124.426    0.233
   72.750    0.610   10.179  120.922    0.217
   73.000    0.627   10.334  120.980    0.218
   73.250    0.634   10.064  122.298    0.224
   73.500    0.633    9.940  122.337    0.228
   73.750    0.626    9.959  120.633    0.237
   74.000    0.619   10.256  119.511    0.246
   74.250    0.611   10.412  118.388    0.249
   74.500    0.604   10.579  117.246    0.250
   74.750    0.595   10.744  114.342    0.251
   75.000    0.588   11.221  113.219    0.251
   75.250    0.580   11.561  111.477    0.249
   75.500    0.571   12.069  107.972    0.254
   75.750    0.567   12.435  105.629    0.258
   76.000    0.562   12.454  100.904    0.255
   76.250    0.558   11.799   93.759    0.128
   76.500    0.559   11.483   96.238    0.235
   76.750    0.554   11.345   98.757    0.254
   77.000    0.555   11.205   98.835    0.253
   77.250    0.566   11.222   97.112    0.251
   77.500    0.572   11.562   95.989    0.258
   77.750    0.573   11.575   94.866    0.305
   78.000    0.572   11.269   93.705    0.317
   78.250    0.564   10.524   88.980    0.312
   78.500    0.564   10.398   86.056    0.299
   78.750    0.569   10.709   81.331    0.298
   79.000    0.561   10.872   81.409    0.293
   79.250    0.556   11.046   93.514    0.257
   79.500    0.561   11.058   95.432    0.276
   79.750    0.553   10.774   93.690    0.295
   80.000    0.525    8.871   93.148    0.309
   80.250    0.519    8.060   93.826    0.317
   80.500    0.552    7.524   95.705    0.284
   80.750    0.586    7.126  101.206    0.271
   81.000    0.626    7.240  108.508    0.175
   81.250    0.727    7.451  117.572    0.211
   81.500    0.681    8.124  133.879    0.250
   81.750    0.642    8.597  138.179    0.258
   82.000    0.635    9.374  134.635    0.231
   82.250    0.637    9.647  128.710    0.230
   82.500    0.638   10.071  124.585    0.237
   82.750    0.641   10.518  130.067    0.245
   83.000    0.641   11.148  132.566    0.251
   83.250    0.634   11.476  132.043    0.251
   83.500    0.625   12.159  129.720    0.247
   83.750    0.575   12.694   78.090    0.056
   84.000    0.556   14.216   62.558    0.016
   84.250    0.543   17.803   62.636    0.020
   84.500    0.532   19.946   75.922    0.034
   84.750    0.514   16.887   94.631    0.057
   85.000    0.502   16.447   94.748    0.070
