~VERSION INFORMATION
 VERS.                 2.0:   CWLS LOG ASCII STANDARD -VERSION 2.0
 WRAP.                  NO:   ONE LINE PER DEPTH STEP
~WELL INFORMATION BLOCK
#MNEM.UNIT           DATA                    DESCRIPTION OF MNEMONIC
#---------    -------------------            -------------------------------
# Generated from Intellog Unique Number	CN_94_101/WELL/3182
WELL.         THE CALIFORNIA STANDARD COMPAN : Well_name    - WELL
LOC .         AA/03-13-095-13W4/0            : Location     - LOCATION
UWI .         AA/03-13-095-13W4/0            : Uwi          - UNIQUE WELL ID
ENTR.         JOETTE                         : Entered      - ENTERED BY
SRVC.         SCHLUMBERGER                   : Scn          - SERVICE COMPANY
DATE.         07/16/92                       : Date         - LOG DATE
STRT.F        50                             : top_depth    - START DEPTH
STOP.F        529.823                        : bot_depth    - STOP DEPTH
STEP.F        0.8202                         : increment    - STEP LENGTH
 NULL. -999.2500:NULL Value
~CURVE INFORMATION BLOCK
#MNEM UNIT       ERCB CURVE CODE    CURVE DESCRIPTION
#-----------   ------------------   ----------------------------------
DEPT.F        00 001 00 00         : DEPTH        - DEPTH
ILD .OHMM     00 120 00 00         : RESD         - DEEP RESISTIVITY (DIL)
GR  .API      00 310 00 00         : GR           - GAMMA RAY
NPHI.V/V      00 330 00 00         : PHIN         - NEUTRON POROSITY (SANDSTONE)
~PARAMETER INFORMATION
#MNEM.UNIT           DATA             DESCRIPTION OF MNEMONIC
#---------         -----------     ------------------------------
GL  .F        1216.4               : gl           - GROUND LEVEL ELEVATION
EREF.F        1216.4               : kb           - ELEVATION OF DEPTH REFERENCE
DATM.F        1216.4               : datum        - DATUM ELEVATION
TDD .F        531                  : tdd          - TOTAL DEPTH DRILLER
RUN .         ONE                  : Run          - RUN NUMBER
ENG .         JO                   : Engineer     - RECORDING ENGINEER
WIT .         TIM                  : Witness      - WITNESSED BY
MUD .         GEL                  : Mud_type     - MUD TYPE
MATR.         SANDSTONE            : Logunit      - NEUTRON MATRIX
TMAX.C        37                   : BHT          - MAXIMUM RECORDED TEMPERATURE
BHTD.M        531                  : BHTDEP       - MAXIMUM RECORDED TEMPERATURE
RMT .C        37                   : MDTP         - TEMPERATURE OF MUD
MUDD.KG/M     1030                 : MWT          - MUD DENSITY
NEUT.         1                    : NEUTRON      - NEUTRON TYPE
RESI.         0                    : RESIST       - RESISTIVITY TYPE
RM  .OHMM     14                   : RM           - RESISTIVITY OF MUD
RMC .OHMM     14                   : RMC          - RESISTIVITY OF MUD CAKE
RMF .OHMM     14                   : RMF          - RESISTIVITY OF MUD FILTRATE
SUFT.C        4                    : SUFT         - SURFACE TEMPERATURE
~A  DEPTH     RESD       GR     PHIN
# ...
  405.971   35.436   54.004    0.396
  406.791   39.078   38.993    0.393
  407.612   44.163   38.624    0.389
  408.432   38.422   39.091    0.396
  409.252   36.289   42.238    0.410
  410.072   38.487   49.823    0.418
  410.892   44.294   53.425    0.417
  411.713   51.545   51.691    0.414
  412.533   59.517   49.085    0.411
  413.353   66.046   46.036    0.401
  414.173   75.470   42.101    0.390
  414.993   82.721   41.732    0.398
  415.814   74.822   43.084    0.415
  416.634   90.004   44.461    0.416
  417.454  112.411   42.740    0.402
  418.274   88.626   31.724    0.394
  419.094   54.736   30.900    0.399
  419.915   58.378   31.379    0.396
  420.735   60.584   33.199    0.385
  421.555   61.339   35.903    0.375
  422.375   55.589   42.615    0.384
  423.196   45.518   39.554    0.415
  424.016   36.889   36.492    0.424
  424.836   38.366   44.078    0.429
  425.656   38.398   49.007    0.434
  426.476   39.875   52.154    0.437
  427.297   44.960   57.072    0.441
  428.117   53.654   64.214    0.428
  428.937   58.026   61.595    0.408
  429.757   60.232   50.580    0.369
  430.577   63.144   29.372    0.322
  431.398   45.855   21.885    0.298
  432.218   29.287   16.180    0.311
  433.038   46.642   13.131    0.311
  433.858   69.771   15.393    0.316
  434.678   64.752   18.098    0.328
  435.499   61.184   18.171    0.306
  436.319   59.773   17.310    0.296
  437.139   46.806   15.589    0.312
  437.959   35.299   16.080    0.310
  438.780   45.429   17.912    0.295
  439.600   57.018   15.748    0.286
  440.420   45.494   15.354    0.300
  441.240   34.701   18.944    0.330
  442.060   31.855   24.304    0.392
  442.881   26.114   36.757    0.405
  443.701   22.529   37.249    0.406
  444.521   18.953   38.183    0.409
  445.341   15.377   47.981    0.411
  446.161   14.689   56.009    0.409
  446.982   15.443   61.824    0.399
  447.802   19.807   67.626    0.382
  448.622   26.344   74.314    0.243
  449.442   27.098   45.583    0.209
  450.262   26.409   32.354    0.199
  451.083   26.442   22.642    0.191
  451.903   25.762   10.741    0.185
  452.723   24.351   11.232    0.182
  453.543   22.218   12.621    0.177
  454.364   28.017   13.100    0.171
  455.184   35.268   13.604    0.176
  456.004   33.135   12.338    0.192
  456.824   23.064   11.059    0.214
  457.644   14.435   10.641    0.227
  458.465   11.598   10.726    0.230
  459.285   12.336   11.193    0.241
  460.105   13.812   10.812    0.240
  460.925   15.289   10.394    0.213
  461.745   18.930   10.885    0.187
  462.566   30.520   11.377    0.166
  463.386   37.048   13.209    0.153
  464.206   42.855   14.143    0.142
  465.026   40.009   14.634    0.132
  465.846   35.703   14.683    0.122
  466.667   20.579   14.732    0.126
  467.487   16.282   15.678    0.140
  468.307   12.714   17.940    0.154
  469.127   10.581   23.300    0.417
  469.948    9.901   29.545    0.445
  470.768    9.917   35.815    0.457
  471.588    9.958   34.106    0.433
  472.408   10.721   26.619    0.394
  473.228   10.746   25.315    0.366
  474.049   11.500   23.606    0.344
  474.869   10.811   25.413    0.322
  475.689    9.401   35.654    0.306
  476.509    9.442   40.584    0.276
  477.329    9.458   38.419    0.245
  478.150    8.786   30.932    0.231
  478.970    8.097   21.687    0.223
  479.790    7.408   18.638    0.242
  480.610    6.719   11.163    0.248
  481.430    6.039    9.872    0.252
  482.251    6.071   11.703    0.260
  483.071    6.096   17.063    0.276
  483.891    6.121   21.095    0.294
  484.711    6.892   23.382    0.283
  485.531    7.638   22.521    0.267
  486.352    8.393   19.496    0.260
  487.172    8.434   18.648    0.253
  487.992    8.459   17.799    0.247
  488.812    7.770   18.291    0.242
  489.633    7.089   23.221    0.239
  490.453    7.105   23.724    0.258
  491.273    7.138   22.446    0.264
  492.093    7.909   22.482    0.250
  492.913    7.221   23.859    0.258
  493.734    7.975   27.449    0.271
  494.554    8.000   28.395    0.275
  495.374    8.033   26.231    0.285
  496.194    8.787   24.940    0.321
  497.014   10.994   22.800    0.453
  497.835   13.905   22.382    0.519
  498.655   16.825   42.372    0.496
  499.475   22.632   60.161    0.458
  500.295   19.778   69.050    0.396
  501.115   16.932   78.393    0.324
  501.936   16.957   94.830    0.289
  502.756   17.728   57.677    0.290
  503.576   17.047   55.095    0.291
  504.396   16.342   59.545    0.302
  505.217   15.669   64.499    0.331
  506.037   14.964   64.524    0.362
  506.857   15.022   64.573    0.367
  507.677   15.038   68.162    0.378
  508.497   15.071   83.284    0.376
  509.318   15.834   89.529    0.349
  510.138   15.850   94.016    0.337
  510.958   16.605   92.282    0.323
  511.778   16.638   82.594    0.333
  512.598   16.679   73.337    0.339
  513.419   16.703   68.960    0.340
  514.239   17.466   65.468    0.334
  515.059   17.499   65.960    0.336
  515.879   16.819   67.779    0.327
  516.699   16.851   68.713    0.317
  517.520   16.884   68.332    0.309
  518.340   16.917   68.823    0.323
  519.160   16.220   69.302    0.361
  519.980   16.253   53.406    0.383
  520.801   16.286   55.238    0.396
  521.621   16.319   66.794    0.401
  522.441   17.073   77.477    0.400
  523.261   23.610   79.739    0.387
  524.081   51.070   78.903    0.274
  524.902   62.651   72.755    0.007
  525.722   52.579   60.842   -0.003
  526.542   25.915   58.236   -0.005
  527.362   21.601   63.620   -0.005
  528.182   16.590   66.755   -0.006
  529.003   16.623   66.361   -0.007
  529.823   16.664   63.312   -0.011
