~Version : LASO    vs 4.00
VERS.                2.00:   CWLS Log ASCII Standard -VERSION 2.0
WRAP.                  NO:
~Well Information Block
#MNEM.UNIT       Data                        Description of Mnemonic
#----.----      -------------------------- : -----------------------------
STRT.M            15.0000:
STOP.M           186.3750:
STEP.M             0.1250:
NULL.           -999.2500:
COMP.  MOBIL OIL OF CANADA                :COMPANY
WELL.  MOBIL CLARKE OV 2-19               :WELL
FLD.                                      :FIELD
LOC.   02-19-090-07W4                     :LOCATION
CTRY.  CANADA                             :COUNTRY
PROV.  ALBERTA                            :PROVINCE
SRVC.  DRESSER ATLAS                      :SERVICE COMPANY
DATE.  24-FEB-81                          :LOG DATE
UWI.   AA/02-19-090-07W400                :UNIQUE WELL ID
~Parameter Information Block
#MNEM.UNIT       Data                        Description of Mnemonic
#----.----      -------------------------- : -----------------------------
RUN .                   1                 : Run Number
GL  .M           444.6000                 : Ground Level Elevation
DREF.                  KB                 : Depth Reference
EREF.M           444.6000                 : Elevation of Depth Reference
TDL .M           186.3000                 : Total Depth Logger
TDD .M           185.0000                 : Total Depth Driller
CSGL.M            14.7000                 : Casing Bottom Logger
CSGD.M            14.7000                 : Casing Bottom Driller
CSGS.MM          219.0000                 : Casing Size
CSGW.KG/M          0.0000                 : Casing Weight
BHT .DEGC         20.0000                 : Bottom Hole Temperature
BS  .MM          159.0000                 : Bit Size
DFD .           9999.0000                 : Mud Weight (Density)
DFV .             90.0000                 : Mud Viscosity
RM  .OHMM          2.5000                 : Mud Resistivity
RMT .DEGC         20.0000                 : Mud Resistivity Temperature
~Curve Information Block
#MNEM.UNIT        API CODE    Curve Description
#---------    ------------    -------------------------------------------
DEPT.M                    :   DEPTH
CALI.MM       42 280  1  1:   3 DENSITY CALIPER
DPHI.V/V                  :   DPHI
DT  .US/M     60 520 32  1:   2 SONIC INTERVAL TRANSIT TIME (COMPENSATED)
GR  .GAPI     42 310  1  1:   4 GAMMA RAY
ILD .OHMM      5 120 45  1:   7 DEEP INDUCTION
NPHI.V/V      42 890  3  1:   5 NEUTRON POROSITY (SANDSTONE)
RHOB.K/M3     42 350  1  1:   6 BULK DENSITY
SN  .OHMM      5  40 16  1:   8 SHORT NORMAL
SP  .MV        5  10  1  1:   9 SPONTANEOUS POTENTIAL
~A  Depth           CALI        DPHI          DT          GR         ILD        NPHI        RHOB          SN          SP
# ...
56.8750         223.8250      0.2621    427.6000     60.0300     28.2800      0.2985   2253.7000     34.2200    -48.7650
57.0000         225.0250      0.2680    427.6000     59.3100     28.6000      0.2985   2253.7000     35.0750    -49.2450
57.1250         223.8250      0.2745    431.4400     58.6050     28.9250      0.3019   2217.7000     35.3200    -49.2900
57.2500         217.2000      0.2744    433.8800     57.9300     29.3750      0.3056   2190.8999     35.6250    -49.9050
57.3750         217.2000      0.2798    429.2800     57.2550     29.8300      0.3203   2206.2000     36.1100    -50.5500
57.5000         219.6250      0.2784    440.1600     56.3700     30.4100      0.3233   2198.2000     36.2950    -50.5200
57.6250         220.2250      0.2797    567.2000     55.2900     31.1850      0.3221   2179.3000     36.6600    -50.6250
57.7500         219.6250      0.2525    556.2800     54.2100     31.7000      0.3206   2175.7000     37.5150    -51.2550
57.8750         219.0000      0.2206    402.4800     53.1300     32.2150      0.3161   2189.7000     39.6450    -51.4650
58.0000         218.1000      0.2048    412.0000     52.4550     32.9250      0.3161   2230.5000     42.3900    -51.9150
58.1250         219.0000      0.1934    458.5600     51.9300     33.8300      0.3196   2282.3999     44.1000    -51.9450
58.2500         222.9250      0.1855    471.5200     51.4050     34.3450      0.3256   2329.3000     43.9150    -51.9900
58.3750         223.8250      0.1875    468.1600     50.8800     34.7350      0.3221   2367.7000     44.1000    -52.4850
58.5000         223.8250      0.1952    469.2000     50.3550     34.9950      0.3161   2347.6001     44.0350    -52.6500
58.6250         225.9250      0.2032    463.5200     50.1600     34.9950      0.3116   2325.1001     45.3800    -53.1000
58.7500         225.3250      0.2116    458.5600     50.1600     34.6050      0.3098   2293.3000     46.4750    -53.7900
58.8750         222.0250      0.2159    506.7200     50.1600     33.8300      0.3146   2275.1001     47.2100    -54.5550
59.0000         222.6250      0.2151    529.0400     50.1600     33.3150      0.3113   2282.3999     46.9650    -55.1850
59.1250         215.7000      0.2157    575.5600     50.2050     32.8000      0.3116   2294.6001     45.4400    -55.5300
59.2500         213.6000      0.2166    606.0800     50.3700     31.9600      0.3143   2304.8999     41.9050    -55.8600
59.3750         212.4000      0.2231    600.8800     50.5350     31.3150      0.3120   2300.1001     36.4150    -55.8450
59.5000         213.0000      0.2606    596.6800     50.7750     30.7950      0.3124   2295.8000     34.6450    -55.3200
59.6250         215.1000      0.2853    609.7200     50.6250     30.4750      0.3139   2289.1001     35.2550    -54.7500
59.7500         214.5000      0.3335    627.2000     50.3250     30.1500      0.3173   2283.6001     35.5000    -54.7050
59.8750         215.1000      0.4454    640.6000     47.8050     29.9550      0.3226   2248.8000     35.0150    -54.2100
60.0000         215.1000      0.4695    663.7600     46.0350     30.0850      0.3263   2162.2000     34.8900    -54.0300
60.1250         216.6000      0.4916    626.1600     46.3950     30.1500      0.3331   2071.3999     36.6000    -53.6700
60.2500         216.3000      0.5179    608.6000     46.6500     30.3450      0.3443   1947.0000     35.8650    -52.8600
60.3750         215.7000      0.4941    582.1200     47.7300     30.6050      0.3653   1792.7000     36.8400    -52.2750
60.5000         212.7000      0.4315    491.8400     48.8250     30.9250      0.3672   1761.0000     41.7800    -51.9600
60.6250         213.0000      0.3965    481.6400     49.4400     31.5050      0.3672   1840.9000     42.7550    -51.3900
60.7500         214.2000      0.3732    462.0400     47.9550     31.8950      0.3589   1934.8000     43.0600    -51.9000
60.8750         212.7000      0.3337    435.5600     46.9200     32.4750      0.3514   1937.3000     43.6700    -51.8400
61.0000         209.6750      0.2806    435.0000     46.3950     33.2500      0.3454   1903.7000     43.9150    -52.0950
61.1250         207.8750      0.2426    457.4800     46.3950     34.0250      0.3391   1926.3000     43.7950    -51.6750
61.2500         210.8750      0.2286    483.8000     46.3950     34.4750      0.3316   2063.5000     43.7300    -51.5550
61.3750         216.6000      0.2176    473.0800     46.9800     34.1550      0.3124   2194.6001     43.4900    -51.5850
61.5000         220.2250      0.2108    385.4800     48.1050     33.7000      0.3008   2288.5000     44.4650    -52.2150
61.6250         219.3250      0.2008    362.4800     49.2300     33.0550      0.2955   2311.6001     47.5750    -52.2450
61.7500         213.9000      0.1829    365.6800     50.1900     32.2800      0.2899   2322.6001     48.9150    -52.2900
61.8750         218.7000      0.1717    389.2000     51.1350     31.6350      0.2809   2351.8999     42.9400    -52.3200
62.0000         224.4250      0.1570    395.0000     52.0800     31.1200      0.2801   2391.5000     41.6000    -51.7500
62.1250         225.3250      0.1452    411.5600     52.5900     30.3450      0.2775   2421.3999     40.7450    -51.7200
62.2500         229.2500      0.1394    417.2000     52.8000     29.7000      0.2764   2453.1001     39.4050    -51.2100
62.3750         229.2500      0.1443    412.9600     53.0100     28.9250      0.2738   2420.8000     37.3900    -51.8400
62.5000         224.4250      0.1514    404.9200     53.2950     28.3450      0.2719   2408.0000     34.5850    -51.8700
62.6250         224.1250      0.1580    419.8400     54.4200     27.9550      0.2693   2403.7000     32.5150    -51.7800
62.7500         227.7500      0.1656    431.9600     55.5450     27.3750      0.2708   2392.1001     31.8400    -51.3300
62.8750         228.9500      0.1679    444.0800     56.6700     26.6650      0.2783   2381.8000     33.0600    -51.3750
63.0000         228.9500      0.1777    522.2000     58.6350     26.3400      0.2771   2371.3999     34.2200    -51.4050
63.1250         228.6500      0.1840    583.7600     60.9450     25.6300      0.2824   2353.1001     35.4400    -50.8350
63.2500         228.0500      0.1872    624.8000     62.4450     25.1150      0.2869   2336.0000     35.5000    -50.8650
63.3750         227.7500      0.1921    656.8000     63.6450     25.1150      0.2978   2324.3999     33.1250    -51.4050
63.5000         220.2250      0.1956    686.0800     64.6350     24.7900      0.3030   2323.2000     30.0150    -50.9250
63.6250         217.8000      0.1957    719.7200     65.2500     24.0150      0.3023   2332.3999     29.9500    -50.9550
63.7500         218.1000      0.1956    547.5200     65.7900     23.1150      0.3038   2330.5000     28.1250    -50.9850
63.8750         218.1000      0.2049    584.0400     66.3300     22.5950      0.3049   2323.8000     26.6000    -50.7450
64.0000         217.5000      0.2164    522.6000     67.0200     21.8850      0.3041   2311.0000     26.2300    -50.4600
64.1250         216.0000      0.2253    498.0800     67.8900     20.6600      0.2996   2275.7000     25.5600    -50.4900
64.2500         212.0750      0.2300    485.1200     68.7600     19.2400      0.2981   2249.3999     25.1950    -49.9200
64.3750         213.0000      0.2252    454.6800     70.2150     17.5600      0.3120   2275.1001     24.2800    -49.9500
64.5000         217.5000      0.2176    501.4400     74.1000     16.1400      0.3169   2302.5000     24.3400    -49.9800
64.6250         221.4250      0.2122    519.1600     74.4300     15.3000      0.3173   2308.0000     24.6450    -50.0100
64.7500         222.9250      0.2104    513.4000     74.7600     13.8150      0.3206   2304.8999     23.7950    -50.0400
64.8750         223.2250      0.2082    534.1200     75.6600     12.6550      0.3311   2308.0000     21.1100    -49.9800
65.0000         223.2250      0.2114    562.6400     77.0400     11.7500      0.3338   2289.1001     18.3050    -49.5000
65.1250         223.5250      0.2250    598.8000     78.6300     10.9750      0.3424   2258.0000     15.5000    -49.6650
