~Version : LASO    vs 4.00
VERS.                2.00:   CWLS Log ASCII Standard -VERSION 2.0
WRAP.                  NO:
~Well Information Block
#MNEM.UNIT       Data                        Description of Mnemonic
#----.----      -------------------------- : -----------------------------
STRT.M            30.0000:
STOP.M           204.0000:
STEP.M             0.2000:
NULL.           -999.2500:
COMP.  MOBIL OIL OF CANADA                    :COMPANY
WELL.  MOBIL CLARKE OV PROGRAM 2-81 4-3       :WELL
FLD.                                          :FIELD
LOC.   04-03-090-07W4                         :LOCATION
CTRY.  CANADA                                 :COUNTRY
PROV.  ALBERTA                                :PROVINCE
SRVC.  SCHLUMBERGER                           :SERVICE COMPANY
DATE.  26-JAN-81                              :LOG DATE
UWI.   AA/04-03-090-07W400                    :UNIQUE WELL ID
~Parameter Information Block
#MNEM.UNIT       Data                        Description of Mnemonic
#----.----      -------------------------- : -----------------------------
RUN .                   1                 : Run Number
GL  .M           466.8000                 : Ground Level Elevation
DREF.                  GD                 : Depth Reference
EREF.M           466.8000                 : Elevation of Depth Reference
TDL .M           205.0000                 : Total Depth Logger
TDD .M           205.0000                 : Total Depth Driller
BHT .DEGC         19.0000                 : Bottom Hole Temperature
BS  .MM          159.0000                 : Bit Size
DFD .            980.0000                 : Mud Weight (Density)
DFV .             38.0000                 : Mud Viscosity
DFPH.             10.0000                 : Mud pH
~Curve Information Block
#MNEM.UNIT        API CODE    Curve Description
#---------    ------------    -------------------------------------------
DEPT.M                    :   DEPTH
CALI.MM       42 280  1  1:   3 DENSITY CALIPER
DPHI.V/V                  :   DPHI
DT  .US/M     60 520  0  1:   2 SONIC INTERVAL TRANSIT TIME (COMPENSATED)
GR  .GAPI     42 310  1  1:   4 GAMMA RAY
ILD .OHMM      5 120 46  1:   7 DEEP INDUCTION
ILM .OHMM      5 120 44  1:   8 MEDIUM INDUCTION
NPHI.V/V      42 890  3  1:   5 NEUTRON POROSITY (SANDSTONE)
RHOB.K/M3     42 350  1  1:   6 BULK DENSITY
SFLU.OHMM      5 220  1  1:   9 FOCUSSED RESISTIVITY
SP  .MV        5  10  1  1:   10 SPONTANEOUS POTENTIAL
~A  Depth           CALI        DPHI          DT          GR         ILD         ILM        NPHI        RHOB        SFLU          SP
# ...
115.4000        176.0500      0.0849    485.0000     76.4850     12.0179     12.4690      0.4504   2508.5000     22.8997    -46.6050
115.6000        176.0500      0.1131    441.8400     79.3800     11.7986     11.9078      0.3840   2529.6001     22.0714    -46.3500
115.8000        172.2500      0.1584    384.7200     85.3800     10.6618     10.1819      0.3230   2362.3000     14.3163    -48.1350
116.0000        172.2500      0.2796    331.4800     88.6800      9.9961      9.4587      0.2948   2240.2000     10.2761    -48.9000
116.2000        172.2500      0.3225    277.8400     91.8750      9.3720      8.9501      0.3284   2136.0000      8.3144    -48.9000
116.4000        172.2500      0.3354    285.6400     91.5750      8.6264      8.2382      0.3660   2079.8999      7.7238    -48.1350
116.6000        172.2500      0.3426    396.4000     89.1750      8.4690      8.1626      0.4100   2084.0000      7.8674    -47.8800
116.8000        172.2500      0.3467    498.5600     87.0750      8.4690      8.2382      0.4572   2079.8999      7.5133    -48.1350
117.0000        172.2500      0.3515    548.2800     84.5850      8.3913      8.4690      0.4576   2065.8999      9.2009    -49.6650
117.2000        172.2500      0.3615    558.5600     85.9800      8.3913      8.4690      0.4480   2045.9000     11.5832    -50.4300
117.4000        172.2500      0.3526    539.2400     86.7750      8.3144      8.2382      0.4328   2047.9000     12.1291    -49.9200
117.6000        172.2500      0.3379    536.3600     86.8800      8.2382      8.0878      0.4236   2072.8999     10.3712    -48.3900
117.8000        172.2500      0.3279    539.6400     90.7800      7.7238      7.6530      0.4568   2106.0000      7.7238    -45.5850
118.0000        173.5250      0.3200    540.8800     91.6800      7.2415      7.3085      0.4652   2128.0000      7.5828    -45.3300
118.2000        173.5250      0.3134    535.5200     91.9800      6.8522      6.9156      0.4764   2145.0000      7.4444    -45.3300
118.4000        173.5250      0.3070    528.9600     94.7850      6.4244      6.3071      0.4738   2150.0000      6.2493    -44.3100
118.6000        176.0500      0.3029    529.1600     95.6850      6.2493      6.2493      0.4572   2170.1001      5.9680    -44.0550
118.8000        177.3250      0.3070    533.8800     95.9850      6.0790      6.1352      0.4624   2146.0000      6.0790    -44.3100
119.0000        182.4000      0.3219    534.7200     96.8850      5.8591      6.0790      0.4660   2109.0000      6.3071    -44.3100
119.2000        182.4000      0.3367    535.1200     97.1850      5.8054      6.0232      0.4780   2075.8999      6.4244    -44.3100
119.4000        178.6000      0.3470    533.0800     97.9800      5.7521      5.8591      0.4940   2072.8999      6.4838    -43.8000
119.6000        184.9500      0.3396    536.3600     97.7850      5.6472      5.6472      0.4924   2154.1001      5.9680    -43.5450
119.8000        184.9500      0.3112    539.4400     99.0750      5.6472      5.5954      0.4892   2170.1001      5.5441    -43.8000
120.0000        183.6750      0.3059    521.5600    100.2750      5.6472      5.5441      0.4784   2140.0000      5.2460    -44.0550
120.2000        186.2250      0.3018    525.6801    100.6800      6.0232      5.9133      0.4736   2154.1001      4.7406    -44.0550
120.4000        187.5000      0.3074    528.7600     99.5850      6.1920      6.3071      0.4792   2133.0000      5.1503    -44.3100
120.6000        182.4000      0.3065    539.2400     97.2750      6.3071      6.6655      0.4836   2148.0000      6.6655    -45.3300
120.8000        177.3250      0.3108    542.3200     95.6850      6.3071      6.8522      0.4882   2138.0000      8.9501    -46.8600
121.0000        169.7000      0.3166    540.0400     98.8800      6.4244      6.4838      0.4940   2098.0000     11.2676    -47.8800
121.2000        172.2500      0.3269    537.2000    101.5800      6.3655      6.1920      0.4896   2103.0000      8.1626    -46.3500
121.4000        176.0500      0.3321    508.6000    104.2800      6.1920      6.0232      0.4402   2122.0000      5.5441    -44.3100
121.6000        179.8750      0.3197    501.4000    105.4800      5.5441      5.7521      0.4356   2146.0000      5.1979    -43.2900
121.8000        179.8750      0.3139    500.1600    104.1750      5.1979      5.4429      0.4296   2126.0000      5.7521    -43.2900
122.0000        181.1250      0.3082    518.4800    104.1750      4.9640      5.1979      0.4256   2134.0000      5.4429    -43.2900
122.2000        191.3000      0.3074    534.3200    104.0850      4.6114      4.7844      0.4748   2142.0000      4.8287    -42.7800
122.4000        192.5750      0.3154    539.6400    102.0750      4.5272      4.5691      0.4744   2140.0000      4.8734    -42.0150
122.6000        184.9500      0.3244    524.0400    101.2800      4.4857      4.4446      0.4960   2118.0000      4.4857    -41.7600
122.8000        183.6750      0.3226    520.3200    104.4750      4.5272      4.5272      0.5212   2123.0000      3.3406    -42.5250
123.0000        187.5000      0.3222    521.3600    106.5750      4.5272      4.6971      0.5192   2114.0000      3.6294    -42.7800
123.2000        187.5000      0.3211    524.0400    106.9800      4.4857      4.8287      0.4952   2123.0000      4.8734    -43.2900
123.4000        181.1250      0.3281    525.2800    105.1800      4.6114      4.7844      0.4992   2126.0000      6.4838    -44.0550
123.6000        179.8750      0.3293    529.1600    102.0750      4.7844      4.7844      0.5026   2100.0000      5.5441    -44.0550
123.8000        183.6750      0.3219    520.3200     99.4800      4.9640      4.8287      0.4882   2117.0000      4.6114    -44.0550
124.0000        183.6750      0.3209    506.5600     98.3850      4.9640      5.0099      0.4896   2138.0000      4.0163    -43.8000
124.2000        182.4000      0.3350    504.3200     94.7850      4.4857      5.1031      0.5028   2098.0000      4.8287    -43.8000
124.4000        177.3250      0.3402    505.1200     91.5750      4.1289      4.7844      0.5076   2069.8999      6.3071    -44.3100
124.6000        177.3250      0.3357    519.9200     90.7800      3.8711      4.2838      0.4912   2093.0000      6.9796    -43.8000
124.8000        177.3250      0.3406    517.2400     90.6750      3.5961      3.5304      0.4836   2100.0000      3.3406    -42.0150
125.0000        181.1250      0.3541    513.9600     91.5750      3.4981      3.4342      0.4856   2071.8999      2.3541    -41.5050
125.2000        183.6750      0.3584    509.0400     94.1850      3.4027      3.4027      0.5080   2048.8999      2.1869    -41.5050
125.4000        183.6750      0.3502    515.0000     97.5750      3.3716      3.5631      0.5202   2077.8999      2.8043    -41.7600
125.6000        186.2250      0.3404    527.7200     96.2850      3.5631      3.7656      0.5394   2113.0000      3.3716    -42.2700
125.8000        186.2250      0.3144    541.9200     95.8800      3.8004      4.0163      0.5460   2136.0000      3.9069    -43.2900
126.0000        184.9500      0.3146    543.7600     97.4850      4.4446      4.6540      0.5360   2133.0000      4.7844    -44.3100
126.2000        184.9500      0.3089    542.1200     98.0850      4.7844      4.9185      0.5144   2121.0000      5.6472    -44.5650
126.4000        177.3250      0.2980    524.4400     98.3850      5.1031      5.0563      0.4408   2157.1001      6.0790    -44.8200
126.6000        182.4000      0.2999    513.7600     98.1750      5.7521      5.5954      0.4808   2159.1001      4.6540    -46.6050
126.8000        187.5000      0.3105    503.4400     97.8750      5.9680      5.9133      0.4772   2160.1001      5.0099    -47.6250
127.0000        184.9500      0.3179    499.3600     97.2750      6.0790      6.1352      0.4764   2142.0000      6.3071    -48.3900
127.2000        170.9750      0.3152    503.0400     96.3750      6.1920      6.3071      0.4820   2122.0000      7.3085    -48.3900
127.4000        165.9000      0.3190    507.4000     93.4800      6.3655      6.4244      0.4830   2120.0000      7.3085    -48.9000
