~Version : LASO    vs 4.00
VERS.                2.00:   CWLS Log ASCII Standard -VERSION 2.0
WRAP.                  NO:
~Well Information Block
#MNEM.UNIT       Data                        Description of Mnemonic
#----.----      -------------------------- : -----------------------------
STRT.M            13.0000:
STOP.M           191.0000:
STEP.M             0.2000:
NULL.           -999.2500:
COMP.  MOBIL OIL OF CANADA          :COMPANY
WELL.  MOBIL CLARKE OV 4-1          :WELL
FLD.                                :FIELD
LOC.   04-01-091-08W4               :LOCATION
CTRY.  CANADA                       :COUNTRY
PROV.  ALBERTA                      :PROVINCE
SRVC.  SCHLUMBERGER                 :SERVICE COMPANY
DATE.  12-FEB-81                    :LOG DATE
UWI.   AA/04-01-091-08W400          :UNIQUE WELL ID
~Parameter Information Block
#MNEM.UNIT       Data                        Description of Mnemonic
#----.----      -------------------------- : -----------------------------
RUN .                   1                 : Run Number
GL  .M           444.1000                 : Ground Level Elevation
DREF.                  GD                 : Depth Reference
EREF.M           444.1000                 : Elevation of Depth Reference
TDL .M           191.5000                 : Total Depth Logger
TDD .M           192.0000                 : Total Depth Driller
CSGL.M            15.0000                 : Casing Bottom Logger
CSGD.M            15.0000                 : Casing Bottom Driller
CSGS.MM          179.0000                 : Casing Size
CSGW.KG/M          0.0000                 : Casing Weight
BHT .DEGC         12.0000                 : Bottom Hole Temperature
BS  .MM          158.0000                 : Bit Size
DFD .           1080.0000                 : Mud Weight (Density)
DFV .             85.0000                 : Mud Viscosity
DFPH.             12.6000                 : Mud pH
~Curve Information Block
#MNEM.UNIT        API CODE    Curve Description
#---------    ------------    -------------------------------------------
DEPT.M                    :   DEPTH
CALI.MM       42 280  1  1:   3 DENSITY CALIPER
DPHI.V/V                  :   DPHI
DT  .US/M     60 520  0  1:   2 SONIC INTERVAL TRANSIT TIME (COMPENSATED)
GR  .GAPI     42 310  1  1:   4 GAMMA RAY
ILD .OHMM      5 120 46  1:   7 DEEP INDUCTION
ILM .OHMM      5 120 44  1:   8 MEDIUM INDUCTION
NPHI.V/V      42 890  3  1:   5 NEUTRON POROSITY (SANDSTONE)
RHOB.K/M3     42 350  1  1:   6 BULK DENSITY
SFLU.OHMM      5 220  1  1:   9 FOCUSSED RESISTIVITY
SP  .MV        5  10  1  1:   10 SPONTANEOUS POTENTIAL
~A  Depth           CALI        DPHI          DT          GR         ILD         ILM        NPHI        RHOB        SFLU          SP
# ...
122.8000        164.7750      0.1836    508.7200    104.5500      8.4690    417.8592      0.4106   2341.5000      7.9402    -64.2150
123.0000        166.0250      0.1894    501.7200     99.9450      8.5473    406.4713      0.4240   2352.3999      7.5828    -62.9700
123.2000        167.2750      0.1897    499.8400     88.2300      8.9501    406.4713      0.4238   2354.3999      7.7238    -63.7200
123.4000        166.0250      0.1939    470.2400     72.0150     10.5640    384.6183      0.3904   2354.3999      7.5133    -65.7300
123.6000        164.7750      0.2025    465.5200     64.4100     11.9078    391.7689      0.3732   2334.6001      9.9044    -69.7350
123.8000        164.7750      0.2476    466.9600     56.6100     13.5466    417.8592      0.3436   2278.2000     17.3712    -73.9950
124.0000        163.5500      0.2621    481.6800     48.0000     16.5894    417.8592      0.3078   2238.6001     48.7338    -78.7650
124.2000        163.5500      0.2675    531.8800     39.2850     26.5601    406.4713      0.2881   2217.8000   1367.1932    -81.7650
124.4000        167.2750      0.2631    530.4800     37.6800     33.1306    406.4713      0.3090   2211.8000   2248.1738    -81.0150
124.6000        169.7500      0.2573    518.9600     36.9900     37.6903    425.6277      0.3355   2215.8000   2332.5442    -79.5150
124.8000        167.2750      0.2521    486.5200     41.0850     38.7463    433.5407      0.3835   2260.3000   2375.9094    -75.7500
125.0000        166.0250      0.2460    460.2000     40.6950     37.6903    429.5660      0.4016   2247.5000   2375.9094    -76.5000
125.2000        163.5500      0.2368    427.0800     39.7950     38.0391    417.8592      0.4127   2251.3999   2289.9705    -76.0050
125.4000        161.0750      0.2251    415.4400     43.7850     39.8318    395.3939      0.4079   2302.8999    162.8658    -72.9900
125.6000        161.0750      0.2179    431.6400     42.3900     40.2004    402.7448      0.3974   2285.1001    201.2936    -74.5050
125.8000        161.0750      0.2280    456.5200     39.4800     39.8318    402.7448      0.3783   2255.3999    660.4348    -76.7550
126.0000        159.8250      0.2421    466.1200     35.4900     41.3266    417.8592      0.3448   2279.2000   2375.9094    -76.7550
126.2000        161.0750      0.2327    454.2000     33.9750     42.8775    429.5660      0.3565   2305.8999   2375.9094    -75.0000
126.4000        161.0750      0.2239    433.4800     32.5800     43.2743    453.9729      0.3653   2282.1001   2420.0808    -73.5000
126.6000        163.5500      0.2249    405.0400     33.3750     42.0949    425.6277      0.3686   2276.2000   2420.0808    -73.7400
126.8000        163.5500      0.2283    398.5600     35.0850     40.9477    406.4713      0.3732   2281.1001   2332.5442    -72.9900
127.0000        163.5500      0.2321    395.1200     36.9900     40.2004    399.0524      0.3719   2259.3000   1018.1925    -71.4900
127.2000        163.5500      0.2408    395.5200     38.5800     40.2004    377.5982      0.3763   2249.5000    353.0449    -70.2300
127.4000        163.5500      0.2419    401.4400     39.3900     40.2004    406.4713      0.3979   2250.3999    505.6266    -70.4850
127.6000        162.3000      0.2392    402.4400     38.7900     40.9477    406.4713      0.3946   2254.3999    496.3979    -69.4800
127.8000        162.3000      0.2376    402.7200     38.4900     41.3266    402.7448      0.3925   2263.3000    569.9410    -68.7300
128.0000        162.3000      0.2440    402.6400     34.8900     44.0788    410.2324      0.4012   2259.3000   2311.1594    -67.4850
128.2000        162.3000      0.2412    402.2800     32.5800     44.4867    441.6009      0.3872   2253.3999   2375.9094    -66.2250
128.4000        162.3000      0.2410    401.3200     33.1800     45.3137    453.9729      0.3715   2261.3000   2397.8936    -65.4750
128.6000        162.3000      0.2363    390.7200     37.1850     44.8983    433.5407      0.3524   2304.8999   2397.8936    -66.4800
128.8000        162.3000      0.2295    367.9600     39.4800     44.0788    429.5660      0.3349   2356.3999   2375.9094    -66.4800
129.0000        162.3000      0.2203    333.7200     44.3850     42.0949    377.5982      0.3131   2398.0000   1887.2521    -66.2250
129.2000        162.3000      0.2143    328.7200     60.8100     34.6920    417.8592      0.3477   2475.2000    258.1249    -66.9750
129.4000        163.5500      0.2193    350.9200     69.4200     30.4951    402.7448      0.3699   2360.3000    197.6196    -67.9800
129.6000        164.7750      0.2190    381.6400     80.2350     26.3166    410.2324      0.3719   2301.8999    173.7120    -68.9850
129.8000        161.0750      0.2134    431.0400     90.4350     22.7107    399.0524      0.3481   2300.0000     49.6398    -66.9750
130.0000        156.1250      0.2050    440.2000     89.8350     22.5025    410.2324      0.3452   2320.7000     29.9109    -64.4700
130.2000        157.3500      0.1930    443.1600     86.0400     22.5025    417.8592      0.3629   2345.5000     25.5758    -63.7200
130.4000        159.8250      0.1827    442.5200     79.4250     22.5025    425.6277      0.3835   2377.2000     27.7863    -64.9650
130.6000        163.5500      0.1787    430.1200     68.4150     22.7107    402.7448      0.3999   2356.3999     96.3452    -69.4800
130.8000        156.1250      0.1945    430.2000     65.2200     21.8892    377.5982      0.4003   2281.1001    424.4533    -70.4850
131.0000        158.6000      0.2132    429.0400     61.4100     21.0974    433.5407      0.3958   2265.3000   2375.9094    -70.7400
131.2000        159.8250      0.2298    421.0000     68.6100     18.8899    410.2324      0.3610   2258.3999     51.0305    -66.2250
131.4000        161.0750      0.2338    421.2400     76.4250     17.3872    395.3939      0.3567   2291.0000     18.8725    -63.4650
131.6000        162.3000      0.2267    430.1600     82.7250     15.5536    406.4713      0.3744   2338.6001     14.5824    -61.7100
131.8000        162.3000      0.2174    442.7200     89.4450     12.9369    402.7448      0.4149   2356.3999     15.5536    -62.2200
132.0000        161.0750      0.2076    444.8000     91.6350     12.7008    414.0282      0.4254   2385.1001     16.4373    -62.9700
132.2000        159.8250      0.1920    447.2800     93.9450     12.8183    414.0282      0.4297   2340.5000     15.2697    -63.4650
132.4000        161.0750      0.1899    447.7200     89.4450     13.6719    414.0282      0.4081   2356.3999     17.6942    -67.7250
132.6000        161.0750      0.1951    449.0000     84.6300     13.9261    381.0921      0.3983   2337.6001     24.4247    -70.9950
132.8000        158.6000      0.1937    454.8000     80.3250     13.9261    384.6183      0.3835   2328.7000     29.6367    -72.7500
133.0000        161.0750      0.1956    479.5200     82.0350     13.4224    406.4713      0.3575   2297.0000     25.1090    -70.4850
133.2000        161.0750      0.2066    483.0000     85.7400     12.8183    410.2324      0.3553   2295.0000     18.5281    -68.2350
133.4000        162.3000      0.2141    482.6800     88.4400     12.0179    402.7448      0.3631   2308.8999     16.4373    -66.7200
133.6000        162.3000      0.2044    476.3600     90.8400     11.2676    395.3939      0.3713   2333.6001     16.1373    -63.9750
133.8000        163.5500      0.1809    462.2000     97.8450      9.9961    433.5407      0.4013   2386.1001     10.7604    -57.9450
134.0000        164.7750      0.1630    459.8400     99.8550      9.7237    421.7256      0.4163   2409.8000      8.1626    -56.1900
134.2000        170.9750      0.1478    454.5200    100.3500      9.4587    402.7448      0.4238   2419.7000      9.9961    -56.7000
134.4000        161.0750      0.1408    434.6000     98.4450      9.3720    381.0921      0.4106   2426.7000     11.3718    -58.7100
134.6000        167.2750      0.1438    434.4400     97.7400      9.2009    391.7689      0.4081   2421.7000     10.1819    -58.9500
134.8000        168.5000      0.1548    438.7200     97.1400      8.9501    414.0282      0.4098   2415.8000     12.5843    -58.7100
