~VERSION INFORMATION
 VERS.                 2.0:   CWLS LOG ASCII STANDARD -VERSION 2.0
 WRAP.                  NO:   ONE LINE PER DEPTH STEP
~WELL INFORMATION BLOCK
#MNEM.UNIT           DATA                    DESCRIPTION OF MNEMONIC
#---------    -------------------            -------------------------------
# Generated from Intellog Unique Number	CN_91_93/WELL/3557
WELL.         01-28-093-11W4                 : Well_name    - WELL
LOC .         AA/01-28-093-11W4/0            : Location     - LOCATION
UWI .         AA/01-28-093-11W400            : Uwi          - UNIQUE WELL ID
ENTR.         JOETTE                         : Entered      - ENTERED BY
SRVC.         SCHLUMBERGER                   : Scn          - SERVICE COMPANY
DATE.         03/16/92                       : Date         - LOG DATE
STRT.F        10                             : top_depth    - START DEPTH
STOP.F        370.072                        : bot_depth    - STOP DEPTH
STEP.F        0.8202                         : increment    - STEP LENGTH
 NULL. -999.2500:NULL Value
~CURVE INFORMATION BLOCK
#MNEM UNIT       ERCB CURVE CODE    CURVE DESCRIPTION
#-----------   ------------------   ----------------------------------
DEPT.F        00 001 00 00         : DEPTH        - DEPTH
GR  .API      00 310 00 00         : GR           - GAMMA RAY
CALI.MM       00 280 01 00         : CAL          - CALIPER
NPHI.V/V      00 330 00 00         : PHIN         - NEUTRON POROSITY (SANDSTONE)
DPHI.V/V      00 890 00 00         : PHID         - DENSITY POROSITY (SANDSTONE)
ILD .OHMM     00 120 00 00         : RESD         - DEEP RESISTIVITY (DIL)
~PARAMETER INFORMATION
#MNEM.UNIT           DATA             DESCRIPTION OF MNEMONIC
#---------         -----------     ------------------------------
GL  .M        328.5                : gl           - GROUND LEVEL ELEVATION
EREF.M        328.5                : kb           - ELEVATION OF DEPTH REFERENCE
DATM.M        328.5                : datum        - DATUM ELEVATION
TDD .M        118.9                : tdd          - TOTAL DEPTH DRILLER
RUN .         ONE                  : Run          - RUN NUMBER
ENG .         JO                   : Engineer     - RECORDING ENGINEER
WIT .         TIM                  : Witness      - WITNESSED BY
MUD .         GEL                  : Mud_type     - MUD TYPE
MATR.         SANDSTONE            : Logunit      - NEUTRON MATRIX
TMAX.C        18                   : BHT          - MAXIMUM RECORDED TEMPERATURE
BHTD.M        118.9                : BHTDEP       - MAXIMUM RECORDED TEMPERATURE
RMT .C        16                   : MDTP         - TEMPERATURE OF MUD
MUDD.KG/M     1010                 : MWT          - MUD DENSITY
NEUT.         1                    : NEUTRON      - NEUTRON TYPE
RESI.         0                    : RESIST       - RESISTIVITY TYPE
RM  .OHMM     6.5                  : RM           - RESISTIVITY OF MUD
RMC .OHMM     6.5                  : RMC          - RESISTIVITY OF MUD CAKE
RMF .OHMM     6.5                  : RMF          - RESISTIVITY OF MUD FILTRATE
SUFT.C        4                    : SUFT         - SURFACE TEMPERATURE
~A  DEPTH       GR      CAL     PHIN     PHID     RESD
# ...
  249.501  138.995  138.437    0.390    0.194   13.802
  250.322  142.789  138.388    0.384    0.175   21.414
  251.142  129.422  139.415    0.396    0.214   27.657
  251.962  105.882  139.382    0.413    0.235   22.174
  252.782  109.040  139.358    0.396    0.238   21.752
  253.602  109.021  139.317    0.370    0.241   30.225
  254.423  104.552  140.344    0.386    0.250   27.057
  255.243  113.431  140.304    0.371    0.232   19.076
  256.063  131.838  140.263    0.365    0.195   20.505
  256.883  134.366  140.247    0.390    0.195   18.695
  257.703  128.621  140.206    0.392    0.219   18.679
  258.524  118.433  140.182    0.385    0.221   31.185
  259.344  106.973  140.125    0.369    0.223   31.727
  260.164  111.398  140.109    0.367    0.240   27.886
  260.984  110.743  140.069    0.376    0.254   32.264
  261.804  107.540  140.044    0.379    0.254   39.421
  262.625  110.068  139.996    0.370    0.242   35.290
  263.445  116.404  139.971    0.364    0.227   30.448
  264.265  120.834  139.923    0.378    0.223   30.420
  265.085  122.086  139.898    0.390    0.214   28.760
  265.906  120.790  139.874    0.387    0.199   23.485
  266.726  117.593  139.825    0.376    0.193   19.890
  267.546  114.395  139.809    0.381    0.187   22.599
  268.366  110.563  139.769    0.378    0.223   25.199
  269.186  110.538  139.728    0.369    0.227   25.176
  270.007  113.701  139.696    0.370    0.217   27.074
  270.827  114.948  139.655    0.371    0.223   23.786
  271.647  108.573  139.639    0.380    0.225   20.145
  272.467   98.385  139.606    0.377    0.227   32.429
  273.287   92.645  139.566    0.383    0.234   44.252
  274.108   93.256  139.533    0.367    0.239   36.136
  274.928   95.779  140.552    0.363    0.243   30.611
  275.748   96.395  140.520    0.363    0.245   39.535
  276.568  101.460  141.555    0.363    0.228   45.741
  277.388  109.068  141.514    0.369    0.238   39.455
  278.209  103.328  142.549    0.384    0.242   70.902
  279.029  103.309  143.568    0.401    0.248   53.791
  279.849  110.911  143.519    0.373    0.249   25.808
  280.669  107.078  144.554    0.378    0.254   33.333
  281.490  103.245  144.530    0.384    0.269   49.842
  282.310   98.141  145.541    0.363    0.260   37.822
  283.130  106.384  145.516    0.346    0.227   30.885
  283.950  111.449  146.527    0.356    0.213   52.519
  284.770  101.256  146.503    0.367    0.243   52.472
  285.591   85.983  147.521    0.377    0.254   42.848
  286.411   78.967  147.497    0.385    0.275   44.409
  287.231   82.130  148.516    0.390    0.288  133.329
  288.051   85.284  148.500    0.407    0.309  248.491
  288.871   97.345  149.518    0.425    0.329  407.424
  289.692  108.761  149.478    0.414    0.334  351.437
  290.512  117.640  150.505    0.407    0.340  314.539
  291.332  122.069  150.480    0.392    0.337  487.892
  292.152  114.423  150.448    0.403    0.347  505.778
  292.972  110.590  150.415    0.408    0.339  452.675
  293.793  119.469  150.375    0.412    0.330  412.553
  294.613  128.983  149.283    0.422    0.327  486.037
  295.433  135.319  149.251    0.424    0.327  494.699
  296.253   86.356  149.210    0.438    0.338  459.299
  297.073   84.429  149.170    0.422    0.334  403.516
  297.894   96.486  148.094    0.408    0.334  361.231
  298.714  105.364  148.054    0.422    0.328  284.293
  299.534  113.607  148.013    0.414    0.333  268.774
  300.354  126.299  147.989    0.414    0.332  268.533
  301.175  123.728  147.948    0.424    0.331  253.931
  301.995  119.900  147.924    0.438    0.339  227.270
  302.815  109.076  147.875    0.440    0.340  207.127
  303.635  102.060  147.851    0.435    0.334  195.864
  304.455  104.578  146.743    0.424    0.327  185.255
  305.276  107.741  146.719    0.420    0.328  175.104
  306.096  112.171  146.694    0.419    0.331  168.646
  306.916  115.960  145.594    0.426    0.338  168.495
  307.736  114.669  145.554    0.424    0.333  171.460
  308.556  109.570  144.462    0.425    0.324  174.477
  309.377   89.843  144.438    0.432    0.329  177.547
  310.197   83.463  143.346    0.448    0.336  180.670
  311.017   82.177  143.306    0.437    0.338  187.210
  311.837   66.264  142.214    0.419    0.347  201.277
  312.657   61.795  142.181    0.418    0.348  193.899
  313.478   64.949  141.082    0.429    0.333  176.752
  314.298   61.116  141.049    0.424    0.335  161.122
  315.118   57.288  139.957    0.415    0.336  204.314
  315.938   49.001  139.925    0.418    0.335  249.755
  316.759   43.897  139.884    0.418    0.335  273.431
  317.579   43.877  139.868    0.400    0.330  244.722
  318.399   50.849  139.811    0.402    0.338  185.705
  319.219   57.821  139.795    0.414    0.336   99.440
  320.039   68.606  139.755    0.414    0.335  146.021
  320.860   67.316  139.730    0.404    0.342  210.574
  321.680   57.753  139.682    0.396    0.342  326.701
  322.500   59.005  139.657    0.402    0.333   58.203
  323.320   60.256  139.609    0.410    0.321   34.167
  324.140   58.966  139.584    0.421    0.294   20.423
  324.961   57.040  139.560    0.425    0.277   17.300
  325.781   60.838  139.520    0.422    0.271   14.927
  326.601   72.890  139.495    0.407    0.255   14.642
  327.421   81.764  139.455    0.370    0.235   21.496
  328.241   78.566  139.414    0.400    0.227   20.699
  329.062   74.103  139.382    0.421    0.243   21.068
  329.882   64.550  139.357    0.443    0.268   37.163
  330.702   44.187  139.325    0.426    0.282   52.618
  331.522   32.727  139.293    0.410    0.295   71.802
  332.343   21.263  139.260    0.381    0.317  133.821
  333.163   27.599  139.220    0.381    0.304  236.059
  333.983   38.384  140.230    0.412    0.296  373.019
  334.803   42.173  140.214    0.420    0.315  185.656
  335.623   37.710  140.182    0.393    0.332   87.437
  336.444   28.157  140.149    0.395    0.333  203.073
  337.264   12.883  140.117    0.403    0.332  154.100
  338.084   10.952  141.127    0.414    0.325   90.440
  338.904   10.293  141.087    0.420    0.330  261.807
  339.724    7.095  141.071    0.406    0.337  704.123
  340.545    5.805  141.038    0.398    0.353  909.401
  341.365    7.692  141.006    0.395    0.348  585.099
  342.185   11.486  142.033    0.388    0.338  477.789
  343.005   13.373  141.976    0.402    0.327  451.707
  343.825   10.811  141.960    0.394    0.333  700.973
  344.646    6.338  141.927    0.398    0.349  810.825
  345.466    5.047  141.895    0.406    0.342  561.380
  346.286    8.206  141.854    0.413    0.343  367.871
  347.106   10.093  141.822    0.405    0.345  223.965
  347.927   10.074  141.789    0.404    0.341   74.448
  348.747   10.054  141.757    0.421    0.325   99.744
  349.567   12.572  141.716    0.422    0.328  215.272
  350.387   14.459  141.684    0.404    0.332   72.899
  351.207   12.533  141.651    0.396    0.324  115.195
  352.028   11.243  141.619    0.397    0.313  203.202
  352.848   11.223  142.646    0.384    0.304  333.093
  353.668    9.928  142.613    0.386    0.313  338.954
  354.488    7.371  143.632    0.392    0.325  266.821
  355.308    6.080  144.667    0.385    0.331  159.492
  356.129    8.598  145.694    0.380    0.331   93.626
  356.949   12.392  146.721    0.362    0.305   82.273
  357.769   18.093  145.613    0.347    0.286   51.016
  358.589   27.607  142.403    0.354    0.267   27.318
  359.409   36.486  140.260    0.372    0.247   26.310
  360.230   43.457  139.160    0.395    0.260   15.445
  361.050   50.429  138.076    0.415    0.272   16.304
  361.870   44.690  136.977    0.377    0.263   42.269
  362.690   30.052  136.944    0.321    0.237   23.485
  363.510   17.316  136.912    0.290    0.209    8.096
  364.331   17.927  135.812    0.249    0.141    8.868
  365.151   18.544  134.712    0.199    0.098   23.416
  365.971   19.160  135.755    0.136   -0.003   30.236
  366.791   19.145  141.003    0.116   -0.000   26.093
  367.612   20.392  145.199    0.119   -0.005   25.131
  368.432   20.372  146.234    0.116   -0.004   30.720
