~VERSION INFORMATION
 VERS.                 2.0:   CWLS LOG ASCII STANDARD -VERSION 2.0
 WRAP.                  NO:   ONE LINE PER DEPTH STEP
~WELL INFORMATION BLOCK
#MNEM.UNIT           DATA                    DESCRIPTION OF MNEMONIC
#---------    -------------------            -------------------------------
# Generated from Intellog Unique Number	CN_94_101/WELL/4989
WELL.         07-09-099-14W4                 : Well_name    - WELL
LOC .         AA/07-09-099-14W4/0            : Location     - LOCATION
UWI .         AA/07-09-099-14W400            : Uwi          - UNIQUE WELL ID
ENTR.         TIM                            : Entered      - ENTERED BY
SRVC.         SCHLUMBERGER                   : Scn          - SERVICE COMPANY
DATE.         08/11/92                       : Date         - LOG DATE
STRT.M        350                            : top_depth    - START DEPTH
STOP.M        550                            : bot_depth    - STOP DEPTH
STEP.M        0.25                           : increment    - STEP LENGTH
 NULL. -999.2500:NULL Value
~CURVE INFORMATION BLOCK
#MNEM UNIT       ERCB CURVE CODE    CURVE DESCRIPTION
#-----------   ------------------   ----------------------------------
DEPT.M        00 001 00 00         : DEPTH        - DEPTH
GR  .API      00 310 00 00         : GR           - GAMMA RAY
ILD .OHMM     00 120 00 00         : RESD         - DEEP RESISTIVITY (DIL)
NPHI.V/V      00 330 00 00         : PHIN         - NEUTRON POROSITY (SANDSTONE)
DPHI.V/V      00 890 00 00         : PHID         - DENSITY POROSITY (SANDSTONE)
~PARAMETER INFORMATION
#MNEM.UNIT           DATA             DESCRIPTION OF MNEMONIC
#---------         -----------     ------------------------------
GL  .M        792                  : gl           - GROUND LEVEL ELEVATION
EREF.M        795.6                : kb           - ELEVATION OF DEPTH REFERENCE
DATM.M        795.6                : datum        - DATUM ELEVATION
TDD .M        551                  : tdd          - TOTAL DEPTH DRILLER
RUN .         ONE                  : Run          - RUN NUMBER
ENG .         JO                   : Engineer     - RECORDING ENGINEER
WIT .         TIM                  : Witness      - WITNESSED BY
MUD .         GEL                  : Mud_type     - MUD TYPE
MATR.         SANDSTONE            : Logunit      - NEUTRON MATRIX
TMAX.C        30                   : BHT          - MAXIMUM RECORDED TEMPERATURE
BHTD.M        551                  : BHTDEP       - MAXIMUM RECORDED TEMPERATURE
RMT .C        27                   : MDTP         - TEMPERATURE OF MUD
MUDD.KG/M     1050                 : MWT          - MUD DENSITY
NEUT.         1                    : NEUTRON      - NEUTRON TYPE
RESI.         0                    : RESIST       - RESISTIVITY TYPE
RM  .OHMM     3.5                  : RM           - RESISTIVITY OF MUD
RMC .OHMM     3.5                  : RMC          - RESISTIVITY OF MUD CAKE
RMF .OHMM     3.5                  : RMF          - RESISTIVITY OF MUD FILTRATE
SUFT.C        4                    : SUFT         - SURFACE TEMPERATURE
~A  DEPTH       GR     RESD     PHIN     PHID
# ...
  437.000   90.348    1.843    0.420    0.302
  437.250   90.401    1.845    0.431    0.304
  437.500   89.850    1.848    0.435    0.302
  437.750   83.869    1.882    0.440    0.298
  438.000   73.665    1.951    0.442    0.295
  438.250   76.131    2.021    0.442    0.294
  438.500   83.423    2.059    0.442    0.296
  438.750   89.509    2.062    0.442    0.297
  439.000   92.617    2.030    0.442    0.297
  439.250   92.643    1.998    0.439    0.296
  439.500   93.299    2.001    0.435    0.293
  439.750   92.761    2.004    0.429    0.290
  440.000   91.607    2.006    0.425    0.286
  440.250   90.439    2.080    0.425    0.282
  440.500   86.872    2.232    0.423    0.281
  440.750   84.524    2.313    0.414    0.281
  441.000   83.960    2.525    0.393    0.281
  441.250   82.203    2.572    0.369    0.284
  441.500   80.458    2.666    0.364    0.301
  441.750   77.481    2.717    0.352    0.309
  442.000   73.926    2.721    0.347    0.309
  442.250   76.392    2.631    0.352    0.308
  442.500   78.845    2.417    0.364    0.316
  442.750   83.120    2.259    0.387    0.327
  443.000   87.396    2.223    0.416    0.334
  443.250   82.635    2.227    0.427    0.327
  443.500   79.054    2.229    0.423    0.317
  443.750   73.087    2.476    0.375    0.307
  444.000   68.299    2.611    0.358    0.294
  444.250   64.128    2.802    0.366    0.305
  444.500   60.561    2.955    0.372    0.310
  444.750   65.453    3.064    0.378    0.304
  445.000   69.112    2.964    0.382    0.298
  445.250   73.388    2.722    0.386    0.296
  445.500   78.293    2.545    0.388    0.302
  445.750   81.349    2.461    0.387    0.308
  446.000   82.608    2.381    0.392    0.311
  446.250   82.057    2.304    0.398    0.313
  446.500   80.916    2.266    0.406    0.317
  446.750   80.378    2.231    0.413    0.317
  447.000   80.404    2.196    0.410    0.317
  447.250   81.073    2.161    0.405    0.315
  447.500   81.716    2.165    0.404    0.318
  447.750   81.768    2.167    0.406    0.322
  448.000   81.821    2.170    0.415    0.327
  448.250   82.490    2.173    0.422    0.336
  448.500   81.939    2.177    0.416    0.346
  448.750   80.181    2.179    0.407    0.342
  449.000   77.807    2.220    0.401    0.295
  449.250   76.666    2.262    0.395    0.280
  449.500   80.968    2.264    0.395    0.282
  449.750   82.201    2.269    0.396    0.283
  450.000   84.063    2.232    0.399    0.289
  450.250   82.305    2.051    0.408    0.299
  450.500   80.587    1.983    0.419    0.305
  450.750   81.820    1.792    0.426    0.308
  451.000   84.273    1.703    0.437    0.308
  451.250   87.342    1.647    0.443    0.307
  451.500   90.411    1.593    0.451    0.307
  451.750   92.889    1.542    0.459    0.306
  452.000   93.545    1.543    0.458    0.302
  452.250   92.994    1.629    0.448    0.299
  452.500   90.030    1.717    0.437    0.289
  452.750   88.273    1.843    0.423    0.280
  453.000   85.308    1.944    0.414    0.270
  453.250   82.947    1.945    0.433    0.280
  453.500   81.190    1.915    0.451    0.288
  453.750   85.466    1.853    0.465    0.294
  454.000   89.741    1.823    0.457    0.300
  454.250   93.427    1.763    0.441    0.305
  454.500   95.892    1.860    0.424    0.308
  454.750   96.548    2.030    0.406    0.303
  455.000   95.997    2.294    0.388    0.285
  455.250   95.433    2.547    0.375    0.291
  455.500   91.879    2.981    0.378    0.303
  455.750   91.931    3.254    0.375    0.297
  456.000   92.587    3.431    0.372    0.267
  456.250   90.829    3.557    0.372    0.265
  456.500   88.469    3.501    0.375    0.250
  456.750   86.711    3.389    0.382    0.239
  457.000   87.367    3.390    0.387    0.244
  457.250   88.022    3.280    0.393    0.248
  457.500   88.678    3.230    0.399    0.256
  457.750   88.731    3.177    0.398    0.262
  458.000   88.783    3.127    0.394    0.269
  458.250   88.245    3.079    0.395    0.276
  458.500   88.297    3.029    0.396    0.278
  458.750   87.760    3.033    0.395    0.266
  459.000   87.786    3.039    0.389    0.254
  459.250   87.235    3.042    0.387    0.250
  459.500   86.081    3.045    0.379    0.253
  459.750   84.336    3.051    0.361    0.262
  460.000   83.772    3.108    0.365    0.273
  460.250   82.028    3.113    0.373    0.266
  460.500   82.697    3.171    0.377    0.252
  460.750   83.326    3.231    0.376    0.231
  461.000   83.379    3.291    0.367    0.208
  461.250   83.431    3.352    0.359    0.211
  461.500   82.880    3.415    0.357    0.244
  461.750   82.959    3.420    0.362    0.260
  462.000   83.614    3.366    0.366    0.260
  462.250   83.667    3.201    0.366    0.266
  462.500   81.306    2.941    0.369    0.266
  462.750   82.591    2.846    0.372    0.261
  463.000   83.837    2.848    0.385    0.275
  463.250   84.467    2.853    0.398    0.291
  463.500   86.945    2.809    0.407    0.296
  463.750   87.588    2.812    0.410    0.281
  464.000   87.641    2.815    0.403    0.277
  464.250   85.306    2.869    0.403    0.283
  464.500   84.729    2.871    0.403    0.288
  464.750   85.397    2.876    0.401    0.280
  465.000   87.876    2.781    0.394    0.270
  465.250   89.739    2.646    0.385    0.260
  465.500   92.821    2.603    0.389    0.260
  465.750   93.450    2.477    0.391    0.269
  466.000   94.710    2.437    0.398    0.282
  466.250   94.159    2.441    0.392    0.297
  466.500   91.207    2.574    0.380    0.289
  466.750   87.640    2.763    0.381    0.265
  467.000   84.662    2.814    0.388    0.281
  467.250   82.315    2.818    0.399    0.285
  467.500   84.780    2.820    0.397    0.251
  467.750   86.630    2.729    0.378    0.235
  468.000   86.695    2.550    0.388    0.226
  468.250   86.735    2.302    0.400    0.270
  468.500   86.787    2.043    0.415    0.297
  468.750   87.443    1.845    0.434    0.319
  469.000   87.495    1.637    0.468    0.364
  469.250   86.341    1.453    0.466    0.364
  469.500   85.790    1.358    0.453    0.318
  469.750   85.842    1.270    0.441    0.293
  470.000   87.128    1.227    0.451    0.303
  470.250   87.770    1.187    0.472    0.316
  470.500   89.646    1.149    0.471    0.327
  470.750   91.508    1.130    0.466    0.335
  471.000   91.561    1.132    0.459    0.345
  471.250   91.626    1.215    0.452    0.354
  471.500   91.652    1.373    0.446    0.358
  471.750   91.101    1.606    0.439    0.360
  472.000   89.960    2.232    0.411    0.218
  472.250   89.409    2.313    0.405    0.176
  472.500   87.048    2.614    0.395    0.158
  472.750   85.894    2.903    0.393    0.234
  473.000   87.140    3.061    0.371    0.276
  473.250   90.209    3.119    0.362    0.278
  473.500   92.688    3.124    0.353    0.253
  473.750   92.740    3.074    0.347    0.220
  474.000   93.396    3.025    0.355    0.241
  474.250   95.258    2.926    0.364    0.256
  474.500   94.104    2.881    0.365    0.267
  474.750   91.769    2.886    0.365    0.260
  475.000   91.192    2.888    0.363    0.246
  475.250   91.861    2.942    0.358    0.253
  475.500   94.314    3.050    0.354    0.265
  475.750   93.160    3.217    0.350    0.274
  476.000   90.209    3.453    0.332    0.271
  476.250   87.835    3.517    0.330    0.265
  476.500   84.267    3.521    0.339    0.254
  476.750   80.713    3.526    0.352    0.242
  477.000   83.165    3.532    0.356    0.235
  477.250   88.057    3.478    0.362    0.227
  477.500   90.510    3.480    0.364    0.231
  477.750   91.179    3.368    0.359    0.235
  478.000   90.641    3.313    0.357    0.237
  478.250   90.693    3.152    0.353    0.241
  478.500   90.746    3.101    0.353    0.245
  478.750   90.798    3.053    0.358    0.255
  479.000   90.850    3.005    0.363    0.266
  479.250   90.890    3.009    0.366    0.274
  479.500   91.559    3.012    0.366    0.276
  479.750   92.214    3.016    0.361    0.273
  480.000   92.870    2.969    0.355    0.275
  480.250   92.909    2.972    0.352    0.272
