~Version : LASO    vs 4.00
VERS.                2.00:   CWLS Log ASCII Standard -VERSION 2.0
WRAP.                  NO:
~Well Information Block
#MNEM.UNIT       Data                        Description of Mnemonic
#----.----      -------------------------- : -----------------------------
COMP.                                     : COMPANY
FLD .    WILDCAT                          : FIELD NAME
LOC .    02-32-090-08W4                   : WELL LOCATION
UWI .    AA/02-32-090-08W400              : UNIQUE WELL ID
STRT.M             0.0000:
STOP.M           201.3750:
STEP.M             0.1250:
NULL.           -999.2500:
COMP.  :COMPANY
WELL.  MOBIL CLARKE OV 2-32:WELL
FLD.   :FIELD
LOC.   :LOCATION
CTRY.  :COUNTRY
PROV.  ALBERTA:PROVINCE
SRVC.  DRESSER ATLAS:SERVICE COMPANY
DATE.  17-FEB-81:LOG DATE
UWI.   :UNIQUE WELL ID
~Parameter Information Block
#MNEM.UNIT       Data                        Description of Mnemonic
#----.----      -------------------------- : -----------------------------
RUN .                   1                 : Run Number
GL  .M           431.8000                 : Ground Level Elevation
DREF.                  KB                 : Depth Reference
EREF.M           431.8000                 : Elevation of Depth Reference
TDL .M           202.0000                 : Total Depth Logger
TDD .M           201.6000                 : Total Depth Driller
BHT .DEGC         20.0000                 : Bottom Hole Temperature
BS  .MM          159.0000                 : Bit Size
DFD .             10.3000                 : Mud Weight (Density)
DFV .             85.0000                 : Mud Viscosity
DFPH.             10.0000                 : Mud pH
RM  .OHMM          4.9000                 : Mud Resistivity
RMT .DEGC         20.0000                 : Mud Resistivity Temperature
RMF .OHMM          4.7000                 : Mud Filtrate Resistivity
RMFT.DEGC         10.0000                 : RMF Temperature
RMC .OHMM          9.5000                 : Mud Cake Resistivity
RMCT.DEGC         10.0000                 : RMC Temperature
~Curve Information Block
#MNEM.UNIT        API CODE    Curve Description
#---------    ------------    -------------------------------------------
DEPT.M                    :   DEPTH
CALI.MM       42 280  1  1:   3 DENSITY CALIPER
DPHI.V/V                  :   DPHI
DT  .US/M     60 520 42  1:   2 SONIC INTERVAL TRANSIT TIME (COMPENSATED)
GR  .GAPI     42 310  1  1:   4 GAMMA RAY
IL  .OHMM      5 120 45  1:   7 INDUCTION
NPHI.V/V      42 890  3  1:   5 NEUTRON POROSITY (SANDSTONE)
RHOB.K/M3     42 350  1  1:   6 BULK DENSITY
SFL .OHMM      5 220  6  1:   8 FOCUSSED RESISTIVITY
SP  .MV        5  10  1  1:   9 SPONTANEOUS POTENTIAL
~A  Depth           CALI        DPHI          DT          GR          IL        NPHI        RHOB         SFL          SP
# ...
8.3750         -999.2500      0.1102   -999.2500     40.0350   -999.2500   -999.2500   -999.2500   -999.2500   -999.2500
8.5000         -999.2500      0.1031   -999.2500     39.8400   -999.2500   -999.2500   -999.2500   -999.2500   -999.2500
8.6250         -999.2500      0.0981   -999.2500     39.1050   -999.2500   -999.2500   -999.2500   -999.2500   -999.2500
8.7500         -999.2500      0.0924   -999.2500     37.9950   -999.2500   -999.2500   -999.2500   -999.2500   -999.2500
8.8750         -999.2500      0.0875   -999.2500     37.2600   -999.2500   -999.2500   -999.2500   -999.2500   -999.2500
9.0000         -999.2500      0.0782   -999.2500     37.2600   -999.2500   -999.2500   -999.2500   -999.2500   -999.2500
9.1250         -999.2500      0.0707   -999.2500     38.1900   -999.2500   -999.2500   -999.2500   -999.2500   -999.2500
9.2500         -999.2500      0.0685   -999.2500     38.7600   -999.2500   -999.2500   -999.2500   -999.2500   -999.2500
9.3750         -999.2500      0.0696   -999.2500     39.3450   -999.2500   -999.2500   -999.2500   -999.2500   -999.2500
9.5000         -999.2500      0.0725   -999.2500     39.9150   -999.2500   -999.2500   -999.2500   -999.2500   -999.2500
9.6250         -999.2500      0.0777   -999.2500     40.5000   -999.2500   -999.2500   -999.2500   -999.2500   -999.2500
9.7500         -999.2500      0.0827   -999.2500     41.0700   -999.2500   -999.2500   -999.2500   -999.2500   -999.2500
9.8750         -999.2500      0.0876   -999.2500     41.6550   -999.2500   -999.2500   -999.2500   -999.2500   -999.2500
10.0000        -999.2500      0.0960   -999.2500     42.2400   -999.2500   -999.2500   -999.2500   -999.2500   -999.2500
10.1250        -999.2500      0.1010   -999.2500     40.9200   -999.2500   -999.2500   -999.2500   -999.2500   -999.2500
10.2500        -999.2500      0.1050   -999.2500     42.1350   -999.2500   -999.2500   -999.2500   -999.2500   -999.2500
10.3750        -999.2500      0.1088   -999.2500     44.5200   -999.2500   -999.2500   -999.2500   -999.2500   -999.2500
10.5000        -999.2500      0.1124   -999.2500     46.5750   -999.2500   -999.2500   -999.2500   -999.2500   -999.2500
10.6250        -999.2500      0.1135   -999.2500     46.0650   -999.2500   -999.2500   -999.2500   -999.2500   -999.2500
10.7500        -999.2500      0.1143   -999.2500     46.3650   -999.2500   -999.2500   -999.2500   -999.2500   -999.2500
10.8750        -999.2500      0.1157   -999.2500     49.0050   -999.2500   -999.2500   -999.2500   -999.2500   -999.2500
11.0000        -999.2500      0.1186   -999.2500     51.1500   -999.2500   -999.2500   -999.2500   -999.2500   -999.2500
11.1250        -999.2500      0.1237   -999.2500     48.6600   -999.2500   -999.2500   -999.2500   -999.2500   -999.2500
11.2500        -999.2500      0.1270   -999.2500     45.3750   -999.2500   -999.2500   -999.2500   -999.2500   -999.2500
11.3750        -999.2500      0.1261   -999.2500     44.1300   -999.2500   -999.2500   -999.2500   -999.2500   -999.2500
11.5000        -999.2500      0.1213   -999.2500     45.3000   -999.2500   -999.2500   -999.2500   -999.2500   -999.2500
11.6250        -999.2500      0.1166   -999.2500     46.5450   -999.2500   -999.2500   -999.2500   -999.2500   -999.2500
11.7500        -999.2500      0.1108   -999.2500     48.2550   -999.2500   -999.2500   -999.2500   -999.2500   -999.2500
11.8750        -999.2500      0.1050   -999.2500     47.4300   -999.2500   -999.2500   -999.2500   -999.2500   -999.2500
12.0000        -999.2500      0.1020   -999.2500     45.1350   -999.2500   -999.2500   -999.2500   -999.2500   -999.2500
12.1250        -999.2500      0.1035   -999.2500     44.8200   -999.2500   -999.2500   -999.2500   -999.2500   -999.2500
12.2500        -999.2500      0.1099   -999.2500     45.8400   -999.2500   -999.2500   -999.2500   -999.2500   -999.2500
12.3750        -999.2500      0.1182   -999.2500     45.7350   -999.2500   -999.2500   -999.2500   -999.2500   -999.2500
12.5000        -999.2500      0.1246   -999.2500     44.9700   -999.2500   -999.2500   -999.2500   -999.2500   -999.2500
12.6250        -999.2500      0.1277   -999.2500     43.2750   -999.2500   -999.2500   -999.2500   -999.2500   -999.2500
12.7500        -999.2500      0.1232   -999.2500     41.2800   -999.2500   -999.2500   -999.2500   -999.2500   -999.2500
12.8750        -999.2500      0.1214   -999.2500     40.8000   -999.2500   -999.2500   -999.2500   -999.2500   -999.2500
13.0000         180.4000      0.1319    540.1200     42.3900   1253.9999      0.3025   2294.8000     60.9000   -106.7900
13.1250         182.0250      0.1496    360.7200     43.3050   1253.9999      0.3038   2261.6001     59.5000   -110.6500
13.2500         185.2000      0.1641    140.1200     46.0350   1253.9999      0.2942   2318.8000     62.9000   -113.6400
13.3750         188.5750      0.1972    189.2000     49.1850   1253.9999      0.2850   2323.8000     66.8500   -116.2600
13.5000         178.3250      0.2110    126.3600     50.8350   1215.9999      0.2872   2326.2000     65.9000   -118.3800
13.6250         169.2500      0.2126     90.5200     53.6850    587.9999      0.2897   2328.7000     66.3000   -120.3700
13.7500         168.3500      0.2056     60.8400     55.8900    102.3000      0.2943   2333.3000     76.2500   -121.7400
13.8750         168.7500      0.1986    234.8400     53.0100     51.7500      0.2953   2336.0000     88.6500   -122.9800
14.0000         169.6000      0.1915    212.2400     51.1350     50.7000      0.2903   2344.8999     90.3500   -124.2300
14.1250         172.2250      0.1855    245.8800     49.9200     54.2000      0.2912   2349.7000     85.6000   -124.7300
14.2500         178.8750      0.1825    326.6000     51.0750     57.6000      0.2937   2354.6001     71.6500   -124.7300
14.3750         190.4500      0.1800    344.5200     51.4050    110.7000      0.2869   2310.0000     53.9500   -124.7300
14.5000         194.4500      0.1957    370.5200     52.3350    287.9999      0.2719   2260.3000     48.0700   -124.7300
14.6250         188.6000      0.2180    437.7600     54.3300    532.9999      0.2777   2210.5000     56.4000   -124.7300
14.7500         185.2500      0.2330    253.9600     55.0350    955.4999      0.2888   2160.7000     73.7000   -124.7300
14.8750         182.6250      0.3909    316.8000     53.2500   1185.4999      0.3025   2110.8999     83.4000   -124.7300
15.0000         182.7250      0.4304    118.5200     52.1100    125.8500      0.3196   2061.2000     78.8500   -124.7300
15.1250         185.3500      0.4215     51.7600     51.3600     47.0600      0.3246   2011.4000     76.2500   -124.7300
15.2500         189.3500      0.3743    129.0800     50.1150     45.5850      0.3286   2104.5000     73.6500   -124.7300
15.3750         185.5250      0.2799    515.8000     49.2000     45.5850      0.3078   2242.8000     72.8000   -124.7300
15.5000         170.4750      0.2343    562.9200     51.9150     45.7100      0.2971   2334.7000     63.6000   -124.7300
15.6250         169.1250      0.2071    548.9600     50.6100     45.7100      0.2843   2328.1001     68.5500   -124.7300
15.7500         169.6000      0.1945    535.4400     50.9700     46.0150      0.2807   2323.1001     89.9999   -124.7300
15.8750         171.1250      0.1957    532.2400     54.0600     46.8750      0.2774   2318.0000     78.1500   -124.7300
16.0000         176.1500      0.2047    530.0400     54.5400     46.9350      0.2753   2311.7000     71.8000   -124.7300
16.1250         180.1500      0.2182    549.6800     54.0600     46.6900      0.2722   2305.0000     67.1500   -124.7300
16.2500         184.0750      0.2349    600.2400     51.1650     46.6900      0.2710   2222.5000     64.7000   -124.7300
16.3750         186.0750      0.2506    550.1600     48.5850     46.5050      0.2763   2208.3999     66.7000   -124.7300
16.5000         178.3000      0.2578    539.3600     48.5250     46.3850      0.2789   2227.8999     65.9999   -124.7300
16.6250         173.9750      0.2555    484.4000     48.0000     46.4450      0.2846   2232.7000     71.4000   -124.7300
