~VERSION INFORMATION
 VERS.                 2.0:   CWLS LOG ASCII STANDARD -VERSION 2.0
 WRAP.                  NO:   ONE LINE PER DEPTH STEP
~WELL INFORMATION BLOCK
#MNEM.UNIT           DATA                    DESCRIPTION OF MNEMONIC
#---------    -------------------            -------------------------------
# Generated from Intellog Unique Number	CN_94_101/WELL/4996
WELL.         09-23-099-13W4                 : Well_name    - WELL
LOC .         AA/09-23-099-13W4/0            : Location     - LOCATION
UWI .         AA/09-23-099-13W400            : Uwi          - UNIQUE WELL ID
ENTR.         TIM                            : Entered      - ENTERED BY
SRVC.         WESTERN ATLAS                  : Scn          - SERVICE COMPANY
DATE.         08/28/92                       : Date         - LOG DATE
STRT.M        535                            : top_depth    - START DEPTH
STOP.M        605                            : bot_depth    - STOP DEPTH
STEP.M        0.25                           : increment    - STEP LENGTH
 NULL. -999.2500:NULL Value
~CURVE INFORMATION BLOCK
#MNEM UNIT       ERCB CURVE CODE    CURVE DESCRIPTION
#-----------   ------------------   ----------------------------------
DEPT.M        00 001 00 00         : DEPTH        - DEPTH
GR  .API      00 310 00 00         : GR           - GAMMA RAY
ILD .OHMM     00 120 00 00         : RESD         - DEEP RESISTIVITY (DIL)
NPHI.V/V      00 330 00 00         : PHIN         - NEUTRON POROSITY (SANDSTONE)
DPHI.V/V      00 890 00 00         : PHID         - DENSITY POROSITY (SANDSTONE)
~PARAMETER INFORMATION
#MNEM.UNIT           DATA             DESCRIPTION OF MNEMONIC
#---------         -----------     ------------------------------
GL  .M        840.16               : gl           - GROUND LEVEL ELEVATION
EREF.M        843.4                : kb           - ELEVATION OF DEPTH REFERENCE
DATM.M        843.4                : datum        - DATUM ELEVATION
TDD .M        610                  : tdd          - TOTAL DEPTH DRILLER
RUN .         ONE                  : Run          - RUN NUMBER
ENG .         JO                   : Engineer     - RECORDING ENGINEER
WIT .         TIM                  : Witness      - WITNESSED BY
MUD .         GEL                  : Mud_type     - MUD TYPE
MATR.         SANDSTONE            : Logunit      - NEUTRON MATRIX
TMAX.C        26                   : BHT          - MAXIMUM RECORDED TEMPERATURE
BHTD.M        610                  : BHTDEP       - MAXIMUM RECORDED TEMPERATURE
RMT .C        5                    : MDTP         - TEMPERATURE OF MUD
MUDD.KG/M     1065                 : MWT          - MUD DENSITY
NEUT.         1                    : NEUTRON      - NEUTRON TYPE
RESI.         0                    : RESIST       - RESISTIVITY TYPE
RM  .OHMM     4.79                 : RM           - RESISTIVITY OF MUD
RMC .OHMM     3.97                 : RMC          - RESISTIVITY OF MUD CAKE
RMF .OHMM     3.97                 : RMF          - RESISTIVITY OF MUD FILTRATE
SUFT.C        4                    : SUFT         - SURFACE TEMPERATURE
~A  DEPTH       GR     RESD     PHIN     PHID
  535.000   77.257    2.226    0.524    0.243
  535.250   74.790    2.071    0.542    0.246
  535.500   74.207    1.927    0.556    0.250
  535.750   75.506    1.827    0.564    0.262
  536.000   75.550    1.831    0.547    0.265
  536.250   73.711    2.052    0.543    0.248
  536.500   71.244    2.524    0.547    0.371
  536.750   69.415    3.344    0.541    0.490
  537.000   68.832    3.962    0.533    0.524
  537.250   68.876    4.122    0.529    0.525
  537.500   68.920    4.056    0.541    0.530
  537.750   68.336    4.144    0.557    0.537
  538.000   70.264    4.231    0.568    0.542
  538.250   74.064    4.318    0.580    0.533
  538.500   75.991    4.328    0.584    0.487
  538.750   77.302    4.103    0.569    0.396
  539.000   76.707    3.892    0.555    0.355
  539.250   74.890    3.757    0.555    0.339
  539.500   74.295    3.696    0.552    0.326
  539.750   76.851    3.777    0.547    0.321
  540.000   80.651    4.000    0.544    0.327
  540.250   80.717    4.321    0.541    0.340
  540.500   79.483    4.666    0.536    0.369
  540.750   80.166    5.040    0.537    0.400
  541.000   83.978    5.147    0.537    0.382
  541.250   81.510    4.971    0.527    0.286
  541.500   79.043    4.625    0.538    0.251
  541.750   76.576    3.920    0.552    0.446
  542.000   72.853    3.322    0.561    0.454
  542.250   69.758    2.664    0.571    0.425
  542.500   68.546    2.259    0.584    0.412
  542.750   65.440    2.101    0.584    0.442
  543.000   63.612    1.993    0.562    0.454
  543.250   62.389    1.998    0.548    0.472
  543.500   59.294    2.325    0.543    0.441
  543.750   54.326    2.555    0.544    0.390
  544.000   51.870    4.393    0.542    0.310
  544.250   51.264    5.018    0.533    0.266
  544.500   49.436    5.220    0.533    0.319
  544.750   48.213    5.738    0.533    0.343
  545.000   45.118    7.893    0.531    0.388
  545.250   40.778    9.179    0.525    0.510
  545.500   39.567    9.728    0.520    0.505
  545.750   41.494    8.404    0.516    0.445
  546.000   49.062    6.995    0.515    0.414
  546.250   63.568    5.607    0.522    0.384
  546.500   66.740    4.414    0.534    0.363
  546.750   68.040    3.106    0.546    0.309
  547.000   67.467    3.058    0.567    0.340
  547.250   66.895    3.065    0.577    0.389
  547.500   66.917    3.073    0.584    0.441
  547.750   68.228    3.139    0.590    0.477
  548.000   70.783    3.147    0.591    0.410
  548.250   73.966    3.154    0.581    0.365
  548.500   76.522    3.161    0.563    0.366
  548.750   80.972    3.289    0.542    0.352
  549.000   82.261    3.421    0.507    0.318
  549.250   82.933    3.494    0.472    0.284
  549.500   81.721    3.374    0.473    0.278
  549.750   79.265    3.258    0.480    0.282
  550.000   77.414    3.206    0.487    0.291
  550.250   72.436    3.213    0.494    0.320
  550.500   65.573    3.599    0.503    0.341
  550.750   61.223    6.186    0.510    0.369
  551.000   58.117    8.997    0.503    0.398
  551.250   54.394   10.470    0.474    0.424
  551.500   49.426   11.516    0.453    0.442
  551.750   45.692   11.759    0.409    0.415
  552.000   47.620   12.008    0.364    0.373
  552.250   52.059   12.262    0.344    0.313
  552.500   53.986   12.763    0.346    0.279
  552.750   54.030   13.262    0.346    0.307
  553.000   55.363   14.869    0.336    0.342
  553.250   56.024   17.303    0.320    0.349
  553.500   56.057   19.021    0.327    0.350
  553.750   55.474   20.536    0.357    0.343
  554.000   51.762   23.897    0.382    0.310
  554.250   48.666   26.285    0.403    0.291
  554.500   44.933   29.454    0.414    0.272
  554.750   39.943   36.218    0.389    0.257
  555.000   29.942   56.736    0.351    0.255
  555.250   16.801   71.157    0.326    0.260
  555.500   12.450   74.067    0.318    0.262
  555.750   12.494   74.154    0.330    0.265
  556.000   14.422   56.215    0.336    0.266
  556.250   18.861   15.908    0.333    0.272
  556.500   22.044   12.758    0.342    0.280
  556.750   26.483   10.226    0.354    0.277
  557.000   31.550    8.201    0.367    0.267
  557.250   30.977    6.955    0.388    0.271
  557.500   28.521    6.239    0.406    0.276
  557.750   27.288    6.135    0.380    0.277
  558.000   23.564    6.040    0.336    0.280
  558.250   17.958    6.639    0.335    0.286
  558.500   14.874    8.794    0.339    0.293
  558.750   14.918   12.096    0.342    0.289
  559.000   14.962   16.021    0.338    0.258
  559.250   15.634   24.636    0.335    0.263
  559.500   17.562   28.140    0.338    0.269
  559.750   20.117   29.274    0.344    0.276
  560.000   24.567   29.910    0.356    0.285
  560.250   25.856   29.980    0.372    0.287
  560.500   27.156   30.033    0.375    0.283
  560.750   27.211   30.686    0.382    0.283
  561.000   27.255   31.316    0.391    0.285
  561.250   27.927   32.615    0.398    0.290
  561.500   27.971   33.285    0.403    0.289
  561.750   28.632   34.647    0.408    0.285
  562.000   28.676   35.358    0.399    0.286
  562.250   28.720   35.420    0.385    0.289
  562.500   27.509   36.869    0.377    0.296
  562.750   27.553   37.626    0.378    0.296
  563.000   28.236   38.422    0.385    0.289
  563.250   28.897   39.993    0.392    0.292
  563.500   30.207   40.814    0.396    0.295
  563.750   30.879   42.459    0.391    0.298
  564.000   31.551   44.221    0.389    0.299
  564.250   30.340   44.324    0.397    0.300
  564.500   29.756   44.402    0.400    0.303
  564.750   29.194   44.506    0.393    0.309
  565.000   29.216   43.789    0.382    0.312
  565.250   28.655   43.891    0.379    0.313
  565.500   28.677   44.845    0.386    0.316
  565.750   28.732   44.976    0.411    0.317
  566.000   28.765   45.029    0.418    0.311
  566.250   29.437   45.160    0.412    0.306
  566.500   29.481   45.239    0.400    0.306
  566.750   29.536   46.250    0.392    0.303
  567.000   30.208   46.331    0.390    0.297
  567.250   31.519   46.439    0.390    0.296
  567.500   31.541   46.548    0.386    0.303
  567.750   32.213   47.504    0.387    0.289
  568.000   32.257   48.536    0.391    0.290
  568.250   33.568   46.012    0.388    0.290
  568.500   35.495   41.230    0.386    0.287
  568.750   38.679   34.962    0.386    0.285
  569.000   42.479   29.102    0.387    0.293
  569.250   50.068   24.223    0.388    0.297
  569.500   57.018   20.163    0.399    0.293
  569.750   60.213   18.406    0.411    0.282
  570.000   57.118   17.439    0.384    0.268
  570.250   54.639   15.065    0.390    0.248
  570.500   55.322   13.266    0.393    0.253
  570.750   57.250   12.118    0.385    0.257
  571.000   59.178   11.703    0.374    0.257
  571.250   61.733   11.514    0.378    0.241
  571.500   63.022   11.985    0.391    0.242
  571.750   65.577   12.454    0.395    0.247
  572.000   67.527   13.706    0.394    0.254
  572.250   67.571   14.525    0.397    0.259
  572.500   66.359   14.291    0.400    0.261
  572.750   65.776   13.548    0.402    0.258
  573.000   65.809   13.572    0.396    0.255
  573.250   67.120   11.725    0.385    0.249
  573.500   69.047    9.580    0.371    0.242
  573.750   70.336    8.123    0.374    0.234
  574.000   72.263    7.696    0.384    0.225
  574.250   75.458    7.868    0.392    0.216
  574.500   72.363    7.882    0.394    0.195
  574.750   70.523    7.339    0.391    0.174
  575.000   71.195    7.212    0.390    0.209
  575.250   73.751    6.965    0.384    0.220
  575.500   73.817    6.986    0.371    0.239
  575.750   73.211    7.002    0.366    0.233
  576.000   73.244    7.014    0.371    0.223
  576.250   72.671    7.167    0.375    0.210
  576.500   72.088    7.322    0.378    0.205
  576.750   72.143    7.340    0.374    0.218
  577.000   72.176    7.352    0.373    0.220
  577.250   72.220    7.374    0.372    0.199
  577.500   72.264    7.395    0.363    0.191
  577.750   71.669    7.404    0.360    0.201
  578.000   69.841    7.702    0.359    0.213
  578.250   69.268    8.022    0.372    0.228
