~VERSION INFORMATION
 VERS.                 2.0:   CWLS LOG ASCII STANDARD -VERSION 2.0
 WRAP.                  NO:   ONE LINE PER DEPTH STEP
~WELL INFORMATION BLOCK
#MNEM.UNIT           DATA                    DESCRIPTION OF MNEMONIC
#---------    -------------------            -------------------------------
# Generated from Intellog Unique Number	CS_77_79/WELL/908
LOC .         AA/07-26-077-08W4/0            : Location     - LOCATION
UWI .         AA/07-26-077-08W4/0            : Uwi          - UNIQUE WELL ID
ENTR.         SP                             : Entered      - ENTERED BY
SRVC.         SCHLUMBERGER                   : Scn          - SERVICE COMPANY
STRT.M        120                            : top_depth    - START DEPTH
STOP.M        355                            : bot_depth    - STOP DEPTH
STEP.M        0.25                           : increment    - STEP LENGTH
 NULL. -999.2500:NULL Value
~CURVE INFORMATION BLOCK
#MNEM UNIT       ERCB CURVE CODE    CURVE DESCRIPTION
#-----------   ------------------   ----------------------------------
DEPT.M        00 001 00 00         : DEPTH        - DEPTH
ILD .OHMM     00 120 00 00         : RESD         - DEEP RESISTIVITY (DIL)
DPHI.V/V      00 890 00 00         : PHID         - DENSITY POROSITY (LIMESTONE)
NPHI.V/V      00 330 00 00         : PHIN         - NEUTRON POROSITY (LIMESTONE)
GR  .API      00 310 00 00         : GR           - GAMMA RAY
~PARAMETER INFORMATION
#MNEM.UNIT           DATA             DESCRIPTION OF MNEMONIC
#---------         -----------     ------------------------------
GL  .M        551.7                : gl           - GROUND LEVEL ELEVATION
EREF.M        555.2                : kb           - ELEVATION OF DEPTH REFERENCE
DATM.M        551.7                : datum        - DATUM ELEVATION
TDD .M        360                  : tdd          - TOTAL DEPTH DRILLER
RUN .         ONE                  : Run          - RUN NUMBER
ENG .         BILL                 : Engineer     - RECORDING ENGINEER
WIT .         JIM                  : Witness      - WITNESSED BY
MUD .         GEL                  : Mud_type     - MUD TYPE
MATR.         LIMESTONE            : Logunit      - NEUTRON MATRIX
TMAX.C        13                   : BHT          - MAXIMUM RECORDED TEMPERATURE
BHTD.M        360                  : BHTDEP       - MAXIMUM RECORDED TEMPERATURE
MATR.         1                    : LOGUNIT      - NEUTRON MATRIX
RMT .C        25                   : MDTP         - TEMPERATURE OF MUD
NEUT.         1                    : NEUTRON      - NEUTRON TYPE
RESI.         0                    : RESIST       - RESISTIVITY TYPE
RMC .OHMM     0.25                 : RMC          - RESISTIVITY OF MUD CAKE
RMF .OHMM     0.25                 : RMF          - RESISTIVITY OF MUD FILTRATE
SUFT.C        15                   : SUFT         - SURFACE TEMPERATURE
~A  DEPTH     RESD     PHID     PHIN       GR
# ...
  163.500   16.948    0.208    0.333   81.517
  163.750   15.718    0.208    0.337   84.610
  164.000   15.136    0.191    0.345   89.564
  164.250   13.776    0.171    0.350   98.237
  164.500   12.776    0.153    0.360   98.231
  164.750   11.411    0.165    0.374   93.268
  165.000    9.815    0.175    0.390   96.981
  165.250    9.275    0.184    0.379  102.554
  165.500    8.932    0.186    0.392  103.168
  165.750    8.441    0.185    0.399  108.121
  166.000    8.441    0.189    0.402  106.258
  166.250    8.440    0.195    0.395  102.532
  166.500    8.930    0.199    0.369  100.049
  166.750    9.810    0.203    0.353   95.085
  167.000   10.577    0.202    0.339   88.880
  167.250   11.403    0.201    0.343   96.934
  167.500   11.189    0.201    0.349   90.729
  167.750   10.980    0.225    0.366  101.880
  168.000   10.979    0.232    0.373  106.216
  168.250   11.187    0.238    0.374  106.208
  168.500   12.061    0.243    0.376  104.964
  168.750   12.761    0.238    0.368   96.902
  169.000   14.019    0.232    0.374   84.500
  169.250   14.556    0.236    0.369   83.255
  169.500   14.831    0.234    0.363   90.067
  169.750   14.554    0.228    0.375   88.823
  170.000   14.015    0.226    0.380   91.295
  170.250   13.753    0.221    0.373   93.152
  170.500   13.752    0.217    0.362   93.145
  170.750   13.495    0.220    0.354   98.099
  171.000   14.011    0.227    0.349   96.854
  171.250   14.548    0.228    0.346   91.270
  171.500   15.105    0.228    0.349   85.686
  171.750   15.104    0.228    0.349   81.962
  172.000   15.103    0.231    0.353   81.957
  172.250   15.102    0.240    0.342   82.572
  172.500   14.543    0.247    0.340   86.906
  172.750   13.487    0.247    0.358   85.661
  173.000   12.988    0.261    0.363   94.333
  173.250   12.045    0.266    0.369   89.369
  173.500   11.600    0.229    0.380   89.364
  173.750   11.170    0.191    0.367   87.499
  174.000   10.961    0.217    0.352   85.015
  174.250   11.169    0.225    0.342   78.811
  174.500   12.041    0.242    0.363   80.665
  174.750   15.671    0.247    0.345   74.462
  175.000   20.013    0.250    0.327   63.919
  175.250   23.264    0.258    0.332   55.857
  175.500   27.043    0.264    0.325   54.611
  175.750   29.709    0.267    0.319   56.465
  176.000   30.847    0.269    0.318   59.559
  176.250   32.637    0.271    0.315   59.553
  176.500   33.254    0.271    0.315   57.689
  176.750   33.252    0.272    0.320   56.444
  177.000   33.249    0.273    0.329   58.918
  177.250   33.248    0.276    0.326   57.053
  177.500   33.876    0.281    0.332   55.808
  177.750   34.517    0.281    0.337   53.944
  178.000   35.171    0.276    0.334   58.897
  178.250   35.836    0.277    0.348   58.892
  178.500   36.515    0.282    0.346   52.688
  178.750   36.513    0.287    0.346   47.724
  179.000   36.511    0.288    0.346   51.438
  179.250   36.509    0.283    0.346   54.532
  179.500   36.504    0.277    0.334   57.625
  179.750   36.502    0.277    0.319   58.241
  180.000   35.820    0.279    0.321   56.376
  180.250   35.150    0.279    0.333   59.469
  180.500   36.495    0.281    0.335   56.364
  180.750   35.812    0.282    0.333   52.020
  181.000   35.809    0.286    0.336   54.495
  181.250   35.806    0.289    0.350   54.489
  181.500   35.137    0.284    0.346   53.864
  181.750   35.134    0.286    0.335   54.479
  182.000   34.477    0.288    0.325   52.614
  182.250   34.476    0.288    0.328   54.468
  182.500   33.830    0.288    0.329   52.604
  182.750   33.827    0.288    0.351   57.557
  183.000   33.826    0.289    0.339   60.032
  183.250   33.193    0.289    0.339   56.306
  183.500   32.570    0.289    0.331   58.161
  183.750   32.569    0.289    0.346   55.056
  184.000   32.566    0.288    0.350   57.530
  184.250   33.183    0.288    0.355   59.385
  184.500   33.811    0.288    0.359   61.858
  184.750   34.451    0.287    0.348   65.572
  185.000   32.558    0.287    0.344   69.286
  185.250   33.173    0.290    0.343   61.223
  185.500   33.172    0.291    0.340   55.638
  185.750   33.170    0.292    0.340   56.253
  186.000   33.168    0.292    0.339   58.108
  186.250   33.166    0.295    0.344   57.483
  186.500   33.163    0.300    0.360   59.957
  186.750   33.160    0.303    0.365   63.051
  187.000   32.540    0.307    0.369   61.805
  187.250   32.537    0.307    0.366   61.181
  187.500   32.535    0.307    0.361   61.795
  187.750   32.534    0.306    0.365   63.030
  188.000   32.531    0.305    0.361   60.546
  188.250   32.529    0.303    0.356   61.160
  188.500   32.527    0.301    0.345   57.436
  188.750   32.524    0.297    0.347   56.810
  189.000   32.523    0.292    0.349   54.946
  189.250   31.914    0.285    0.359   55.560
  189.500   31.912    0.282    0.355   57.414
  189.750   31.910    0.280    0.355   59.269
  190.000   32.513    0.286    0.358   56.165
  190.250   32.511    0.286    0.359   56.779
  190.500   32.510    0.290    0.356   59.873
  190.750   32.507    0.294    0.352   64.206
  191.000   32.505    0.295    0.355   64.201
  191.250   31.896    0.294    0.365   62.955
  191.500   30.716    0.295    0.365   59.231
  191.750   30.140    0.295    0.366   59.227
  192.000   29.577    0.296    0.370   56.741
  192.250   29.023    0.297    0.379   58.596
  192.500   29.021    0.299    0.380   61.690
  192.750   29.020    0.301    0.378   61.062
  193.000   28.476    0.301    0.371   60.439
  193.250   28.474    0.301    0.371   61.053
  193.500   28.473    0.301    0.375   59.188
  193.750   28.470    0.302    0.375   56.085
  194.000   28.469    0.302    0.375   51.121
  194.250   28.466    0.304    0.371   50.496
  194.500   27.934    0.305    0.363   49.871
  194.750   27.931    0.305    0.352   53.584
  195.000   27.930    0.309    0.342   56.678
  195.250   27.928    0.310    0.347   57.293
  195.500   27.927    0.314    0.362   61.007
  195.750   27.924    0.318    0.363   59.141
  196.000   27.402    0.320    0.363   56.038
  196.250   27.399    0.317    0.367   53.553
  196.500   27.397    0.302    0.362   51.689
  196.750   27.395    0.291    0.368   54.782
  197.000   27.394    0.289    0.372   53.538
  197.250   27.391    0.290    0.370   53.532
  197.500   27.390    0.298    0.369   54.147
  197.750   27.909    0.300    0.369   54.761
  198.000   27.906    0.303    0.368   53.515
  198.250   27.384    0.301    0.374   51.031
  198.500   27.383    0.298    0.366   52.264
  198.750   27.381    0.296    0.372   52.880
  199.000   26.868    0.295    0.375   54.735
  199.250   26.866    0.296    0.377   55.349
  199.500   26.364    0.299    0.380   58.442
  199.750   25.871    0.300    0.387   53.478
  200.000   25.387    0.300    0.389   52.235
  200.250   24.911    0.299    0.380   57.808
  200.500   24.909    0.298    0.368   59.041
  200.750   24.907    0.298    0.373   60.276
  201.000   24.906    0.299    0.376   62.129
  201.250   24.440    0.297    0.380   56.546
  201.500   24.438    0.293    0.378   57.780
  201.750   24.437    0.290    0.368   59.632
  202.000   24.435    0.289    0.363   58.391
  202.250   24.433    0.289    0.367   59.005
  202.500   24.896    0.292    0.364   55.281
  202.750   24.894    0.298    0.360   58.994
  203.000   24.893    0.300    0.361   64.567
  203.250   24.890    0.313    0.367   59.602
  203.500   25.362    0.318    0.373   58.359
  203.750   25.360    0.319    0.377   57.114
  204.000   25.840    0.311    0.379   61.447
  204.250   26.329    0.290    0.372   65.779
  204.500   26.328    0.283    0.361   67.634
  204.750   26.326    0.282    0.344   63.290
  205.000   26.824    0.279    0.361   64.525
  205.250   26.822    0.278    0.377   63.280
  205.500   26.820    0.274    0.376   62.654
  205.750   26.818    0.272    0.387   65.749
  206.000   26.317    0.272    0.402   70.702
  206.250   20.604    0.288    0.420   75.654
  206.500   14.408    0.299    0.430   81.228
  206.750   11.935    0.292    0.430   90.521
