~VERSION INFORMATION
 VERS.                 2.0:   CWLS LOG ASCII STANDARD -VERSION 2.0
 WRAP.                  NO:   ONE LINE PER DEPTH STEP
~WELL INFORMATION BLOCK
#MNEM.UNIT           DATA                    DESCRIPTION OF MNEMONIC
#---------    -------------------            -------------------------------
# Generated from Intellog Unique Number	CN_94_101/WELL/3250
WELL.         06-31-096-10W4                 : Well_name    - WELL
LOC .         AA/06-31-096-10W4/0            : Location     - LOCATION
UWI .         AA/06-31-096-10W400            : Uwi          - UNIQUE WELL ID
ENTR.         JOETTE                         : Entered      - ENTERED BY
SRVC.         SCHLUMBERGER                   : Scn          - SERVICE COMPANY
DATE.         07/20/92                       : Date         - LOG DATE
STRT.M        10                             : top_depth    - START DEPTH
STOP.M        130                            : bot_depth    - STOP DEPTH
STEP.M        0.25                           : increment    - STEP LENGTH
 NULL. -999.2500:NULL Value
~CURVE INFORMATION BLOCK
#MNEM UNIT       ERCB CURVE CODE    CURVE DESCRIPTION
#-----------   ------------------   ----------------------------------
DEPT.M        00 001 00 00         : DEPTH        - DEPTH
GR  .API      00 310 00 00         : GR           - GAMMA RAY
ILD .OHMM     00 120 00 00         : RESD         - DEEP RESISTIVITY (DIL)
NPHI.V/V      00 330 00 00         : PHIN         - NEUTRON POROSITY (SANDSTONE)
DPHI.V/V      00 890 00 00         : PHID         - DENSITY POROSITY (SANDSTONE)
~PARAMETER INFORMATION
#MNEM.UNIT           DATA             DESCRIPTION OF MNEMONIC
#---------         -----------     ------------------------------
GL  .M        0                    : gl           - GROUND LEVEL ELEVATION
EREF.M        0                    : kb           - ELEVATION OF DEPTH REFERENCE
DATM.M        0                    : datum        - DATUM ELEVATION
TDD .M        134                  : tdd          - TOTAL DEPTH DRILLER
RUN .         ONE                  : Run          - RUN NUMBER
ENG .         JO                   : Engineer     - RECORDING ENGINEER
WIT .         TIM                  : Witness      - WITNESSED BY
MUD .         GEL                  : Mud_type     - MUD TYPE
MATR.         SANDSTONE            : Logunit      - NEUTRON MATRIX
TMAX.C        0                    : BHT          - MAXIMUM RECORDED TEMPERATURE
BHTD.M        134                  : BHTDEP       - MAXIMUM RECORDED TEMPERATURE
RMT .C        0                    : MDTP         - TEMPERATURE OF MUD
MUDD.KG/M     1000                 : MWT          - MUD DENSITY
NEUT.         1                    : NEUTRON      - NEUTRON TYPE
RESI.         0                    : RESIST       - RESISTIVITY TYPE
RM  .OHMM     5.2                  : RM           - RESISTIVITY OF MUD
RMC .OHMM     5.2                  : RMC          - RESISTIVITY OF MUD CAKE
RMF .OHMM     5.2                  : RMF          - RESISTIVITY OF MUD FILTRATE
SUFT.C        4                    : SUFT         - SURFACE TEMPERATURE
~A  DEPTH       GR     RESD     PHIN     PHID
# ...
   53.500   95.502   19.172    0.407    0.208
   53.750   92.528   29.830    0.400    0.222
   54.000   81.108   31.633    0.408    0.224
   54.250   82.382   32.925    0.427    0.227
   54.500   73.967   32.358    0.462    0.256
   54.750   52.875   71.037    0.483    0.273
   55.000   37.206  207.760    0.498    0.255
   55.250   39.705  208.128    0.486    0.284
   55.500   44.590  117.471    0.404    0.282
   55.750   67.641   71.541    0.418    0.269
   56.000   77.394   42.764    0.413    0.267
   56.250   98.649   33.409    0.410    0.250
   56.500   90.218   38.984    0.410    0.238
   56.750   87.260   49.150    0.464    0.249
   57.000   94.595   17.861    0.427    0.224
   57.250   85.576   25.732    0.397    0.215
   57.500   59.632   39.279    0.401    0.213
   57.750   53.047   45.853    0.416    0.222
   58.000   76.703   45.065    0.433    0.246
   58.250   91.897   39.488    0.435    0.248
   58.500   91.357   35.270    0.449    0.239
   58.750   75.084   36.014    0.437    0.233
   59.000   72.126   48.065    0.434    0.225
   59.250   71.587   57.219    0.426    0.225
   59.500   57.127   39.839    0.425    0.224
   59.750   71.128   64.433    0.417    0.226
   60.000   71.193   54.316    0.438    0.253
   60.250   66.405   47.574    0.459    0.277
   60.500   61.030   44.148    0.423    0.269
   60.750   57.468   52.556    0.435    0.244
   61.000   72.644  179.123    0.387    0.223
   61.250   95.696   71.623    0.403    0.222
   61.500   96.986   16.757    0.420    0.258
   61.750   95.221   22.375    0.433    0.232
   62.000  100.138   19.984    0.428    0.213
   62.250  112.897   14.736    0.396    0.208
   62.500  111.148   11.961    0.415    0.216
   62.750   96.705   21.698    0.403    0.204
   63.000   79.828   26.305    0.412    0.199
   63.250   82.932   29.582    0.474    0.211
   63.500   73.913   26.399    0.451    0.228
   63.750   68.537   80.254    0.464    0.247
   64.000   91.589   68.990    0.515    0.253
   64.250   93.467   39.673    0.406    0.263
   64.500   83.860   27.112    0.430    0.231
   64.750   77.259   34.825    0.487    0.224
   65.000   70.674   44.734    0.463    0.244
   65.250   89.511   49.332    0.488    0.256
   65.500   83.514   44.893    0.544    0.273
   65.750   75.704   44.179    0.484    0.261
   66.000   80.033   44.218    0.433    0.259
   66.250   80.686   44.297    0.431    0.259
   66.500   79.542   42.710    0.399    0.260
   66.750   77.189   45.312    0.396    0.255
   67.000   66.356   85.362    0.425    0.230
   67.250   73.675   76.209    0.394    0.190
   67.500   85.241   36.212    0.328    0.101
   67.750   85.911   27.217    0.386    0.091
   68.000   90.207   26.242    0.402    0.189
   68.250   74.555   17.933    0.408    0.221
   68.500   63.722   23.934    0.430    0.233
   68.750   78.311   12.044    0.405    0.227
   69.000   85.025   17.023    0.427    0.235
   69.250   86.904   22.299    0.483    0.227
   69.500   82.132   21.084    0.515    0.235
   69.750   75.548   29.826    0.463    0.228
   70.000   73.799   19.600    0.472    0.231
   70.250   82.327   11.494    0.485    0.229
   70.500   86.639    8.980    0.455    0.235
   70.750   73.389   14.510    0.435    0.241
   71.000   57.721   13.726    0.457    0.254
   71.250   55.367   23.054    0.445    0.252
   71.500   57.850   26.913    0.449    0.248
   71.750   73.060   28.012    0.434    0.253
   72.000   65.854   22.738    0.453    0.261
   72.250   81.652   18.813    0.468    0.275
   72.500   82.926   13.615    0.448    0.273
   72.750   92.662   18.522    0.480    0.260
   73.000   92.727   12.902    0.485    0.248
   73.250   88.560   11.086    0.495    0.236
   73.500   89.834   11.320    0.485    0.223
   73.750   98.378   19.022    0.462    0.236
   74.000   82.105   18.333    0.458    0.235
   74.250   72.498   17.341    0.461    0.225
   74.500   82.251   14.625    0.459    0.231
   74.750   82.904   20.280    0.490    0.229
   75.000   81.776    9.454    0.474    0.240
   75.250   88.490   10.425    0.452    0.221
   75.500   89.780   10.646    0.473    0.222
   75.750   98.896   11.294    0.459    0.226
   76.000  101.983    8.015    0.450    0.213
   76.250   99.025    7.297    0.440    0.222
   76.500   77.917    9.739    0.470    0.219
   76.750   65.287   21.793    0.455    0.152
   77.000   78.651   13.021    0.388    0.115
   77.250   82.359   14.087    0.412    0.193
   77.500   78.780   12.820    0.400    0.242
   77.750   73.405    9.102    0.458    0.239
   78.000   62.589   18.160    0.443    0.221
   78.250   54.174   19.266    0.466    0.191
   78.500   79.072   21.237    0.450    0.194
   78.750   79.741   22.114    0.456    0.229
   79.000   79.185   25.326    0.431    0.252
   79.250   72.584   23.957    0.410    0.245
   79.500   66.604   29.618    0.446    0.235
   79.750   84.215   60.232    0.461    0.240
   80.000   75.817   44.433    0.439    0.271
   80.250   63.172   34.041    0.447    0.281
   80.500   60.214   22.390    0.453    0.267
   80.750   60.883   74.863    0.500    0.273
   81.000   74.263   42.254    0.450    0.298
   81.250   70.096   75.129    0.397    0.289
   81.500   46.569   73.869    0.409    0.258
   81.750   46.634   81.425    0.441    0.247
   82.000   50.326   45.937    0.499    0.255
   82.250   45.555  300.106    0.458    0.275
   82.500   38.366  378.359    0.468    0.271
   82.750   34.199  337.789    0.501    0.299
   83.000   39.704  258.902    0.490    0.310
   83.250   50.045   57.197    0.491    0.324
   83.500   53.132   79.347    0.496    0.296
   83.750   53.213   48.323    0.467    0.289
   84.000   50.239   96.410    0.436    0.280
   84.250   46.089   81.309    0.477    0.269
   84.500   55.826   84.629    0.483    0.268
   84.750   69.794   70.022    0.467    0.302
   85.000   72.897   41.837    0.447    0.324
   85.250   61.460   24.069    0.438    0.244
   85.500   55.480   80.478    0.445    0.221
   85.750   56.149   82.178    0.413    0.222
   86.000   65.281   57.242    0.387    0.201
   86.250   75.639   49.208    0.435    0.202
   86.500   68.450   31.137    0.460    0.242
   86.750   55.199   25.275    0.440    0.238
   87.000   48.026   62.232    0.466    0.249
   87.250   51.097   78.459    0.487    0.291
   87.500   73.545  144.942    0.454    0.301
   87.750   83.281   86.638    0.441    0.306
   88.000   61.568  157.089    0.431    0.291
   88.250   50.752  249.030    0.469    0.279
   88.500   61.126  101.544    0.477    0.311
   88.750   56.926   52.040    0.449    0.325
   89.000   43.692   66.876    0.503    0.311
   89.250   42.548  108.065    0.518    0.306
   89.500   42.008  199.811    0.477    0.303
   89.750   43.887  171.692    0.458    0.303
   90.000   42.742  139.366    0.458    0.301
   90.250   45.241  108.881    0.447    0.322
   90.500   36.827  312.411    0.450    0.322
   90.750   30.242  358.112    0.473    0.320
   91.000   26.680  332.179    0.471    0.313
   91.250   32.806  269.518    0.482    0.322
   91.500   37.691  138.186    0.452    0.350
   91.750   46.234   70.850    0.452    0.342
   92.000   57.180   68.343    0.509    0.301
   92.250   59.058   35.041    0.495    0.266
   92.500   57.914   76.924    0.473    0.255
   92.750   68.271   45.961    0.482    0.240
   93.000   63.484   56.822    0.503    0.270
   93.250   59.317   61.476    0.496    0.297
   93.500   52.733   50.864    0.485    0.314
   93.750   51.605  105.390    0.531    0.303
   94.000   47.422  173.663    0.539    0.314
   94.250   48.695   74.961    0.449    0.310
   94.500   71.142   31.142    0.437    0.285
   94.750   80.879   28.352    0.442    0.235
   95.000   56.144   62.242    0.480    0.230
   95.250   73.755   93.169    0.525    0.230
   95.500   64.148   18.360    0.499    0.282
   95.750   73.884   24.039    0.485    0.281
   96.000   90.891   14.923    0.456    0.262
   96.250   59.506   22.779    0.432    0.268
   96.500   46.860   50.007    0.443    0.255
   96.750   38.462   82.402    0.456    0.234
