~VERSION INFORMATION
 VERS.                 2.0:   CWLS LOG ASCII STANDARD -VERSION 2.0
 WRAP.                  NO:   ONE LINE PER DEPTH STEP
~WELL INFORMATION BLOCK
#MNEM.UNIT           DATA                    DESCRIPTION OF MNEMONIC
#---------    -------------------            -------------------------------
# Generated from Intellog Unique Number	CC_84_87/WELL/2615
WELL.         HUDSON BAY OIL                 : Well_name    - WELL
LOC .         AA/07-18-087-10W4/0            : Location     - LOCATION
UWI .         AA/07-18-087-10W400            : Uwi          - UNIQUE WELL ID
ENTR.         TIM                            : Entered      - ENTERED BY
SRVC.         SCHLUMBERGER                   : Scn          - SERVICE COMPANY
DATE.         01\13\92                       : Date         - LOG DATE
STRT.M        30.48                          : top_depth    - START DEPTH
STOP.M        170.73                         : bot_depth    - STOP DEPTH
STEP.M        0.25                           : increment    - STEP LENGTH
 NULL. -999.2500:NULL Value
~CURVE INFORMATION BLOCK
#MNEM UNIT       ERCB CURVE CODE    CURVE DESCRIPTION
#-----------   ------------------   ----------------------------------
DEPT.M        00 001 00 00         : DEPTH        - DEPTH
NPHI.V/V      00 330 00 00         : PHIN         - NEUTRON POROSITY (SANDSTONE)
GR  .API      00 310 00 00         : GR           - GAMMA RAY
ILD .OHMM     00 120 00 00         : RESD         - DEEP RESISTIVITY (DIL)
~PARAMETER INFORMATION
#MNEM.UNIT           DATA             DESCRIPTION OF MNEMONIC
#---------         -----------     ------------------------------
GL  .M        426.933              : gl           - GROUND LEVEL ELEVATION
EREF.M        426.933              : kb           - ELEVATION OF DEPTH REFERENCE
DATM.M        426.933              : datum        - DATUM ELEVATION
TDD .M        172.212              : tdd          - TOTAL DEPTH DRILLER
RUN .         ONE                  : Run          - RUN NUMBER
ENG .         JO                   : Engineer     - RECORDING ENGINEER
WIT .         TIM                  : Witness      - WITNESSED BY
MUD .         GEL                  : Mud_type     - MUD TYPE
MATR.         SANDSTONE            : Logunit      - NEUTRON MATRIX
TMAX.C        21.1111              : BHT          - MAXIMUM RECORDED TEMPERATURE
BHTD.M        172.212              : BHTDEP       - MAXIMUM RECORDED TEMPERATURE
RMT .C        18                   : MDTP         - TEMPERATURE OF MUD
MUDD.KG/M     9083.33              : MWT          - MUD DENSITY
NEUT.         1                    : NEUTRON      - NEUTRON TYPE
RESI.         0                    : RESIST       - RESISTIVITY TYPE
RM  .OHMM     7.3                  : RM           - RESISTIVITY OF MUD
RMC .OHMM     7.3                  : RMC          - RESISTIVITY OF MUD CAKE
RMF .OHMM     7.3                  : RMF          - RESISTIVITY OF MUD FILTRATE
SUFT.C        4                    : SUFT         - SURFACE TEMPERATURE
~A  DEPTH     PHIN       GR     RESD
# ...
   84.730    0.451  168.203    7.928
   84.980    0.451  166.575    7.582
   85.230    0.459  166.033    7.237
   85.480    0.462  169.836    6.539
   85.730    0.459  174.725    6.199
   85.980    0.451  179.615    5.864
   86.230    0.433  180.159    5.881
   86.480    0.421  171.470    6.991
   86.730    0.422  163.867    9.914
   86.980    0.424  156.808   10.310
   87.230    0.428  168.758    9.958
   87.480    0.436  174.733    9.261
   87.730    0.438  173.648    8.926
   87.980    0.435  167.675    8.586
   88.230    0.433  165.503    8.614
   88.480    0.427  166.591    8.625
   88.730    0.425  161.704    9.735
   88.980    0.421  154.644   11.938
   89.230    0.421  158.447   15.224
   89.480    0.417  164.423   15.246
   89.730    0.413  165.510   14.543
   89.980    0.408  164.425   11.665
   90.230    0.401  163.883   12.418
   90.480    0.395  160.082   13.885
   90.730    0.389  155.739   16.094
   90.980    0.387  156.282   16.479
   91.230    0.386  154.654   17.589
   91.480    0.405  153.569   19.419
   91.730    0.406  157.372   17.990
   91.980    0.402  162.805   14.030
   92.230    0.397  163.892   14.052
   92.480    0.394  161.721   12.267
   92.730    0.397  159.550   15.552
   92.980    0.406  162.809   13.031
   93.230    0.416  169.328   10.878
   93.480    0.414  175.847   11.263
   93.730    0.410  173.132   13.098
   93.980    0.401  167.702   15.301
   94.230    0.397  160.099   16.774
   94.480    0.400  155.755   17.521
   94.730    0.401  152.498   17.192
   94.980    0.401  150.870   17.209
   95.230    0.391  149.241   16.874
   95.480    0.372  145.983   18.347
   95.730    0.359  142.726   20.539
   95.980    0.363  137.296   19.473
   96.230    0.365  138.383   17.326
   96.480    0.365  143.816   18.073
   96.730    0.366  141.644   19.540
   96.980    0.367  139.473   19.206
   97.230    0.369  138.931   17.052
   97.480    0.372  140.018   14.542
   97.730    0.388  138.390   14.932
   97.980    0.397  137.848   15.306
   98.230    0.397  141.651   14.966
   98.480    0.397  149.256   12.818
   98.730    0.398  172.069   12.121
   98.980    0.403  173.156   12.137
   99.230    0.404  173.701   11.803
   99.480    0.407  174.245   11.825
   99.730    0.410  174.246   12.572
   99.980    0.403  171.531   14.039
  100.230    0.392  163.929   16.611
  100.480    0.387  149.808   17.721
  100.730    0.386  140.033   17.738
  100.980    0.392  136.775   15.585
  101.230    0.408  137.319   13.794
  101.480    0.440  142.209   10.915
  101.730    0.452  149.271    8.762
  101.980    0.462  153.617    6.252
  102.230    0.465  161.765    5.186
  102.480    0.463  166.655    5.214
  102.730    0.459  168.829    5.593
  102.980    0.452  169.916    6.346
  103.230    0.423  165.572    7.819
  103.480    0.412  159.055    9.292
  103.730    0.407  142.219   10.764
  103.980    0.403  135.703   12.594
  104.230    0.400  136.790   14.078
  104.480    0.398  140.050   13.732
  104.730    0.394  144.396   13.040
  104.980    0.389  148.742   13.051
  105.230    0.380  148.200   12.711
  105.480    0.371  145.486   14.546
  105.730    0.371  141.142   20.738
  105.980    0.373  138.970   16.047
  106.230    0.369  146.032   15.344
  106.480    0.351  144.404   20.080
  106.730    0.354  141.147   26.634
  106.980    0.376  146.036   19.404
  107.230    0.403  155.813   16.520
  107.480    0.424  163.961   12.917
  107.730    0.465  153.643    8.962
  107.980    0.459  147.670    6.078
  108.230    0.447  139.524    4.287
  108.480    0.429  134.637    5.403
  108.730    0.435  128.663    7.238
  108.980    0.437  135.182    8.711
  109.230    0.434  139.529    9.452
  109.480    0.430  139.530    7.305
  109.730    0.419  140.074    6.964
  109.980    0.400  136.816    8.074
  110.230    0.395  133.559    9.184
  110.480    0.393  130.844    9.932
  110.730    0.392  128.673    9.960
  110.980    0.392  129.217    9.257
  111.230    0.390  133.020   11.455
  111.480    0.384  131.935   12.927
  111.730    0.377  131.393    6.423
  111.980    0.389  135.196    6.088
  112.230    0.417  142.258    6.116
  112.480    0.442  147.690    6.127
  112.730    0.467  147.149    6.155
  112.980    0.465  147.149    6.172
  113.230    0.460  147.693    6.205
  113.480    0.457  150.411    6.227
  113.730    0.446  154.214    6.612
  113.980    0.447  155.844    6.635
  114.230    0.448  153.673    6.657
  114.480    0.448  152.587    7.042
  114.730    0.444  153.675    7.064
  114.980    0.441  155.849    7.086
  115.230    0.431  157.480    7.482
  115.480    0.422  159.653    7.493
  115.730    0.424  162.370    7.516
  115.980    0.430  163.457    7.538
  116.230    0.433  163.458    7.198
  116.480    0.437  166.175    6.506
  116.730    0.445  169.436    6.522
  116.980    0.450  170.522    6.545
  117.230    0.455  172.696    8.386
  117.480    0.446  174.870   11.303
  117.730    0.432  172.698   18.220
  117.980    0.420  156.948   17.880
  118.230    0.397  143.914   16.095
  118.480    0.382  121.104   20.462
  118.730    0.367  110.242   35.719
  118.980    0.353   96.665   36.467
  119.230    0.332   89.062   28.149
  119.480    0.342  118.393   18.381
  119.730    0.382  123.282   14.421
  119.980    0.380  126.542   15.163
  120.230    0.377  127.630   23.525
  120.480    0.358  126.544   24.640
  120.730    0.383  134.693   21.762
  120.980    0.398  140.668   19.246
  121.230    0.397  139.583   21.081
  121.480    0.370  134.696   25.092
  121.730    0.258  108.083   34.184
  121.980    0.154   87.989   94.045
  122.230    0.163   76.584   91.898
  122.480    0.197   89.620   63.995
  122.730    0.282  101.027   54.584
  122.980    0.321  111.891   40.465
  123.230    0.359  122.212   23.078
  123.480    0.377  124.386   15.123
  123.730    0.403  128.189   11.882
  123.980    0.401  130.905   11.179
  124.230    0.365  129.277   13.377
  124.480    0.337  123.304   17.756
  124.730    0.289  118.960   27.568
  124.980    0.241  116.788   51.527
  125.230    0.270  112.988   43.572
  125.480    0.289  118.420   29.091
  125.730    0.300  127.655   26.212
  125.980    0.270  127.656   26.597
  126.230    0.258  124.941   29.883
  126.480    0.234  120.597   34.987
  126.730    0.241  117.339   38.635
  126.980    0.297  119.513   38.300
  127.230    0.316  123.859   34.328
  127.480    0.332  126.576   29.637
  127.730    0.347  128.207   24.583
  127.980    0.359  133.096   20.617
  128.230    0.370  139.615   17.744
  128.480    0.374  143.418   16.316
  128.730    0.376  145.049   15.970
  128.980    0.376  147.222   16.355
  129.230    0.374  145.051   20.009
  129.480    0.370  140.707   18.949
  129.730    0.364  135.820   17.878
  129.980    0.356  132.019   20.081
  130.230    0.357  132.020   19.372
  130.480    0.359  132.022   17.219
  130.730    0.364  131.479   15.429
  130.980    0.367  131.480   15.813
  131.230    0.371  130.395   22.005
  131.480    0.364  126.594   29.642
  131.730    0.352  121.164   29.302
  131.980    0.358  123.338   27.522
  132.230    0.370  127.141   26.088
  132.480    0.369  130.401   24.298
  132.730    0.367  129.859   27.583
  132.980    0.363  128.231   29.781
  133.230    0.361  127.145   25.090
  133.480    0.357  126.603   24.387
  133.730    0.354  130.950   27.321
  133.980    0.358  135.839   26.986
  134.230    0.360  141.815   27.360
  134.480    0.357  138.014   28.470
  134.730    0.353  134.756   25.592
  134.980    0.351  132.042   20.900
  135.230    0.362  132.043   19.472
  135.480    0.371  132.587   23.845
  135.730    0.365  131.502   27.867
  135.980    0.361  128.245   27.890
  136.230    0.357  126.073   28.637
  136.480    0.349  124.445   29.379
  136.730    0.342  123.360   35.571
  136.980    0.347  122.818   30.154
  137.230    0.350  119.017   26.556
  137.480    0.349  117.932   24.760
  137.730    0.348  121.735   28.408
  137.980    0.344  127.710   30.968
  138.230    0.338  139.117   34.260
  138.480    0.328  148.895   28.475
  138.730    0.340  158.672   27.052
