~VERSION INFORMATION
 VERS.                 2.0:   CWLS LOG ASCII STANDARD -VERSION 2.0
 WRAP.                  NO:   ONE LINE PER DEPTH STEP
~WELL INFORMATION BLOCK
#MNEM.UNIT           DATA                    DESCRIPTION OF MNEMONIC
#---------    -------------------            -------------------------------
# Generated from Intellog Unique Number	CN_94_101/WELL/2348
WELL.         01-06-098-10W4                 : Well_name    - WELL
LOC .         AA/01-06-098-10W4/0            : Location     - LOCATION
UWI .         AA/01-06-098-10W400            : Uwi          - UNIQUE WELL ID
ENTR.         TIM                            : Entered      - ENTERED BY
SRVC.         SCHLUMBERGER                   : Scn          - SERVICE COMPANY
DATE.         08/13/92                       : Date         - LOG DATE
STRT.M        0                              : top_depth    - START DEPTH
STOP.M        75                             : bot_depth    - STOP DEPTH
STEP.M        0.25                           : increment    - STEP LENGTH
 NULL. -999.2500:NULL Value
~CURVE INFORMATION BLOCK
#MNEM UNIT       ERCB CURVE CODE    CURVE DESCRIPTION
#-----------   ------------------   ----------------------------------
DEPT.M        00 001 00 00         : DEPTH        - DEPTH
DPHI.V/V      00 890 00 00         : PHID         - DENSITY POROSITY (SANDSTONE)
NPHI.V/V      00 330 00 00         : PHIN         - NEUTRON POROSITY (SANDSTONE)
ILD .OHMM     00 120 00 00         : RESD         - DEEP RESISTIVITY (DIL)
GR  .API      00 310 00 00         : GR           - GAMMA RAY
~PARAMETER INFORMATION
#MNEM.UNIT           DATA             DESCRIPTION OF MNEMONIC
#---------         -----------     ------------------------------
GL  .M        253.64               : gl           - GROUND LEVEL ELEVATION
EREF.M        253.64               : kb           - ELEVATION OF DEPTH REFERENCE
DATM.M        253.64               : datum        - DATUM ELEVATION
TDD .M        79.2                 : tdd          - TOTAL DEPTH DRILLER
RUN .         ONE                  : Run          - RUN NUMBER
ENG .         JO                   : Engineer     - RECORDING ENGINEER
WIT .         TIM                  : Witness      - WITNESSED BY
MUD .         GEL                  : Mud_type     - MUD TYPE
MATR.         SANDSTONE            : Logunit      - NEUTRON MATRIX
TMAX.C        10                   : BHT          - MAXIMUM RECORDED TEMPERATURE
BHTD.M        79.2                 : BHTDEP       - MAXIMUM RECORDED TEMPERATURE
RMT .C        10                   : MDTP         - TEMPERATURE OF MUD
MUDD.KG/M     1000                 : MWT          - MUD DENSITY
NEUT.         1                    : NEUTRON      - NEUTRON TYPE
RESI.         0                    : RESIST       - RESISTIVITY TYPE
RM  .OHMM     15                   : RM           - RESISTIVITY OF MUD
RMC .OHMM     15                   : RMC          - RESISTIVITY OF MUD CAKE
RMF .OHMM     15                   : RMF          - RESISTIVITY OF MUD FILTRATE
SUFT.C        4                    : SUFT         - SURFACE TEMPERATURE
~A  DEPTH     PHID     PHIN     RESD       GR
    0.000    0.353    0.584   11.604   55.945
    0.250    0.355    0.532   11.130   54.101
    0.500    0.355    0.529   10.829   53.521
    0.750    0.354    0.529   10.837   54.170
    1.000    0.350    0.533   10.695   56.062
    1.250    0.341    0.542   10.557   58.568
    1.500    0.278    0.549   10.571   62.946
    1.750    0.135    0.554   10.577   70.438
    2.000    0.080    0.541   10.441   71.708
    2.250    0.066    0.545   10.306   77.322
    2.500    0.052    0.554   10.312   91.642
    2.750    0.026    0.560   10.323  111.564
    3.000    0.020    0.567   10.788  117.191
    3.250    0.021    0.558   11.433  114.111
    3.500    0.025    0.541   12.117  109.781
    3.750    0.027    0.530   13.790  103.594
    4.000    0.034    0.532   20.286  103.621
    4.250    0.051    0.536   44.494  110.485
    4.500    0.082    0.538   72.343  114.241
    4.750    0.101    0.543   80.040  106.811
    5.000    0.135    0.552   82.419  108.703
    5.250    0.152    0.560   84.892  116.188
    5.500    0.201    0.569   87.462  124.922
    5.750    0.250    0.578   88.811  123.700
    6.000    0.318    0.585   90.204  126.842
    6.250    0.334    0.592   89.021  131.841
    6.500    0.328    0.592   87.852  124.410
    6.750    0.330    0.585   84.262  115.731
    7.000    0.346    0.571   78.547  103.950
    7.250    0.364    0.559   72.164  103.978
    7.500    0.374    0.519   64.453  119.555
    7.750    0.371    0.498   60.944  110.875
    8.000    0.356    0.493   60.160  109.038
    8.250    0.345    0.499   61.087  118.388
    8.500    0.332    0.504   63.824  112.200
    8.750    0.336    0.524   66.682  101.663
    9.000    0.341    0.532   66.752  108.526
    9.250    0.348    0.519   66.822  108.554
    9.500    0.353    0.493   66.910   97.395
    9.750    0.358    0.498   66.945  101.151
   10.000    0.358    0.502   67.015  104.907
   10.250    0.352    0.497   66.153  109.906
   10.500    0.351    0.497   66.205  118.634
   10.750    0.345    0.501   65.336  126.741
   11.000    0.342    0.503   61.779  107.503
   11.250    0.345    0.498   59.254   93.236
   11.500    0.347    0.488   55.235   80.841
   11.750    0.350    0.471   51.489   77.761
   12.000    0.353    0.461   49.385   81.518
   12.250    0.346    0.473   48.059   83.403
   12.500    0.348    0.441   47.441   90.266
   12.750    0.353    0.431   46.794  104.587
   13.000    0.351    0.442   46.855  113.315
   13.250    0.335    0.429   47.578   96.563
   13.500    0.323    0.431   47.628   88.511
   13.750    0.323    0.450   49.761   92.889
   14.000    0.331    0.461   55.041  103.481
   14.250    0.339    0.454   64.471  113.452
   14.500    0.336    0.457   68.326  111.615
   14.750    0.331    0.467   70.376  100.456
   15.000    0.332    0.478   66.527   94.276
   15.250    0.331    0.496   65.671  103.618
   15.500    0.330    0.515   65.740  106.138
   15.750    0.330    0.537   65.809  103.058
   16.000    0.332    0.551   65.878  100.600
   16.250    0.335    0.564   65.030  100.627
   16.500    0.338    0.575   61.490   96.311
   16.750    0.339    0.574   58.977   93.846
   17.000    0.342    0.547   63.401   91.381
   17.250    0.345    0.537   69.118   88.929
   17.500    0.348    0.533   78.683   88.956
   17.750    0.353    0.525   87.032   88.984
   18.000    0.356    0.518   96.242   86.525
   18.250    0.365    0.512  104.974   82.202
   18.500    0.370    0.505  105.084   78.494
   18.750    0.366    0.533   95.203   74.171
   19.000    0.343    0.561   68.641   73.584
   19.250    0.296    0.536   44.166   79.212
   19.500    0.300    0.389   35.709   94.147
   19.750    0.315    0.422   33.748  125.248
   20.000    0.337    0.458   36.810  143.304
   20.250    0.359    0.521   46.290  132.145
   20.500    0.387    0.379   64.321  114.765
   20.750    0.394    0.429  112.305   95.527
   21.000    0.392    0.475  101.744   75.668
   21.250    0.385    0.512   77.682   71.345
   21.500    0.383    0.573   61.026   70.758
   21.750    0.380    0.595   52.209   69.535
   22.000    0.379    0.589   44.678   75.784
   22.250    0.377    0.586   37.692   72.083
   22.500    0.376    0.582   34.148   77.696
   22.750    0.371    0.576   32.297   88.289
   23.000    0.364    0.570   32.331  108.831
   23.250    0.328    0.570   33.788  118.809
   23.500    0.297    0.567   34.300  125.044
   23.750    0.283    0.572   35.836  128.179
   24.000    0.283    0.580   37.451  126.342
   24.250    0.285    0.587   38.585  126.369
   24.500    0.287    0.594   39.722  133.233
   24.750    0.290    0.583   44.568  142.582
   25.000    0.296    0.566   47.911  140.123
   25.250    0.302    0.569   48.662  128.343
   25.500    0.309    0.572   48.713  119.048
   25.750    0.319    0.578   48.074   92.353
   26.000    0.324    0.574   47.443   76.837
   26.250    0.337    0.562   47.493   74.379
   26.500    0.348    0.546   47.530   78.141
   26.750    0.356    0.443   49.685   80.033
   27.000    0.376    0.443   52.656   80.061
   27.250    0.383    0.433   58.243   83.817
   27.500    0.379    0.460   65.331  110.567
   27.750    0.369    0.429   76.504  110.601
   28.000    0.353    0.451   97.640   98.814
   28.250    0.349    0.457   89.729   79.576
   28.500    0.349    0.460   91.089   70.288
   28.750    0.340    0.454   99.354   74.659
   29.000    0.344    0.481  105.267   80.901
   29.250    0.349    0.525  106.891   64.771
   29.500    0.352    0.585  107.003   61.076
   29.750    0.356    0.583  107.115   60.482
   30.000    0.359    0.580  107.227   61.752
   30.250    0.353    0.584  101.389   64.880
   30.500    0.342    0.583   95.869   73.608
   30.750    0.333    0.583   94.611   81.093
   31.000    0.330    0.589  100.295   79.877
   31.250    0.327    0.564  110.966   74.319
   31.500    0.325    0.558  106.403   67.503
   31.750    0.319    0.569   95.058   56.344
   32.000    0.314    0.580   87.333   45.807
   32.250    0.311    0.589   80.236   58.885
   32.500    0.309    0.558   74.794   68.248
   32.750    0.304    0.533   70.722   63.911
   33.000    0.296    0.557   73.890   43.430
   33.250    0.292    0.586   92.944   32.893
   33.500    0.284    0.599  105.807   43.485
   33.750    0.274    0.574  110.518   55.942
   34.000    0.268    0.560  115.498   51.619
   34.250    0.256    0.566  120.640   42.325
   34.500    0.249    0.576  133.511   34.273
   34.750    0.254    0.580  141.457   39.279
   35.000    0.267    0.583  149.916   39.921
   35.250    0.288    0.591  154.413   38.712
   35.500    0.291    0.598  159.088   36.882
   35.750    0.292    0.603  166.257   36.274
   36.000    0.290    0.604  171.156   38.166
   36.250    0.286    0.605  176.291   47.515
   36.500    0.283    0.607  173.978   60.600
   36.750    0.284    0.603  171.784   66.842
   37.000    0.280    0.590  169.441   65.005
   37.250    0.274    0.588  162.517   51.361
   37.500    0.269    0.584  151.533   53.252
   37.750    0.284    0.570  143.283   58.880
   38.000    0.313    0.546  139.402   56.414
   38.250    0.319    0.527  139.548   49.606
   38.500    0.335    0.564  133.845   44.047
   38.750    0.340    0.596  123.000   50.903
   39.000    0.344    0.571  111.405   59.631
   39.250    0.346    0.565  125.028   59.659
   39.500    0.324    0.590  142.295   56.579
   39.750    0.304    0.595  142.444   51.634
   40.000    0.297    0.595  138.584   49.176
   40.250    0.297    0.588  138.730   49.825
   40.500    0.299    0.593  138.875   59.181
   40.750    0.301    0.597  139.020   56.094
   41.000    0.302    0.587  125.948   53.636
   41.250    0.301    0.575  106.254   59.256
   41.500    0.301    0.571   81.125   66.120
   41.750    0.301    0.542   93.654   61.175
   42.000    0.302    0.550   99.254   51.881
   42.250    0.304    0.582   89.921   51.287
   42.500    0.305    0.596   76.950   56.907
   42.750    0.307    0.589   88.834   55.070
   43.000    0.309    0.563  102.554   47.640
   43.250    0.311    0.527  120.124   40.832
