~Version : LASO    vs 4.00
VERS.                2.00:   CWLS Log ASCII Standard -VERSION 2.0
WRAP.                  NO:
~Well Information Block
#MNEM.UNIT       Data                        Description of Mnemonic
#----.----      -------------------------- : -----------------------------
COMP.                                     : COMPANY
FLD .    WILDCAT                          : FIELD NAME
LOC .    02-32-090-08W4                   : WELL LOCATION
UWI .    AA/02-32-090-08W400              : UNIQUE WELL ID
STRT.M             0.0000:
STOP.M           201.3750:
STEP.M             0.1250:
NULL.           -999.2500:
COMP.  :COMPANY
WELL.  MOBIL CLARKE OV 2-32:WELL
FLD.   :FIELD
LOC.   :LOCATION
CTRY.  :COUNTRY
PROV.  ALBERTA:PROVINCE
SRVC.  DRESSER ATLAS:SERVICE COMPANY
DATE.  17-FEB-81:LOG DATE
UWI.   :UNIQUE WELL ID
~Parameter Information Block
#MNEM.UNIT       Data                        Description of Mnemonic
#----.----      -------------------------- : -----------------------------
RUN .                   1                 : Run Number
GL  .M           431.8000                 : Ground Level Elevation
DREF.                  KB                 : Depth Reference
EREF.M           431.8000                 : Elevation of Depth Reference
TDL .M           202.0000                 : Total Depth Logger
TDD .M           201.6000                 : Total Depth Driller
BHT .DEGC         20.0000                 : Bottom Hole Temperature
BS  .MM          159.0000                 : Bit Size
DFD .             10.3000                 : Mud Weight (Density)
DFV .             85.0000                 : Mud Viscosity
DFPH.             10.0000                 : Mud pH
RM  .OHMM          4.9000                 : Mud Resistivity
RMT .DEGC         20.0000                 : Mud Resistivity Temperature
RMF .OHMM          4.7000                 : Mud Filtrate Resistivity
RMFT.DEGC         10.0000                 : RMF Temperature
RMC .OHMM          9.5000                 : Mud Cake Resistivity
RMCT.DEGC         10.0000                 : RMC Temperature
~Curve Information Block
#MNEM.UNIT        API CODE    Curve Description
#---------    ------------    -------------------------------------------
DEPT.M                    :   DEPTH
CALI.MM       42 280  1  1:   3 DENSITY CALIPER
DPHI.V/V                  :   DPHI
DT  .US/M     60 520 42  1:   2 SONIC INTERVAL TRANSIT TIME (COMPENSATED)
GR  .GAPI     42 310  1  1:   4 GAMMA RAY
IL  .OHMM      5 120 45  1:   7 INDUCTION
NPHI.V/V      42 890  3  1:   5 NEUTRON POROSITY (SANDSTONE)
RHOB.K/M3     42 350  1  1:   6 BULK DENSITY
SFL .OHMM      5 220  6  1:   8 FOCUSSED RESISTIVITY
SP  .MV        5  10  1  1:   9 SPONTANEOUS POTENTIAL
~A  Depth           CALI        DPHI          DT          GR          IL        NPHI        RHOB         SFL          SP
# ...
117.2500        173.7250      0.2573    440.7200     84.3000      4.3600      0.3775   2228.8999      9.4650    -33.4300
117.3750        173.7250      0.2788    490.8000     85.4100      4.1150      0.3849   2222.1001     10.0800    -32.9300
117.5000        173.9750      0.2948    502.2800     86.4600      3.9300      0.3938   2209.2000      9.8350    -32.5600
117.6250        174.6750      0.3276    511.1600     87.3150      3.6850      0.4025   2196.3999      8.3050    -31.5600
117.7500        174.3500      0.3416    519.4800     89.1300      3.6250      0.4025   2149.0000      6.6500    -31.0600
117.8750        173.3000      0.3407    492.5200     92.3700      3.5000      0.4204   2149.0000      6.2800    -31.1900
118.0000        172.6500      0.3367    458.6400     94.2600      3.3750      0.4439   2111.7000      6.7700    -31.0600
118.1250        172.6250      0.3330    514.6000     94.3200      3.3150      0.4538   2069.8999      7.3850    -30.8100
118.2500        173.5500      0.3276    518.0400     94.3050      3.3150      0.4514   2089.3999      7.6300    -30.9400
118.3750        175.4750      0.3236    519.0000     97.8600      3.3150      0.4429   2098.1001      7.4450    -31.3100
118.5000        176.5500      0.3199    520.4800     99.6600      3.3150      0.4310   2110.0000      7.0800    -31.4300
118.6250        179.5000      0.3155    520.7200     99.1200      3.3150      0.4265   2114.8000      6.7100    -31.5600
118.7500        181.5250      0.3117    518.5200    101.5050      3.3150      0.4290   2128.5000      6.5250    -31.9300
118.8750        185.5000      0.3074    513.6000    100.9950      3.2550      0.4336   2130.1001      6.7100    -32.4300
119.0000        184.4000      0.3057    512.6400     99.2400      3.2550      0.4334   2139.6001      7.6300    -31.8100
119.1250        183.4750      0.3083    511.6400    101.1150      3.2550      0.4178   2142.8999      7.4450    -30.9400
119.2500        181.8750      0.3096    511.8800    100.9200      3.2550      0.4177   2134.8000      6.8350    -30.4400
119.3750        179.2000      0.3074    514.0800     97.8150      3.2550      0.4273   2133.2000      6.4050    -29.9400
119.5000        178.4500      0.3080    513.6000     97.8000      3.1950      0.4313   2131.5000      6.2800    -30.3100
119.6250        180.7750      0.3083    513.1200     95.0700      3.1950      0.4269   2130.8999      6.7100    -31.3100
119.7500        182.4000      0.3115    513.6000     92.8650      3.1950      0.4349   2130.8000      7.2000    -31.6800
119.8750        180.9250      0.3118    517.7600     92.4000      3.1950      0.4553   2130.2000      7.3250    -31.0600
120.0000        179.6250      0.3119    520.4800     94.4100      3.1950      0.4600   2122.7000      7.0800    -30.0600
120.1250        179.5000      0.3109    521.4400     96.9000      3.2550      0.4435   2117.7000      6.8350    -29.9400
120.2500        176.7250      0.3087    524.1600     98.7900      3.2550      0.4230   2116.8000      6.7700    -30.8100
120.3750        176.3500      0.3054    526.3600     98.5800      3.3150      0.4280   2122.7000      6.8350    -31.4300
120.5000        177.8000      0.3019    523.6801     95.4750      3.3150      0.4300   2128.5000      6.8950    -30.9400
120.6250        178.7750      0.2975    521.2000     96.5250      3.3750      0.4241   2133.3999      6.9550    -30.8100
120.7500        177.4000      0.2946    520.2400     95.8950      3.4400      0.4199   2138.2000      7.0800    -31.3100
120.8750        178.2250      0.2912    515.3200     99.4950      3.5000      0.4264   2150.8000      7.3250    -31.9300
121.0000        178.2500      0.2868    512.3600     99.2550      3.6250      0.4352   2172.2000      7.4450    -32.6800
121.1250        178.7250      0.2830    513.8400     97.0200      3.6850      0.4398   2178.6001      7.6300    -33.9300
121.2500        179.2250      0.2799    524.6400     98.1150      3.8050      0.4429   2184.3000      7.9350    -34.5500
121.3750        179.2500      0.2799    517.2800    100.6500      3.8700      0.4474   2177.5000      8.2400    -33.4300
121.5000        179.9000      0.2798    502.0400    100.6950      3.8700      0.4397   2174.7000      8.6100    -34.0500
121.6250        179.7750      0.2798    502.7600     98.4600      3.9900      0.4288   2172.5000      9.1000    -35.0500
121.7500        179.1750      0.2820    504.7600     98.3400      3.9900      0.4255   2170.2000      9.1000    -35.6700
121.8750        179.1500      0.2856    487.8400     97.7250      3.9900      0.4225   2167.3000      8.3050    -35.0500
122.0000        179.1250      0.2880    470.4000     95.5350      3.9300      0.4151   2162.5000      7.8150    -33.8000
122.1250        178.1250      0.2883    496.2000     94.2900      3.9900      0.4005   2160.8000      8.1200    -33.3000
122.2500        178.3250      0.2861    507.4800     94.0200      3.9900      0.3949   2159.1001      8.3650    -33.3000
122.3750        178.8500      0.2818    507.9600     94.8000      4.0500      0.4072   2164.8999      7.7500    -32.8000
122.5000        176.9500      0.2771    508.9600     96.4350      4.2350      0.4016   2181.1001      7.0150    -31.9300
122.6250        177.6750      0.2687    509.2000     99.7800      4.4200      0.3938   2182.3000      6.8950    -32.1800
122.7500        179.6750      0.2622    504.5200     96.3900      4.6650      0.3837   2180.6001      7.3250    -32.5600
122.8750        181.3500      0.2528    461.6000     96.1800      4.9750      0.3916   2178.8999      7.6300    -32.8000
123.0000        182.0000      0.2444    436.5600     99.0900      5.4000      0.3919   2214.5000      7.7500    -32.6800
123.1250        182.0000      0.2343    515.3200    100.4700      5.8950      0.3926   2257.6001      8.3650    -33.1800
123.2500        182.8750      0.2295    533.9600     96.9450      6.3850      0.3843   2264.0000     10.3250    -34.5500
123.3750        182.9500      0.2184    511.1600     92.6250      6.8750      0.3742   2265.8999     13.6350    -35.7900
123.5000        182.9500      0.2041    519.4800     89.4000      7.3050      0.3745   2302.8999     17.7400    -37.2900
123.6250        182.9250      0.1895    549.2000     85.3650      7.9800      0.3717   2340.2000     18.9050    -39.7800
123.7500        182.4000      0.1774    600.2400     78.4350      8.4100      0.3641   2377.5000     14.5550    -43.0200
123.8750        181.3500      0.2102    600.2400     73.5150      8.7150      0.3529   2331.1001     11.6750    -45.3900
124.0000        180.3250      0.2380    481.7200     70.3950      8.7150      0.3363   2259.0000     11.4300    -46.3800
124.1250        179.2750      0.2675    183.0400     69.4650      8.4700      0.3369   2187.0000     11.9800    -46.7600
124.2500        178.6000      0.2694    346.2400     69.0450      8.1650      0.3356   2189.6001     12.0400    -47.0000
124.3750        177.8500      0.2683    536.2000     69.6300      7.7950      0.3387   2189.1001     11.8550    -47.0000
124.5000        178.9250      0.2671    524.1600     71.7450      7.5500      0.3432   2187.3999     12.0400    -47.7500
124.6250        181.5000      0.2692    538.6400     72.3000      7.3650      0.3428   2193.3999     12.8400    -48.1300
124.7500        182.7750      0.2727    573.9600     74.0550      7.1800      0.3518   2189.5000     12.6550    -48.5000
124.8750        183.7500      0.2741    388.2000     75.2700      7.0600      0.3619   2182.7000     11.2450    -48.5000
125.0000        184.0000      0.2753    227.2400     76.5000      6.9350      0.3651   2177.5000     10.1400    -47.8800
125.1250        183.9750      0.2786    557.0400     74.2200      6.8150      0.3652   2175.0000     10.4500    -48.5000
125.2500        183.0250      0.2790    560.7200     73.7850      6.7500      0.3647   2188.7000     11.5500    -50.7400
125.3750        182.9500      0.2791    599.4800     76.3650      6.7500      0.3720   2184.3000     13.4500    -53.4800
125.5000        182.9500      0.2811    521.4400     79.2150      6.9950      0.3675   2177.5000     15.3500    -54.9800
