~VERSION INFORMATION
 VERS.                 2.0:   CWLS LOG ASCII STANDARD -VERSION 2.0
 WRAP.                  NO:   ONE LINE PER DEPTH STEP
~WELL INFORMATION BLOCK
#MNEM.UNIT           DATA                    DESCRIPTION OF MNEMONIC
#---------    -------------------            -------------------------------
# Generated from Intellog Unique Number	CX_WELLS/WELL/2807
WELL.         ARCO AC1                       : Well_name    - WELL
LOC .         AA/08-29-081-11W4/0            : Location     - LOCATION
UWI .         AA/08-29-081-11W400            : Uwi          - UNIQUE WELL ID
ENTR.         T                              : Entered      - ENTERED BY
SRVC.         SCHLUMBERGER                   : Scn          - SERVICE COMPANY
STRT.F        1350                           : top_depth    - START DEPTH
STOP.F        1669.88                        : bot_depth    - STOP DEPTH
STEP.F        0.82                           : increment    - STEP LENGTH
 NULL. -999.2500:NULL Value
~CURVE INFORMATION BLOCK
#MNEM UNIT       ERCB CURVE CODE    CURVE DESCRIPTION
#-----------   ------------------   ----------------------------------
DEPT.F        00 001 00 00         : DEPTH        - DEPTH
GR  .API      00 310 00 00         : GR           - GAMMA RAY
NPHI.V/V      00 330 00 00         : PHIN         - NEUTRON POROSITY (SANDSTONE)
ILD .OHMM     00 120 00 00         : RESD         - DEEP RESISTIVITY (OTHER)
~PARAMETER INFORMATION
#MNEM.UNIT           DATA             DESCRIPTION OF MNEMONIC
#---------         -----------     ------------------------------
GL  .F        2395                 : gl           - GROUND LEVEL ELEVATION
EREF.F        2405                 : kb           - ELEVATION OF DEPTH REFERENCE
DATM.F        2405                 : datum        - DATUM ELEVATION
TDD .F        1685                 : tdd          - TOTAL DEPTH DRILLER
RUN .         ONE                  : Run          - RUN NUMBER
ENG .         BILL                 : Engineer     - RECORDING ENGINEER
WIT .         JIM                  : Witness      - WITNESSED BY
MUD .         GEL                  : Mud_type     - MUD TYPE
MATR.         SANDSTONE            : Logunit      - NEUTRON MATRIX
TMAX.F        80                   : BHT          - MAXIMUM RECORDED TEMPERATURE
BHTD.F        1685                 : BHTDEP       - MAXIMUM RECORDED TEMPERATURE
MATR.         1                    : LOGUNIT      - NEUTRON MATRIX
RMT .F        80                   : MDTP         - TEMPERATURE OF MUD
NEUT.         1                    : NEUTRON      - NEUTRON TYPE
RESI.         10                   : RESIST       - RESISTIVITY TYPE
RMC .OHMM     2                    : RMC          - RESISTIVITY OF MUD CAKE
RMF .OHMM     3.9                  : RMF          - RESISTIVITY OF MUD FILTRATE
SUFT.F        39.2                 : SUFT         - SURFACE TEMPERATURE
~A  DEPTH       GR     PHIN     RESD
# ...
 1527.990   70.027    0.343    7.370
 1528.810   71.484    0.344    7.481
 1529.630   74.417    0.344    7.597
 1530.450   75.893    0.344    7.573
 1531.270   77.350    0.345    7.562
 1532.090   80.302    0.345    7.551
 1532.910   84.730    0.341    7.530
 1533.730   86.187    0.335    7.398
 1534.550   87.644    0.333    7.261
 1535.370   87.616    0.334    6.773
 1536.190   86.822    0.337    6.534
 1537.010   85.290    0.341    6.969
 1537.830   83.011    0.348    7.204
 1538.650   77.734    0.352    7.950
 1539.470   73.970    0.345    8.634
 1540.290   68.702    0.331    9.694
 1541.110   58.941    0.312   11.635
 1541.930   50.684    0.311   15.196
 1542.750   47.648    0.310   15.959
 1543.570   43.884    0.308   17.611
 1544.390   43.828    0.307   18.487
 1545.210   49.031    0.309   18.765
 1546.030   59.455    0.310   18.739
 1546.850   63.144    0.310   18.384
 1547.670   64.611    0.313   18.053
 1548.490   68.291    0.316   16.832
 1549.310   69.767    0.333   15.975
 1550.130   71.971    0.338   14.909
 1550.950   71.934    0.348   13.447
 1551.770   71.878    0.352   12.341
 1552.590   71.094    0.352   11.517
 1553.410   70.309    0.349   10.564
 1554.230   71.028    0.348   10.201
 1555.050   71.738    0.351    9.677
 1555.870   71.701    0.352    9.502
 1556.690   69.412    0.356    9.467
 1557.510   65.630    0.358    9.614
 1558.330   62.594    0.359    9.605
 1559.150   61.081    0.358    9.414
 1559.970   58.045    0.356    9.401
 1560.790   52.777    0.354    9.232
 1561.610   47.509    0.349    8.910
 1562.430   41.485    0.342    8.885
 1563.250   36.964    0.337    8.877
 1564.070   33.938    0.333    9.632
 1564.900   30.155    0.333   10.462
 1565.720   27.138    0.332   14.607
 1566.540   24.111    0.333   15.858
 1567.360   21.067    0.333   21.791
 1568.180   18.797    0.333   24.881
 1569.000   17.265    0.333   29.890
 1569.820   16.480    0.333   38.387
 1570.640   16.434    0.334   47.670
 1571.460   20.133    0.335   45.966
 1572.280   31.304    0.335   44.385
 1573.100   37.245    0.336   42.124
 1573.920   56.645    0.339   41.345
 1574.740   65.575    0.341   40.543
 1575.560   69.264    0.343   39.812
 1576.380   72.207    0.343   36.519
 1577.200   71.431    0.345   33.529
 1578.020   68.396    0.345   28.277
 1578.840   65.369    0.340   24.674
 1579.660   60.101    0.329   21.172
 1580.480   54.833    0.321   17.265
 1581.300   48.818    0.313   14.325
 1582.120   41.299    0.309   10.740
 1582.940   38.273    0.308    9.688
 1583.760   41.224    0.307    9.665
 1584.580   47.912    0.308    9.815
 1585.400   53.843    0.315   10.294
 1586.220   58.299    0.327   10.459
 1587.040   69.470    0.334   10.094
 1587.860   82.883    0.344    9.105
 1588.680   83.593    0.360    8.216
 1589.500   82.052    0.368    7.668
 1590.320   81.268    0.380    7.153
 1591.140   80.483    0.379    7.020
 1591.960   80.446    0.358    6.891
 1592.780   80.408    0.341    6.875
 1593.600   80.371    0.334    6.859
 1594.420   77.345    0.333    6.962
 1595.240   70.573    0.330    7.067
 1596.060   78.008    0.331    7.176
 1596.880   78.718    0.329    7.654
 1597.700   77.186    0.329    7.904
 1598.520   72.665    0.329    8.298
 1599.340   68.135    0.330    8.858
 1600.160   65.100    0.331    8.842
 1600.980   65.072    0.334    8.529
 1601.800   65.782    0.347    8.232
 1602.620   67.239    0.352    7.945
 1603.440   67.949    0.353    7.798
 1604.270   68.649    0.353    7.651
 1605.090   69.359    0.353    7.513
 1605.910   71.554    0.357    7.367
 1606.730   73.749    0.363    7.237
 1607.550   74.478    0.364    6.979
 1608.370   74.441    0.362    6.735
 1609.190   74.394    0.361    6.608
 1610.010   73.609    0.358    6.602
 1610.830   72.068    0.353    6.602
 1611.650   72.031    0.347    7.265
 1612.470   71.256    0.339    7.258
 1613.290   69.715    0.333    7.244
 1614.110   68.930    0.331    7.231
 1614.930   68.146    0.330    7.336
 1615.750   68.099    0.327    7.450
 1616.570   67.314    0.326    7.691
 1617.390   66.530    0.323    8.066
 1618.210   67.249    0.321    8.330
 1619.030   69.454    0.319    8.598
 1619.850   73.134    0.317    9.026
 1620.670   73.844    0.314    9.162
 1621.490   73.806    0.312    8.988
 1622.310   76.011    0.309    8.822
 1623.130   78.225    0.312    8.515
 1623.950   80.429    0.316    8.081
 1624.770   80.392    0.319    7.796
 1625.590   79.588    0.321    7.395
 1626.410   78.813    0.325    7.138
 1627.230   78.029    0.335    7.009
 1628.050   76.497    0.340    6.652
 1628.870   74.956    0.343    6.307
 1629.690   74.171    0.342    6.188
 1630.510   72.639    0.340    6.182
 1631.330   71.845    0.338    6.170
 1632.150   71.070    0.334    6.159
 1632.970   70.276    0.333    6.142
 1633.790   69.492    0.333    6.237
 1634.610   67.960    0.334    6.331
 1635.430   67.923    0.336    6.426
 1636.250   66.391    0.336    6.414
 1637.070   64.859    0.337    6.511
 1637.890   64.075    0.338    6.606
 1638.710   64.028    0.340    6.816
 1639.530   63.990    0.343    6.922
 1640.350   64.691    0.344    7.142
 1641.170   65.401    0.344    7.249
 1641.990   66.120    0.343    7.483
 1642.810   66.074    0.342    7.724
 1643.640   66.036    0.339    8.112
 1644.460   61.506    0.338    8.652
 1645.280   58.489    0.338    8.640
 1646.100   58.452    0.338    8.624
 1646.920   60.656    0.338    8.181
 1647.740   62.114    0.341    8.304
 1648.560   62.048    0.342    8.572
 1649.380   61.282    0.343    8.848
 1650.200   59.003    0.344    8.832
 1651.020   55.230    0.348    8.815
 1651.840   51.456    0.353    9.566
 1652.660   52.157    0.356   10.046
 1653.480   60.339    0.350   11.081
 1654.300   62.544    0.347   11.643
 1655.120   62.497    0.345   12.222
 1655.940   61.712    0.347   12.389
 1656.760   61.684    0.348   12.372
 1657.580   60.153    0.350   12.149
 1658.400   59.359    0.350   12.120
 1659.220   57.827    0.348   11.891
 1660.040   55.548    0.346   11.676
 1660.860   52.522    0.345   11.076
 1661.680   45.002    0.343   10.872
 1662.500   50.196    0.338   11.412
 1663.320   58.378    0.333   12.189
 1664.140   68.802    0.321   13.012
 1664.960   75.481    0.310   12.976
 1665.780   77.685    0.302   12.315
 1666.600   79.142    0.296   11.891
 1667.420   79.852    0.291   10.908
 1668.240   79.806    0.288    9.834
 1669.060   80.534    0.284    9.496
 1669.880   80.488    0.283    9.169
