~VERSION INFORMATION
 VERS.                 2.0:   CWLS LOG ASCII STANDARD -VERSION 2.0
 WRAP.                  NO:   ONE LINE PER DEPTH STEP
~WELL INFORMATION BLOCK
#MNEM.UNIT           DATA                    DESCRIPTION OF MNEMONIC
#---------    -------------------            -------------------------------
# Generated from Intellog Unique Number	CN_94_101/WELL/3188
WELL.         02-29-099-14W4                 : Well_name    - WELL
LOC .         AA/02-29-099-14W4/0            : Location     - LOCATION
UWI .         AA/02-29-099-14W400            : Uwi          - UNIQUE WELL ID
ENTR.         TIM                            : Entered      - ENTERED BY
SRVC.         SCHLUMBERGER                   : Scn          - SERVICE COMPANY
DATE.         08/13/92                       : Date         - LOG DATE
STRT.M        360                            : top_depth    - START DEPTH
STOP.M        562                            : bot_depth    - STOP DEPTH
STEP.M        0.25                           : increment    - STEP LENGTH
 NULL. -999.2500:NULL Value
~CURVE INFORMATION BLOCK
#MNEM UNIT       ERCB CURVE CODE    CURVE DESCRIPTION
#-----------   ------------------   ----------------------------------
DEPT.M        00 001 00 00         : DEPTH        - DEPTH
DPHI.V/V      00 890 00 00         : PHID         - DENSITY POROSITY (SANDSTONE)
NPHI.V/V      00 330 00 00         : PHIN         - NEUTRON POROSITY (SANDSTONE)
ILD .OHMM     00 120 00 00         : RESD         - DEEP RESISTIVITY (DIL)
GR  .API      00 310 00 00         : GR           - GAMMA RAY
~PARAMETER INFORMATION
#MNEM.UNIT           DATA             DESCRIPTION OF MNEMONIC
#---------         -----------     ------------------------------
GL  .M        800.3                : gl           - GROUND LEVEL ELEVATION
EREF.M        803.3                : kb           - ELEVATION OF DEPTH REFERENCE
DATM.M        803.3                : datum        - DATUM ELEVATION
TDD .M        562                  : tdd          - TOTAL DEPTH DRILLER
RUN .         ONE                  : Run          - RUN NUMBER
ENG .         JO                   : Engineer     - RECORDING ENGINEER
WIT .         TIM                  : Witness      - WITNESSED BY
MUD .         GEL                  : Mud_type     - MUD TYPE
MATR.         SANDSTONE            : Logunit      - NEUTRON MATRIX
TMAX.C        25                   : BHT          - MAXIMUM RECORDED TEMPERATURE
BHTD.M        562                  : BHTDEP       - MAXIMUM RECORDED TEMPERATURE
RMT .C        24                   : MDTP         - TEMPERATURE OF MUD
MUDD.KG/M     1000                 : MWT          - MUD DENSITY
NEUT.         1                    : NEUTRON      - NEUTRON TYPE
RESI.         0                    : RESIST       - RESISTIVITY TYPE
RM  .OHMM     4.75                 : RM           - RESISTIVITY OF MUD
RMC .OHMM     6.3                  : RMC          - RESISTIVITY OF MUD CAKE
RMF .OHMM     6.3                  : RMF          - RESISTIVITY OF MUD FILTRATE
SUFT.C        4                    : SUFT         - SURFACE TEMPERATURE
~A  DEPTH     PHID     PHIN     RESD       GR
  360.000    0.254    0.470    5.861   99.161
  360.250    0.253    0.480    5.754  101.628
  360.500    0.249    0.483    5.756  102.867
  360.750    0.244    0.474    5.761  102.274
  361.000    0.242    0.468    5.764  100.463
  361.250    0.255    0.458    5.768  100.477
  361.500    0.269    0.456    5.885   99.885
  361.750    0.277    0.469    6.003   97.456
  362.000    0.273    0.486    6.127   95.639
  362.250    0.265    0.502    6.129   96.276
  362.500    0.270    0.519    6.135   97.519
  362.750    0.274    0.529    6.021   98.151
  363.000    0.276    0.533    5.799   98.787
  363.250    0.280    0.532    5.691   99.419
  363.500    0.279    0.526    5.585   99.433
  363.750    0.275    0.517    5.377   99.453
  364.000    0.273    0.514    5.178  100.706
  364.250    0.275    0.510    4.797  100.721
  364.500    0.281    0.503    4.359  100.745
  364.750    0.285    0.494    3.960  100.755
  365.000    0.287    0.471    3.598  100.779
  365.250    0.289    0.450    3.334  100.794
  365.500    0.289    0.450    3.272  100.818
  365.750    0.284    0.458    3.274  100.832
  366.000    0.282    0.468    3.277   99.638
  366.250    0.287    0.483    3.216   98.423
  366.500    0.295    0.494    3.157   94.771
  366.750    0.296    0.489    3.040   91.128
  367.000    0.288    0.477    3.041   91.138
  367.250    0.282    0.464    2.986   91.162
  367.500    0.287    0.468    2.987   91.181
  367.750    0.293    0.479    3.047   89.370
  368.000    0.295    0.490    3.171   84.493
  368.250    0.293    0.484    3.234   81.452
  368.500    0.286    0.416    3.363   80.243
  368.750    0.283    0.427    3.499   79.048
  369.000    0.277    0.443    3.501   79.058
  369.250    0.277    0.453    3.504   82.749
  369.500    0.283    0.444    3.506   87.053
  369.750    0.290    0.438    3.442   88.301
  370.000    0.299    0.434    3.444   86.485
  370.250    0.307    0.433    3.514   87.116
  370.500    0.319    0.442    3.726   92.639
  370.750    0.327    0.461    3.587   98.166
  371.000    0.290    0.487    3.260  102.470
  371.250    0.291    0.522    3.137  101.270
  371.500    0.292    0.526    2.964  100.683
  371.750    0.283    0.483    2.854   98.866
  372.000    0.283    0.470    2.801   96.433
  372.250    0.289    0.484    2.749   94.616
  372.500    0.301    0.487    2.915   94.028
  372.750    0.310    0.482    3.213   92.207
  373.000    0.319    0.452    3.406   88.554
  373.250    0.318    0.423    3.754   83.066
  373.500    0.310    0.409    3.981   79.413
  373.750    0.298    0.409    4.061   83.105
  374.000    0.292    0.418    4.064   87.408
  374.250    0.297    0.429    4.066   88.656
  374.500    0.300    0.443    3.991   89.288
  374.750    0.300    0.446    3.918   88.695
  375.000    0.294    0.448    3.701   86.884
  375.250    0.286    0.454    3.428   85.674
  375.500    0.283    0.459    3.237   85.699
  375.750    0.282    0.468    2.941   87.544
  376.000    0.321    0.479    2.673   91.236
  376.250    0.344    0.491    2.623   93.096
  376.500    0.348    0.507    2.625   93.728
  376.750    0.333    0.519    2.678   94.359
  377.000    0.321    0.516    2.732   93.155
  377.250    0.313    0.513    2.897   91.955
  377.500    0.300    0.510    3.013   92.586
  377.750    0.289    0.499    3.258   89.541
  378.000    0.297    0.482    3.388   84.052
  378.250    0.318    0.460    3.735   81.017
  378.500    0.313    0.443    3.884   80.419
  378.750    0.223    0.424    4.039   80.439
  379.000    0.249    0.421    3.890   82.299
  379.250    0.278    0.446    3.744   85.990
  379.500    0.287    0.444    3.211   89.070
  379.750    0.301    0.451    2.862   92.154
  380.000    0.307    0.486    2.600   92.776
  380.250    0.310    0.505    2.503   94.641
  380.500    0.316    0.494    2.319   94.666
  380.750    0.311    0.483    2.190   94.064
  381.000    0.302    0.480    2.151   92.252
  381.250    0.305    0.486    2.151   90.430
  381.500    0.311    0.493    2.326   86.787
  381.750    0.317    0.498    2.373   85.578
  382.000    0.325    0.503    2.517   84.374
  382.250    0.326    0.509    2.566   84.393
  382.500    0.318    0.515    2.619   85.019
  382.750    0.310    0.521    2.620   86.880
  383.000    0.305    0.525    2.622   89.347
  383.250    0.302    0.521    2.624   93.039
  383.500    0.301    0.511    2.626   95.502
  383.750    0.304    0.500    2.679   96.133
  384.000    0.310    0.467    2.787   94.928
  384.250    0.312    0.461    2.843   93.724
  384.500    0.311    0.442    2.900   90.688
  384.750    0.324    0.422    2.958   87.036
  385.000    0.336    0.416    3.199   84.607
  385.250    0.331    0.422    3.392   80.347
  385.500    0.320    0.429    3.527   77.311
  385.750    0.309    0.436    3.740   74.878
  386.000    0.300    0.397    3.890   72.450
  386.250    0.285    0.369    3.968   71.245
  386.500    0.253    0.418    4.048   75.544
  386.750    0.260    0.475    4.051   82.907
  387.000    0.269    0.496    3.901   89.659
  387.250    0.277    0.496    3.684   92.748
  387.500    0.283    0.491    3.479   92.758
  387.750    0.287    0.489    3.349   92.792
  388.000    0.287    0.480    3.164   92.802
  388.250    0.286    0.474    2.988   92.816
  388.500    0.286    0.467    2.767   92.836
  388.750    0.284    0.466    2.716   92.860
  389.000    0.284    0.476    2.718   92.889
  389.250    0.287    0.477    2.668   92.899
  389.500    0.290    0.471    2.670   92.918
  389.750    0.294    0.461    2.777   91.714
  390.000    0.298    0.453    2.945   89.285
  390.250    0.296    0.447    3.062   87.469
  390.500    0.290    0.440    3.185   87.493
  390.750    0.293    0.444    3.250   88.124
  391.000    0.299    0.454    3.189   88.144
  391.250    0.301    0.460    3.013   86.939
  391.500    0.306    0.473    2.901   86.352
  391.750    0.306    0.482    2.903   85.749
  392.000    0.306    0.467    2.905   86.998
  392.250    0.312    0.440    3.021   87.634
  392.500    0.325    0.438    3.142   87.032
  392.750    0.346    0.446    3.397   84.603
  393.000    0.346    0.460    3.672   81.563
  393.250    0.336    0.451    3.893   78.522
  393.500    0.326    0.409    4.291   78.546
  393.750    0.318    0.445    4.462   82.850
  394.000    0.288    0.477    4.643   85.929
  394.250    0.313    0.491    4.736   83.515
  394.500    0.320    0.484    4.833   82.913
  394.750    0.341    0.473    4.835   82.928
  395.000    0.347    0.460    4.931   82.947
  395.250    0.355    0.456    4.936   85.420
  395.500    0.365    0.452    4.939   87.887
  395.750    0.282    0.446    4.664   89.126
  396.000    0.272    0.443    4.239   91.593
  396.250    0.271    0.438    4.080   91.001
  396.500    0.276    0.436    3.929   89.184
  396.750    0.283    0.432    3.857   87.984
  397.000    0.280    0.428    3.859   88.616
  397.250    0.273    0.440    3.862   91.083
  397.500    0.271    0.456    3.940   94.163
  397.750    0.271    0.451    3.943   94.794
  398.000    0.273    0.434    4.023   92.366
  398.250    0.278    0.424    4.103   90.549
  398.500    0.281    0.427    4.107   91.181
  398.750    0.285    0.445    4.110   92.424
  399.000    0.290    0.473    4.112   93.056
  399.250    0.289    0.478    4.037   92.468
  399.500    0.284    0.478    3.962   91.263
  399.750    0.282    0.477    3.815   91.283
  400.000    0.282    0.475    3.744   91.297
  400.250    0.285    0.458    3.746   90.710
  400.500    0.285    0.446    3.750   89.505
  400.750    0.283    0.439    3.752   87.694
  401.000    0.286    0.439    3.755   86.479
  401.250    0.288    0.436    3.757   84.055
  401.500    0.291    0.435    3.759   82.239
  401.750    0.287    0.437    3.620   85.935
  402.000    0.273    0.440    3.485   88.398
  402.250    0.275    0.441    3.292   90.254
  402.500    0.282    0.442    3.170   90.273
  402.750    0.295    0.443    3.112   89.073
  403.000    0.298    0.465    3.113   90.312
  403.250    0.298    0.472    3.115   93.391
