~VERSION INFORMATION
 VERS.                 2.0:   CWLS LOG ASCII STANDARD -VERSION 2.0
 WRAP.                  NO:   ONE LINE PER DEPTH STEP
~WELL INFORMATION BLOCK
#MNEM.UNIT           DATA                    DESCRIPTION OF MNEMONIC
#---------    -------------------            -------------------------------
# Generated from Intellog Unique Number	CW_82_90/WELL/637
WELL.         GULF LIVOCK OV 07-31           : Well_name    - WELL
LOC .         AA/07-31-084-23W4/0            : Location     - LOCATION
UWI .         AA/07-31-084-23W4/0            : Uwi          - UNIQUE WELL ID
ENTR.         JAYE                           : Entered      - ENTERED BY
SRVC.         SCHLUMBERGER                   : Scn          - SERVICE COMPANY
DATE.         9 FEB 82                       : Date         - LOG DATE
STRT.M        150                            : top_depth    - START DEPTH
STOP.M        405                            : bot_depth    - STOP DEPTH
STEP.M        0.25                           : increment    - STEP LENGTH
 NULL. -999.2500:NULL Value
~CURVE INFORMATION BLOCK
#MNEM UNIT       ERCB CURVE CODE    CURVE DESCRIPTION
#-----------   ------------------   ----------------------------------
DEPT.M        00 001 00 00         : DEPTH        - DEPTH
CALI.MM       00 280 01 00         : CAL          - CALIPER
GR  .API      00 310 00 00         : GR           - GAMMA RAY
NPHI.V/V      00 330 00 00         : PHIN         - NEUTRON POROSITY (SANDSTONE)
DPHI.V/V      00 890 00 00         : PHID         - DENSITY POROSITY (SANDSTONE)
ILD .OHMM     00 120 00 00         : RESD         - DEEP RESISTIVITY (DIL)
~PARAMETER INFORMATION
#MNEM.UNIT           DATA             DESCRIPTION OF MNEMONIC
#---------         -----------     ------------------------------
GL  .M        574.7                : gl           - GROUND LEVEL ELEVATION
EREF.M        579.1                : kb           - ELEVATION OF DEPTH REFERENCE
DATM.M        574.7                : datum        - DATUM ELEVATION
TDD .M        410                  : tdd          - TOTAL DEPTH DRILLER
RUN .         ONE                  : Run          - RUN NUMBER
ENG .         GARTH                : Engineer     - RECORDING ENGINEER
WIT .         WALKER               : Witness      - WITNESSED BY
BASE.         EDMONTON             : Branch       - HOME BASE OF LOGGING UNIT
MUD .         GEL                  : Mud_type     - MUD TYPE
MATR.         SANDSTONE            : Logunit      - NEUTRON MATRIX
TMAX.C        26.1                 : BHT          - MAXIMUM RECORDED TEMPERATURE
BHTD.M        410                  : BHTDEP       - MAXIMUM RECORDED TEMPERATURE
RMT .C        15.5                 : MDTP         - TEMPERATURE OF MUD
MUDD.KG/M     1090                 : MWT          - MUD DENSITY
NEUT.         1                    : NEUTRON      - NEUTRON TYPE
RESI.         0                    : RESIST       - RESISTIVITY TYPE
RM  .OHMM     5.77                 : RM           - RESISTIVITY OF MUD
RMC .OHMM     0                    : RMC          - RESISTIVITY OF MUD CAKE
RMF .OHMM     6.87                 : RMF          - RESISTIVITY OF MUD FILTRATE
SUFT.C        0                    : SUFT         - SURFACE TEMPERATURE
~A  DEPTH      CAL       GR     PHIN     PHID     RESD
# ...
  223.000  257.827   60.930    0.447    0.346   25.910
  223.250  257.934   64.852    0.451    0.345   24.550
  223.500  257.730   64.231    0.449    0.340   18.493
  223.750  257.524   60.872    0.442    0.333   11.327
  224.000  257.422   62.554    0.438    0.323    7.840
  224.250  257.426   61.498    0.454    0.306    7.074
  224.500  257.533   59.694    0.483    0.315    7.489
  224.750  257.954   57.953    0.482    0.341    8.580
  225.000  258.061   56.958    0.462    0.345   10.718
  225.250  258.061   55.466    0.439    0.349   18.434
  225.500  259.839   54.098    0.426    0.353   22.471
  225.750  260.154   53.477    0.437    0.346   27.810
  226.000  260.154   53.728    0.458    0.347   29.166
  226.250  260.154   53.729    0.475    0.359   29.571
  226.500  255.060   52.610    0.486    0.363   29.592
  226.750  254.750   50.806    0.464    0.367   29.554
  227.000  256.733   52.177    0.458    0.365   29.241
  227.250  257.777   53.424    0.469    0.359   28.876
  227.500  259.241   52.740    0.486    0.350   28.569
  227.750  259.242   52.742    0.477    0.345   28.320
  228.000  259.974   54.175    0.469    0.348   28.337
  228.250  259.770   55.421    0.452    0.349   28.406
  228.500  259.252   55.734    0.432    0.345   28.907
  228.750  259.255   55.486    0.439    0.342   28.763
  229.000  259.259   53.496    0.436    0.346   26.494
  229.250  259.262   51.755    0.426    0.345   22.467
  229.500  259.266   51.259    0.418    0.339   18.488
  229.750  260.312   53.314    0.421    0.339   21.341
  230.000  260.417   54.000    0.445    0.344   27.530
  230.250  261.463   53.566    0.452    0.344   27.910
  230.500  261.468   57.364    0.455    0.338   28.089
  230.750  261.156   57.988    0.462    0.340   27.844
  231.000  257.826   55.188    0.464    0.346   27.802
  231.250  256.580   55.315    0.463    0.350   27.352
  231.500  256.895   57.370    0.451    0.356   26.210
  231.750  257.523   57.247    0.445    0.356   25.306
  232.000  257.735   57.497    0.445    0.347   24.208
  232.250  257.735   60.860    0.435    0.338   23.501
  232.500  259.202   64.409    0.431    0.320   22.651
  232.750  259.411   67.523    0.439    0.297   21.991
  233.000  260.352   70.636    0.468    0.323   20.719
  233.250  261.501   73.750    0.481    0.338   19.193
  233.500  262.754   76.427    0.471    0.337   15.153
  233.750  264.008   81.906    0.486    0.327    9.987
  234.000  263.803   89.314    0.505    0.253    6.559
  234.250  263.285   93.922    0.519    0.235    4.903
  234.500  262.351   95.977    0.524    0.247    4.399
  234.750  262.042   93.364    0.516    0.249    4.511
  235.000  261.732   93.615    0.476    0.255    4.821
  235.250  261.840   96.666    0.481    0.253    4.742
  235.500  261.843  101.087    0.533    0.259    4.402
  235.750  262.055  102.707    0.552    0.258    4.024
  236.000  262.162  102.895    0.562    0.251    3.631
  236.250  261.957  102.025    0.559    0.246    3.308
  236.500  261.960  101.404    0.544    0.251    3.212
  236.750  262.380  101.530    0.549    0.247    3.159
  237.000  262.280  102.901    0.574    0.241    3.138
  237.250  262.283  104.645    0.542    0.245    3.128
  237.500  262.181  105.020    0.538    0.253    3.183
  237.750  262.081  104.274    0.570    0.248    3.215
  238.000  262.293  101.848    0.566    0.242    3.211
  238.250  262.400  102.037    0.545    0.237    3.171
  238.500  262.819  103.656    0.542    0.238    3.085
  238.750  263.135  105.463    0.576    0.243    2.984
  239.000  263.035  102.912    0.587    0.242    2.925
  239.250  263.350   95.383    0.581    0.238    2.910
  239.500  263.666   88.538    0.613    0.233    2.923
  239.750  263.565   77.398    0.596    0.229    3.106
  240.000  263.048   68.001    0.546    0.219    3.640
  240.250  262.426   64.891    0.498    0.268    4.641
  240.500  260.242   62.963    0.505    0.309    7.321
  240.750  259.932   61.221    0.497    0.325   10.393
  241.000  259.414   58.982    0.483    0.338   13.893
  241.250  259.105   56.743    0.472    0.353   17.289
  241.500  259.421   55.686    0.461    0.358   20.110
  241.750  259.737   54.941    0.456    0.354   21.531
  242.000  259.844   55.005    0.460    0.351   21.668
  242.250  259.744   55.255    0.466    0.348   20.684
  242.500  259.746   54.510    0.476    0.348   18.523
  242.750  259.646   52.706    0.466    0.346   17.257
  243.000  259.337   52.147    0.486    0.337   16.755
  243.250  259.444   52.896    0.481    0.309   16.609
  243.500  259.239   54.702    0.465    0.311   17.851
  243.750  259.034   57.069    0.455    0.339   18.406
  244.000  258.517   60.556    0.466    0.341   17.473
  244.250  258.728   62.362    0.489    0.339   16.682
  244.500  259.044   61.368    0.493    0.332   17.007
  244.750  259.151   58.008    0.513    0.325   18.041
  245.000  259.258   56.205    0.508    0.333   18.086
  245.250  258.741   56.953    0.499    0.332   18.130
  245.500  259.473   57.951    0.486    0.327   18.108
  245.750  258.747   58.202    0.474    0.324   17.851
  246.000  258.334   58.452    0.491    0.327   17.559
  246.250  258.754   58.764    0.518    0.326   17.569
  246.500  258.028   59.762    0.518    0.329   18.601
  246.750  256.782   60.572    0.487    0.329   19.326
  247.000  256.263   62.752    0.488    0.327   19.780
  247.250  256.580   64.808    0.505    0.314   19.643
  247.500  256.791   66.925    0.509    0.301   19.508
  247.750  256.898   68.981    0.504    0.271   19.520
  248.000  256.798   66.306    0.464    0.222   19.532
  248.250  256.696   68.548    0.437    0.208   19.508
  248.500  256.908   72.470    0.440    0.251   19.410
  248.750  256.912   67.804    0.446    0.308   19.168
  249.000  256.914   60.959    0.454    0.310   18.823
  249.250  257.335   59.840    0.466    0.315   18.657
  249.500  258.275   60.900    0.466    0.322   18.668
  249.750  259.528   59.283    0.468    0.315   18.543
  250.000  261.407   58.600    0.485    0.307   18.448
  250.250  261.723   59.286    0.497    0.307   17.979
  250.500  260.684   60.781    0.504    0.320   17.688
  250.750  259.645   64.891    0.504    0.334   17.699
  251.000  259.128   63.771    0.501    0.336   17.415
  251.250  259.131   63.960    0.484    0.346   17.100
  251.500  259.135   64.335    0.463    0.338   17.013
  251.750  259.137   64.336    0.485    0.335   17.023
  252.000  258.932   65.272    0.487    0.353   17.228
  252.250  258.832   64.962    0.472    0.352   17.434
  252.500  259.043   62.598    0.475    0.346   17.609
  252.750  259.151   59.176    0.472    0.339   17.719
  253.000  258.946   59.115    0.442    0.347   17.697
  253.250  258.429   61.171    0.452    0.345   17.576
  253.500  257.910   63.600    0.480    0.325   17.161
  253.750  257.915   65.281    0.494    0.307   16.446
  254.000  258.021   67.586    0.510    0.314   15.967
  254.250  258.442   67.276    0.503    0.329   15.388
  254.500  258.861   66.158    0.477    0.325   14.914
  254.750  259.073   67.777    0.469    0.325   14.507
  255.000  259.284   71.077    0.471    0.330   13.980
  255.250  259.183   70.892    0.495    0.335   13.473
  255.500  259.395   69.213    0.511    0.336   13.429
  255.750  259.398   66.912    0.506    0.328   13.539
  256.000  259.610   65.482    0.502    0.322   13.371
  256.250  259.613   65.857    0.507    0.313   13.105
  256.500  259.408   66.107    0.483    0.307   12.868
  256.750  259.203   64.802    0.473    0.307   12.708
  257.000  259.206   64.119    0.493    0.315   12.934
  257.250  259.314   65.613    0.514    0.322   13.848
  257.500  259.630   67.793    0.517    0.320   14.661
  257.750  259.737   70.347    0.497    0.291   12.859
  258.000  260.053   72.838    0.476    0.267   10.682
  258.250  260.473   75.827    0.480    0.276    8.839
  258.500  261.100   78.380    0.492    0.283    7.931
  258.750  261.521   79.253    0.497    0.267    7.515
  259.000  261.628   78.445    0.488    0.251    7.352
  259.250  261.631   79.941    0.453    0.260    7.247
