~VERSION INFORMATION
 VERS.                 2.0:   CWLS LOG ASCII STANDARD -VERSION 2.0
 WRAP.                  NO:   ONE LINE PER DEPTH STEP
~WELL INFORMATION BLOCK
#MNEM.UNIT           DATA                    DESCRIPTION OF MNEMONIC
#---------    -------------------            -------------------------------
# Generated from Intellog Unique Number	CN_94_101/WELL/2832
WELL.         06-08-096-14W4                 : Well_name    - WELL
LOC .         AA/06-08-096-14W4/0            : Location     - LOCATION
UWI .         AA/06-08-096-14W400            : Uwi          - UNIQUE WELL ID
ENTR.         JOETTE                         : Entered      - ENTERED BY
SRVC.         SCHLUMBERGER                   : Scn          - SERVICE COMPANY
DATE.         07/07/92                       : Date         - LOG DATE
STRT.M        40                             : top_depth    - START DEPTH
STOP.M        310                            : bot_depth    - STOP DEPTH
STEP.M        0.25                           : increment    - STEP LENGTH
 NULL. -999.2500:NULL Value
~CURVE INFORMATION BLOCK
#MNEM UNIT       ERCB CURVE CODE    CURVE DESCRIPTION
#-----------   ------------------   ----------------------------------
DEPT.M        00 001 00 00         : DEPTH        - DEPTH
CALI.MM       00 280 01 00         : CAL          - CALIPER
GR  .API      00 310 00 00         : GR           - GAMMA RAY
NPHI.V/V      00 330 00 00         : PHIN         - NEUTRON POROSITY (SANDSTONE)
DPHI.V/V      00 890 00 00         : PHID         - DENSITY POROSITY (SANDSTONE)
ILD .OHMM     00 120 00 00         : RESD         - DEEP RESISTIVITY (DIL)
~PARAMETER INFORMATION
#MNEM.UNIT           DATA             DESCRIPTION OF MNEMONIC
#---------         -----------     ------------------------------
GL  .M        559.67               : gl           - GROUND LEVEL ELEVATION
EREF.M        562.67               : kb           - ELEVATION OF DEPTH REFERENCE
DATM.M        562.67               : datum        - DATUM ELEVATION
TDD .M        320                  : tdd          - TOTAL DEPTH DRILLER
RUN .         ONE                  : Run          - RUN NUMBER
ENG .         JO                   : Engineer     - RECORDING ENGINEER
WIT .         TIM                  : Witness      - WITNESSED BY
MUD .         GEL                  : Mud_type     - MUD TYPE
MATR.         SANDSTONE            : Logunit      - NEUTRON MATRIX
TMAX.C        17                   : BHT          - MAXIMUM RECORDED TEMPERATURE
BHTD.M        320                  : BHTDEP       - MAXIMUM RECORDED TEMPERATURE
RMT .C        15                   : MDTP         - TEMPERATURE OF MUD
MUDD.KG/M     1120                 : MWT          - MUD DENSITY
NEUT.         1                    : NEUTRON      - NEUTRON TYPE
RESI.         0                    : RESIST       - RESISTIVITY TYPE
RM  .OHMM     0.709                : RM           - RESISTIVITY OF MUD
RMC .OHMM     0.709                : RMC          - RESISTIVITY OF MUD CAKE
RMF .OHMM     0.709                : RMF          - RESISTIVITY OF MUD FILTRATE
SUFT.C        4                    : SUFT         - SURFACE TEMPERATURE
~A  DEPTH      CAL       GR     PHIN     PHID     RESD
# ...
  259.000  207.205   77.368    0.526    0.252    3.832
  259.250  205.408   76.312    0.534    0.250    4.138
  259.500  204.547   75.773    0.523    0.245    4.072
  259.750  202.712   74.695    0.491    0.246    3.651
  260.000  200.915   75.951    0.504    0.243    3.217
  260.250  199.155   75.457    0.501    0.234    2.995
  260.500  197.321   74.379    0.486    0.216    2.789
  260.750  195.561   72.717    0.469    0.201    2.593
  261.000  194.700   69.887    0.456    0.181    2.286
  261.250  193.876   62.948    0.443    0.201    2.249
  261.500  193.051   60.725    0.458    0.254    2.131
  261.750  192.265   60.814    0.577    0.269    2.023
  262.000  192.414   59.714    0.592    0.295    1.916
  262.250  192.562   55.133    0.590    0.329    1.784
  262.500  192.674   51.135    0.580    0.332    1.927
  262.750  192.674   47.744    0.539    0.330    2.284
  263.000  194.992   46.621    0.535    0.332    3.318
  263.250  194.131   46.127    0.528    0.323    4.734
  263.500  194.317   51.493    0.470    0.315    5.609
  263.750  194.392   55.669    0.458    0.322    5.624
  264.000  193.568   61.012    0.491    0.314    4.956
  264.250  191.808   66.962    0.498    0.304    4.785
  264.500  190.984   70.554    0.522    0.285    5.171
  264.750  188.251   73.562    0.537    0.282    5.688
  265.000  187.352   73.090    0.532    0.291    3.520
  265.250  184.619   69.654    0.529    0.300    4.018
  265.500  181.849   64.490    0.530    0.297    5.130
  265.750  180.988   59.302    0.537    0.288    5.536
  266.000  178.292   52.970    0.527    0.291    6.325
  266.250  177.394   57.146    0.498    0.281    6.825
  266.500  176.570   63.679    0.463    0.240    6.477
  266.750  175.783   67.294    0.425    0.218    6.254
  267.000  176.905   65.654    0.434    0.219    6.634
  267.250  179.973   63.408    0.443    0.234    7.164
  267.500  183.003   61.702    0.451    0.238    7.594
  267.750  177.314   58.288    0.444    0.233    8.669
  268.000  177.463   53.707    0.427    0.242   10.089
  268.250  176.639   50.271    0.419    0.263   10.895
  268.500  173.869   46.296    0.413    0.269   11.336
  268.750  172.035   44.006    0.408    0.241   11.359
  269.000  171.248   40.615    0.403    0.240   10.780
  269.250  171.397   39.536    0.392    0.239   10.043
  269.500  171.508   37.897    0.384    0.239    9.697
  269.750  171.694   37.941    0.311    0.216    9.363
  270.000  171.843   36.863    0.256    0.125    9.215
  270.250  172.029   37.536    0.242    0.108    9.064
  270.500  172.104   42.880    0.247    0.124    8.763
  270.750  173.263   54.084    0.278    0.182    8.467
  271.000  174.385   64.704    0.312    0.204    8.180
  271.250  176.480   61.874    0.410    0.220    9.867
  271.500  181.531   57.271    0.437    0.256   11.697
  271.750  180.670   53.857    0.446    0.278   12.885
  272.000  171.089   51.028    0.459    0.289   12.902
  272.250  167.345   49.366    0.463    0.285   12.937
  272.500  167.532   49.455    0.450    0.266   12.971
  272.750  167.606   51.880    0.433    0.271   13.015
  273.000  167.755   54.304    0.421    0.274   13.303
  273.250  167.941   54.393    0.406    0.276   13.329
  273.500  169.063   52.148    0.412    0.270   13.615
  273.750  169.212   47.589    0.414    0.255   13.916
  274.000  170.371   45.927    0.404    0.256   14.205
  274.250  171.493   45.410    0.411    0.277   14.509
  274.500  173.588   45.522    0.414    0.278   14.538
  274.750  177.592   45.589    0.406    0.274   14.319
  275.000  180.697   45.094    0.400    0.274   13.835
  275.250  177.927   43.432    0.408    0.272   13.626
  275.500  174.146   41.209    0.413    0.261   13.393
  275.750  172.349   39.524    0.408    0.253   13.420
  276.000  170.589   37.301    0.398    0.257   12.975
  276.250  169.765   35.639    0.386    0.269   13.001
  276.500  168.941   35.683    0.358    0.281   12.561
  276.750  169.090   36.401    0.385    0.301   12.363
  277.000  169.239   36.446    0.403    0.312   11.098
  277.250  169.425   37.119    0.403    0.308    9.950
  277.500  170.510   37.792    0.398    0.304    8.756
  277.750  170.621   39.071    0.394    0.304    8.152
  278.000  171.743   40.306    0.389    0.304    7.737
  278.250  173.876   41.608    0.406    0.304    7.620
  278.500  175.035   42.258    0.413    0.299    7.630
  278.750  175.109   43.538    0.412    0.296    7.515
  279.000  176.268   44.211    0.404    0.286    7.535
  279.250  177.427   45.445    0.392    0.277    7.280
  279.500  178.475   47.870    0.399    0.288    7.029
  279.750  181.543   52.068    0.413    0.281    6.544
  280.000  185.621   55.054    0.407    0.268    5.867
  280.250  189.662   57.501    0.412    0.231    6.575
  280.500  190.747   58.758    0.428    0.221    7.652
  280.750  192.916   62.934    0.409    0.214    8.417
  281.000  193.102   67.694    0.396    0.215    8.770
  281.250  193.177   72.476    0.380    0.211    8.788
  281.500  193.363   76.068    0.388    0.205    8.817
  281.750  193.512   79.077    0.400    0.193    8.835
  282.000  193.661   79.188    0.409    0.190    8.853
  282.250  193.809   78.694    0.421    0.206    8.853
  282.500  193.958   78.177    0.428    0.204    8.280
  282.750  195.080   74.808    0.429    0.216    8.760
  283.000  195.229   73.124    0.423    0.215    8.783
  283.250  195.378   69.149    0.414    0.210    8.645
  283.500  194.517   70.361    0.404    0.216    8.503
  283.750  193.730   73.370    0.397    0.221    8.221
  284.000  192.906   77.006    0.398    0.220    7.943
  284.250  193.055   78.219    0.429    0.216    7.818
  284.500  192.193   80.643    0.448    0.206    7.844
  284.750  191.444   77.836    0.460    0.194    7.854
  285.000  191.555   74.400    0.452    0.205    9.312
  285.250  190.694   72.154    0.438    0.208   10.062
  285.500  190.880   70.492    0.420    0.211   10.096
  285.750  190.056   71.165    0.410    0.218    9.930
  286.000  190.205   73.612    0.401    0.226    9.761
  286.250  190.317   74.847    0.404    0.232    9.607
  286.500  190.503   76.710    0.416    0.239    9.124
  286.750  190.615   77.967    0.411    0.236    8.809
  287.000  190.838   79.224    0.407    0.226    8.355
  287.250  190.912   81.042    0.408    0.214    8.218
  287.500  191.099   83.489    0.400    0.202    8.094
  287.750  191.247   85.330    0.411    0.194    8.115
  288.000  191.434   84.858    0.414    0.194    7.993
  288.250  191.508   83.173    0.412    0.193    8.003
  288.500  191.694   82.073    0.408    0.193    8.186
  288.750  190.870   79.827    0.401    0.192    8.197
  289.000  190.982   76.997    0.398    0.194    8.224
  289.250  191.131   74.168    0.399    0.196    8.406
  289.500  190.344   68.419    0.413    0.202    8.575
  289.750  190.456   68.508    0.424    0.205    8.604
  290.000  190.642   71.516    0.426    0.207    8.794
  290.250  189.855   75.131    0.420    0.224    8.806
  290.500  189.929   76.972    0.408    0.213    8.829
  290.750  190.078   78.251    0.393    0.204    8.853
  291.000  188.281   79.508    0.394    0.216    9.042
  291.250  185.511   80.720    0.392    0.210    9.242
  291.500  183.677   84.357    0.388    0.207    9.617
  291.750  179.933   87.927    0.392    0.222   10.007
  292.000  177.163   90.352    0.413    0.243   10.215
  292.250  178.285   93.944    0.423    0.239   11.038
  292.500  174.542   89.969    0.420    0.257   11.493
  292.750  170.836   85.949    0.412    0.247   11.509
  293.000  169.002   80.178    0.398    0.236   11.539
  293.250  168.178   70.927    0.397    0.229   11.570
  293.500  172.219   65.762    0.425    0.230   11.179
  293.750  171.469   61.158    0.446    0.221   12.528
  294.000  169.635   58.935    0.434    0.250   12.104
  294.250  168.848   59.024    0.423    0.240   11.479
  294.500  169.895   59.720    0.414    0.248   12.396
  294.750  172.963   62.144    0.425    0.258   13.901
  295.000  176.031   62.773    0.428    0.270   14.726
  295.250  172.363   62.862    0.427    0.271   13.966
