~Version : LASO    vs 4.00
VERS.                2.00:   CWLS Log ASCII Standard -VERSION 2.0
WRAP.                  NO:
~Well Information Block
#MNEM.UNIT       Data                        Description of Mnemonic
#----.----      -------------------------- : -----------------------------
STRT.M            30.0000:
STOP.M           204.0000:
STEP.M             0.2000:
NULL.           -999.2500:
COMP.  MOBIL OIL OF CANADA                    :COMPANY
WELL.  MOBIL CLARKE OV PROGRAM 2-81 4-3       :WELL
FLD.                                          :FIELD
LOC.   04-03-090-07W4                         :LOCATION
CTRY.  CANADA                                 :COUNTRY
PROV.  ALBERTA                                :PROVINCE
SRVC.  SCHLUMBERGER                           :SERVICE COMPANY
DATE.  26-JAN-81                              :LOG DATE
UWI.   AA/04-03-090-07W400                    :UNIQUE WELL ID
~Parameter Information Block
#MNEM.UNIT       Data                        Description of Mnemonic
#----.----      -------------------------- : -----------------------------
RUN .                   1                 : Run Number
GL  .M           466.8000                 : Ground Level Elevation
DREF.                  GD                 : Depth Reference
EREF.M           466.8000                 : Elevation of Depth Reference
TDL .M           205.0000                 : Total Depth Logger
TDD .M           205.0000                 : Total Depth Driller
BHT .DEGC         19.0000                 : Bottom Hole Temperature
BS  .MM          159.0000                 : Bit Size
DFD .            980.0000                 : Mud Weight (Density)
DFV .             38.0000                 : Mud Viscosity
DFPH.             10.0000                 : Mud pH
~Curve Information Block
#MNEM.UNIT        API CODE    Curve Description
#---------    ------------    -------------------------------------------
DEPT.M                    :   DEPTH
CALI.MM       42 280  1  1:   3 DENSITY CALIPER
DPHI.V/V                  :   DPHI
DT  .US/M     60 520  0  1:   2 SONIC INTERVAL TRANSIT TIME (COMPENSATED)
GR  .GAPI     42 310  1  1:   4 GAMMA RAY
ILD .OHMM      5 120 46  1:   7 DEEP INDUCTION
ILM .OHMM      5 120 44  1:   8 MEDIUM INDUCTION
NPHI.V/V      42 890  3  1:   5 NEUTRON POROSITY (SANDSTONE)
RHOB.K/M3     42 350  1  1:   6 BULK DENSITY
SFLU.OHMM      5 220  1  1:   9 FOCUSSED RESISTIVITY
SP  .MV        5  10  1  1:   10 SPONTANEOUS POTENTIAL
~A  Depth           CALI        DPHI          DT          GR         ILD         ILM        NPHI        RHOB        SFLU          SP
# ...
188.6000        164.6250      0.2549    532.0400     96.4800      9.7237      8.4690      0.4132   2234.2000      9.4587    -71.3250
188.8000        162.0750      0.2626    533.4800    100.2750      9.4587      8.6264      0.4152   2210.1001      7.3762    -71.3250
189.0000        158.2750      0.2658    525.6801    102.3750      8.9501      8.3913      0.4220   2198.1001      8.3144    -72.3450
189.2000        159.5500      0.2650    510.0400    106.2750      8.6264      8.0136      0.4158   2220.1001      9.5462    -73.1100
189.4000        162.0750      0.2758    510.8800    124.7850      8.0878      7.2415      0.3996   2154.1001      7.2415    -72.0900
189.6000        164.6250      0.2996    514.5600    133.0800      7.8674      7.0442      0.3928   2090.0000      5.3930    -71.8350
189.8000        164.6250      0.3268    503.8400    140.3850      7.5133      6.8522      0.4228   2088.0000      5.6994    -72.0900
190.0000        168.4250      0.3287    521.1600    145.0800      6.9156      6.4838      0.4528   2148.0000      6.1352    -70.8150
190.2000        172.2500      0.3055    540.4800    143.3850      6.7271      6.3655      0.4738   2156.1001      5.9133    -70.5600
190.4000        172.2500      0.2990    571.2800    141.6900      6.6043      6.2493      0.4822   2165.1001      5.6994    -70.3050
190.6000        170.9750      0.3040    573.3600    141.8850      6.5438      6.1920      0.4724   2148.0000      5.5954    -70.0500
190.8000        172.2500      0.3127    570.0400    142.0800      6.4244      6.0790      0.4728   2132.0000      5.2946    -69.7950
191.0000        174.7750      0.3069    564.3200    143.3850      6.3655      6.0790      0.4856   2131.0000      5.1503    -70.3050
191.2000        173.5250      0.3116    554.0400    145.6800      6.3071      6.0790      0.4904   2162.1001      5.3930    -70.8150
191.4000        160.8250      0.3218    556.4800    149.8800      6.1920      5.9680      0.5016   2103.0000      7.4444    -71.8350
191.6000        168.4250      0.3186    565.1200    152.1900      6.1352      5.8591      0.5208   2138.0000      6.9796    -71.8350
191.8000        164.6250      0.3026    560.6000    153.2850      6.1352      5.8054      0.5296   2176.1001      5.5954    -71.3250
192.0000        157.0000      0.2988    561.6400    150.0900      6.0232      5.7521      0.5284   2152.0000      5.0099    -71.3250
192.2000        162.0750      0.2975    565.5200    145.6800      5.9680      5.7521      0.5168   2158.1001      5.1503    -71.3250
192.4000        158.2750      0.2937    569.2400    143.1900      6.0232      5.7521      0.4630   2192.1001      5.1979    -71.3250
192.6000        160.8250      0.2854    574.6000    132.8850      6.1920      5.9133      0.4432   2178.1001      4.9640    -71.8350
192.8000        163.3500      0.2858    575.0000    124.1850      6.4244      6.0790      0.4908   2173.1001      5.0099    -72.3450
193.0000        162.0750      0.2799    576.2400    114.7800      6.7271      6.3071      0.5008   2164.1001      5.0563    -72.6000
193.2000        160.8250      0.2760    581.1600     91.7850      7.3762      7.1094      0.5134   2234.2000      6.2493    -72.8550
193.4000        159.5500      0.2675    583.0000     83.2800      7.7952      7.6530      0.5240   2213.1001      8.1626    -72.6000
193.6000        155.7500      0.2664    578.6800     79.2750      8.2382      8.0136      0.4744   2233.2000      9.4587    -71.5800
193.8000        157.0000      0.2479    564.9200     77.0850      8.8681      8.4690      0.4428   2282.2000     10.2761    -70.0500
194.0000        155.7500      0.2322    545.2000     73.2750     10.2761      9.7237      0.4124   2349.3000     10.5640    -66.9900
194.2000        155.7500      0.2172    517.8800     72.4800     10.9605     10.4672      0.3778   2390.3999     10.9605    -65.4600
194.4000        157.0000      0.1884    475.5200     71.5800     11.6904     11.1643      0.3448   2432.3999     11.9078    -64.1850
194.6000        158.2750      0.1344    464.0400     72.1800     13.2993     12.5843      0.3322   2462.5000     14.9910    -62.6550
194.8000        159.5500      0.1197    470.6000     71.7750     14.0550     13.4224      0.3136   2442.5000     14.9910    -62.9100
195.0000        158.2750      0.1112    452.3200     71.6850     14.4487     14.4487      0.2824   2457.5000     16.1373    -64.4400
195.2000        158.2750      0.1100    436.8800     81.4800     14.9910     14.4487      0.2740   2491.5000     23.3254    -66.9900
195.4000        158.2750      0.1107    423.1200     83.3850     15.2697     14.1850      0.2700   2473.5000     21.6686    -64.4400
195.6000        157.0000      0.1068    397.0400     82.2750     15.4110     14.4487      0.2512   2465.5000     16.8978    -63.6750
195.8000        157.0000      0.1082    389.2400     82.9800     15.2697     14.5824      0.2640   2478.5000     14.7174    -63.6750
196.0000        157.0000      0.1052    391.4800     82.2750     15.1297     14.4487      0.2828   2472.5000     15.6975    -63.1650
196.2000        157.0000      0.1015    405.0400     80.3850     15.2697     14.5824      0.2772   2486.5000     16.5894    -61.8900
196.4000        157.0000      0.1000    401.1600     79.7850     16.7429     15.4110      0.2678   2498.5000     15.2697    -60.8700
196.6000        155.7500      0.0987    390.0400     81.3750     17.8579     16.4373      0.2672   2490.5000     14.1850    -60.6150
196.8000        157.0000      0.0962    382.2400     81.7800     18.8725     18.3582      0.3056   2497.5000     19.7620    -60.6150
197.0000        157.0000      0.0888    385.9200     81.6750     19.7620     19.4013      0.3174   2510.6001     35.6312    -60.3600
197.2000        157.0000      0.0803    388.0000     81.3750     22.2756     20.8848      0.2488   2538.6001     55.4409    -60.6150
197.4000        157.0000      0.0744    380.6000     80.2800     23.7591     21.6686      0.2048   2536.6001     44.4457    -60.8700
197.6000        157.0000      0.0780    331.4800     79.5750     24.4247     22.2756      0.1892   2533.6001     40.1634    -61.1250
197.8000        157.0000      0.0859    294.2800     81.6750     23.5413     22.0714      0.1962   2488.5000     38.3557    -61.1250
198.0000        157.0000      0.0948    284.0000     80.8800     23.1116     21.2731      0.2012   2490.5000     34.0275    -60.8700
198.2000        157.0000      0.0971    298.8000     80.2800     22.6898     20.8848      0.2054   2509.6001     30.7489    -61.1250
198.4000        155.7500      0.0883    301.8800     80.1750     22.6898     21.0780      0.2066   2530.6001     24.6507    -61.6350
198.6000        157.0000      0.0761    298.2000     80.1750     22.6898     21.2731      0.2066   2554.6001     26.0513    -60.3600
198.8000        157.0000      0.0659    305.6000     80.1750     22.6898     21.6686      0.2142   2562.6001     30.4670    -59.5950
199.0000        157.0000      0.0689    319.5600     80.0850     23.3254     21.8691      0.2166   2539.6001     35.6312    -59.0850
199.2000        157.0000      0.0766    337.6400     80.0850     23.7591     22.0714      0.2192   2524.6001     35.3045    -59.0850
199.4000        157.0000      0.0834    318.3200     80.0850     23.9789     22.2756      0.2222   2516.6001     34.6601    -58.8300
199.6000        157.0000      0.0847    318.5200     80.0850     24.4247     22.2756      0.2218   2516.6001     35.3045    -58.8300
199.8000        157.0000      0.0818    331.6800     80.0850     24.6507     22.4817      0.2214   2536.6001     34.9808    -58.8300
200.0000        157.0000      0.0835    339.9200     80.0850     25.1090     22.8997      0.2160   2530.6001     34.3423    -59.0850
200.2000        157.0000      0.0815    342.3600     80.0850     25.3414     23.1116      0.2194   2517.6001     34.3423    -59.0850
200.4000        157.0000      0.0813    339.0800     79.8750     25.5758     23.7591      0.2200   2516.6001     38.3557    -60.1050
200.6000        157.0000      0.0849    341.1200     79.6800     25.8125     23.7591      0.2212   2508.5000     40.5350    -60.6150
