~VERSION INFORMATION
 VERS.                 2.0:   CWLS LOG ASCII STANDARD -VERSION 2.0
 WRAP.                  NO:   ONE LINE PER DEPTH STEP
~WELL INFORMATION BLOCK
#MNEM.UNIT           DATA                    DESCRIPTION OF MNEMONIC
#---------    -------------------            -------------------------------
# Generated from Intellog Unique Number	CN_91_93/WELL/4001
WELL.         AOSTRA AO-72                   : Well_name    - WELL
LOC .         09-20-092-13W4                 : Location     - LOCATION
UWI .         AA/09-20-092-13W400            : Uwi          - UNIQUE WELL ID
ENTR.         JOETTE                         : Entered      - ENTERED BY
SRVC.         CENTURY                        : Scn          - SERVICE COMPANY
DATE.         03/16/92                       : Date         - LOG DATE
STRT.M        50                             : top_depth    - START DEPTH
STOP.M        190                            : bot_depth    - STOP DEPTH
STEP.M        0.25                           : increment    - STEP LENGTH
 NULL. -999.2500:NULL Value
~CURVE INFORMATION BLOCK
#MNEM UNIT       ERCB CURVE CODE    CURVE DESCRIPTION
#-----------   ------------------   ----------------------------------
DEPT.M        00 001 00 00         : DEPTH        - DEPTH
GR  .API      00 310 00 00         : GR           - GAMMA RAY
DPHI.V/V      00 890 00 00         : PHID         - DENSITY POROSITY (SANDSTONE)
ILD .OHMM     00 120 00 00         : RESD         - DEEP RESISTIVITY (DIL)
~PARAMETER INFORMATION
#MNEM.UNIT           DATA             DESCRIPTION OF MNEMONIC
#---------         -----------     ------------------------------
GL  .M        437.9                : gl           - GROUND LEVEL ELEVATION
EREF.M        437.9                : kb           - ELEVATION OF DEPTH REFERENCE
DATM.M        437.9                : datum        - DATUM ELEVATION
TDD .M        174.3                : tdd          - TOTAL DEPTH DRILLER
RUN .         ONE                  : Run          - RUN NUMBER
ENG .         BILL                 : Engineer     - RECORDING ENGINEER
WIT .         JIM                  : Witness      - WITNESSED BY
MUD .         GEL                  : Mud_type     - MUD TYPE
MATR.         SANDSTONE            : Logunit      - NEUTRON MATRIX
TMAX.C        18                   : BHT          - MAXIMUM RECORDED TEMPERATURE
BHTD.M        194.3                : BHTDEP       - MAXIMUM RECORDED TEMPERATURE
RMT .C        18                   : MDTP         - TEMPERATURE OF MUD
MUDD.KG/M     1100                 : MWT          - MUD DENSITY
NEUT.         1                    : NEUTRON      - NEUTRON TYPE
RESI.         0                    : RESIST       - RESISTIVITY TYPE
RM  .OHMM     9.37                 : RM           - RESISTIVITY OF MUD
RMC .OHMM     9.37                 : RMC          - RESISTIVITY OF MUD CAKE
RMF .OHMM     9.37                 : RMF          - RESISTIVITY OF MUD FILTRATE
SUFT.C        4                    : SUFT         - SURFACE TEMPERATURE
~A  DEPTH       GR     PHID     RESD
# ...
  104.250   63.465    0.290   20.852
  104.500   63.561    0.298   16.757
  104.750   55.966    0.286   18.080
  105.000   60.795    0.273   18.824
  105.250   65.056    0.234   15.969
  105.500   52.113    0.219   16.615
  105.750   65.272    0.266   21.202
  106.000   65.959    0.298   23.769
  106.250   90.334    0.303   22.118
  106.500   65.535    0.293   21.386
  106.750   47.860    0.276   21.829
  107.000   62.769    0.261   21.486
  107.250   77.087    0.263   19.640
  107.500   84.306    0.283   13.603
  107.750   80.261    0.275    9.416
  108.000   75.624    0.262   13.425
  108.250   79.270    0.240   15.041
  108.500   79.957    0.266   19.180
  108.750   77.687    0.285   15.701
  109.000   81.356    0.266   17.579
  109.250   66.614    0.218   10.904
  109.500   64.344    0.242    9.961
  109.750   77.479    0.288   11.159
  110.000   91.205    0.308   13.216
  110.250   97.241    0.306   16.864
  110.500   84.298    0.317   15.133
  110.750   83.211    0.306   12.372
  111.000   89.247    0.281   12.413
  111.250   82.219    0.273   12.226
  111.500   82.315    0.304   11.377
  111.750  102.573    0.308   13.226
  112.000   77.207    0.259   14.547
  112.250   89.135    0.205   12.131
  112.500  100.495    0.249   13.088
  112.750   89.350    0.291   10.907
  113.000   93.588    0.258   17.701
  113.250   85.377    0.175   15.027
  113.500   76.008    0.224   17.808
  113.750   63.065    0.233   21.469
  114.000   57.860    0.171   31.764
  114.250   61.482    0.121   14.368
  114.500   69.884    0.075    6.870
  114.750   75.920    0.157    6.638
  115.000   81.340    0.224    6.072
  115.250  103.349    0.291    6.798
  115.500   90.430    0.285    7.616
  115.750  101.198    0.280   10.085
  116.000   81.132    0.274   13.100
  116.250  109.672    0.253   11.755
  116.500  103.852    0.240   12.007
  116.750  106.315    0.248   12.039
  117.000   99.311    0.254   11.850
  117.250   91.101    0.246   11.897
  117.500   85.873    0.249   12.853
  117.750   84.809    0.255   13.111
  118.000   81.947    0.170   16.112
  118.250   89.142    0.144   23.839
  118.500   86.280    0.175   22.612
  118.750  102.373    0.263   17.179
  119.000   94.778    0.239   15.997
  119.250   89.550    0.229   16.644
  119.500   92.012    0.222   18.647
  119.750   73.129    0.232   19.763
  120.000   73.817    0.241   19.453
  120.250   85.769    0.252   21.016
  120.500   88.870    0.258   20.321
  120.750   90.717    0.265   17.239
  121.000   78.366    0.255   24.563
  121.250   80.828    0.258   18.662
  121.500   86.272    0.243   29.187
  121.750   77.470    0.191   46.500
  122.000   76.975    0.151   72.726
  122.250   52.200    0.112   51.278
  122.500   64.743    0.115   42.761
  122.750   73.737    0.198   33.666
  123.000   59.611    0.261   26.541
  123.250   68.580    0.290   22.531
  123.500   78.757    0.276   19.127
  123.750   66.997    0.221   22.666
  124.000   62.361    0.182   15.678
  124.250   57.724    0.202   16.024
  124.500   51.312    0.231   18.288
  124.750   67.405    0.272   22.474
  125.000   75.807    0.278   24.750
  125.250   76.495    0.273   27.203
  125.500   71.266    0.260   26.793
  125.750   68.404    0.241   23.170
  126.000   64.335    0.243   26.425
  126.250   51.984    0.256   28.007
  126.500   42.022    0.247   31.985
  126.750   56.364    0.195   42.325
  127.000   59.986    0.167   75.346
  127.250   70.754    0.105   46.705
  127.500   63.751    0.196   37.483
  127.750   53.766    0.249   29.028
  128.000   74.024    0.211   32.500
  128.250   66.997    0.192   42.246
  128.500   64.727    0.164   38.617
  128.750   72.537    0.246   33.372
  129.000   68.516    0.274   30.505
  129.250   74.528    0.273   28.935
  129.500   68.684    0.262   27.446
  129.750   59.906    0.158   27.520
  130.000   69.467    0.119   37.813
  130.250   70.746    0.232   46.500
  130.500   73.233    0.266   36.635
  130.750   74.536    0.256   25.391
  131.000   75.199    0.242   22.769
  131.250   78.845    0.260   20.799
  131.500   78.965    0.268   20.097
  131.750   87.343    0.258   17.704
  132.000   86.847    0.251   16.485
  132.250   65.622    0.241   19.536
  132.500   82.306    0.195   26.334
  132.750   95.441    0.166   29.523
  133.000   81.906    0.130   19.331
  133.250   77.294    0.156   12.426
  133.500   84.489    0.232   14.182
  133.750  101.173    0.223   14.229
  134.000   88.822    0.218   12.526
  134.250   94.266    0.221   12.329
  134.500  108.584    0.252   11.277
  134.750   87.926    0.245   11.519
  135.000   98.695    0.233   11.549
  135.250  103.547    0.218   10.955
  135.500  107.193    0.249   12.511
  135.750   95.433    0.194   14.269
  136.000   77.166    0.124   13.534
  136.250   73.120    0.122   14.613
  136.500   91.580    0.167   20.453
  136.750   87.534    0.220   20.891
  137.000   89.405    0.231   12.950
  137.250   82.993    0.273   11.400
  137.500   81.906    0.286   13.761
  137.750  103.939    0.276   13.554
  138.000   97.503    0.269   13.097
  138.250  103.539    0.257   13.377
  138.500   94.146    0.251   13.663
  138.750   78.860    0.262   13.955
  139.000   73.608    0.268   17.149
  139.250   71.953    0.255   23.117
  139.500   77.373    0.185   15.147
  139.750   84.568    0.137   12.614
  140.000   95.337    0.176   10.909
  140.250  107.288    0.231   12.927
  140.500  105.634    0.252   12.499
  140.750  113.420    0.243   10.802
  141.000  108.783    0.248   10.051
  141.250  116.570    0.254    9.534
  141.500   94.162    0.239    9.043
  141.750  106.113    0.246    8.584
  142.000   96.720    0.266    8.449
  142.250   95.041    0.294    8.322
  142.500  114.092    0.289    8.191
  142.750   71.545    0.245    8.213
  143.000   62.743    0.147    9.542
  143.250   88.325    0.075   17.303
  143.500  103.235    0.101   27.062
  143.750  115.778    0.193   10.364
  144.000  112.916    0.266   10.201
  144.250   99.406    0.261    8.815
  144.500   89.421    0.248    9.172
  144.750   97.207    0.233    9.196
  145.000   99.078    0.254   10.121
  145.250  102.747    0.227   18.354
  145.500  105.825    0.169   11.798
  145.750   92.858    0.198   10.594
  146.000  101.260    0.241   10.622
  146.250  106.681    0.225   10.455
  146.500  114.491    0.216   10.483
  146.750  102.140    0.201   11.745
  147.000   93.953    0.164   15.831
  147.250   92.275    0.125   24.306
  147.500  100.677    0.199   14.781
  147.750  109.055    0.223   11.439
  148.000   93.745    0.233   10.265
  148.250  105.697    0.169   10.880
  148.500  105.793    0.161   12.205
  148.750   92.874    0.194   13.414
  149.000   82.297    0.236    9.998
  149.250   96.615    0.254    9.847
  149.500   95.552    0.250    9.341
  149.750  102.747    0.229    9.534
  150.000  110.534    0.172   11.724
  150.250   96.999    0.164   15.240
  150.500   92.954    0.180   12.459
  150.750   99.581    0.199   10.781
  151.000  104.434    0.223   10.612
  151.250  109.854    0.234   11.450
  151.500  118.824    0.188   12.836
  151.750   83.376    0.199   11.100
  152.000   94.737    0.236   10.926
  152.250  101.955    0.249   10.955
  152.500   97.295    0.255   10.585
  152.750  107.472    0.232   10.034
  153.000   95.144    0.213   11.257
  153.250   85.159    0.230   11.080
  153.500   79.339    0.228   11.954
  153.750   84.759    0.212   11.767
  154.000  100.852    0.238    8.945
  154.250   91.483    0.273    8.027
  154.500   90.395    0.274    7.469
  154.750   96.407    0.266    7.352
  155.000   94.728    0.257    7.650
  155.250  111.437    0.251    6.864
  155.500   87.230    0.225    7.690
  155.750   76.653    0.193    9.107
  156.000   86.830    0.216   13.475
  156.250   89.292    0.234    8.824
  156.500   75.190    0.227    9.018
  156.750   75.286    0.228    9.558
  157.000   81.297    0.242   10.709
  157.250   84.967    0.219   24.714
  157.500   84.471    0.127   20.596
  157.750   83.384    0.183   10.212
  158.000   81.114    0.224    8.831
  158.250   75.270    0.241    5.275
