~VERSION INFORMATION
 VERS.                 2.0:   CWLS LOG ASCII STANDARD -VERSION 2.0
 WRAP.                  NO:   ONE LINE PER DEPTH STEP
~WELL INFORMATION BLOCK
#MNEM.UNIT           DATA                    DESCRIPTION OF MNEMONIC
#---------    -------------------            -------------------------------
# Generated from Intellog Unique Number	CN_94_101/WELL/4983
WELL.         06-18-097-15W4                 : Well_name    - WELL
LOC .         AA/06-18-097-15W4/0            : Location     - LOCATION
UWI .         AA/06-18-097-15W400            : Uwi          - UNIQUE WELL ID
ENTR.         JOETTE                         : Entered      - ENTERED BY
SRVC.         SCHLUMBERGER                   : Scn          - SERVICE COMPANY
DATE.         08/17/92                       : Date         - LOG DATE
STRT.M        243.84                         : top_depth    - START DEPTH
STOP.M        502.84                         : bot_depth    - STOP DEPTH
STEP.M        0.25                           : increment    - STEP LENGTH
 NULL. -999.2500:NULL Value
~CURVE INFORMATION BLOCK
#MNEM UNIT       ERCB CURVE CODE    CURVE DESCRIPTION
#-----------   ------------------   ----------------------------------
DEPT.M        00 001 00 00         : DEPTH        - DEPTH
ILD .OHMM     00 120 00 00         : RESD         - DEEP RESISTIVITY (DIL)
GR  .API      00 310 00 00         : GR           - GAMMA RAY
NPHI.V/V      00 330 00 00         : PHIN         - NEUTRON POROSITY (SANDSTONE)
~PARAMETER INFORMATION
#MNEM.UNIT           DATA             DESCRIPTION OF MNEMONIC
#---------         -----------     ------------------------------
GL  .M        734.964              : gl           - GROUND LEVEL ELEVATION
EREF.M        734.964              : kb           - ELEVATION OF DEPTH REFERENCE
DATM.M        734.964              : datum        - DATUM ELEVATION
TDD .M        505.358              : tdd          - TOTAL DEPTH DRILLER
RUN .         ONE                  : Run          - RUN NUMBER
ENG .         JO                   : Engineer     - RECORDING ENGINEER
WIT .         TIM                  : Witness      - WITNESSED BY
MUD .         GEL                  : Mud_type     - MUD TYPE
MATR.         SANDSTONE            : Logunit      - NEUTRON MATRIX
TMAX.C        15                   : BHT          - MAXIMUM RECORDED TEMPERATURE
BHTD.M        505.358              : BHTDEP       - MAXIMUM RECORDED TEMPERATURE
RMT .C        4.44444              : MDTP         - TEMPERATURE OF MUD
MUDD.KG/M     1020                 : MWT          - MUD DENSITY
NEUT.         1                    : NEUTRON      - NEUTRON TYPE
RESI.         0                    : RESIST       - RESISTIVITY TYPE
RM  .OHMM     9.3                  : RM           - RESISTIVITY OF MUD
RMC .OHMM     9.3                  : RMC          - RESISTIVITY OF MUD CAKE
RMF .OHMM     9.3                  : RMF          - RESISTIVITY OF MUD FILTRATE
SUFT.C        4                    : SUFT         - SURFACE TEMPERATURE
~A  DEPTH     RESD       GR     PHIN
# ...
  352.340    8.858   88.243    0.503
  352.590   10.355   88.277    0.530
  352.840   11.121   87.184    0.533
  353.090   10.427   85.563    0.521
  353.340   10.472   85.020    0.512
  353.590   10.517   84.491    0.505
  353.840   11.274   83.406    0.501
  354.090   12.040   81.215    0.488
  354.340   12.816   79.567    0.492
  354.590   12.843   77.369    0.485
  354.840   12.139   73.510    0.470
  355.090   17.297   70.750    0.469
  355.340   23.907   67.440    0.506
  355.590   18.830   81.932    0.519
  355.840   12.310   98.085    0.509
  356.090   11.597  105.910    0.516
  356.340   11.633  107.598    0.519
  356.590   11.669  112.074    0.511
  356.840   11.714  107.659    0.511
  357.090   11.768  108.235    0.515
  357.340   11.786  117.166    0.517
  357.590   12.561  114.412    0.507
  357.840   12.588  104.429    0.511
  358.090   13.355   98.339    0.544
  358.340   13.390   93.361    0.546
  358.590   13.444   85.047    0.544
  358.840   13.489   83.962    0.539
  359.090   13.507   87.325    0.526
  359.340   12.831   89.027    0.516
  359.590   12.849   87.385    0.518
  359.840   12.163   85.737    0.528
  360.090   12.190   84.658    0.522
  360.340   12.235   84.129    0.508
  360.590   12.271   84.162    0.499
  360.840   12.325   88.075    0.502
  361.090   12.343   87.559    0.544
  361.340   11.657   87.017    0.514
  361.590   10.972   84.819    0.511
  361.840   10.990   85.409    0.525
  362.090   11.053   87.110    0.518
  362.340   11.070   85.476    0.496
  362.590   11.106   84.377    0.482
  362.840   11.873   84.410    0.486
  363.090   13.370   86.655    0.494
  363.340   13.414   92.256    0.510
  363.590   12.711   91.726    0.504
  363.840   12.025   93.421    0.499
  364.090   12.070   94.560    0.507
  364.340   12.106   95.136    0.517
  364.590   12.142   95.163    0.521
  364.840   12.178   96.309    0.520
  365.090   12.214   98.560    0.522
  365.340   12.250  101.374    0.530
  365.590   11.564   99.183    0.542
  365.840   11.600   98.084    0.545
  366.090   11.627   96.999    0.532
  366.340   10.933   98.138    0.538
  366.590   10.986   99.297    0.549
  366.840   11.005   98.198    0.558
  367.090   10.328   94.339    0.548
  367.340   10.364   91.579    0.548
  367.590    9.669   89.937    0.550
  367.840    9.696   89.415    0.548
  368.090    9.732   88.329    0.536
  368.340    9.777   88.350    0.531
  368.590   10.543   91.719    0.537
  368.840    9.849   90.078    0.542
  369.090    9.885   90.105    0.538
  369.340    9.939   88.470    0.493
  369.590   10.687   85.710    0.454
  369.840   11.453   81.288    0.439
  370.090   12.220   78.534    0.433
  370.340   21.751   75.781    0.439
  370.590   18.153   73.034    0.441
  370.840   18.919   71.386    0.442
  371.090   21.868   66.414    0.445
  371.340   21.913   64.230    0.446
  371.590   23.401   64.244    0.437
  371.840   18.324   63.721    0.429
  372.090   19.820   70.414    0.449
  372.340   16.222   71.553    0.464
  372.590   14.058   72.699    0.458
  372.840   14.824   76.618    0.457
  373.090   17.060   78.313    0.458
  373.340   17.096   73.905    0.470
  373.590   15.680   72.256    0.484
  373.840   14.237   69.496    0.488
  374.090   13.543   85.656    0.480
  374.340   14.318   87.358    0.478
  374.590   15.085   88.496    0.477
  374.840   15.120   87.404    0.476
  375.090   15.156   79.646    0.475
  375.340   15.201   75.787    0.453
  375.590   20.341   72.471    0.450
  375.840   19.665   66.943    0.454
  376.090   22.613   61.959    0.446
  376.340   25.571   63.098    0.441
  376.590   22.685   59.245    0.447
  376.840   19.069   55.373    0.458
  377.090   14.010   49.839    0.449
  377.340   13.297   53.202    0.449
  377.590   11.890   64.907    0.468
  377.840   11.196   68.826    0.491
  378.090   11.232   73.871    0.509
  378.340   11.268   79.452    0.509
  378.590   10.573   85.046    0.504
  378.840   10.609   83.404    0.506
  379.090   10.645   80.651    0.498
  379.340   11.411   77.348    0.474
  379.590   11.447   76.263    0.487
  379.840   11.492   77.401    0.491
  380.090   11.537   82.426    0.489
  380.340   10.825   86.352    0.483
  380.590   10.139   84.148    0.511
  380.840    9.435   88.630    0.500
  381.090    8.759   84.208    0.440
  381.340    8.786   73.670    0.383
  381.590    7.379   57.014    0.356
  381.840    7.406   49.805    0.488
  382.090    6.702   43.159    0.483
  382.340    6.026   78.781    0.487
  382.590    6.044   91.049    0.493
  382.840    6.080   93.300    0.503
  383.090    6.855   90.546    0.510
  383.340    7.639   88.355    0.482
  383.590    7.666   87.270    0.473
  383.840    8.424   84.510    0.460
  384.090    9.920   76.202    0.460
  384.340   15.800   74.554    0.473
  384.590   24.619   76.812    0.487
  384.840   19.533   81.294    0.487
  385.090   15.195   80.202    0.477
  385.340   13.761   78.011    0.478
  385.590   13.806   79.150    0.483
  385.840   13.120   79.177    0.490
  386.090   13.138   80.316    0.485
  386.340   11.731   80.342    0.476
  386.590   11.037   75.364    0.454
  386.840   16.907   70.386    0.445
  387.090   24.987   63.740    0.455
  387.340   21.371   78.781    0.473
  387.590   16.285   83.813    0.505
  387.840   12.668   88.858    0.523
  388.090   11.243   86.104    0.537
  388.340   12.758   82.788    0.462
  388.590   14.976   76.141    0.447
  388.840   21.586   69.495    0.451
  389.090   26.005   65.636    0.451
  389.340   23.119   63.439    0.444
  389.590   19.503   61.241    0.441
  389.840   23.948   58.481    0.454
  390.090   21.784   57.402    0.476
  390.340   19.619   59.091    0.494
  390.590   13.821   71.358    0.498
  390.840   11.665   75.840    0.494
  391.090   11.710   77.528    0.489
  391.340   12.459   76.443    0.483
  391.590   13.234   73.140    0.482
  391.840   13.288   73.723    0.486
  392.090   13.315   79.310    0.494
  392.340   13.351   82.680    0.485
  392.590   11.926   83.270    0.470
  392.840   11.953   82.171    0.468
  393.090   11.258   81.099    0.484
  393.340   13.504   81.126    0.490
  393.590   20.104   81.702    0.495
  393.840   24.523   83.397    0.484
  394.090   23.107   82.312    0.455
  394.340   21.682   77.890    0.443
  394.590   20.987   74.024    0.443
  394.840   18.093   78.506    0.449
  395.090   13.755   81.876    0.448
  395.340   12.339   83.571    0.449
  395.590   12.375   83.049    0.457
  395.840   12.420   81.950    0.467
  396.090   12.438   80.308    0.481
  396.340   12.492   82.566    0.499
  396.590   12.509   88.160    0.513
  396.840   11.094   92.073    0.530
  397.090   10.417   93.212    0.529
  397.340   10.444   92.683    0.535
  397.590   11.959   94.934    0.538
  397.840   11.968  100.535    0.503
  398.090   14.934   98.893    0.496
  398.340   17.901   96.689    0.475
  398.590   14.276   91.155    0.476
  398.840   12.851   85.621    0.493
  399.090   12.896   91.765    0.502
  399.340   12.941  117.378    0.497
  399.590   13.689  123.521    0.495
  399.840   13.734  117.987    0.505
  400.090   13.770  113.566    0.526
  400.340   14.536  104.695    0.506
  400.590   20.415  101.385    0.471
  400.840   24.104  108.648    0.449
  401.090   20.487  104.782    0.454
  401.340   23.463   99.248    0.429
  401.590   22.020  100.950    0.407
  401.840   24.256  102.638    0.418
  402.090   28.684   99.329    0.439
  402.340   29.450   93.239    0.450
  402.590   29.486   87.704    0.460
  402.840   25.130   83.839    0.459
  403.090   19.341   79.973    0.460
  403.340   19.359   83.899    0.465
  403.590   18.682   87.825    0.465
  403.840   17.979   90.076    0.470
  404.090   16.563   89.547    0.475
  404.340   16.590   87.349    0.435
  404.590   18.817   86.820    0.395
  404.840   24.696   85.741    0.397
  405.090   34.246   81.313    0.424
  405.340   16.003   74.104    0.448
  405.590   10.204   74.137    0.449
  405.840   12.431   83.061    0.412
  406.090   15.398   87.543    0.391
  406.340   19.817   87.014    0.387
