~Version : LASO    vs 4.00
VERS.                2.00:   CWLS Log ASCII Standard -VERSION 2.0
WRAP.                  NO:
~Well Information Block
#MNEM.UNIT       Data                        Description of Mnemonic
#----.----      -------------------------- : -----------------------------
COMP.                                     : COMPANY
FLD .    WILDCAT                          : FIELD NAME
LOC .    02-32-090-08W4                   : WELL LOCATION
UWI .    AA/02-32-090-08W400              : UNIQUE WELL ID
STRT.M             0.0000:
STOP.M           201.3750:
STEP.M             0.1250:
NULL.           -999.2500:
COMP.  :COMPANY
WELL.  MOBIL CLARKE OV 2-32:WELL
FLD.   :FIELD
LOC.   :LOCATION
CTRY.  :COUNTRY
PROV.  ALBERTA:PROVINCE
SRVC.  DRESSER ATLAS:SERVICE COMPANY
DATE.  17-FEB-81:LOG DATE
UWI.   :UNIQUE WELL ID
~Parameter Information Block
#MNEM.UNIT       Data                        Description of Mnemonic
#----.----      -------------------------- : -----------------------------
RUN .                   1                 : Run Number
GL  .M           431.8000                 : Ground Level Elevation
DREF.                  KB                 : Depth Reference
EREF.M           431.8000                 : Elevation of Depth Reference
TDL .M           202.0000                 : Total Depth Logger
TDD .M           201.6000                 : Total Depth Driller
BHT .DEGC         20.0000                 : Bottom Hole Temperature
BS  .MM          159.0000                 : Bit Size
DFD .             10.3000                 : Mud Weight (Density)
DFV .             85.0000                 : Mud Viscosity
DFPH.             10.0000                 : Mud pH
RM  .OHMM          4.9000                 : Mud Resistivity
RMT .DEGC         20.0000                 : Mud Resistivity Temperature
RMF .OHMM          4.7000                 : Mud Filtrate Resistivity
RMFT.DEGC         10.0000                 : RMF Temperature
RMC .OHMM          9.5000                 : Mud Cake Resistivity
RMCT.DEGC         10.0000                 : RMC Temperature
~Curve Information Block
#MNEM.UNIT        API CODE    Curve Description
#---------    ------------    -------------------------------------------
DEPT.M                    :   DEPTH
CALI.MM       42 280  1  1:   3 DENSITY CALIPER
DPHI.V/V                  :   DPHI
DT  .US/M     60 520 42  1:   2 SONIC INTERVAL TRANSIT TIME (COMPENSATED)
GR  .GAPI     42 310  1  1:   4 GAMMA RAY
IL  .OHMM      5 120 45  1:   7 INDUCTION
NPHI.V/V      42 890  3  1:   5 NEUTRON POROSITY (SANDSTONE)
RHOB.K/M3     42 350  1  1:   6 BULK DENSITY
SFL .OHMM      5 220  6  1:   8 FOCUSSED RESISTIVITY
SP  .MV        5  10  1  1:   9 SPONTANEOUS POTENTIAL
~A  Depth           CALI        DPHI          DT          GR          IL        NPHI        RHOB         SFL          SP
# ...
41.8750         179.0750      0.3484    598.2800     57.7200     44.7900      0.3631   2054.6001     60.0500    -78.6400
42.0000         184.0750      0.3467    600.2400     53.4000     43.8700      0.3673   2052.8999     61.3500    -78.1400
42.1250         190.0250      0.3397    600.2400     51.5100     41.6000      0.3681   2093.7000     61.9999    -77.6500
42.2500         194.1500      0.3295    562.9200     50.5500     38.7750      0.3540   2112.5000     63.3500    -77.4000
42.3750         191.4250      0.3244    291.2800     52.7850     36.2000      0.3467   2110.2000     60.8000    -76.6500
42.5000         190.7750      0.3224    267.9600     55.0500     34.4800      0.3304   2108.5000     54.8500    -75.4000
42.6250         184.0500      0.3211    431.4000     53.6550     33.5600      0.3222   2117.7000     42.4350    -74.2800
42.7500         183.6750      0.3189    208.0800     53.8500     32.6400      0.3293   2126.0000     32.0800    -73.4100
42.8750         185.7000      0.3156    503.2400     54.3750     31.7800      0.3342   2169.1001     28.0950    -73.0400
43.0000         183.7250      0.3067    145.5200     57.0300     31.5350      0.3405   2210.5000     31.9550    -73.0400
43.1250         174.4750      0.2927     22.8000     58.9950     32.0300      0.3515   2212.3000     39.7350    -73.2900
43.2500         169.2250      0.2754     18.8800     60.6600     33.0700      0.3626   2176.7000     44.0250    -74.0300
43.3750         174.9750      0.2778     30.1600     65.2800     34.9700      0.3858   2129.0000     41.3900    -74.4100
43.5000         177.6250      0.2957     51.0400     69.2700     37.5500      0.3905   2108.5000     40.9000    -74.0300
43.6250         168.3250      0.3091    109.6800     66.5250     40.4950      0.3799   2066.3000     43.0450    -73.1600
43.7500         166.7000      0.3173    146.2400     63.9450     43.6250      0.3709   2026.5000     49.2950    -72.6600
43.8750         165.7000      0.3240    173.2400     55.9200     47.1800      0.3628   1984.8000     54.6500    -72.7900
44.0000         166.2500      0.3378    123.6800     47.8500     50.9000      0.3580   2004.5000     55.6000    -73.4100
44.1250         167.6500      0.3588    123.1600     43.8600     54.3000      0.3584   2018.1000     52.7000    -74.0300
44.2500         163.2750      0.3723    240.2400     39.9750     57.1000      0.3482   2051.7000     52.3000    -74.2800
44.3750         159.9000      0.3819    359.4800     37.9350     59.5500      0.3368   2014.0000     56.5500    -74.7800
44.5000         162.0500      0.3918     28.6800     37.0500     62.0500      0.3410   1980.6001     61.3500    -75.6500
44.6250         163.4500      0.4095     16.2000     37.6950     64.6000      0.3461   1973.9000     64.1500    -76.9000
44.7500         163.6000      0.4217     20.6000     38.5200     65.4500      0.3448   1970.5000     62.1000    -77.9000
44.8750         163.5750      0.4403     61.8400     36.5850     64.7500      0.3445   1970.7000     57.8500    -78.1400
45.0000         164.5500      0.4584     96.4400     36.2850     63.3500      0.3476   1972.3000     58.4500    -78.2700
45.1250         166.5750      0.4850    124.6400     36.0150     61.7000      0.3437   1973.9000     66.8000    -78.8900
45.2500         167.5000      0.4722    183.8000     34.8300     59.6000      0.3422   1977.7000     76.1500    -79.3900
45.3750         166.5250      0.4349    419.8800     33.2700     57.3500      0.3436   2025.8000     72.1500    -79.2700
45.5000         166.5000      0.3947     26.9600     32.7150     55.9999      0.3386   2087.3000     61.8500    -78.6400
45.6250         166.4750      0.3626     20.1200     33.2850     53.9000      0.3350   2095.8000     54.3500    -77.6500
45.7500         165.4750      0.3445     27.7200     33.8400     51.4000      0.3382   2084.2000     50.7000    -76.4000
45.8750         164.1250      0.3468     42.2000     35.1450     49.3300      0.3423   2075.5000     50.3350    -75.6500
46.0000         162.2500      0.3643     42.4400     36.3600     48.2850      0.3571   2098.6001     52.3000    -75.5300
46.1250         160.9750      0.3631     38.7600     37.8450     47.6700      0.3682   2101.8999     55.7000    -75.4000
46.2500         161.4250      0.3608     33.8400     36.6000     47.3050      0.3703   2103.6001     56.2500    -75.2800
46.3750         160.1250      0.3627     26.0000     39.0000     47.6700      0.3605   2095.3999     54.6500    -75.4000
46.5000         159.2000      0.3661     29.4400     40.7400     48.1650      0.3580   2080.3999     55.5000    -75.2800
46.6250         158.5000      0.3752     65.2800     39.3600     48.0400      0.3676   2080.5000     59.1500    -75.0300
46.7500         158.3750      0.3762    261.3200     37.6500     47.3050      0.3797   2087.8000     56.2000    -74.5300
46.8750         158.3750      0.3742    791.1200     38.3550     46.0750      0.3830   2084.3999     52.2000    -73.7800
47.0000         159.2000      0.3739    639.0400     39.9750     45.0950      0.3765   2081.1001     55.8500    -73.6600
47.1250         162.2000      0.3759    615.1200     37.5300     44.4800      0.3728   2076.5000     63.5500    -74.4100
47.2500         175.8750      0.3792    650.7600     38.1750     44.4800      0.3708   2075.8000     65.9500    -75.1500
47.3750         184.8000      0.3788    636.1600     40.0650     45.4650      0.3770   2072.0000     55.4000    -75.4000
47.5000         194.9000      0.3767    631.5600     41.4900     46.2600      0.3907   2051.5000     44.0250    -75.1500
47.6250         187.5250      0.3735    635.8000     40.9350     46.5050      0.3820   2015.6000     42.8000    -74.9100
47.7500         160.8250      0.3709    630.6000     43.0800     46.2600      0.3665   2010.6000     47.2100    -74.6600
47.8750         153.7500      0.3748    621.2000     44.9100     45.9550      0.3590   1985.8000     53.9999    -74.2800
48.0000         156.5250      0.4633    630.2400     46.7700     45.8950      0.3666   1983.5000     58.6500    -73.7800
48.1250         158.5250      0.4912    637.1600     45.6750     45.7100      0.3612   1982.7000     59.3000    -73.5400
48.2500         159.9500      0.4844    630.8000     41.8950     45.1550      0.3601   1982.1001     57.8000    -73.2900
48.3750         158.5750      0.4759    628.3600     39.4500     43.9300      0.3672   1982.3000     52.9000    -72.7900
48.5000         157.6500      0.4682    627.3600     39.4050     42.5200      0.3743   1983.1001     50.7000    -72.2900
48.6250         159.6500      0.4548    626.9600     41.9100     40.9850      0.3695   1983.9000     50.2150    -71.7900
48.7500         160.1250      0.4422    626.3200     45.3900     39.4500      0.3677   1985.3000     50.4600    -71.5400
48.8750         160.1250      0.4252    625.5200     48.3900     38.1000      0.3742   1986.9000     48.1300    -70.8000
49.0000         159.5500      0.4076    622.7200     52.2750     37.1800      0.3780   2028.9000     44.0850    -70.0500
49.1250         158.8500      0.3945    600.0000     53.8050     36.6900      0.3760   2035.3000     42.4350    -69.4300
49.2500         158.1500      0.3725    596.0400     58.1250     36.1400      0.3743   2075.6001     43.2300    -68.9300
49.3750         158.0500      0.3594    592.1200     62.8800     35.8300      0.3716   2091.0000     45.5600    -68.4300
49.5000         158.0500      0.3497    591.8800     66.5250     35.8950      0.3656   2099.7000     47.0300    -68.1800
49.6250         158.0250      0.3432    592.1200     67.2150     36.0750      0.3656   2107.7000     48.1950    -68.1800
49.7500         157.0250      0.3372    592.8800     68.4150     36.5700      0.3644   2118.3999     49.2950    -68.3000
49.8750         156.0250      0.3313    597.7600     66.4200     37.4250      0.3613   2126.8999     50.6000    -68.5500
50.0000         158.1500      0.3262    600.2400     65.9700     38.6550      0.3593   2122.1001     51.1000    -69.0500
50.1250         161.9500      0.3240    600.2400     65.2350     40.1250      0.3571   2119.7000     49.4800    -69.0500
