~VERSION INFORMATION
 VERS.                 2.0:   CWLS LOG ASCII STANDARD -VERSION 2.0
 WRAP.                  NO:   ONE LINE PER DEPTH STEP
~WELL INFORMATION BLOCK
#MNEM.UNIT           DATA                    DESCRIPTION OF MNEMONIC
#---------    -------------------            -------------------------------
# Generated from Intellog Unique Number	CC_84_87/WELL/1062
NULL.         -999.2500                      : null value
LOC .         05-25-085-09W4                 : Location     - LOCATION          
UWI .         AA/05-25-085-09W400            : Uwi          - UNIQUE WELL ID    
ENTR.         DW                             : Entered      - ENTERED BY        
SRVC.         SCHLUMBERGER                   : Scn          - SERVICE COMPANY   
STRT.M        200.000                        : top_depth    - START DEPTH       
STOP.M        449.893                        : bot_depth    - STOP DEPTH        
STEP.M        0.3                            : increment    - STEP LENGTH       
~CURVE INFORMATION BLOCK
#MNEM UNIT       ERCB CURVE CODE    CURVE DESCRIPTION
#-----------   ------------------   ----------------------------------
DEPT.M        00 001 00 00         : DEPTH        - DEPTH                       
DPHI.V/V      00 890 00 00         : PHID         - DENSITY POROSITY (LIMESTONE)
NPHI.V/V      00 330 00 00         : PHIN         - NEUTRON POROSITY (LIMESTONE)
GR  .API      00 310 00 00         : GR           - GAMMA RAY                   
ILD .OHMM     00 120 00 00         : RESD         - DEEP RESISTIVITY (DIL)      
~PARAMETER INFORMATION       
#MNEM.UNIT           DATA             DESCRIPTION OF MNEMONIC
#---------         -----------     ------------------------------
GL  .M        705                  : gl           - GROUND LEVEL ELEVATION      
EREF.M        708.5                : kb           - ELEVATION OF DEPTH REFERENCE
DATM.M        708.5                : datum        - DATUM ELEVATION             
TDD .M        449                  : tdd          - TOTAL DEPTH DRILLER         
RUN .         ONE                  : Run          - RUN NUMBER                  
ENG .         BILL                 : Engineer     - RECORDING ENGINEER          
WIT .         JIM                  : Witness      - WITNESSED BY                
MUD .         GEL                  : Mud_type     - MUD TYPE                    
MATR.         LIMESTONE            : Logunit      - NEUTRON MATRIX              
TMAX.C        17                   : BHT          - MAXIMUM RECORDED TEMPERATURE
BHTD.M        449                  : BHTDEP       - MAXIMUM RECORDED TEMPERATURE
MATR.         1                    : LOGUNIT      - NEUTRON MATRIX              
RMT .C        25                   : MDTP         - TEMPERATURE OF MUD          
NEUT.         1                    : NEUTRON      - NEUTRON TYPE                
RESI.         0                    : RESIST       - RESISTIVITY TYPE            
RMC .OHMM     0.25                 : RMC          - RESISTIVITY OF MUD CAKE     
RMF .OHMM     0.25                 : RMF          - RESISTIVITY OF MUD FILTRATE 
SUFT.C        15                   : SUFT         - SURFACE TEMPERATURE         
~A  DEPTH     PHID     PHIN       GR     RESD
# ...
  356.596    0.314    0.451   52.776   13.626
  356.896    0.302    0.469   55.898   12.622
  357.196    0.295    0.482   53.420   12.383
  357.496    0.292    0.480   52.182   12.148
  357.796    0.289    0.472   51.569   11.916
  358.096    0.289    0.457   54.690   12.145
  358.396    0.217    0.447   55.947   12.143
  358.696    0.298    0.450   59.067   12.614
  358.996    0.309    0.455   63.433   12.374
  359.296    0.311    0.474   60.331   12.139
  359.596    0.318    0.465   55.981   11.684
  359.896    0.326    0.445   50.388   11.245
  360.196    0.321    0.456   57.245    9.469
  360.496    0.306    0.447   61.612    9.289
  360.796    0.259    0.426   59.756    9.835
  361.096    0.078    0.335   53.537   11.456
  361.396    0.072    0.323   35.493   12.602
  361.696    0.153    0.457   31.767   12.129
  361.996    0.206    0.502   39.870   10.020
  362.296    0.256    0.515   51.084    9.107
  362.596    0.265    0.496   66.657    7.968
  362.896    0.275    0.507   71.024    7.524
  363.196    0.265    0.518   76.015    6.970
  363.496    0.266    0.530   67.931    6.708
  363.796    0.270    0.540   70.430    6.334
  364.096    0.270    0.552   74.796    5.868
  364.396    0.268    0.544   71.693    5.541
  364.696    0.269    0.522   74.195    5.436
  364.996    0.272    0.511   69.222    5.540
  365.296    0.281    0.495   73.588    5.866
  365.596    0.286    0.492   76.090    6.964
  365.896    0.276    0.498   72.363    8.111
  366.196    0.251    0.488   66.146    9.815
  366.496    0.179    0.447   56.818   11.877
  366.796    0.240    0.428   48.111   12.818
  367.096    0.307    0.436   58.082   12.104
  367.396    0.265    0.458   68.051   10.589
  367.696    0.230    0.484   71.795    9.442
  367.996    0.236    0.514   76.162    8.105
  368.296    0.239    0.521   80.530    7.090
  368.596    0.242    0.529   78.052    6.445
  368.896    0.249    0.543   76.191    5.858
  369.196    0.255    0.513   79.936    5.324
  369.496    0.256    0.548   84.301    5.027
  369.796    0.256    0.554   76.218    4.657
  370.096    0.256    0.562   79.340    4.314
  370.396    0.257    0.570   83.709    3.997
  370.696    0.260    0.594   83.717    3.497
  370.996    0.261    0.582   87.462    3.430
  371.296    0.262    0.553   86.850    3.365
  371.596    0.248    0.545   83.744    3.563
  371.896    0.190    0.509   78.151    3.919
  372.196    0.231    0.508   79.405    4.834
  372.496    0.251    0.524   80.659    5.739
  372.796    0.241    0.505   78.179    6.558
  373.096    0.237    0.475   73.830    6.944
  373.396    0.233    0.477   68.235    7.077
  373.696    0.235    0.500   66.377    7.351
  373.996    0.247    0.518   71.367    7.351
  374.296    0.260    0.484   78.847    7.636
  374.596    0.247    0.495   83.836    8.399
  374.896    0.242    0.526   78.244    8.893
  375.196    0.242    0.497   82.613    9.597
  375.496    0.243    0.474   83.242    9.781
  375.796    0.236    0.465   79.518   10.356
  376.096    0.211    0.493   75.789   11.611
  376.396    0.137    0.457   73.931   12.293
  376.696    0.125    0.412   70.207   12.060
  376.996    0.229    0.445   72.084   11.831
  377.296    0.229    0.475   79.562   11.171
  377.596    0.228    0.488   78.950   10.153
  377.896    0.227    0.474   75.225    9.772
  378.196    0.226    0.475   78.346    9.586
  378.496    0.226    0.491   77.731    8.713
  378.796    0.228    0.493   77.119    8.227
  379.096    0.229    0.484   81.486    7.769
  379.396    0.234    0.470   83.363    7.477
  379.696    0.244    0.458   82.128    7.766
  379.996    0.253    0.495   74.043    8.068
  380.296    0.259    0.496   71.562    9.398
  380.595    0.264    0.468   72.195   10.739
  380.895    0.265    0.471   77.806   10.944
  381.195    0.257    0.489   79.683   10.534
  381.495    0.250    0.509   73.468    9.759
  381.795    0.253    0.517   62.270    8.702
  382.095    0.238    0.515   70.994    7.760
  382.395    0.225    0.496   73.494    7.052
  382.695    0.227    0.479   70.393    6.788
  382.995    0.224    0.501   69.155    6.659
  383.295    0.224    0.495   71.032    6.658
  383.595    0.232    0.485   75.403    7.050
  383.895    0.239    0.484   76.654    7.608
  384.195    0.247    0.480   72.929    8.210
  384.495    0.253    0.476   66.711    8.693
  384.795    0.253    0.479   71.703    9.030
  385.095    0.243    0.484   72.333    9.203
  385.395    0.242    0.492   60.514    8.857
  385.695    0.273    0.495   57.411    8.206
  385.995    0.275    0.489   63.022    6.910
  386.295    0.276    0.517   72.371    5.495
  386.595    0.285    0.552   76.737    4.454
  386.895    0.291    0.566   70.523    4.048
  387.195    0.273    0.532   69.285    4.048
  387.495    0.243    0.503   74.898    4.369
  387.795    0.238    0.532   79.265    5.388
  388.095    0.239    0.497   78.653    7.037
  388.395    0.240    0.472   68.078    8.197
  388.695    0.240    0.507   64.351    9.367
  388.995    0.240    0.487   62.493    9.918
  389.295    0.228    0.478   62.504   10.303
  389.595    0.190    0.471   63.759   10.500
  389.895    0.151    0.463   64.390   11.117
  390.195    0.214    0.447   65.021   11.330
  390.495    0.218    0.441   63.161   11.329
  390.795    0.200    0.458   61.927   11.114
  391.095    0.175    0.455   62.559   10.296
  391.395    0.234    0.471   63.191    9.722
  391.695    0.234    0.489   63.198    9.007
  391.995    0.229    0.503   66.320    8.031
  392.295    0.229    0.501   73.179    7.162
  392.595    0.229    0.509   78.168    6.386
  392.895    0.229    0.518   76.931    5.587
  393.195    0.231    0.467   75.698    4.196
  393.495    0.259    0.474   71.349    3.467
  393.795    0.294    0.511   68.244    3.211
  394.095    0.293    0.543   67.009    3.211
  394.395    0.272    0.508   63.285    3.400
  394.695    0.246    0.484   59.556    4.037
  394.995    0.242    0.471   55.831    5.075
  395.295    0.245    0.469   61.445    6.259
  395.595    0.250    0.509   57.717    6.140
  395.895    0.250    0.507   54.613    5.910
  396.195    0.251    0.503   57.114    5.475
  396.495    0.250    0.494   60.857    5.072
  396.795    0.243    0.508   67.093    4.881
  397.095    0.242    0.497   72.705    5.268
  397.395    0.252    0.478   70.225    6.254
  397.695    0.253    0.462   62.140    8.014
  397.995    0.156    0.487   58.413    8.815
  398.295    0.130    0.472   63.402    8.484
  398.595    0.241    0.448   62.790    7.144
  398.895    0.251    0.542   71.517    6.132
  399.195    0.256    0.533   74.638    5.264
  399.495    0.267    0.544   76.514    4.433
  399.795    0.277    0.580   77.769    3.733
  400.095    0.282    0.529   77.177    3.456
  400.395    0.268    0.588   74.664    3.522
  400.695    0.237    0.580   72.149    3.729
  400.995    0.234    0.550   74.029    3.947
  401.295    0.237    0.583   74.653    4.260
  401.595    0.282    0.555   70.885    4.775
  401.895    0.324    0.549   68.999    5.055
  402.195    0.405    0.534   67.113    5.455
  402.495    0.409    0.498   68.365    5.454
  402.795    0.286    0.487   77.145    5.349
  403.095    0.161    0.447   89.064    5.148
  403.395    0.230    0.426  115.414    4.954
  403.695    0.231    0.458   99.096    4.767
  403.995    0.226    0.426   88.426    4.766
  404.295    0.229    0.425   90.304    4.857
  404.595    0.273    0.447   82.771    5.045
  404.895    0.251    0.426   77.121    5.240
  405.194    0.252    0.412   83.391    5.988
  405.494    0.276    0.400   77.741    6.586
  405.794    0.316    0.385   67.698    7.243
  406.094    0.291    0.359   59.538    7.816
  406.394    0.284    0.358   50.750    8.274
  406.694    0.286    0.366   48.237    8.272
  406.994    0.286    0.350   60.782    8.270
  407.294    0.281    0.345   63.916    8.269
  407.594    0.280    0.345   61.403    8.426
  407.894    0.275    0.370   62.027    8.752
  408.194    0.250    0.375   67.042    9.265
  408.494    0.234    0.373   73.941    9.624
