~Version : LASO    vs 4.00
VERS.                2.00:   CWLS Log ASCII Standard -VERSION 2.0
WRAP.                  NO:
~Well Information Block
#MNEM.UNIT       Data                        Description of Mnemonic
#----.----      -------------------------- : -----------------------------
STRT.M            11.0000:
STOP.M           176.0000:
STEP.M             0.1000:
NULL.           -999.2500:
COMP.  MOBIL OIL CANADA LTD.  :COMPANY
WELL.  MOBIL CLARKE OV 5-32   :WELL
FLD.   CLARKE                 :FIELD
LOC.   05-32-089-08W4         :LOCATION
CTRY.  CANADA                 :COUNTRY
PROV.  ALBERTA                :PROVINCE
SRVC.  SCHLUMBERGER           :SERVICE COMPANY
DATE.  04-MAR-81              :LOG DATE
UWI.   AA/05-32-089-08W400    :UNIQUE WELL ID
~Parameter Information Block
#MNEM.UNIT       Data                        Description of Mnemonic
#----.----      -------------------------- : -----------------------------
RUN .                   1                 : Run Number
GL  .M           391.1000                 : Ground Level Elevation
DREF.                  KB                 : Depth Reference
EREF.M           394.5000                 : Elevation of Depth Reference
TDL .M           176.5000                 : Total Depth Logger
TDD .M           174.0000                 : Total Depth Driller
CSGL.M            16.0000                 : Casing Bottom Logger
CSGD.M            14.6000                 : Casing Bottom Driller
CSGS.MM          219.0000                 : Casing Size
CSGW.KG/M          0.0000                 : Casing Weight
BHT .DEGC         23.0000                 : Bottom Hole Temperature
BS  .MM          159.0000                 : Bit Size
DFD .           1110.0000                 : Mud Weight (Density)
DFV .             90.0000                 : Mud Viscosity
DFPH.             10.0000                 : Mud pH
RM  .OHMM          1.9600                 : Mud Resistivity
RMT .DEGC         20.0000                 : Mud Resistivity Temperature
~Curve Information Block
#MNEM.UNIT        API CODE    Curve Description
#---------    ------------    -------------------------------------------
DEPT.M                    :   DEPTH
CALI.MM       42 280  1  1:   3 DENSITY CALIPER
DPHI.V/V                  :   DPHI
DT  .US/M     60 520  0  1:   2 SONIC INTERVAL TRANSIT TIME (COMPENSATED)
GR  .GAPI     42 310  1  1:   4 GAMMA RAY
ILD .OHMM      5 120 46  1:   6 DEEP INDUCTION
ILM .OHMM      5 120 44  1:   7 MEDIUM INDUCTION
NPHI.V/V                  :   NPHI
RHOB.K/M3     42 350  1  1:   5 BULK DENSITY
SFLU.OHMM      5 220  1  1:   8 FOCUSSED RESISTIVITY
SP  .MV        5  10  1  1:   9 SPONTANEOUS POTENTIAL
~A  Depth           CALI        DPHI          DT          GR         ILD         ILM        NPHI        RHOB        SFLU          SP
# ...
151.3000        169.8250      0.2642    410.4000     30.5250     42.8381     63.0710      0.3613   2167.0000    147.1736   -132.7500
151.4000        168.5500      0.2575    405.8800     30.7800     39.0688     55.4409      0.3592   2189.0000    134.2239   -132.7500
151.5000        168.5500      0.2487    400.0400     31.0350     39.0688     55.4409      0.3572   2189.0000    134.2239   -132.7500
151.6000        162.1750      0.2389    394.0400     31.4700     32.7967     39.0688      0.3532   2216.0000     87.0623   -132.5100
151.7000        162.1750      0.2273    389.7600     31.9950     32.7967     39.0688      0.3500   2216.0000     87.0623   -132.5100
151.8000        159.6250      0.2186    385.6400     32.5350     30.4670     33.7155      0.3475   2263.0000     74.4440   -133.0050
151.9000        159.6250      0.2111    382.0800     33.1050     30.4670     33.7155      0.3436   2263.0000     74.4440   -133.0050
152.0000        164.7500      0.2085    380.2800     33.3900     28.5647     30.4670      0.3396   2318.8999     68.5220   -134.2500
152.1000        164.7500      0.2136    380.2000     32.5200     28.5647     30.4670      0.3345   2318.8999     68.5220   -134.2500
152.2000        162.1750      0.2189    383.3200     31.9350     27.0290     28.3028      0.3321   2293.0000     63.6546   -136.7550
152.3000        162.1750      0.2236    386.1600     31.4100     27.0290     28.3028      0.3347   2293.0000     63.6546   -136.7550
152.4000        167.2750      0.2268    389.2000     31.5750     27.0290     29.3650      0.3392   2293.0000     72.4152   -138.0000
152.5000        167.2750      0.2296    392.2400     31.7250     27.0290     29.3650      0.3379   2293.0000     72.4152   -138.0000
152.6000        166.0000      0.2319    395.2800     32.5200     27.5315     30.7489      0.3373   2283.0000     86.2641   -139.0050
152.7000        166.0000      0.2346    397.8400     33.4650     27.5315     30.7489      0.3363   2283.0000     86.2641   -139.0050
152.8000        162.1750      0.2356    400.3600     33.9300     28.0434     32.1981      0.3370   2258.0000     96.3452   -138.2550
152.9000        162.1750      0.2346    402.1600     33.0300     28.0434     32.1981      0.3421   2258.0000     96.3452   -138.2550
153.0000        167.2750      0.2336    403.5200     32.4900     29.6367     36.2936      0.3474   2258.0000    103.7122   -138.7500
153.1000        167.2750      0.2342    404.2000     32.6700     29.6367     36.2936      0.3512   2258.0000    103.7122   -138.7500
153.2000        167.2750      0.2367    404.4000     32.8350     29.0958     37.3104      0.3527   2241.0000     99.0444   -139.0050
153.3000        167.2750      0.2381    404.5600     33.0000     29.0958     37.3104      0.3478   2241.0000     99.0444   -139.0050
153.4000        168.5500      0.2369    397.4400     33.9000     27.0290     36.2936      0.3410   2253.0000     92.0089   -138.0000
153.5000        168.5500      0.2319    393.6800     35.1450     27.0290     36.2936      0.3321   2253.0000     92.0089   -138.0000
153.6000        167.2750      0.2240    391.7200     36.3900     19.9448     27.0290      0.3184   2292.0000     90.3296   -138.0000
153.7000        167.2750      0.2158    393.2400     37.6350     19.9448     27.0290      0.3045   2292.0000     90.3296   -138.0000
153.8000        162.1750      0.2067    397.5600     39.8400     16.7429     20.1294      0.2967   2300.0000     70.4417   -138.7500
153.9000        162.1750      0.2026    405.5200     42.4950     16.7429     20.1294      0.2887   2300.0000     70.4417   -138.7500
154.0000        157.0750      0.2013    419.8400     45.8550     14.1850     15.5536      0.2861   2321.0000     37.6556   -138.5100
154.1000        157.0750      0.1987    433.6000     49.6800     14.1850     15.5536      0.2863   2321.0000     37.6556   -138.5100
154.2000        158.3750      0.1984    448.1200     53.5650     10.3712     10.5640      0.2927   2325.0000     14.5824   -135.0000
154.3000        158.3750      0.2044    451.7200     57.3750     10.3712     10.5640      0.2996   2325.0000     14.5824   -135.0000
154.4000        166.0000      0.2102    451.0000     60.4500      9.1165      9.1165      0.3060   2324.0000     13.5466   -131.7600
154.5000        166.0000      0.2103    444.3600     61.4550      9.1165      9.1165      0.3110   2324.0000     13.5466   -131.7600
154.6000        164.7500      0.2093    436.9600     62.4600      8.1626      7.8674      0.3181   2292.0000     14.3163   -129.0000
154.7000        164.7500      0.2091    428.8000     63.9900      8.1626      7.8674      0.3276   2292.0000     14.3163   -129.0000
154.8000        166.0000      0.2114    421.4400     65.5200      7.0442      6.6043      0.3331   2285.8999      7.4444   -116.2500
154.9000        166.0000      0.2123    414.4800     67.0500      7.0442      6.6043      0.3364   2285.8999      7.4444   -116.2500
155.0000        163.4500      0.2125    409.6000     69.7650      6.7271      6.4244      0.3381   2293.0000      5.5441   -110.7600
155.1000        163.4500      0.2125    408.0000     72.7650      6.7271      6.4244      0.3366   2293.0000      5.5441   -110.7600
155.2000        157.0750      0.2117    405.9600     75.7650      6.5438      6.1920      0.3371   2290.0000      6.4838   -106.5000
155.3000        157.0750      0.2113    403.1200     78.5400      6.5438      6.1920      0.3397   2290.0000      6.4838   -106.5000
155.4000        172.3750      0.2075    399.4000     81.1800      6.3071      5.9680      0.3429   2366.0000      6.0790    -99.0000
155.5000        172.3750      0.1679    394.8400     82.8600      6.3071      5.9680      0.3475   2366.0000      6.0790    -99.0000
155.6000        173.6500      0.1496    392.8400     83.8800      6.3071      5.9680      0.3527   2427.0000      4.8734    -91.2600
155.7000        173.6500      0.1453    392.4400     82.0950      6.3071      5.9680      0.3573   2427.0000      4.8734    -91.2600
155.8000        173.6500      0.1469    392.0400     80.7450      6.2493      6.0232      0.3590   2411.0000      4.9185    -86.0100
155.9000        173.6500      0.1524    391.6400     80.4000      6.2493      6.0232      0.3588   2411.0000      4.9185    -86.0100
156.0000        171.1250      0.1597    391.2400     80.0550      6.1920      6.0790      0.3580   2386.8999      5.8054    -84.2550
156.1000        171.1250      0.1604    390.8400     79.8750      6.1920      6.0790      0.3597   2386.8999      5.8054    -84.2550
156.2000        173.6500      0.1596    390.3200     80.9400      6.1920      6.0232      0.3607   2378.0000      6.2493    -85.5000
156.3000        173.6500      0.1620    389.4800     81.6450      6.1920      6.0232      0.3599   2378.0000      6.2493    -85.5000
156.4000        169.8250      0.1619    390.6800     84.9600      6.1920      5.9680      0.3569   2396.0000      5.5954    -85.7550
156.5000        169.8250      0.1609    392.0800     88.9050      6.1920      5.9680      0.3587   2396.0000      5.5954    -85.7550
156.6000        169.8250      0.1621    393.6400     93.0750      6.1920      5.9133      0.3616   2379.0000      5.5441    -86.7600
156.7000        169.8250      0.1656    395.2000     97.2450      6.1920      5.9133      0.3651   2379.0000      5.5441    -86.7600
156.8000        168.5500      0.1700    396.6800    101.6400      6.1352      5.9680      0.3688   2386.0000      6.3071    -91.0050
156.9000        168.5500      0.1740    398.0800    106.0800      6.1352      5.9680      0.3757   2386.0000      6.3071    -91.0050
157.0000        169.8250      0.1785    399.8400    112.6800      5.9133      5.9680      0.3867   2380.0000      6.6655    -91.2600
157.1000        169.8250      0.1855    402.8000    119.2800      5.9133      5.9680      0.3974   2380.0000      6.6655    -91.2600
157.2000        172.3750      0.1913    416.4400    125.8800      5.6472      5.8591      0.4156   2360.0000      6.9796    -90.2550
157.3000        172.3750      0.1978    437.4800    132.3600      5.6472      5.8591      0.4329   2360.0000      6.9796    -90.2550
