~VERSION INFORMATION
 VERS.                 2.0:   CWLS LOG ASCII STANDARD -VERSION 2.0
 WRAP.                  NO:   ONE LINE PER DEPTH STEP
~WELL INFORMATION BLOCK
#MNEM.UNIT           DATA                    DESCRIPTION OF MNEMONIC
#---------    -------------------            -------------------------------
# Generated from Intellog Unique Number	CC_84_87/WELL/1048
NULL.         -999.25                        : NULL_VALUE
WELL.         ARCO ACI MCMURRAY              : Well_name    - WELL
LOC .         02-35-084-09W4                 : Location     - LOCATION          
UWI .         AA/02-35-084-09W400            : Uwi          - UNIQUE WELL ID    
ENTR.         JHS                            : Entered      - ENTERED BY        
SRVC.         DRESSER ATLAS                  : Scn          - SERVICE COMPANY   
DATE.         12 JAN 76                      : Date         - LOG DATE
STRT.M        243.84                         : top_depth    - START DEPTH       
STOP.M        493.783                        : bot_depth    - STOP DEPTH        
STEP.M        0.305                          : increment    - STEP LENGTH       
~CURVE INFORMATION BLOCK
#MNEM UNIT       ERCB CURVE CODE    CURVE DESCRIPTION
#-----------   ------------------   ----------------------------------
DEPT.M        00 001 00 00         : DEPTH        - DEPTH                       
DPHI.V/V      00 890 00 00         : PHID         - DENSITY POROSITY (LIMESTONE)
GR  .API      00 310 00 00         : GR           - GAMMA RAY                   
ILD .OHMM     00 120 00 00         : RESD         - DEEP RESISTIVITY (DIL)      
~PARAMETER INFORMATION       
#MNEM.UNIT           DATA             DESCRIPTION OF MNEMONIC
#---------         -----------     ------------------------------
GL  .M        726.034              : gl           - GROUND LEVEL ELEVATION      
EREF.M        729.082              : kb           - ELEVATION OF DEPTH REFERENCE
DATM.M        729.082              : datum        - DATUM ELEVATION             
TDD .M        496.214              : tdd          - TOTAL DEPTH DRILLER         
RUN .         ONE                  : Run          - RUN NUMBER                  
ENG .         BILL                 : Engineer     - RECORDING ENGINEER          
WIT .         JIM                  : Witness      - WITNESSED BY                
MUD .         GEL                  : Mud_type     - MUD TYPE                    
MATR.         LIMESTONE            : Logunit      - NEUTRON MATRIX              
TMAX.C        60                   : BHT          - MAXIMUM RECORDED TEMPERATURE
BHTD.M        496.214              : BHTDEP       - MAXIMUM RECORDED TEMPERATURE
MATR.         1                    : LOGUNIT      - NEUTRON MATRIX              
RMT .C        25                   : MDTP         - TEMPERATURE OF MUD          
NEUT.         1                    : NEUTRON      - NEUTRON TYPE                
RESI.         0                    : RESIST       - RESISTIVITY TYPE            
RMC .OHMM     0.25                 : RMC          - RESISTIVITY OF MUD CAKE     
RMF .OHMM     0.25                 : RMF          - RESISTIVITY OF MUD FILTRATE 
SUFT.C        15                   : SUFT         - SURFACE TEMPERATURE         
~A  DEPTH     PHID       GR     RESD
# ...
  442.270    0.325   63.879    9.329
  442.575    0.300   69.854    8.993
  442.880    0.296   71.673    9.331
  443.185    0.307   66.935   10.232
  443.490    0.335   61.007   11.220
  443.794    0.340   58.652   11.859
  444.099    0.325   62.847   11.431
  444.404    0.325   72.397   10.235
  444.709    0.326   80.161    9.509
  445.014    0.322   81.381    8.999
  445.319    0.309   76.049    8.835
  445.623    0.296   68.933    8.516
  445.928    0.289   70.153    8.517
  446.233    0.279   69.585    8.676
  446.538    0.278   68.418    9.002
  446.843    0.288   69.638    9.003
  447.147    0.286   63.711    8.678
  447.452    0.291   63.148    7.915
  447.757    0.304   69.717    7.219
  448.062    0.315   78.675    6.585
  448.367    0.328   87.032    6.117
  448.671    0.340   90.036    5.897
  448.976    0.352   86.494    5.897
  449.281    0.343   81.758    6.007
  449.586    0.348   81.786    6.008
  449.891    0.355   80.026    6.120
  450.195    0.350   77.672    6.009
  450.500    0.350   80.084    5.900
  450.805    0.355   81.893    5.687
  451.110    0.358   81.326    5.584
  451.415    0.355   78.969    5.584
  451.720    0.352   78.401    5.688
  452.024    0.361   76.641    5.689
  452.329    0.361   84.406    5.689
  452.634    0.365   86.223    5.586
  452.939    0.361   89.223    5.484
  453.244    0.365   85.084    5.286
  453.548    0.362   86.898    5.096
  453.853    0.360   86.925    5.096
  454.158    0.360   86.357    5.096
  454.463    0.362   85.785    5.097
  454.768    0.353   86.412    5.192
  455.072    0.349   82.864    5.289
  455.377    0.354   79.921    5.488
  455.682    0.360   81.730    5.590
  455.987    0.360   84.136    5.801
  456.292    0.368   82.973    5.909
  456.596    0.358   80.623    5.910
  456.901    0.349   81.240    5.910
  457.206    0.347   83.647    5.910
  457.511    0.350   81.298    6.133
  457.816    0.357   77.749    6.364
  458.121    0.354   74.802    6.726
  458.425    0.344   74.233    6.726
  458.730    0.339   77.830    6.604
  459.035    0.336   79.645    6.484
  459.340    0.342   81.460    6.366
  459.645    0.349   86.840    6.250
  459.949    0.334   89.842    6.025
  460.254    0.345   90.465    5.915
  460.559    0.353   89.302    5.916
  460.864    0.343   91.708    6.026
  461.169    0.350   91.737    5.917
  461.473    0.347   94.738    5.809
  461.778    0.342  101.909    5.600
  462.083    0.348  101.343    5.600
  462.388    0.364   97.202    5.601
  462.693    0.352   99.013    5.705
  462.997    0.340   99.637    6.030
  463.302    0.339  100.258    6.860
  463.607    0.334  102.070    7.663
  463.912    0.338   99.719    8.880
  464.217    0.347   93.793   10.677
  464.522    0.347   53.342   13.819
  464.826    0.350   40.871   18.219
  465.131    0.356   40.301   20.350
  465.436    0.361   40.924   21.116
  465.741    0.356   42.735   21.910
  466.046    0.350   39.191   21.512
  466.350    0.358   39.219   20.357
  466.655    0.369   44.012   18.567
  466.960    0.367   47.608   17.570
  467.265    0.353   50.608   17.899
  467.570    0.345   46.471   18.572
  467.874    0.356   42.927   19.629
  468.179    0.380   42.954   20.367
  468.484    0.369   42.983   20.369
  468.789    0.358   41.815   20.749
  469.094    0.362   41.252   21.137
  469.398    0.366   41.871   20.374
  469.703    0.348   38.326   19.280
  470.008    0.342   37.760   18.245
  470.313    0.345   45.521   17.587
  470.618    0.335   48.525   17.588
  470.923    0.348   43.197   17.589
  471.227    0.354   45.603   17.918
  471.532    0.349   52.774   18.592
  471.837    0.344   48.036   19.291
  472.142    0.340   38.540   20.389
  472.447    0.350   34.404   21.156
  472.751    0.355   33.236   20.771
  473.056    0.348   36.837   19.298
  473.361    0.345   44.006   17.280
  473.666    0.342   49.391   16.352
  473.971    0.336   54.178   16.354
  474.275    0.322   54.803   16.968
  474.580    0.331   47.091   16.660
  474.885    0.345   42.354   15.766
  475.190    0.357   47.145   13.607
  475.495    0.340   65.027   12.641
  475.799    0.338   69.220   12.878
  476.104    0.335   67.462   13.863
  476.409    0.347   40.109   15.773
  476.714    0.366   38.944   17.617
  477.019    0.356   39.568   18.620
  477.324    0.351   40.789   18.281
  477.628    0.389   39.620   18.283
  477.933    0.391   36.075   19.683
  478.238    0.377   37.894   21.189
  478.543    0.367   40.296   22.395
  478.848    0.350   41.516   23.669
  479.152    0.364   43.923   22.399
  479.457    0.349   51.688   18.292
  479.762    0.339   63.617   16.080
  480.067    0.324   66.621   13.878
  480.372    0.320   67.243   12.894
  480.676    0.314   67.867   12.201
  480.981    0.314   63.135   11.979
  481.286    0.316   41.135   14.141
  481.591    0.327   32.233   17.319
  481.896    0.363   30.477   22.832
  482.200    0.368   31.101   27.453
  482.505    0.355   32.908   29.555
  482.810    0.352   34.134   30.107
  483.115    0.353   33.558   30.109
  483.420    0.363   34.184   29.562
  483.725    0.372   35.400   27.465
  484.029    0.369   42.568   23.270
  484.334    0.350   53.310   17.982
  484.639    0.335   56.908   14.958
  484.944    0.329   70.623   14.686
  485.249    0.328   64.699   16.105
  485.553    0.310   42.703   19.010
  485.858    0.309   41.544   25.062
  486.163    0.334   38.590   30.135
  486.468    0.340   33.265   30.697
  486.773    0.338   32.096   30.699
  487.077    0.341   30.345   29.051
  487.382    0.342   30.963   26.497
  487.687    0.342   33.962   23.727
  487.992    0.341   32.204   22.870
  488.297    0.329   32.230   22.045
  488.601    0.322   33.451   22.047
  488.906    0.321   32.289   22.459
  489.211    0.306   33.504   22.879
  489.516    0.304   32.934   22.880
  489.821    0.303   35.940   21.652
  490.126    0.304   41.321   20.489
  490.430    0.308   41.945   18.688
  490.735    0.315   38.994   16.734
  491.040    0.318   37.235   16.130
  491.345    0.326   42.622   15.264
  491.650    0.327   47.411   14.987
  491.954    0.327   48.624   14.182
  492.259    0.328   43.894   13.924
  492.564    0.339   39.750   14.184
  492.869    0.337   35.014   14.450
  493.174    0.317   33.855   14.451
  493.478    0.317   34.477   14.188
  493.783    0.317   36.289   13.930
