~VERSION INFORMATION
 VERS.                 2.0:   CWLS LOG ASCII STANDARD -VERSION 2.0
 WRAP.                  NO:   ONE LINE PER DEPTH STEP
~WELL INFORMATION BLOCK
#MNEM.UNIT           DATA                    DESCRIPTION OF MNEMONIC
#---------    -------------------            -------------------------------
# Generated from Intellog Unique Number	CS_73_76/WELL/3227
WELL.         09-28-076-06W4                 : Well_name    - WELL
LOC .         AA/09-28-076-06W4/0            : Location     - LOCATION
UWI .         AA/09-28-076-06W4/0            : Uwi          - UNIQUE WELL ID
ENTR.         SP                             : Entered      - ENTERED BY
SRVC.         SCHLUMBERGER                   : Scn          - SERVICE COMPANY
STRT.M        145                            : top_depth    - START DEPTH
STOP.M        365                            : bot_depth    - STOP DEPTH
STEP.M        0.25                           : increment    - STEP LENGTH
 NULL. -999.2500:NULL Value
~CURVE INFORMATION BLOCK
#MNEM UNIT       ERCB CURVE CODE    CURVE DESCRIPTION
#-----------   ------------------   ----------------------------------
DEPT.M        00 001 00 00         : DEPTH        - DEPTH
ILD .OHMM     00 120 00 00         : RESD         - DEEP RESISTIVITY (DIL)
GR  .API      00 310 00 00         : GR           - GAMMA RAY
DPHI.V/V      00 890 00 00         : PHID         - DENSITY POROSITY (LIMESTONE)
NPHI.V/V      00 330 00 00         : PHIN         - NEUTRON POROSITY (LIMESTONE)
~PARAMETER INFORMATION
#MNEM.UNIT           DATA             DESCRIPTION OF MNEMONIC
#---------         -----------     ------------------------------
GL  .M        555.14               : gl           - GROUND LEVEL ELEVATION
EREF.M        558.14               : kb           - ELEVATION OF DEPTH REFERENCE
DATM.M        555.14               : datum        - DATUM ELEVATION
TDD .M        366                  : tdd          - TOTAL DEPTH DRILLER
RUN .         ONE                  : Run          - RUN NUMBER
ENG .         BILL                 : Engineer     - RECORDING ENGINEER
WIT .         JIM                  : Witness      - WITNESSED BY
MUD .         GEL                  : Mud_type     - MUD TYPE
MATR.         LIMESTONE            : Logunit      - NEUTRON MATRIX
TMAX.C        22                   : BHT          - MAXIMUM RECORDED TEMPERATURE
BHTD.M        366                  : BHTDEP       - MAXIMUM RECORDED TEMPERATURE
MATR.         1                    : LOGUNIT      - NEUTRON MATRIX
RMT .C        25                   : MDTP         - TEMPERATURE OF MUD
NEUT.         1                    : NEUTRON      - NEUTRON TYPE
RESI.         0                    : RESIST       - RESISTIVITY TYPE
RMC .OHMM     0.25                 : RMC          - RESISTIVITY OF MUD CAKE
RMF .OHMM     0.25                 : RMF          - RESISTIVITY OF MUD FILTRATE
SUFT.C        15                   : SUFT         - SURFACE TEMPERATURE
~A  DEPTH     RESD       GR     PHID     PHIN
# ...
  188.500   19.223   58.539    0.294    0.356
  188.750   19.223   72.056    0.295    0.329
  189.000   19.591   82.502    0.278    0.334
  189.250   20.347   79.422    0.274    0.340
  189.500   21.536   70.192    0.293    0.334
  189.750   23.230   67.729    0.310    0.319
  190.000   24.127   72.024    0.309    0.325
  190.250   23.675   76.935    0.298    0.337
  190.500   21.950   80.621    0.295    0.350
  190.750   19.968   91.064    0.292    0.342
  191.000   18.513   99.051    0.260    0.336
  191.250   16.216  105.193    0.241    0.346
  191.500   14.204  111.333    0.228    0.358
  191.750   12.442  111.942    0.221    0.345
  192.000   12.680  107.633    0.219    0.341
  192.250   13.678   92.257    0.223    0.344
  192.500   16.218   80.569    0.234    0.347
  192.750   19.230   75.644    0.240    0.366
  193.000   20.354   72.566    0.225    0.381
  193.250   23.681   67.027    0.188    0.360
  193.500   24.595   58.412    0.150    0.323
  193.750   26.033   55.333    0.167    0.286
  194.000   26.531   56.555    0.207    0.373
  194.250   24.597   59.006    0.261    0.375
  194.500   23.240   60.232    0.317    0.385
  194.750   21.958   61.455    0.318    0.391
  195.000   21.547   58.988    0.314    0.387
  195.250   21.547   60.211    0.308    0.380
  195.500   21.143   60.822    0.298    0.361
  195.750   20.359   62.660    0.308    0.367
  196.000   20.359   60.808    0.323    0.388
  196.250   19.603   62.032    0.322    0.387
  196.500   19.236   65.099    0.311    0.371
  196.750   18.175   68.167    0.302    0.340
  197.000   16.850   69.391    0.296    0.323
  197.250   15.329   70.614    0.295    0.313
  197.500   14.483   71.838    0.293    0.316
  197.750   12.687   78.594    0.280    0.325
  198.000   11.541   87.194    0.249    0.330
  198.250   11.113   92.721    0.227    0.346
  198.500   11.113   89.640    0.237    0.369
  198.750   11.762   84.102    0.259    0.395
  199.000   12.930   79.177    0.275    0.390
  199.250   15.332   73.637    0.302    0.387
  199.500   16.854   70.557    0.312    0.396
  199.750   17.504   68.091    0.312    0.405
  200.000   17.505   70.545    0.302    0.405
  200.250   16.539   77.914    0.291    0.359
  200.500   15.925   79.139    0.284    0.334
  200.750   15.046   78.518    0.280    0.344
  201.000   14.764   75.438    0.279    0.359
  201.250   14.488   77.275    0.280    0.380
  201.500   14.488   80.343    0.284    0.381
  201.750   14.489   82.181    0.276    0.375
  202.000   14.489   77.871    0.280    0.368
  202.250   14.489   77.251    0.283    0.379
  202.500   14.490   76.628    0.290    0.378
  202.750   14.490   76.007    0.295    0.374
  203.000   13.952   74.773    0.295    0.367
  203.250   13.952   72.304    0.290    0.394
  203.500   13.953   71.687    0.284    0.407
  203.750   13.953   71.064    0.286    0.401
  204.000   13.953   72.289    0.289    0.376
  204.250   13.954   76.585    0.286    0.349
  204.500   13.692   77.194    0.284    0.359
  204.750   13.692   79.032    0.286    0.404
  205.000   13.693   80.870    0.289    0.407
  205.250   13.693   80.248    0.288    0.354
  205.500   13.693   79.626    0.283    0.328
  205.750   13.694   80.851    0.272    0.342
  206.000   13.694   84.532    0.267    0.364
  206.250   13.956   85.757    0.258    0.379
  206.500   14.223   86.981    0.256    0.384
  206.750   14.223   85.130    0.258    0.374
  207.000   14.772   80.206    0.283    0.393
  207.250   15.055   75.896    0.299    0.410
  207.500   15.342   73.428    0.305    0.399
  207.750   15.636   73.421    0.298    0.336
  208.000   15.637   73.416    0.292    0.324
  208.250   15.637   73.411    0.285    0.335
  208.500   15.637   74.633    0.276    0.351
  208.750   15.637   74.014    0.283    0.363
  209.000   15.638   70.934    0.288    0.378
  209.250   15.638   69.083    0.282    0.371
  209.500   15.638   67.232    0.283    0.361
  209.750   15.938   65.996    0.285    0.327
  210.000   15.938   67.834    0.295    0.314
  210.250   15.639   72.745    0.310    0.319
  210.500   15.640   73.970    0.304    0.332
  210.750   15.347   70.889    0.300    0.337
  211.000   15.347   70.267    0.294    0.329
  211.250   15.060   72.720    0.295    0.352
  211.500   15.060   74.560    0.293    0.372
  211.750   14.778   73.937    0.294    0.387
  212.000   14.778   70.858    0.299    0.379
  212.250   14.502   66.548    0.307    0.331
  212.500   14.502   64.697    0.320    0.333
  212.750   14.230   67.149    0.321    0.336
  213.000   13.702   73.291    0.313    0.340
  213.250   12.946   76.974    0.305    0.346
  213.500   12.465   76.968    0.301    0.355
  213.750   12.003   77.577    0.297    0.340
  214.000   11.557   75.110    0.289    0.355
  214.250   11.341   75.105    0.297    0.360
  214.500   11.558   76.942    0.306    0.377
  214.750   11.558   75.707    0.307    0.377
  215.000   11.341   80.004    0.302    0.385
  215.250   11.129   84.914    0.302    0.394
  215.500   10.716   87.369    0.303    0.349
  215.750    9.566   92.896    0.291    0.317
  216.000    8.702  100.882    0.254    0.313
  216.250    8.222  106.408    0.238    0.344
  216.500    7.769  110.704    0.239    0.346
  216.750    7.340  113.157    0.240    0.325
  217.000    7.068  113.767    0.239    0.319
  217.250    6.935  111.916    0.241    0.325
  217.500    6.805  108.835    0.242    0.332
  217.750    6.805  104.524    0.238    0.351
  218.000    6.678  102.674    0.234    0.374
  218.250    6.678  102.051    0.232    0.392
  218.500    6.678  102.663    0.233    0.411
  218.750    6.678  104.499    0.239    0.387
  219.000    6.679  105.722    0.228    0.351
  219.250    6.679  105.718    0.232    0.347
  219.500    6.554  106.939    0.231    0.360
  219.750    6.431  108.780    0.242    0.371
  220.000    6.310  115.536    0.247    0.407
  220.250    6.192  109.380    0.237    0.398
  220.500    6.192  106.301    0.238    0.370
  220.750    6.076  102.606    0.229    0.361
  221.000    5.963  103.214    0.242    0.378
  221.250    5.851  103.208    0.252    0.397
  221.500    5.851  103.202    0.268    0.397
  221.750    5.742  102.581    0.260    0.380
  222.000    5.742  103.804    0.255    0.395
  222.250    5.634  105.641    0.265    0.405
  222.500    5.529  108.709    0.284    0.411
  222.750    5.126  112.391    0.294    0.375
  223.000    4.752  115.458    0.294    0.369
  223.250    4.490  116.069    0.283    0.385
  223.500    4.406  114.218    0.273    0.372
  223.750    4.490  111.753    0.258    0.349
  224.000    4.936  107.443    0.243    0.357
  224.250    5.324  108.663    0.276    0.365
  224.500    5.530  108.659    0.293    0.316
  224.750    5.324  109.880    0.294    0.321
  225.000    4.753  111.105    0.275    0.344
  225.250    4.243  113.555    0.264    0.415
  225.500    3.934  114.168    0.264    0.416
  225.750    3.860  111.086    0.258    0.367
  226.000    3.860  111.696    0.247    0.348
  226.250    4.086  112.919    0.269    0.403
  226.500    4.324  111.068    0.309    0.442
  226.750    4.754  106.759    0.322    0.427
  227.000    5.031   99.375    0.301    0.408
  227.250    5.128   88.917    0.274    0.311
  227.500    5.128   87.067    0.247    0.333
  227.750    5.032   90.748    0.268    0.342
  228.000    4.754   93.816    0.275    0.409
  228.250    4.665   94.422    0.264    0.401
  228.500    4.578   95.646    0.246    0.384
  228.750    4.578   96.871    0.247    0.357
  229.000    4.578   98.711    0.255    0.397
  229.250    4.755   98.087    0.287    0.404
  229.500    4.938   96.852    0.302    0.408
  229.750    5.327   96.232    0.282    0.369
  230.000    5.746   98.069    0.268    0.373
  230.250    6.081   98.679    0.269    0.372
  230.500    6.813   93.754    0.284    0.408
  230.750    7.349   88.215    0.292    0.405
  231.000    7.778   86.364    0.290    0.399
  231.250    8.079   85.128    0.288    0.400
  231.500    8.551   83.278    0.286    0.388
  231.750    8.714   81.425    0.284    0.382
