~VERSION INFORMATION
 VERS.                 2.0:   CWLS LOG ASCII STANDARD -VERSION 2.0
 WRAP.                  NO:   ONE LINE PER DEPTH STEP
~WELL INFORMATION BLOCK
#MNEM.UNIT           DATA                    DESCRIPTION OF MNEMONIC
#---------    -------------------            -------------------------------
# Generated from Intellog Unique Number	CX_WELLS/WELL/3840
WELL.         COSENA                         : Well_name    - WELL
LOC .         AA/06-15-087-07W4/0            : Location     - LOCATION
UWI .         AA/06-15-087-07W400            : Uwi          - UNIQUE WELL ID
ENTR.         T                              : Entered      - ENTERED BY
SRVC.         SCHLUMBERGER                   : Scn          - SERVICE COMPANY
STRT.M        40                             : top_depth    - START DEPTH
STOP.M        195                            : bot_depth    - STOP DEPTH
STEP.M        0.25                           : increment    - STEP LENGTH
 NULL. -999.2500:NULL Value
~CURVE INFORMATION BLOCK
#MNEM UNIT       ERCB CURVE CODE    CURVE DESCRIPTION
#-----------   ------------------   ----------------------------------
DEPT.M        00 001 00 00         : DEPTH        - DEPTH
GR  .API      00 310 00 00         : GR           - GAMMA RAY
NPHI.V/V      00 330 00 00         : PHIN         - NEUTRON POROSITY (SANDSTONE)
DPHI.V/V      00 890 00 00         : PHID         - DENSITY POROSITY (SANDSTONE)
ILD .OHMM     00 120 00 00         : RESD         - DEEP RESISTIVITY (DIL)
~PARAMETER INFORMATION
#MNEM.UNIT           DATA             DESCRIPTION OF MNEMONIC
#---------         -----------     ------------------------------
GL  .M        440.9                : gl           - GROUND LEVEL ELEVATION
EREF.M        442.45               : kb           - ELEVATION OF DEPTH REFERENCE
DATM.M        442.45               : datum        - DATUM ELEVATION
TDD .M        209                  : tdd          - TOTAL DEPTH DRILLER
RUN .         ONE                  : Run          - RUN NUMBER
ENG .         BILL                 : Engineer     - RECORDING ENGINEER
WIT .         JIM                  : Witness      - WITNESSED BY
MUD .         GEL                  : Mud_type     - MUD TYPE
MATR.         SANDSTONE            : Logunit      - NEUTRON MATRIX
TMAX.C        15                   : BHT          - MAXIMUM RECORDED TEMPERATURE
BHTD.M        209                  : BHTDEP       - MAXIMUM RECORDED TEMPERATURE
MATR.         1                    : LOGUNIT      - NEUTRON MATRIX
RMT .C        25                   : MDTP         - TEMPERATURE OF MUD
NEUT.         1                    : NEUTRON      - NEUTRON TYPE
RESI.         9.8                  : RESIST       - RESISTIVITY TYPE
RMC .OHMM     9.8                  : RMC          - RESISTIVITY OF MUD CAKE
RMF .OHMM     9.8                  : RMF          - RESISTIVITY OF MUD FILTRATE
SUFT.C        4                    : SUFT         - SURFACE TEMPERATURE
~A  DEPTH       GR     PHIN     PHID     RESD
   40.000   68.554    0.504    0.377   19.658
   40.250   68.151    0.507    0.377   19.382
   40.500   68.360    0.510    0.374   19.167
   40.750   67.957    0.507    0.374   19.254
   41.000   68.167    0.493    0.373   19.827
   41.250   68.936    0.488    0.374   20.294
   41.500   68.533    0.491    0.374   20.448
   41.750   66.905    0.494    0.371   20.573
   42.000   68.339    0.503    0.369   20.729
   42.250   70.491    0.497    0.369   20.823
   42.500   70.700    0.493    0.368   20.918
   42.750   70.349    0.488    0.366   21.443
   43.000   70.506    0.484    0.365   22.430
   43.250   71.328    0.491    0.362   23.463
   43.500   71.485    0.509    0.359   23.979
   43.750   72.307    0.525    0.355   24.581
   44.000   73.181    0.524    0.358   25.235
   44.250   73.495    0.517    0.373   25.389
   44.500   73.040    0.511    0.386   26.065
   44.750   71.972    0.499    0.384   26.719
   45.000   72.794    0.483    0.381   27.348
   45.250   73.668    0.466    0.376   28.034
   45.500   72.705    0.461    0.376   28.825
   45.750   72.249    0.469    0.381   29.000
   46.000   71.847    0.489    0.385   28.592
   46.250   72.004    0.484    0.376   28.722
   46.500   71.040    0.490    0.372   28.941
   46.750   69.973    0.502    0.377   29.161
   47.000   69.062    0.494    0.378   29.893
   47.250   68.606    0.482    0.377   29.561
   47.500   68.204    0.476    0.370   28.605
   47.750   68.361    0.472    0.362   27.207
   48.000   67.397    0.470    0.363   26.784
   48.250   66.382    0.469    0.369   25.957
   48.500   67.256    0.478    0.372   25.630
   48.750   67.973    0.488    0.369   25.865
   49.000   68.795    0.484    0.372   25.462
   49.250   69.109    0.482    0.378   25.656
   49.500   69.214    0.482    0.383   25.333
   49.750   69.475    0.480    0.363   26.540
   50.000   69.020    0.476    0.352   26.620
   50.250   69.282    0.473    0.347   28.372
   50.500   70.156    0.475    0.346   29.084
   50.750   71.030    0.485    0.353   30.377
   51.000   71.135    0.484    0.353   32.326
   51.250   70.784    0.485    0.353   33.764
   51.500   70.329    0.497    0.357   35.985
   51.750   69.313    0.501    0.364   36.204
   52.000   68.910    0.492    0.369   34.487
   52.250   67.895    0.473    0.366   33.422
   52.500   63.765    0.472    0.363   32.341
   52.750   59.075    0.460    0.361   32.488
   53.000   56.170    0.455    0.361   32.129
   53.250   53.370    0.454    0.357   30.559
   53.500   55.976    0.458    0.351   28.484
   53.750   61.137    0.462    0.348   28.125
   54.000   64.513    0.470    0.348   28.831
   54.250   65.895    0.476    0.346   30.682
   54.500   67.330    0.473    0.345   29.734
   54.750   71.931    0.472    0.341   26.737
   55.000   73.925    0.473    0.339   25.912
   55.250   75.464    0.473    0.338   28.096
   55.500   75.113    0.475    0.339   31.134
   55.750   74.605    0.479    0.345   31.371
   56.000   71.700    0.485    0.350   31.466
   56.250   67.675    0.495    0.353   31.164
   56.500   68.549    0.486    0.350   31.259
   56.750   69.266    0.459    0.347   29.822
   57.000   69.476    0.453    0.348   28.857
   57.250   67.848    0.453    0.350   27.448
   57.500   66.272    0.460    0.345   27.102
   57.750   64.592    0.466    0.336   26.762
   58.000   63.017    0.455    0.333   26.965
   58.250   65.063    0.455    0.341   27.088
   58.500   66.445    0.459    0.341   27.253
   58.750   66.707    0.469    0.336   27.377
   59.000   67.529    0.478    0.334   27.543
   59.250   69.575    0.491    0.333   27.711
   59.500   70.449    0.484    0.333   28.943
   59.750   69.382    0.481    0.332   30.275
   60.000   65.916    0.480    0.331   29.894
   60.250   65.461    0.480    0.331   30.076
   60.500   70.062    0.476    0.331   30.259
   60.750   67.209    0.473    0.331   30.489
   61.000   64.357    0.464    0.328   30.151
   61.250   63.849    0.462    0.326   30.289
   61.500   65.948    0.461    0.327   30.427
   61.750   67.995    0.458    0.328   31.238
   62.000   70.706    0.455    0.328   32.070
   62.250   71.528    0.453    0.327   32.825
   62.500   71.790    0.449    0.327   32.461
   62.750   72.611    0.445    0.329   31.411
   63.000   72.821    0.446    0.330   31.602
   63.250   73.082    0.447    0.333   34.318
   63.500   72.575    0.460    0.335   36.465
   63.750   71.559    0.461    0.338   40.347
   64.000   71.156    0.461    0.342   43.748
   64.250   68.916    0.466    0.346   49.395
   64.500   67.953    0.472    0.374   50.634
   64.750   66.937    0.476    0.382   50.865
   65.000   63.980    0.459    0.397   51.407
   65.250   50.104    0.438    0.395   52.617
   65.500   48.984    0.421    0.338   52.857
   65.750   41.232    0.418    0.321   54.265
   66.000   35.264    0.416    0.332   54.512
   66.250   33.584    0.414    0.345   52.007
   66.500   34.458    0.417    0.356   51.197
   66.750   36.610    0.424    0.365   49.541
   67.000   37.327    0.427    0.361   48.992
   67.250   38.813    0.425    0.351   49.215
   67.500   39.075    0.425    0.342   52.454
   67.750   39.897    0.428    0.350   50.834
   68.000   40.771    0.445    0.360   46.503
   68.250   41.488    0.445    0.364   40.341
   68.500   42.362    0.436    0.343   39.036
   68.750   42.519    0.423    0.329   39.273
   69.000   42.169    0.416    0.325   38.779
   69.250   41.206    0.424    0.328   36.201
   69.500   40.698    0.439    0.330   35.745
   69.750   40.960    0.459    0.331   36.017
   70.000   43.006    0.453    0.337   35.511
   70.250   46.278    0.448    0.354   32.633
   70.500   49.602    0.442    0.366   31.578
   70.750   46.696    0.438    0.343   29.944
   71.000   43.231    0.445    0.339   29.107
   71.250   42.881    0.459    0.344   29.240
   71.500   44.263    0.459    0.350   28.872
   71.750   50.701    0.450    0.345   26.453
   72.000   53.465    0.446    0.341   25.160
   72.250   53.009    0.439    0.343   25.313
   72.500   55.668    0.455    0.346   24.113
   72.750   58.940    0.464    0.342   22.866
   73.000   59.761    0.460    0.335   20.950
   73.250   58.746    0.453    0.334   21.508
   73.500   58.343    0.443    0.335   22.430
   73.750   56.820    0.444    0.341   23.869
   74.000   56.977    0.451    0.341   24.931
   74.250   58.463    0.455    0.341   24.617
   74.500   59.233    0.447    0.342   23.485
   74.750   59.390    0.445    0.341   22.691
   75.000   58.427    0.446    0.338   20.373
   75.250   56.799    0.447    0.319   18.320
   75.500   55.783    0.411    0.215   15.550
   75.750   54.208    0.322    0.126   12.498
   76.000   54.313    0.301    0.165   11.450
   76.250   57.076    0.329    0.201   12.415
   76.500   60.295    0.358    0.252   13.737
   76.750   65.404    0.397    0.295   15.463
   77.000   69.953    0.439    0.300   17.406
   77.250   74.554    0.451    0.302   20.024
   77.500   77.265    0.453    0.303   21.277
   77.750   78.595    0.443    0.300   19.133
   78.000   80.133    0.439    0.297   16.885
   78.250   78.453    0.434    0.285   15.739
   78.500   74.988    0.425    0.257   14.970
   78.750   70.246    0.411    0.185   12.966
   79.000   60.552    0.319    0.165   11.862
   79.250   55.302    0.307    0.135   11.495
   79.500   59.133    0.352    0.169   12.464
   79.750   71.748    0.381    0.235   13.556
   80.000   73.847    0.425    0.305   14.426
   80.250   74.617    0.441    0.306   14.514
   80.500   74.826    0.442    0.298   14.580
   80.750   75.648    0.444    0.286   14.669
   81.000   75.245    0.450    0.267   14.237
   81.250   72.444    0.452    0.239   14.037
   81.500   75.103    0.456    0.231   13.882
   81.750   77.763    0.453    0.258   13.453
   82.000   80.474    0.453    0.285   13.018
   82.250   82.520    0.451    0.312   11.927
   82.500   83.955    0.448    0.310    8.554
   82.750   86.001    0.448    0.312    6.994
   83.000   82.484    0.448    0.314    7.327
   83.250   76.569    0.442    0.311    7.488
