~VERSION INFORMATION
 VERS.                 2.0:   CWLS LOG ASCII STANDARD -VERSION 2.0
 WRAP.                  NO:   ONE LINE PER DEPTH STEP
~WELL INFORMATION BLOCK
#MNEM.UNIT           DATA                    DESCRIPTION OF MNEMONIC
#---------    -------------------            -------------------------------
# Generated from Intellog Unique Number	CN_94_101/WELL/1065
WELL.         07-20-094-14W4                 : Well_name    - WELL
LOC .         AA/07-20-094-14W4/0            : Location     - LOCATION
UWI .         AA/07-20-094-14W400            : Uwi          - UNIQUE WELL ID
ENTR.         JOETTE                         : Entered      - ENTERED BY
SRVC.         SCHLUMBERGER                   : Scn          - SERVICE COMPANY
DATE.         05\03\92                       : Date         - LOG DATE
STRT.M        70                             : top_depth    - START DEPTH
STOP.M        190                            : bot_depth    - STOP DEPTH
STEP.M        0.25                           : increment    - STEP LENGTH
 NULL. -999.2500:NULL Value
~CURVE INFORMATION BLOCK
#MNEM UNIT       ERCB CURVE CODE    CURVE DESCRIPTION
#-----------   ------------------   ----------------------------------
DEPT.M        00 001 00 00         : DEPTH        - DEPTH
ILD .OHMM     00 120 00 00         : RESD         - DEEP RESISTIVITY (DIL)
DPHI.V/V      00 890 00 00         : PHID         - DENSITY POROSITY (SANDSTONE)
NPHI.V/V      00 330 00 00         : PHIN         - NEUTRON POROSITY (SANDSTONE)
GR  .API      00 310 00 00         : GR           - GAMMA RAY
CALI.MM       00 280 01 00         : CAL          - CALIPER
~PARAMETER INFORMATION
#MNEM.UNIT           DATA             DESCRIPTION OF MNEMONIC
#---------         -----------     ------------------------------
GL  .M        479.4                : gl           - GROUND LEVEL ELEVATION
EREF.M        429.4                : kb           - ELEVATION OF DEPTH REFERENCE
DATM.M        429.4                : datum        - DATUM ELEVATION
TDD .M        197                  : tdd          - TOTAL DEPTH DRILLER
RUN .         ONE                  : Run          - RUN NUMBER
ENG .         JO                   : Engineer     - RECORDING ENGINEER
WIT .         TIM                  : Witness      - WITNESSED BY
MUD .         GEL                  : Mud_type     - MUD TYPE
MATR.         SANDSTONE            : Logunit      - NEUTRON MATRIX
TMAX.C        19                   : BHT          - MAXIMUM RECORDED TEMPERATURE
BHTD.M        197                  : BHTDEP       - MAXIMUM RECORDED TEMPERATURE
RMT .C        13                   : MDTP         - TEMPERATURE OF MUD
MUDD.KG/M     1060                 : MWT          - MUD DENSITY
NEUT.         1                    : NEUTRON      - NEUTRON TYPE
RESI.         0                    : RESIST       - RESISTIVITY TYPE
RM  .OHMM     2.71                 : RM           - RESISTIVITY OF MUD
RMC .OHMM     2.71                 : RMC          - RESISTIVITY OF MUD CAKE
RMF .OHMM     2.71                 : RMF          - RESISTIVITY OF MUD FILTRATE
SUFT.C        4                    : SUFT         - SURFACE TEMPERATURE
~A  DEPTH     RESD     PHID     PHIN       GR      CAL
# ...
  106.500    6.697    0.233    0.478   84.230  223.699
  106.750    6.577    0.235    0.483   87.798  232.621
  107.000    6.578    0.233    0.488   90.172  232.611
  107.250    6.578    0.201    0.492   89.569  242.525
  107.500    6.579    0.153    0.488   88.970  219.686
  107.750    6.579    0.158    0.474   90.750  199.825
  108.000    6.461    0.193    0.480   95.508  194.851
  108.250    6.345    0.213    0.495   99.672  217.669
  108.500    6.119    0.206    0.486  106.215  227.584
  108.750    5.901    0.190    0.492  103.232  225.588
  109.000    5.488    0.182    0.508   96.675  223.592
  109.250    5.104    0.217    0.501   97.858  219.611
  109.500    4.833    0.252    0.518   99.640  214.635
  109.750    4.747    0.258    0.539   98.439  220.585
  110.000    4.662    0.256    0.531   96.649  231.493
  110.250    4.662    0.242    0.521   93.664  238.430
  110.500    5.106    0.189    0.501   93.062  231.471
  110.750    5.295    0.212    0.476   95.436  214.587
  111.000    5.296    0.227    0.472   96.624  196.708
  111.250    5.201    0.230    0.481   97.807  204.638
  111.500    5.108    0.243    0.475   97.203  202.642
  111.750    5.108    0.221    0.474   94.818  209.582
  112.000    5.202    0.219    0.495   93.023  224.457
  112.250    5.802    0.231    0.511   95.396  219.483
  112.500    6.017    0.244    0.512   95.988  219.473
  112.750    6.240    0.245    0.520   97.768  215.495
  113.000    6.355    0.247    0.529   97.764  201.588
  113.250    6.241    0.214    0.511   95.375  212.496
  113.500    6.713    0.189    0.481   93.581  210.500
  113.750    7.089    0.184    0.476   90.595  215.452
  114.000    7.906    0.162    0.484   89.401  213.456
  114.250    8.350    0.112    0.417   87.010  187.639
  114.500    9.313    0.143    0.407   86.410  178.693
  114.750   10.015    0.168    0.434   86.999  191.588
  115.000   10.577    0.200    0.456   90.564  209.441
  115.250    9.837    0.246    0.467   95.919  199.507
  115.500    7.355    0.229    0.460  100.676  196.516
  115.750    6.134    0.232    0.469   99.478  204.449
  116.000    5.915    0.246    0.484   96.496  218.331
  116.250    6.362    0.262    0.456   93.512  212.368
  116.500    6.479    0.248    0.440   83.975  208.387
  116.750    6.843    0.250    0.443   82.778  229.219
  117.000    6.968    0.274    0.468   80.987  253.030
  117.250    6.844    0.285    0.478   79.194  245.079
  117.500    6.481    0.280    0.481   80.378  249.041
  117.750    6.027    0.172    0.474   81.564  208.328
  118.000    5.308    0.255    0.493   83.940  212.293
  118.250    4.426    0.272    0.512   87.505  221.218
  118.500    3.432    0.279    0.529   90.476  230.140
  118.750    3.134    0.292    0.542   92.852  236.084
  119.000    2.862    0.296    0.537   92.846  230.116
  119.250    2.811    0.284    0.509   90.457  225.145
  119.500    3.135    0.276    0.503   88.070  225.134
  119.750    3.692    0.262    0.497   83.300  231.076
  120.000    3.971    0.262    0.499   78.529  223.128
  120.250    4.044    0.260    0.511   73.163  213.192
  120.500    4.271    0.265    0.504   69.584  213.181
  120.750    4.429    0.323    0.477   67.195  221.111
  121.000    4.764    0.338    0.454   63.615  242.936
  121.250    5.313    0.351    0.450   61.227  268.732
  121.500    6.034    0.347    0.457   58.243  224.057
  121.750    6.609    0.291    0.461   55.854  204.195
  122.000    6.490    0.328    0.473   52.870  181.356
  122.250    6.610    0.342    0.440   50.482  175.390
  122.500    7.507    0.300    0.409   53.453  174.382
  122.750    8.683    0.272    0.406   57.018  174.374
  123.000   10.042    0.278    0.425   57.607  174.363
  123.250   11.827    0.281    0.433   57.005  173.362
  123.500   14.185    0.270    0.439   55.810  173.352
  123.750   16.407    0.267    0.438   53.421  173.341
  124.000   18.634    0.277    0.422   51.627  173.328
  124.250   19.679    0.285    0.419   50.431  173.320
  124.500   21.949    0.287    0.428   49.230  175.291
  124.750   22.763    0.284    0.441   49.227  175.283
  125.000   23.607    0.283    0.460   50.411  177.255
  125.250   24.482    0.285    0.457   52.785  178.234
  125.500   25.856    0.278    0.452   53.972  178.229
  125.750   27.307    0.268    0.462   55.752  179.208
  126.000   27.811    0.269    0.461   56.937  180.190
  126.250   26.820    0.263    0.450   56.930  181.172
  126.500   25.864    0.253    0.428   57.521  181.164
  126.750   17.030    0.275    0.420   58.706  184.125
  127.000   10.239    0.268    0.437   61.677  186.103
  127.250    6.501    0.277    0.446   65.243  187.090
  127.500    4.281    0.303    0.475   70.597  192.042
  127.750    3.570    0.302    0.515   75.950  201.957
  128.000    3.260    0.344    0.544   82.495  215.841
  128.250    2.871    0.332    0.571   88.443  213.843
  128.500    2.670    0.317    0.584   94.988  218.798
  128.750    2.769    0.296    0.592   94.981  217.794
  129.000    2.924    0.270    0.561   89.020  198.926
  129.250    3.321    0.277    0.548   82.461  190.972
  129.500    3.704    0.265    0.544   80.074  188.979
  129.750    4.131    0.245    0.536   78.279  190.953
  130.000    4.607    0.249    0.518   77.677  197.888
  130.250    5.328    0.232    0.494   77.671  189.939
  130.500    5.943    0.211    0.487   77.071  180.003
  130.750    6.628    0.223    0.470   75.872  176.020
  131.000    7.392    0.218    0.422   73.485  176.006
  131.250    7.950    0.249    0.424   71.096  176.991
  131.500    8.867    0.256    0.431   68.708  176.983
  131.750    9.030    0.247    0.438   68.104  172.999
  132.000    8.868    0.238    0.442   68.099  167.036
  132.250    8.099    0.238    0.449   68.689  168.018
  132.500    7.810    0.237    0.455   69.278  174.955
  132.750    7.811    0.239    0.455   69.865  181.892
  133.000    8.249    0.281    0.453   69.859  189.822
  133.250    9.034    0.275    0.460   69.258  184.849
  133.500    9.894    0.242    0.422   66.870  168.957
  133.750   10.641    0.151    0.392   61.504  159.016
  134.000   10.838    0.157    0.345   60.902  159.010
  134.250   10.264    0.230    0.380   60.894  159.992
  134.500    9.898    0.250    0.404   60.889  160.972
  134.750   10.080    0.248    0.417   59.096  161.951
  135.000   10.454    0.244    0.427   54.327  162.938
  135.250   11.243    0.247    0.432   48.961  162.925
  135.500   12.539    0.260    0.428   43.595  162.914
  135.750   14.768    0.266    0.394   38.824  162.901
  136.000   17.394    0.269    0.400   38.818  162.895
  136.250   18.370    0.277    0.397   43.576  162.887
  136.500   17.083    0.283    0.389   49.525  162.871
  136.750   15.320    0.264    0.386   54.878  162.863
  137.000   12.319    0.258    0.405   59.636  162.855
  137.250   10.461    0.273    0.458   64.393  163.832
  137.500    9.382    0.262    0.454   64.983  163.826
  137.750    8.884    0.261    0.452   64.379  166.791
  138.000    8.568    0.254    0.452   63.777  169.760
  138.250    8.114    0.258    0.453   64.366  173.717
  138.500    7.825    0.266    0.455   66.743  178.667
  138.750    7.546    0.256    0.454   71.501  181.636
  139.000    7.278    0.264    0.464   75.068  184.603
  139.250    7.018    0.276    0.488   75.657  190.550
  139.500    6.647    0.286    0.497   77.437  211.383
  139.750    6.410    0.283    0.488   80.409  195.492
  140.000    6.070    0.284    0.485   81.593  193.496
  140.250    5.854    0.292    0.483   78.609  210.358
  140.500    5.544    0.309    0.479   79.198  207.370
  140.750    5.156    0.322    0.476   83.359  209.345
  141.000    4.972    0.344    0.510   85.736  213.304
  141.250    4.972    0.323    0.502   86.325  205.350
  141.500    4.973    0.332    0.498   83.937  213.283
  141.750    4.973    0.313    0.501   76.189  225.182
  142.000    5.547    0.344    0.506   66.058  230.135
  142.250    6.186    0.336    0.513   61.288  203.325
  142.500    7.026    0.278    0.482   58.898  183.464
  142.750    8.738    0.265    0.425   60.082  172.535
