~VERSION INFORMATION
 VERS.                 2.0:   CWLS LOG ASCII STANDARD -VERSION 2.0
 WRAP.                  NO:   ONE LINE PER DEPTH STEP
~WELL INFORMATION BLOCK
#MNEM.UNIT           DATA                    DESCRIPTION OF MNEMONIC
#---------    -------------------            -------------------------------
# Generated from Intellog Unique Number	CN_91_93/WELL/3662
WELL.         02-08-093-09W4                 : Well_name    - WELL
LOC .         AA/02-08-093-09W4/0            : Location     - LOCATION
UWI .         AA/02-08-093-09W400            : Uwi          - UNIQUE WELL ID
ENTR.         JOETTE                         : Entered      - ENTERED BY
SRVC.         SCHLUMBERGER                   : Scn          - SERVICE COMPANY
DATE.         03/22/92                       : Date         - LOG DATE
STRT.M        3                              : top_depth    - START DEPTH
STOP.M        95                             : bot_depth    - STOP DEPTH
STEP.M        0.25                           : increment    - STEP LENGTH
 NULL. -999.2500:NULL Value
~CURVE INFORMATION BLOCK
#MNEM UNIT       ERCB CURVE CODE    CURVE DESCRIPTION
#-----------   ------------------   ----------------------------------
DEPT.M        00 001 00 00         : DEPTH        - DEPTH
GR  .API      00 310 00 00         : GR           - GAMMA RAY
CALI.MM       00 280 01 00         : CAL          - CALIPER
NPHI.V/V      00 330 00 00         : PHIN         - NEUTRON POROSITY (SANDSTONE)
DPHI.V/V      00 890 00 00         : PHID         - DENSITY POROSITY (SANDSTONE)
ILD .OHMM     00 120 00 00         : RESD         - DEEP RESISTIVITY (DIL)
~PARAMETER INFORMATION
#MNEM.UNIT           DATA             DESCRIPTION OF MNEMONIC
#---------         -----------     ------------------------------
GL  .M        333.6                : gl           - GROUND LEVEL ELEVATION
EREF.M        333.6                : kb           - ELEVATION OF DEPTH REFERENCE
DATM.M        333.6                : datum        - DATUM ELEVATION
TDD .M        97.9                 : tdd          - TOTAL DEPTH DRILLER
RUN .         ONE                  : Run          - RUN NUMBER
ENG .         JO                   : Engineer     - RECORDING ENGINEER
WIT .         TIM                  : Witness      - WITNESSED BY
MUD .         GEL                  : Mud_type     - MUD TYPE
MATR.         SANDSTONE            : Logunit      - NEUTRON MATRIX
TMAX.C        12.6                 : BHT          - MAXIMUM RECORDED TEMPERATURE
BHTD.M        97.9                 : BHTDEP       - MAXIMUM RECORDED TEMPERATURE
RMT .C        12                   : MDTP         - TEMPERATURE OF MUD
MUDD.KG/M     1090                 : MWT          - MUD DENSITY
NEUT.         1                    : NEUTRON      - NEUTRON TYPE
RESI.         0                    : RESIST       - RESISTIVITY TYPE
RM  .OHMM     4.35                 : RM           - RESISTIVITY OF MUD
RMC .OHMM     4.35                 : RMC          - RESISTIVITY OF MUD CAKE
RMF .OHMM     4.35                 : RMF          - RESISTIVITY OF MUD FILTRATE
SUFT.C        4                    : SUFT         - SURFACE TEMPERATURE
~A  DEPTH       GR      CAL     PHIN     PHID     RESD
    3.000   28.157  164.243    0.574    0.341    2.978
    3.250   30.016  164.269    0.542    0.277    2.093
    3.500   36.777  164.285    0.527    0.207    1.839
    3.750   36.196  164.311    0.494    0.116    1.875
    4.000   35.004  164.327    0.427    0.047    1.775
    4.250   42.385  164.353    0.389   -0.033    1.531
    4.500   43.640  164.369    0.429    0.000    1.422
    4.750   43.679  164.808    0.509    0.018    1.297
    5.000   46.158  164.824    0.507    0.015    1.478
    5.250   47.413  164.845    0.401    0.004    1.655
    5.500   48.056  164.861    0.397   -0.006    1.625
    5.750   48.699  165.295    0.415   -0.010    1.427
    6.000   49.947  165.316    0.492    0.001    1.302
    6.250   56.715  165.337    0.565    0.060    1.232
    6.500   59.186  165.766    0.610    0.125    1.210
    6.750   61.664  166.195    0.646    0.127    1.234
    7.000   64.151  166.226    0.643    0.121    1.306
    7.250   63.579  166.237    0.632    0.130    1.331
    7.500   59.947  165.850    0.606    0.082    1.383
    7.750   59.963  165.876    0.555    0.068    1.463
    8.000   57.555  165.892    0.519    0.034    1.899
    8.250   52.065  165.918    0.476   -0.012    1.732
    8.500   43.532  165.939    0.410   -0.031    1.974
    8.750   41.124  165.552    0.450   -0.019    2.293
    9.000   41.768  163.942    0.411    0.023    2.251
    9.250   46.082  162.331    0.390    0.095    2.519
    9.500   46.113  162.352    0.471    0.120    3.270
    9.750   42.474  163.597    0.461    0.152    3.524
   10.000   45.564  164.847    0.509    0.171    3.594
   10.250   50.498  165.265    0.616    0.155    3.401
   10.500   41.957  165.286    0.629    0.164    3.159
   10.750   41.988  165.312    0.583    0.183    2.626
   11.000   47.526  164.518    0.518    0.142    2.831
   11.250   53.063  163.723    0.474    0.059    2.940
   11.500   58.600  162.928    0.411    0.030    2.835
   11.750   64.138  162.954    0.340    0.022    2.585
   12.000   55.605  162.970    0.425    0.045    2.401
   12.250   48.295  162.986    0.559    0.072    2.273
   12.500   40.985  163.012    0.533    0.076    2.317
   12.750   39.793  163.028    0.503    0.091    2.498
   13.000   42.272  163.060    0.578    0.122    2.547
   13.250   44.146  163.081    0.557    0.052    2.746
   13.500   39.888  162.688    0.433    0.043    2.799
   13.750   36.860  157.402    0.407    0.053    3.633
   14.000   39.347  154.976    0.372    0.061    4.378
   14.250   42.429  157.857    0.419    0.054    3.993
   14.500   42.461  160.325    0.528    0.056    3.380
   14.750   40.657  161.978    0.499    0.087    2.809
   15.000   41.920  161.999    0.520    0.130    2.659
   15.250   45.630  164.472    0.583    0.135    2.711
   15.500   45.050  163.270    0.606    0.155    2.868
   15.750   46.908  162.883    0.611    0.143    4.831
   16.000   52.446  163.725    0.622    0.126    4.089
   16.250   57.371  164.551    0.638    0.106    3.039
   16.500   54.956  164.980    0.659    0.106    2.720
   16.750   42.140  162.559    0.645    0.144    2.879
   17.000   43.395  162.172    0.624    0.148    3.161
   17.250   43.435  162.596    0.599    0.128    3.224
   17.500   44.078  160.170    0.551    0.143    3.051
   17.750   48.996  156.928    0.571    0.179    3.608
   18.000   56.384  155.725    0.588    0.164    4.190
   18.250   55.176  156.970    0.587    0.158    4.352
   18.500   55.208  159.030    0.587    0.153    4.119
   18.750   58.298  161.906    0.588    0.163    3.687
   19.000   62.620  162.340    0.594    0.178    2.952
   19.250   57.153  162.361    0.603    0.185    3.624
   19.500   55.953  162.795    0.616    0.173    3.627
   19.750   54.761  164.447    0.626    0.164    2.746
   20.000   59.687  164.468    0.632    0.159    2.649
   20.250   65.844  162.853    0.635    0.161    3.075
   20.500   62.197  161.656    0.641    0.160    3.505
   20.750   54.276  162.084    0.649    0.121    2.807
   21.000   54.307  161.698    0.645    0.128    2.512
   21.250   54.950  158.451    0.633    0.143    2.049
   21.500   44.582  154.398    0.619    0.137    2.761
   21.750   41.563  149.520    0.612    0.166    4.915
   22.000   49.539  138.937    0.540    0.244    9.604
   22.250   67.924  138.550    0.399    0.284   32.774
   22.500   73.469  138.577    0.356    0.291   36.673
   22.750   69.210  138.587    0.331    0.301   39.525
   23.000   64.347  138.619    0.315    0.323   43.413
   23.250   61.328  138.640    0.329    0.314   40.332
   23.500   63.195  138.655    0.398    0.303   38.888
   23.750   57.101  138.676    0.423    0.298   39.661
   24.000   51.030  138.697    0.447    0.287   40.427
   24.250   49.823  138.718    0.467    0.294   49.623
   24.500   47.407  138.739    0.439    0.299   57.620
   24.750   44.992  138.760    0.374    0.294   58.743
   25.000   41.352  138.792    0.366    0.288   57.703
   25.250   43.219  138.394    0.404    0.281   73.526
   25.500   48.145  138.415    0.417    0.284   90.268
   25.750   54.914  138.436    0.445    0.286   76.434
   26.000   61.063  138.457    0.492    0.276   70.997
   26.250   69.047  138.478    0.381    0.266   75.122
   26.500   67.243  138.499    0.380    0.255   69.791
   26.750   63.604  138.526    0.352    0.226   67.305
   27.000   77.706  138.547    0.339    0.231   55.921
   27.250   88.757  138.568    0.345    0.266   35.825
   27.500   76.546  138.583    0.356    0.290   90.809
   27.750   65.573  138.604    0.408    0.297   97.888
   28.000   73.550  138.631    0.455    0.295   94.385
   28.250   78.476  138.657    0.487    0.275   70.158
   28.500   91.362  138.667    0.409    0.271   58.302
   28.750   89.558  138.704    0.394    0.273   47.557
   29.000   82.249  138.720    0.403    0.275   57.322
   29.250   90.845  138.736    0.398    0.261   52.264
   29.500  100.053  138.762    0.420    0.246   44.246
   29.750   97.025  138.778    0.398    0.236   37.465
   30.000   92.171  138.799    0.408    0.221   32.307
   30.250   90.367  138.422    0.424    0.225   35.478
   30.500   88.555  138.443    0.425    0.233   43.565
   30.750   78.187  138.051    0.372    0.245   48.730
   31.000   62.312  138.072    0.401    0.258   56.593
   31.250   59.285  137.685    0.414    0.262   56.634
   31.500   62.375  137.706    0.381    0.259   52.605
   31.750   64.242  137.733    0.351    0.245   45.371
   32.000   64.885  137.748    0.358    0.223   41.382
   32.250   74.093  137.362    0.370    0.197   37.036
   32.500   94.321  137.377    0.364    0.203   26.525
   32.750   90.070  137.409    0.444    0.221   25.580
   33.000   83.364  137.425    0.457    0.224   28.619
   33.250   77.890  137.451    0.393    0.238   34.489
   33.500   88.329  137.467    0.418    0.261   35.827
   33.750   85.302  137.482    0.391    0.206   40.075
   34.000   75.537  137.509    0.368    0.219   60.371
   34.250   68.840  137.524    0.385    0.278   49.236
   34.500   67.663  137.551    0.391    0.294   41.683
   34.750   67.679  137.572    0.458    0.275   49.316
   35.000   70.173  137.593    0.474    0.237   64.006
   35.250   68.362  137.211    0.468    0.237   94.647
   35.500   65.938  137.232    0.484    0.253   51.286
   35.750   59.860  136.845    0.485    0.268   45.062
   36.000   58.668  136.866    0.509    0.274   59.604
   36.250   58.088  136.887    0.505    0.289   67.934
   36.500   58.731  137.311    0.464    0.276   67.983
   36.750   61.821  137.337    0.485    0.269   56.494
   37.000   61.861  137.363    0.494    0.271   53.469
   37.250   57.610  137.374    0.501    0.273   63.261
   37.500   55.194  137.395    0.536    0.279   72.090
   37.750   52.771  137.013    0.538    0.291   93.580
   38.000   47.296  137.029    0.407    0.282  160.561
   38.250   49.163  137.050    0.410    0.279  102.841
   38.500   51.038  137.071    0.447    0.280  106.813
   38.750   48.614  137.097    0.471    0.275   92.124
   39.000   61.493  137.113    0.459    0.271   75.145
   39.250   61.524  137.134    0.514    0.277   75.200
