~VERSION INFORMATION
 VERS.                 2.0:   CWLS LOG ASCII STANDARD -VERSION 2.0
 WRAP.                  NO:   ONE LINE PER DEPTH STEP
~WELL INFORMATION BLOCK
#MNEM.UNIT           DATA                    DESCRIPTION OF MNEMONIC
#---------    -------------------            -------------------------------
# Generated from Intellog Unique Number	CN_94_101/WELL/3218
WELL.         01-03-096-07W4                 : Well_name    - WELL
LOC .         AA/01-03-096-07W4/0            : Location     - LOCATION
UWI .         AA/01-03-096-07W400            : Uwi          - UNIQUE WELL ID
ENTR.         JOETTE                         : Entered      - ENTERED BY
SRVC.         SCHLUMBERGER                   : Scn          - SERVICE COMPANY
DATE.         07/20/92                       : Date         - LOG DATE
STRT.M        25                             : top_depth    - START DEPTH
STOP.M        180                            : bot_depth    - STOP DEPTH
STEP.M        0.25                           : increment    - STEP LENGTH
 NULL. -999.2500:NULL Value
~CURVE INFORMATION BLOCK
#MNEM UNIT       ERCB CURVE CODE    CURVE DESCRIPTION
#-----------   ------------------   ----------------------------------
DEPT.M        00 001 00 00         : DEPTH        - DEPTH
ILD .OHMM     00 120 00 00         : RESD         - DEEP RESISTIVITY (DIL)
GR  .API      00 310 00 00         : GR           - GAMMA RAY
NPHI.V/V      00 330 00 00         : PHIN         - NEUTRON POROSITY (SANDSTONE)
DPHI.V/V      00 890 00 00         : PHID         - DENSITY POROSITY (SANDSTONE)
~PARAMETER INFORMATION
#MNEM.UNIT           DATA             DESCRIPTION OF MNEMONIC
#---------         -----------     ------------------------------
GL  .M        438.36               : gl           - GROUND LEVEL ELEVATION
EREF.M        439.66               : kb           - ELEVATION OF DEPTH REFERENCE
DATM.M        439.66               : datum        - DATUM ELEVATION
TDD .M        181                  : tdd          - TOTAL DEPTH DRILLER
RUN .         ONE                  : Run          - RUN NUMBER
ENG .         JO                   : Engineer     - RECORDING ENGINEER
WIT .         TIM                  : Witness      - WITNESSED BY
MUD .         GEL                  : Mud_type     - MUD TYPE
MATR.         SANDSTONE            : Logunit      - NEUTRON MATRIX
TMAX.C        16                   : BHT          - MAXIMUM RECORDED TEMPERATURE
BHTD.M        181                  : BHTDEP       - MAXIMUM RECORDED TEMPERATURE
RMT .C        27.8                 : MDTP         - TEMPERATURE OF MUD
MUDD.KG/M     1110                 : MWT          - MUD DENSITY
NEUT.         1                    : NEUTRON      - NEUTRON TYPE
RESI.         0                    : RESIST       - RESISTIVITY TYPE
RM  .OHMM     16.5                 : RM           - RESISTIVITY OF MUD
RMC .OHMM     16.5                 : RMC          - RESISTIVITY OF MUD CAKE
RMF .OHMM     16.5                 : RMF          - RESISTIVITY OF MUD FILTRATE
SUFT.C        4                    : SUFT         - SURFACE TEMPERATURE
~A  DEPTH     RESD       GR     PHIN     PHID
# ...
  155.500  469.582   33.495    0.387    0.292
  155.750  516.433   31.658    0.390    0.298
  156.000  477.927   28.622    0.390    0.308
  156.250  451.001   26.182    0.390    0.315
  156.500  386.650   25.550    0.385    0.305
  156.750  337.893   26.712    0.379    0.291
  157.000  263.176   28.492    0.380    0.285
  157.250  205.015   29.683    0.389    0.295
  157.500  234.277   32.058    0.392    0.299
  157.750  300.326   32.639    0.394    0.299
  158.000  377.692   33.206    0.398    0.302
  158.250  457.131   31.971    0.394    0.299
  158.500  512.465   29.531    0.387    0.297
  158.750  574.496   27.091    0.374    0.308
  159.000  585.208   25.849    0.377    0.321
  159.250  643.595   25.820    0.386    0.314
  159.500  925.546   25.791    0.397    0.316
  159.750 1186.690   25.769    0.395    0.321
  160.000 1355.830   26.946    0.387    0.303
  160.250 1303.970   28.122    0.381    0.277
  160.500 1253.880   28.093    0.383    0.271
  160.750 1205.920   28.050    0.388    0.279
  161.000 1159.990   28.028    0.385    0.286
  161.250 1073.500   28.609    0.380    0.290
  161.500 1013.020   30.381    0.374    0.290
  161.750  919.852   32.154    0.370    0.290
  162.000  803.858   32.742    0.374    0.299
  162.250  818.845   32.706    0.381    0.307
  162.500  900.544   30.868    0.391    0.310
  162.750 1009.200   27.223    0.398    0.293
  163.000 1068.540   22.371    0.393    0.304
  163.250 1369.790   21.732    0.388    0.312
  163.500 1755.980   23.512    0.380    0.301
  163.750 2006.610   25.291    0.375    0.293
  164.000 2005.230   25.872    0.377    0.300
  164.250 2003.510   26.439    0.384    0.307
  164.500 1964.150   28.225    0.385    0.310
  164.750 1962.800   32.416    0.388    0.311
  165.000 1999.740   36.606    0.388    0.310
  165.250 2076.420   40.194    0.385    0.304
  165.500 2075.000   41.974    0.380    0.299
  165.750 1995.630   40.739    0.377    0.305
  166.000 1847.150   40.100    0.378    0.306
  166.250 1676.700   40.078    0.382    0.282
  166.500 1522.760   41.858    0.382    0.280
  166.750 1356.470   44.843    0.381    0.279
  167.000 1208.350   50.231    0.379    0.284
  167.250  871.872   50.202    0.379    0.277
  167.500  791.553   49.571    0.378    0.279
  167.750  665.848   53.158    0.368    0.293
  168.000   85.639   53.739    0.361    0.288
  168.250   90.643   51.299    0.350    0.280
  168.500   94.135   60.915    0.354    0.273
  168.750  105.512   68.722    0.384    0.266
  169.000  116.059   69.899    0.394    0.244
  169.250  143.187   59.622    0.389    0.242
  169.500  213.958   49.949    0.381    0.291
  169.750  290.504   35.438    0.374    0.294
  170.000 1153.400   37.218    0.377    0.299
  170.250 1627.210   37.799    0.382    0.305
  170.500 1564.970   34.749    0.385    0.299
  170.750 1393.600   32.309    0.384    0.292
  171.000 1447.290   31.081    0.381    0.287
  171.250 1474.020   29.839    0.382    0.293
  171.500 1473.010   29.215    0.388    0.301
  171.750 1389.790   29.179    0.398    0.307
  172.000 1362.710   29.150    0.388    0.308
  172.250 1310.360   29.724    0.385    0.302
  172.500 1309.470   31.503    0.386    0.293
  172.750 1308.570   35.098    0.381    0.298
  173.000 1307.900   42.905    0.381    0.297
  173.250 1306.550   58.541    0.379    0.292
  173.500 1281.100   55.498    0.379    0.286
  173.750 1256.150   53.668    0.373    0.280
  174.000 1231.460   48.803    0.368    0.288
  174.250 1328.400   47.583    0.374    0.299
  174.500 1433.220   45.745    0.403    0.295
  174.750 1405.060   44.503    0.399    0.289
  175.000 1276.060   44.467    0.391    0.265
  175.250   10.399   45.048    0.369    0.255
  175.500    9.443   43.814    0.366    0.200
  175.750    8.410   49.210    0.377    0.172
  176.000    9.427   57.620    0.393    0.144
  176.250   10.371   60.002    0.402    0.117
  176.500   12.080   60.576    0.409    0.088
  176.750   19.865   62.958    0.407    0.057
  177.000   28.026   59.915    0.397    0.212
  177.250   33.271   39.391    0.391    0.241
  177.500   37.305   32.732    0.383    0.201
  177.750   38.735   28.476    0.385    0.156
  178.000   38.709   27.844    0.393    0.148
  178.250   38.682   30.226    0.397    0.141
  178.500   44.196   35.622    0.392    0.115
  178.750   45.898   39.820    0.388    0.085
  179.000   49.520   48.833    0.393    0.079
  179.250   53.409   57.243    0.383    0.084
  179.500   53.391   61.434    0.373    0.059
  179.750   53.345   56.582    0.366    0.121
  180.000   52.297   42.682    0.360    0.118
