~VERSION INFORMATION
 VERS.                 2.0:   CWLS LOG ASCII STANDARD -VERSION 2.0
 WRAP.                  NO:   ONE LINE PER DEPTH STEP
~WELL INFORMATION BLOCK
#MNEM.UNIT           DATA                    DESCRIPTION OF MNEMONIC
#---------    -------------------            -------------------------------
# Generated from Intellog Unique Number	CN_94_101/WELL/4981
WELL.         06-16-100-14W4                 : Well_name    - WELL
LOC .         AA/06-16-100-14W4/0            : Location     - LOCATION
UWI .         AA/06-16-100-14W400            : Uwi          - UNIQUE WELL ID
ENTR.         TIM                            : Entered      - ENTERED BY
SRVC.         SCHLUMBERGER                   : Scn          - SERVICE COMPANY
DATE.         08/11/92                       : Date         - LOG DATE
STRT.M        274.32                         : top_depth    - START DEPTH
STOP.M        481.57                         : bot_depth    - STOP DEPTH
STEP.M        0.25                           : increment    - STEP LENGTH
 NULL. -999.2500:NULL Value
~CURVE INFORMATION BLOCK
#MNEM UNIT       ERCB CURVE CODE    CURVE DESCRIPTION
#-----------   ------------------   ----------------------------------
DEPT.M        00 001 00 00         : DEPTH        - DEPTH
GR  .API      00 310 00 00         : GR           - GAMMA RAY
ILD .OHMM     00 120 00 00         : RESD         - DEEP RESISTIVITY (DIL)
NPHI.V/V      00 330 00 00         : PHIN         - NEUTRON POROSITY (SANDSTONE)
~PARAMETER INFORMATION
#MNEM.UNIT           DATA             DESCRIPTION OF MNEMONIC
#---------         -----------     ------------------------------
GL  .M        716.28               : gl           - GROUND LEVEL ELEVATION
EREF.M        719.633              : kb           - ELEVATION OF DEPTH REFERENCE
DATM.M        719.633              : datum        - DATUM ELEVATION
TDD .M        484.937              : tdd          - TOTAL DEPTH DRILLER
RUN .         ONE                  : Run          - RUN NUMBER
ENG .         JO                   : Engineer     - RECORDING ENGINEER
WIT .         TIM                  : Witness      - WITNESSED BY
MUD .         GEL                  : Mud_type     - MUD TYPE
MATR.         SANDSTONE            : Logunit      - NEUTRON MATRIX
TMAX.C        20                   : BHT          - MAXIMUM RECORDED TEMPERATURE
BHTD.M        484.937              : BHTDEP       - MAXIMUM RECORDED TEMPERATURE
RMT .C        10                   : MDTP         - TEMPERATURE OF MUD
MUDD.KG/M     9300                 : MWT          - MUD DENSITY
NEUT.         1                    : NEUTRON      - NEUTRON TYPE
RESI.         0                    : RESIST       - RESISTIVITY TYPE
RM  .OHMM     13.8                 : RM           - RESISTIVITY OF MUD
RMC .OHMM     13.8                 : RMC          - RESISTIVITY OF MUD CAKE
RMF .OHMM     13.8                 : RMF          - RESISTIVITY OF MUD FILTRATE
SUFT.C        4                    : SUFT         - SURFACE TEMPERATURE
~A  DEPTH       GR     RESD     PHIN
# ...
  437.070   88.660    1.566    0.534
  437.320   87.476    1.695    0.541
  437.570   85.923    1.835    0.534
  437.820   85.147    2.237    0.524
  438.070   81.971    2.420    0.514
  438.320   53.199    2.672    0.500
  438.570   47.632    3.191    0.449
  438.820   49.662    4.040    0.412
  439.070   53.708    5.319    0.383
  439.320   54.539    6.351    0.381
  439.570   55.370    7.887    0.378
  439.820   56.594    9.056    0.373
  440.070   59.832   10.815    0.371
  440.320   60.663   11.261    0.371
  440.570   61.502   11.726    0.373
  440.820   61.525   11.291    0.381
  441.070   62.356   10.055    0.390
  441.320   64.387    7.657    0.412
  441.570   72.425    5.606    0.438
  441.820   78.862    3.652    0.464
  442.070   75.686    2.836    0.478
  442.320   72.518    2.290    0.490
  442.570   70.150    2.001    0.493
  442.820   67.781    1.926    0.492
  443.070   64.621    2.211    0.484
  443.320   61.853    2.693    0.448
  443.570   61.084    3.279    0.436
  443.820   61.915    4.401    0.402
  444.070   63.562    5.911    0.383
  444.320   63.585    7.631    0.375
  444.570   62.024    9.855    0.370
  444.820   60.440   10.671    0.367
  445.070   56.872   10.485    0.363
  445.320   52.904   10.492    0.360
  445.570   52.535   10.305    0.355
  445.820   51.767   10.116    0.349
  446.070   48.598    9.744    0.331
  446.320   44.638    9.568    0.317
  446.570   44.262   10.159    0.285
  446.820   43.493   11.898    0.271
  447.070   43.547   13.392    0.264
  447.320   43.563   15.680    0.277
  447.570   44.002   16.021    0.297
  447.820   44.425   15.726    0.341
  448.070   45.672   15.442    0.350
  448.320   46.895   14.874    0.351
  448.570   48.934   13.774    0.355
  448.820   50.572   12.754    0.357
  449.070   51.388   11.807    0.362
  449.320   52.219   11.149    0.365
  449.570   52.250   10.124    0.368
  449.820   51.897    9.378    0.367
  450.070   51.928    8.684    0.359
  450.320   52.359    8.203    0.348
  450.570   53.190    7.748    0.346
  450.820   53.614    7.603    0.342
  451.070   54.852    7.041    0.341
  451.320   56.483    5.915    0.336
  451.570   58.514    5.369    0.337
  451.820   60.945    4.598    0.342
  452.070   70.982    3.713    0.355
  452.320   89.817    2.941    0.390
  452.570   95.847    2.619    0.427
  452.820   93.887    2.332    0.544
  453.070   92.318    1.998    0.535
  453.320   92.350    1.886    0.522
  453.570   94.780    1.816    0.507
  453.820   97.619    1.819    0.494
  454.070   98.442    1.857    0.485
  454.320  100.081    1.896    0.478
  454.570  100.912    2.054    0.484
  454.820   98.143    2.224    0.491
  455.070   95.375    2.361    0.495
  455.320   91.407    2.557    0.497
  455.570   83.432    2.824    0.493
  455.820   64.267    3.118    0.488
  456.070   60.299    3.441    0.463
  456.320   57.930    3.952    0.397
  456.570   55.962    4.536    0.384
  456.820   62.792    5.747    0.328
  457.070   68.030    6.596    0.328
  457.320   66.461    8.351    0.329
  457.570   58.886   10.371    0.329
  457.820   54.918   11.677    0.329
  458.070   46.151   11.693    0.328
  458.320   37.783   11.259    0.324
  458.570   34.623   10.426    0.324
  458.820   36.654    9.284    0.331
  459.070   36.285    8.108    0.338
  459.320   35.109    6.421    0.335
  459.570   32.748    4.795    0.321
  459.820   31.987    3.798    0.304
  460.070   32.003    3.008    0.302
  460.320   33.642    2.429    0.305
  460.570   36.072    2.040    0.314
  460.820   38.919    1.781    0.334
  461.070   38.934    1.587    0.338
  461.320   37.366    1.469    0.363
  461.570   35.005    1.334    0.366
  461.820   34.244    1.212    0.374
  462.070   36.275    1.167    0.380
  462.320   39.106    1.123    0.311
  462.570   39.929    1.061    0.303
  462.820   37.968    1.041    0.301
  463.070   36.400    1.003    0.306
  463.320   35.631    0.985    0.313
  463.570   36.478    0.948    0.322
  463.820   36.901    0.931    0.328
  464.070   37.324    0.914    0.330
  464.320   36.156    0.898    0.321
  464.570   34.187    0.882    0.311
  464.820   32.627    0.883    0.317
  465.070   32.258    0.868    0.324
  465.320   33.097    0.868    0.339
  465.570   33.528    0.853    0.349
  465.820   33.551    0.837    0.358
  466.070   33.182    0.839    0.366
  466.320   33.229    0.839    0.370
  466.570   32.845    0.840    0.372
  466.820   32.084    0.842    0.370
  467.070   31.315    0.843    0.363
  467.320   31.747    0.845    0.354
  467.570   33.785    0.845    0.347
  467.820   35.016    0.846    0.343
  468.070   35.439    0.848    0.339
  468.320   35.478    0.849    0.332
  468.570   35.110    0.833    0.327
  468.820   34.349    0.835    0.320
  469.070   33.588    0.820    0.316
  469.320   33.611    0.821    0.316
  469.570   33.250    0.822    0.316
  469.820   32.866    0.823    0.318
  470.070   31.705    0.824    0.324
  470.320   29.737    0.825    0.331
  470.570   29.768    0.826    0.337
  470.820   31.399    0.827    0.342
  471.070   35.029    0.829    0.345
  471.320   40.660    0.830    0.352
  471.570   41.091    0.831    0.366
  471.820   39.938    0.848    0.381
  472.070   39.569    0.849    0.357
  472.320   38.792    0.850    0.328
  472.570   38.431    0.852    0.326
  472.820   38.055    0.853    0.328
  473.070   38.502    0.854    0.334
  473.320   38.517    0.855    0.340
  473.570   37.756    0.857    0.351
  473.820   35.796    0.858    0.357
  474.070   35.019    0.876    0.360
  474.320   33.866    0.894    0.353
  474.570   33.898    0.895    0.346
  474.820   33.913    0.914    0.340
  475.070   34.344    0.916    0.340
  475.320   35.975    0.935    0.346
  475.570   39.214    0.955    0.349
  475.820   41.244    0.956    0.341
  476.070   41.675    0.976    0.304
  476.320   42.114    0.997    0.304
  476.570   42.545    1.018    0.305
  476.820   44.184    1.039    0.303
  477.070   45.807    1.061    0.301
  477.320   48.238    1.083    0.301
  477.570   50.277    1.128    0.304
  477.820   49.508    1.198    0.310
  478.070   47.140    1.248    0.317
  478.320   44.364    1.325    0.317
  478.570   41.211    1.353    0.316
  478.820   40.834    1.465    0.313
  479.070   40.073    1.715    0.307
  479.320   39.313    2.048    0.303
  479.570   38.936    2.543    0.304
  479.820   38.567    3.285    0.307
  480.070   38.199    3.557    0.311
  480.320   37.822    3.853    0.260
  480.570   37.053    4.090    0.245
  480.820   37.108    4.090    0.237
  481.070   37.131    4.185    0.233
  481.320   37.962    4.185    0.232
  481.570   38.394    3.878    0.229
