~VERSION INFORMATION
 VERS.                 2.0:   CWLS LOG ASCII STANDARD -VERSION 2.0
 WRAP.                  NO:   ONE LINE PER DEPTH STEP
~WELL INFORMATION BLOCK
#MNEM.UNIT           DATA                    DESCRIPTION OF MNEMONIC
#---------    -------------------            -------------------------------
# Generated from Intellog Unique Number	CN_94_101/WELL/3312
WELL.         06-30-095-08W4                 : Well_name    - WELL
LOC .         AA/06-30-095-08W4/0            : Location     - LOCATION
UWI .         AA/06-30-095-08W400            : Uwi          - UNIQUE WELL ID
ENTR.         JOETTE                         : Entered      - ENTERED BY
SRVC.         SCHLUMBERGER                   : Scn          - SERVICE COMPANY
DATE.         07/22/92                       : Date         - LOG DATE
STRT.M        10                             : top_depth    - START DEPTH
STOP.M        105                            : bot_depth    - STOP DEPTH
STEP.M        0.25                           : increment    - STEP LENGTH
 NULL. -999.2500:NULL Value
~CURVE INFORMATION BLOCK
#MNEM UNIT       ERCB CURVE CODE    CURVE DESCRIPTION
#-----------   ------------------   ----------------------------------
DEPT.M        00 001 00 00         : DEPTH        - DEPTH
GR  .API      00 310 00 00         : GR           - GAMMA RAY
DELT.US/F     00 520 00 00         : DELT         - SONIC TRAVEL TIME
ILD .OHMM     00 120 00 00         : RESD         - DEEP RESISTIVITY (DIL)
~PARAMETER INFORMATION
#MNEM.UNIT           DATA             DESCRIPTION OF MNEMONIC
#---------         -----------     ------------------------------
GL  .M        318.75               : gl           - GROUND LEVEL ELEVATION
EREF.M        318.75               : kb           - ELEVATION OF DEPTH REFERENCE
DATM.M        318.75               : datum        - DATUM ELEVATION
TDD .M        105.5                : tdd          - TOTAL DEPTH DRILLER
RUN .         ONE                  : Run          - RUN NUMBER
ENG .         JO                   : Engineer     - RECORDING ENGINEER
WIT .         TIM                  : Witness      - WITNESSED BY
MUD .         GEL                  : Mud_type     - MUD TYPE
MATR.         SANDSTONE            : Logunit      - NEUTRON MATRIX
TMAX.C        8                    : BHT          - MAXIMUM RECORDED TEMPERATURE
BHTD.M        105.5                : BHTDEP       - MAXIMUM RECORDED TEMPERATURE
RMT .C        8                    : MDTP         - TEMPERATURE OF MUD
MUDD.KG/M     1190                 : MWT          - MUD DENSITY
NEUT.         1                    : NEUTRON      - NEUTRON TYPE
RESI.         0                    : RESIST       - RESISTIVITY TYPE
RM  .OHMM     7.1                  : RM           - RESISTIVITY OF MUD
RMC .OHMM     7.1                  : RMC          - RESISTIVITY OF MUD CAKE
RMF .OHMM     7.1                  : RMF          - RESISTIVITY OF MUD FILTRATE
SUFT.C        4                    : SUFT         - SURFACE TEMPERATURE
~A  DEPTH       GR     DELT     RESD
# ...
   64.250   31.678  367.317 3803.980
   64.500   39.192  369.442 1798.540
   64.750   43.106  373.281 1640.680
   65.000   41.417  382.726  952.560
   65.250   42.811  404.186  182.309
   65.500   53.363  407.969   98.249
   65.750   69.427  415.812   21.870
   66.000  103.199  446.194   23.628
   66.250  122.345  477.377   23.254
   66.500  124.954  510.107   21.630
   66.750  121.488  518.751   25.229
   67.000  114.332  483.919   28.321
   67.250  110.865  460.357   27.892
   67.500  111.044  440.800   25.926
   67.750   99.635  442.124   13.466
   68.000  107.712  470.904   14.569
   68.250  123.776  506.148   15.159
   68.500  147.175  546.888   15.773
   68.750  140.672  542.716   16.759
   69.000  135.383  538.433   17.101
   69.250  141.029  534.206   17.487
   69.500  140.601  522.659   16.890
   69.750  135.875  523.237   16.634
   70.000  119.605  522.270   17.970
   70.250  125.252  480.975   22.581
   70.500  134.589  455.811   21.403
   70.750  132.945  409.710   15.604
   71.000  126.396  484.313   15.945
   71.250  114.380  502.625   17.238
   71.500   87.085  527.344   28.182
   71.750   67.082  504.528   33.495
   72.000   61.793  469.752   28.880
   72.250   57.067  482.345   20.648
   72.500   87.801  490.189   16.513
   72.750  100.827  491.568   26.019
   73.000   83.906  445.467   30.923
   73.250   67.592  444.444   32.199
   73.500   54.316  457.093   36.831
   73.750   46.552  481.012   36.961
   74.000   39.441  482.336   35.057
   74.250   46.347  468.497   34.453
   74.500   48.349  461.010   30.312
   74.750   72.355  482.471   27.137
   75.000   90.850  490.369   20.902
   75.250  114.249  487.689   15.811
   75.500  124.845  483.406   14.986
   75.750  123.764  487.990   14.484
   76.000  113.570  493.374   14.515
   76.250  103.376  494.064   14.285
   76.500  110.890  490.582   13.540
   76.750  117.189  483.897   14.366
   77.000  119.798  474.007   18.064
   77.250  104.700  464.173   27.933
   77.500   95.721  430.142   22.339
   77.750  108.140  417.794   19.275
   78.000  115.698  439.365   18.616
   78.250  112.187  445.551   19.036
   78.500  105.639  441.268   19.438
   78.750  107.033  452.316   20.639
   79.000  110.249  456.899   20.682
   79.250  115.940  454.330   20.383
   79.500  115.512  446.787   19.293
   79.750  116.298  440.157   16.646
   80.000  126.895  445.597   13.074
   80.250  122.776  493.657   10.864
   80.500  118.747  527.243   11.312
   80.750  114.584  529.368   11.779
   81.000  112.332  530.748   12.985
   81.250  109.474  531.327   14.843
   81.500  108.437  486.082   17.641
   81.750  109.224  469.729   18.039
   82.000  110.618  456.635   16.467
   82.250   96.171  439.537   15.033
   82.500   91.445  442.519   15.642
   82.750   81.859  447.102   17.892
   83.000   94.322  401.802   20.113
   83.250   97.494  395.973   19.780
   83.500  103.793  404.562   20.212
   83.750  100.890  431.740   20.269
   84.000   93.778  422.651   21.929
   84.250   82.932  423.230   23.708
   84.500   73.953  428.615   24.686
   84.750   67.494  437.259   24.295
   85.000   64.546  444.246   24.363
   85.250   56.219  450.487   22.663
   85.500   60.043  463.937   19.176
   85.750   93.208  482.138   13.445
   86.000  120.859  485.175   11.385
   86.250  142.436  497.880   11.003
   86.500  164.057  509.728   10.228
   86.750  157.464  513.455    9.878
   87.000  143.580  521.298   10.481
   87.250  146.841  529.142   11.128
   87.500  148.235  535.383   11.807
   87.750  136.826  540.768   12.527
   88.000  133.360  536.540   13.810
   88.250  124.337  529.855   14.370
   88.500  125.775  521.567   15.246
   88.750  116.144  475.466   18.815
   89.000   97.400  462.372   22.346
   89.250  101.358  453.284   21.582
   89.500  101.448  416.850   24.721
   89.750   94.292  413.424   22.979
   90.000   93.863  426.073   23.044
   90.250   95.865  427.453   24.012
   90.500   87.493  421.568   24.063
   90.750   77.907  447.834   22.807
   91.000  105.604  453.330   21.618
   91.250  120.542  473.188   20.879
   91.500  119.416  477.027   17.667
   91.750  122.678  480.809   12.174
   92.000  133.792  499.065   12.440
   92.250  140.743  514.173   13.954
   92.500  136.625  527.568   18.565
   92.750  110.546  504.061   24.681
   93.000   81.992  426.555   16.995
   93.250   98.663  354.656   19.809
   93.500  126.360  378.630   22.252
   93.750  130.791  389.677   22.315
   94.000  135.875  411.081   22.802
   94.250  129.934  415.721   19.660
   94.500  127.075  439.695   16.963
   94.750  137.019  467.618   22.568
   95.000  150.046  456.127   20.218
   95.250  140.460  450.242   19.527
   95.500  127.183  465.350   19.954
   95.750   98.674  500.538   22.824
   96.000   84.183  424.634   26.603
   96.250   79.501  397.868   30.451
   96.500   77.250  367.041   34.183
   96.750   71.309  354.748   42.213
   97.000   65.413  346.461   54.012
   97.250   61.902  306.823   71.959
   97.500   55.961  285.553   65.597
   97.750   56.184  291.049   55.544
   98.000   63.046  306.101   48.799
   98.250   69.345  313.143   50.811
   98.500   69.524  312.120   66.341
   98.750   61.760  290.961   70.438
   99.000   58.901  282.673   61.884
   99.250   64.030  283.196   51.424
   99.500   66.031  290.239   78.036
   99.750   61.913  294.077   85.969
  100.000   57.839  293.855   83.031
  100.250   62.878  285.567   68.996
  100.500   69.784  274.876   50.230
  100.750   77.906  271.450   38.717
  101.000   75.002  312.245   38.103
  101.250   64.201  335.363   78.110
  101.500   65.595  341.604  101.983
  101.750   78.014  274.566   63.879
  102.000   84.313  266.278   51.088
  102.250   86.922  287.794   67.967
  102.500   92.005  300.443   35.947
  102.750  103.772  300.221   30.459
  103.000  122.311  370.018   31.715
  103.250  129.825  395.539   33.650
  103.500  126.921  378.385   37.044
  103.750  119.158  353.221   47.466
  104.000   84.528  337.724   54.332
  104.250   76.765  297.230   54.486
  104.500   76.336  298.610   55.637
  104.750   76.604  303.194   57.972
  105.000   76.783  299.767   59.198
