~VERSION INFORMATION
 VERS.                 2.0:   CWLS LOG ASCII STANDARD -VERSION 2.0
 WRAP.                  NO:   ONE LINE PER DEPTH STEP
~WELL INFORMATION BLOCK
#MNEM.UNIT           DATA                    DESCRIPTION OF MNEMONIC
#---------    -------------------            -------------------------------
# Generated from Intellog Unique Number	CC_84_87/WELL/1179
NULL.         -999.25                        : NULL_VALUE
WELL.         TEXACO HANGINGSTONE            : Well_name    - WELL
LOC .         09-17-085-11W4                 : Location     - LOCATION          
UWI .         AA/09-17-085-11W400            : Uwi          - UNIQUE WELL ID    
ENTR.         DW                             : Entered      - ENTERED BY        
SRVC.         SCHLUMBERGER                   : Scn          - SERVICE COMPANY   
DATE.         12 FEB 80                      : Date         - LOG DATE
STRT.M        50                             : top_depth    - START DEPTH       
STOP.M        280.101                        : bot_depth    - STOP DEPTH        
STEP.M        0.3                            : increment    - STEP LENGTH       
~CURVE INFORMATION BLOCK
#MNEM UNIT       ERCB CURVE CODE    CURVE DESCRIPTION
#-----------   ------------------   ----------------------------------
DEPT.M        00 001 00 00         : DEPTH        - DEPTH                       
DPHI.V/V      00 890 00 00         : PHID         - DENSITY POROSITY (LIMESTONE)
NPHI.V/V      00 330 00 00         : PHIN         - NEUTRON POROSITY (LIMESTONE)
GR  .API      00 310 00 00         : GR           - GAMMA RAY                   
ILD .OHMM     00 120 00 00         : RESD         - DEEP RESISTIVITY (DIL)      
~PARAMETER INFORMATION       
#MNEM.UNIT           DATA             DESCRIPTION OF MNEMONIC
#---------         -----------     ------------------------------
GL  .M        534                  : gl           - GROUND LEVEL ELEVATION      
EREF.M        535.6                : kb           - ELEVATION OF DEPTH REFERENCE
DATM.M        535.6                : datum        - DATUM ELEVATION             
TDD .M        229                  : tdd          - TOTAL DEPTH DRILLER         
RUN .         ONE                  : Run          - RUN NUMBER                  
ENG .         BILL                 : Engineer     - RECORDING ENGINEER          
WIT .         JIM                  : Witness      - WITNESSED BY                
MUD .         GEL                  : Mud_type     - MUD TYPE                    
MATR.         LIMESTONE            : Logunit      - NEUTRON MATRIX              
TMAX.C        21                   : BHT          - MAXIMUM RECORDED TEMPERATURE
BHTD.M        281                  : BHTDEP       - MAXIMUM RECORDED TEMPERATURE
MATR.         1                    : LOGUNIT      - NEUTRON MATRIX              
RMT .C        25                   : MDTP         - TEMPERATURE OF MUD          
NEUT.         1                    : NEUTRON      - NEUTRON TYPE                
RESI.         0                    : RESIST       - RESISTIVITY TYPE            
RMC .OHMM     0.25                 : RMC          - RESISTIVITY OF MUD CAKE     
RMF .OHMM     0.25                 : RMF          - RESISTIVITY OF MUD FILTRATE 
SUFT.C        15                   : SUFT         - SURFACE TEMPERATURE         
~A  DEPTH     PHID     PHIN       GR     RESD
# ...
  154.401    0.268    0.531   54.737    0.000
  154.701    0.280    0.557   57.197    0.000
  155.001    0.269    0.586   55.970    0.000
  155.301    0.259    0.574   51.668    0.000
  155.601    0.241    0.552   51.055    0.000
  155.901    0.229    0.547   53.516    0.000
  156.201    0.246    0.562   54.133    0.000
  156.501    0.236    0.562   52.290    0.000
  156.801    0.240    0.555   51.062    0.000
  157.101    0.211    0.564   51.679    0.000
  157.401    0.243    0.578   49.836    0.000
  157.701    0.258    0.552   47.379    0.000
  158.001    0.263    0.526   47.380    0.000
  158.301    0.265    0.541   53.530    0.000
  158.601    0.268    0.528   54.762    0.000
  158.901    0.256    0.508   52.919    0.000
  159.201    0.265    0.541   51.692    0.000
  159.501    0.275    0.542   52.308    0.000
  159.801    0.269    0.563   52.925    0.000
  160.101    0.253    0.568   50.467    0.000
  160.401    0.229    0.536   49.854    0.000
  160.701    0.221    0.512   53.545    0.000
  161.001    0.235    0.526   59.080    0.000
  161.301    0.261    0.565   58.467    0.000
  161.601    0.271    0.583   54.165    0.000
  161.901    0.264    0.571   48.019    0.000
  162.201    0.256    0.552   42.487    0.000
  162.501    0.250    0.552   50.482    0.000
  162.801    0.248    0.556   53.557    0.000
  163.101    0.240    0.561   51.715    0.000
  163.401    0.239    0.541   49.873    0.000
  163.701    0.238    0.515   49.875    0.000
  164.001    0.183    0.495   51.721    0.000
  164.301    0.235    0.502   56.641    0.000
  164.601    0.260    0.503   57.872    0.000
  164.901    0.271    0.533   56.644    0.000
  165.201    0.285    0.562   48.039    0.000
  165.501    0.288    0.568   49.270    0.000
  165.801    0.284    0.589   51.116    0.000
  166.101    0.281    0.586   53.578    0.000
  166.401    0.273    0.586   54.195    0.000
  166.701    0.261    0.582   53.581    0.000
  167.001    0.208    0.585   53.584    0.000
  167.301    0.194    0.568   54.200    0.000
  167.601    0.239    0.566   57.891    0.000
  167.901    0.259    0.583   62.196    0.000
  168.201    0.265    0.611   60.968    0.000
  168.501    0.266    0.659   57.896    0.000
  168.801    0.268    0.638   55.439    0.000
  169.101    0.270    0.633   53.596    0.000
  169.401    0.274    0.624   52.983    0.000
  169.701    0.281    0.612   54.830    0.000
  170.001    0.290    0.614   54.831    0.000
  170.301    0.314    0.608   51.758    0.000
  170.601    0.340    0.617   44.998    0.000
  170.901    0.334    0.618   44.999    0.000
  171.201    0.260    0.624   52.994    0.000
  171.501    0.283    0.624   56.684    0.000
  171.801    0.265    0.617   54.842    0.000
  172.101    0.242    0.586   54.229    0.000
  172.401    0.208    0.543   57.919    0.000
  172.701    0.169    0.538   60.995    0.000
  173.001    0.157    0.532   62.842    0.000
  173.301    0.215    0.530   61.614    0.000
  173.601    0.244    0.542   59.771    0.000
  173.901    0.247    0.531   58.543    0.000
  174.201    0.244    0.547   60.390    0.000
  174.501    0.248    0.572   60.392    0.000
  174.801    0.233    0.565   55.475    0.000
  175.101    0.194    0.553   54.247    0.000
  175.401    0.228    0.543   56.093    0.000
  175.701    0.256    0.558   59.169    0.000
  176.001    0.268    0.568   62.245    0.000
  176.301    0.274    0.590   69.010    0.000
  176.601    0.249    0.557   61.634    0.000
  176.901    0.232    0.511   64.095    0.000
  177.201    0.239    0.511   65.941    0.000
  177.501    0.257    0.537   65.328    0.000
  177.801    0.284    0.553   57.338    0.000
  178.101    0.260    0.547   53.036    0.000
  178.401    0.278    0.567   49.963    0.000
  178.701    0.276    0.546   48.120    0.000
  179.001    0.259    0.522   45.663    0.000
  179.301    0.217    0.441   43.820    0.000
  179.601    0.013    0.209   39.518    0.000
  179.901    0.011    0.193   41.980    0.000
  180.201    0.052    0.229   45.056    0.000
  180.501    0.072    0.308   46.902    0.000
  180.801    0.098    0.417   48.748    0.000
  181.101    0.255    0.516   51.824    0.000
  181.401    0.262    0.526   51.826    0.000
  181.701    0.249    0.517   50.598    0.000
  182.001    0.253    0.513   49.985    0.000
  182.301    0.262    0.511   52.446    0.000
  182.601    0.264    0.507   51.833    0.000
  182.901    0.268    0.521   49.990    0.000
  183.201    0.277    0.512   49.378    0.000
  183.501    0.279    0.504   49.380    0.000
  183.801    0.267    0.502   49.996    0.000
  184.101    0.242    0.509   51.227    0.000
  184.401    0.228    0.528   54.303    0.000
  184.701    0.253    0.515   56.150    0.000
  185.001    0.257    0.515   57.381    0.000
  185.301    0.249    0.522   55.538    0.000
  185.601    0.223    0.530   50.007    0.000
  185.901    0.178    0.496   46.934    0.000
  186.201    0.108    0.426   48.166    0.000
  186.501    0.169    0.439   57.390    0.000
  186.801    0.223    0.496   61.081    0.000
  187.101    0.234    0.497   62.312    0.000
  187.401    0.223    0.502   64.773    0.000
  187.701    0.224    0.522   62.316    0.000
  188.001    0.215    0.552   58.629    0.000
  188.301    0.210    0.568   57.401    0.000
  188.601    0.230    0.545   56.788    0.000
  188.901    0.227    0.542   56.175    0.000
  189.201    0.222    0.521   58.021    0.000
  189.501    0.218    0.507   62.942    0.000
  189.801    0.227    0.536   62.329    0.000
  190.101    0.244    0.558   62.945    0.000
  190.401    0.263    0.547   64.792    0.000
  190.701    0.277    0.532   64.793    0.000
  191.001    0.265    0.545   62.336    0.000
  191.301    0.214    0.555   54.960    0.000
  191.601    0.215    0.552   54.962    0.000
  191.901    0.204    0.527   57.423    0.000
  192.201    0.200    0.504   57.425    0.000
  192.501    0.247    0.502   54.353    0.000
  192.801    0.248    0.516   53.125    0.000
  193.101    0.243    0.529   52.512    0.000
  193.401    0.233    0.542   54.358    0.000
  193.701    0.237    0.547   58.663    0.000
  194.001    0.240    0.545   58.665    0.000
  194.301    0.224    0.531   56.208    0.000
  194.601    0.193    0.507   51.906    0.000
  194.901    0.166    0.439   51.293    0.000
  195.201    0.215    0.451   54.369    0.000
  195.501    0.245    0.454   55.600    0.000
  195.801    0.247    0.462   54.987    0.000
  196.101    0.248    0.471   56.218    0.000
  196.401    0.207    0.492   57.450    0.000
  196.701    0.228    0.474   61.756    0.000
  197.001    0.237    0.470   65.446    0.000
  197.301    0.245    0.520   61.759    0.000
  197.601    0.235    0.525   61.761    0.000
  197.901    0.275    0.516   62.993    0.000
  198.201    0.294    0.540   62.380    0.000
  198.501    0.265    0.559   61.766    0.000
  198.801    0.260    0.557   67.917    0.000
  199.101    0.258    0.551   68.533    0.000
  199.401    0.257    0.575   66.076    0.000
  199.701    0.259    0.592   66.693    0.000
  200.001    0.268    0.591   66.079    0.000
  200.301    0.280    0.572   69.155    0.000
  200.601    0.287    0.560   67.928    0.000
  200.901    0.259    0.541   63.626    0.000
  201.201    0.224    0.527   63.627    0.000
  201.501    0.208    0.541   69.162    0.000
  201.801    0.237    0.536   74.083    0.000
  202.101    0.240    0.526   68.551    0.000
  202.401    0.229    0.540   71.013    0.000
  202.701    0.258    0.520   74.088    0.000
  203.001    0.259    0.517   75.934    0.000
  203.301    0.225    0.527   69.788    0.000
  203.601    0.199    0.519   71.020    0.000
  203.901    0.183    0.517   71.022    0.000
  204.201    0.201    0.499   70.408    0.000
  204.501    0.192    0.477   76.559    0.000
  204.801    0.214    0.464   76.560    0.000
  205.101    0.214    0.480   74.103    0.000
  205.401    0.178    0.476   72.260    0.000
  205.701    0.179    0.464   75.336    0.000
  206.001    0.188    0.456   73.494    0.000
  206.301    0.201    0.461   70.422    0.000
