~Version : LASO    vs 4.00
VERS.                2.00:   CWLS Log ASCII Standard -VERSION 2.0
WRAP.                  NO:
~Well Information Block
#MNEM.UNIT       Data                        Description of Mnemonic
#----.----      -------------------------- : -----------------------------
COMP.                                     : COMPANY
FLD .    WILDCAT                          : FIELD NAME
LOC .    02-32-090-08W4                   : WELL LOCATION
UWI .    AA/02-32-090-08W400              : UNIQUE WELL ID
STRT.M             0.0000:
STOP.M           201.3750:
STEP.M             0.1250:
NULL.           -999.2500:
COMP.  :COMPANY
WELL.  MOBIL CLARKE OV 2-32:WELL
FLD.   :FIELD
LOC.   :LOCATION
CTRY.  :COUNTRY
PROV.  ALBERTA:PROVINCE
SRVC.  DRESSER ATLAS:SERVICE COMPANY
DATE.  17-FEB-81:LOG DATE
UWI.   :UNIQUE WELL ID
~Parameter Information Block
#MNEM.UNIT       Data                        Description of Mnemonic
#----.----      -------------------------- : -----------------------------
RUN .                   1                 : Run Number
GL  .M           431.8000                 : Ground Level Elevation
DREF.                  KB                 : Depth Reference
EREF.M           431.8000                 : Elevation of Depth Reference
TDL .M           202.0000                 : Total Depth Logger
TDD .M           201.6000                 : Total Depth Driller
BHT .DEGC         20.0000                 : Bottom Hole Temperature
BS  .MM          159.0000                 : Bit Size
DFD .             10.3000                 : Mud Weight (Density)
DFV .             85.0000                 : Mud Viscosity
DFPH.             10.0000                 : Mud pH
RM  .OHMM          4.9000                 : Mud Resistivity
RMT .DEGC         20.0000                 : Mud Resistivity Temperature
RMF .OHMM          4.7000                 : Mud Filtrate Resistivity
RMFT.DEGC         10.0000                 : RMF Temperature
RMC .OHMM          9.5000                 : Mud Cake Resistivity
RMCT.DEGC         10.0000                 : RMC Temperature
~Curve Information Block
#MNEM.UNIT        API CODE    Curve Description
#---------    ------------    -------------------------------------------
DEPT.M                    :   DEPTH
CALI.MM       42 280  1  1:   3 DENSITY CALIPER
DPHI.V/V                  :   DPHI
DT  .US/M     60 520 42  1:   2 SONIC INTERVAL TRANSIT TIME (COMPENSATED)
GR  .GAPI     42 310  1  1:   4 GAMMA RAY
IL  .OHMM      5 120 45  1:   7 INDUCTION
NPHI.V/V      42 890  3  1:   5 NEUTRON POROSITY (SANDSTONE)
RHOB.K/M3     42 350  1  1:   6 BULK DENSITY
SFL .OHMM      5 220  6  1:   8 FOCUSSED RESISTIVITY
SP  .MV        5  10  1  1:   9 SPONTANEOUS POTENTIAL
~A  Depth           CALI        DPHI          DT          GR          IL        NPHI        RHOB         SFL          SP
# ...
108.8750        183.6500      0.2576    482.9200     96.7800      5.3400      0.4046   2153.3999      9.8950    -36.7900
109.0000        181.7000      0.2495    483.1600     97.7850      5.5250      0.4096   2189.2000     10.3850    -36.6700
109.1250        178.5500      0.2433    483.4400     95.8500      5.7700      0.4016   2225.1001      9.8950    -37.5400
109.2500        175.7000      0.2346    490.0400     98.1750      6.0150      0.3908   2233.7000      9.2200    -38.9100
109.3750        175.9000      0.2281    483.9200     99.9000      6.2600      0.3849   2241.1001      9.1000    -39.6600
109.5000        177.6750      0.2195    471.4000    100.7250      6.4450      0.3766   2248.3999      9.5900    -39.5300
109.6250        178.9250      0.1809    442.4400    101.7300      6.8150      0.3719   2255.1001      9.9600    -38.7800
109.7500        180.2750      0.1609    432.3600    104.3400      6.9950      0.3681   2263.1001      9.9600    -38.0400
109.8750        181.2750      0.1482    417.1600    101.8650      7.0600      0.3646   2269.6001     10.3850    -37.6600
110.0000        182.3000      0.1383    417.6400     99.5250      7.0600      0.3632   2304.3999     11.9800    -37.5400
110.1250        182.5750      0.1368    424.0400     98.7150      7.0600      0.3656   2340.6001     15.7800    -37.4100
110.2500        183.3000      0.1539    440.0000     98.4750      6.9950      0.3620   2376.8999     16.9450    -37.2900
110.3750        183.5250      0.2152    509.6800    100.0800      6.9350      0.3719   2413.1001     13.3300    -38.2900
110.5000        183.2250      0.2581    493.7200     95.9550      6.8750      0.3723   2378.2000      9.9600    -39.9000
110.6250        182.1750      0.2648    493.2400     93.7800      6.7500      0.3631   2217.3999      9.5900    -40.2800
110.7500        181.1250      0.2622    492.2400     90.6900      6.5050      0.3749   2192.3999      9.6500    -40.0300
110.8750        179.5000      0.2581    486.8400     92.0100      6.2000      0.3806   2183.1001      9.5900    -39.4100
111.0000        180.0750      0.2543    488.3200     95.4300      6.0150      0.3831   2182.3000      9.6500    -39.1600
111.1250        180.4500      0.2501    490.5200     92.9850      5.9550      0.3863   2190.7000      9.6500    -39.1600
111.2500        180.9000      0.2476    491.2800     90.4200      5.9550      0.3970   2200.1001      9.5300    -39.5300
111.3750        181.4250      0.2464    520.4800     88.5300      6.0150      0.4049   2208.0000      9.2200    -40.5300
111.5000        184.4000      0.2474    555.5600     91.4550      6.0150      0.3980   2217.2000      9.0400    -41.0300
111.6250        188.4250      0.2497    545.5200     93.5100      5.9550      0.3913   2225.0000      9.0400    -41.4000
111.7500        190.2750      0.2543    518.0400     96.1500      5.7700      0.3842   2234.3999      9.1600    -42.0200
111.8750        188.1250      0.2569    472.3600     97.3650      5.4650      0.3792   2237.5000      9.5900    -42.0200
112.0000        184.9250      0.2650    476.3200     96.3150      4.9100      0.3847   2237.5000      9.8350    -41.9000
112.1250        182.8750      0.2725    484.1600     94.7850      4.3600      0.3935   2236.1001     10.3850    -41.7700
112.2500        186.8750      0.2897    492.2400     95.9550      3.9900      0.4036   2230.1001     11.0000    -41.1500
112.3750        192.2000      0.3232    518.5200     99.2400      3.5600      0.3989   2208.8999     10.7550    -40.2800
112.5000        195.4000      0.3466    532.7600    101.2500      3.3150      0.3892   2185.2000      8.7950    -38.4100
112.6250        196.5750      0.3456    544.5200     98.5200      3.0700      0.3872   2151.3000      6.3400    -35.6700
112.7500        195.7750      0.3393    553.1200    101.0400      2.8250      0.4007   2117.3000      5.3000    -32.5600
112.8750        194.1750      0.3341    556.3200    103.6650      2.7050      0.4156   2083.3999      5.4850    -30.5600
113.0000        197.1500      0.3325    554.3600    101.1900      2.5200      0.4514   2053.8999      6.1600    -29.5700
113.1250        186.8750      0.3327    549.9200     99.0750      2.4550      0.4532   2056.3000      6.5250    -29.0700
113.2500        177.4250      0.3341    544.5200     96.0600      2.3950      0.4457   2058.7000      6.5250    -29.1900
113.3750        174.2000      0.3353    537.4000     94.6650      2.3950      0.4413   2071.6001      6.4650    -29.3200
113.5000        175.8500      0.3341    535.4400     91.2900      2.3950      0.4375   2095.0000      6.7100    -29.6900
113.6250        179.0750      0.3317    533.7200     87.9600      2.5200      0.4551   2103.0000      6.9550    -30.5600
113.7500        178.1750      0.3261    533.0000     86.6400      2.5800      0.4702   2094.3999      6.8950    -30.9400
113.8750        176.1250      0.3182    531.7600     84.4800      2.6400      0.4666   2089.0000      6.7100    -30.8100
114.0000        175.1250      0.3121    528.3200     82.8450      2.7050      0.4569   2084.3000      6.7700    -30.3100
114.1250        175.1000      0.3061    521.4400     82.6050      2.8250      0.4477   2094.3999      7.1400    -29.6900
114.2500        175.7000      0.2994    517.5200     84.1350      2.8850      0.4364   2100.5000      7.5050    -29.9400
114.3750        176.0750      0.2915    531.2800     84.4350      3.0700      0.4247   2105.3000      7.6300    -30.3100
114.5000        176.2500      0.2843    557.5200     84.4200      3.2550      0.4159   2119.5000      7.5050    -30.4400
114.6250        177.6000      0.2781    533.0000     84.9000      3.4400      0.4157   2160.8000      7.2000    -30.5600
114.7500        177.6250      0.2726    509.9200     85.9950      3.5600      0.4095   2169.3000      7.2000    -31.1900
114.8750        176.3000      0.2679    498.4000     87.6150      3.7450      0.4030   2169.3000      7.5050    -31.9300
115.0000        176.0000      0.2654    492.2400     86.0850      3.8700      0.4049   2169.3000      8.4850    -32.9300
115.1250        178.0500      0.2630    486.8400     85.9500      3.9300      0.3990   2187.1001     10.1400    -34.3000
115.2500        180.5250      0.2616    488.0800     87.8100      4.0500      0.3906   2207.6001     11.2450    -35.0500
115.3750        176.3000      0.2625    496.9200     86.2200      4.1150      0.4008   2207.0000     10.7550    -34.9200
115.5000        174.2250      0.2647    503.2400     84.9600      4.2350      0.3964   2217.1001      9.0400    -33.8000
115.6250        173.0500      0.2692    506.7200     84.9600      4.3600      0.3950   2208.5000      7.2600    -32.5600
115.7500        172.0000      0.2698    507.7200     86.7900      4.4800      0.4122   2191.2000      6.7700    -32.3100
115.8750        170.0000      0.2649    497.6400     89.2500      4.5450      0.4259   2182.8000      7.1400    -32.9300
116.0000        172.2000      0.2601    491.0400     92.7300      4.6650      0.4271   2183.7000      8.1200    -34.8000
116.1250        172.8750      0.2572    485.8800     93.1950      4.8500      0.4297   2194.3999      9.4050    -35.9200
116.2500        173.8500      0.2538    482.6800     91.9500      5.0950      0.4262   2204.7000     10.6300    -36.4200
116.3750        173.8500      0.2512    489.3200     91.7550      5.2800      0.4109   2223.1001     11.3050    -37.7900
116.5000        173.8250      0.2500    522.4400     92.7150      5.4650      0.4027   2224.2000     11.2450    -38.6600
116.6250        173.8000      0.2492    512.8800     88.5750      5.4650      0.3920   2225.8999     11.1850    -37.2900
116.7500        173.8000      0.2499    478.0400     84.2550      5.4650      0.3794   2228.3000     11.4300    -34.8000
116.8750        173.7750      0.2500    473.3600     84.3150      5.2200      0.3719   2233.1001     11.0000    -34.0500
117.0000        174.7500      0.2509    468.9600     84.3600      4.9750      0.3735   2236.3000      9.5900    -34.1800
117.1250        174.5500      0.2520    458.1600     82.8300      4.7250      0.3845   2239.0000      8.9750    -33.8000
