~VERSION INFORMATION
 VERS.                 2.0:   CWLS LOG ASCII STANDARD -VERSION 2.0
 WRAP.                  NO:   ONE LINE PER DEPTH STEP
~WELL INFORMATION BLOCK
#MNEM.UNIT           DATA                    DESCRIPTION OF MNEMONIC
#---------    -------------------            -------------------------------
# Generated from Intellog Unique Number	CX_WELLS/WELL/3828
WELL.         ALGOR RIVER                    : Well_name    - WELL
LOC .         AA/04-18-086-15W4/0            : Location     - LOCATION
UWI .         AA/04-18-086-15W400            : Uwi          - UNIQUE WELL ID
ENTR.         T                              : Entered      - ENTERED BY
SRVC.         SCHLUMBERGER                   : Scn          - SERVICE COMPANY
DATE.         03/06/92                       : Date         - LOG DATE
STRT.F        200                            : top_depth    - START DEPTH
STOP.F        779.888                        : bot_depth    - STOP DEPTH
STEP.F        0.82                           : increment    - STEP LENGTH
 NULL. -999.2500:NULL Value
~CURVE INFORMATION BLOCK
#MNEM UNIT       ERCB CURVE CODE    CURVE DESCRIPTION
#-----------   ------------------   ----------------------------------
DEPT.F        00 001 00 00         : DEPTH        - DEPTH
GR  .API      00 310 00 00         : GR           - GAMMA RAY
NPHI.V/V      00 330 00 00         : PHIN         - NEUTRON POROSITY (SANDSTONE)
ILD .OHMM     00 120 00 00         : RESD         - DEEP RESISTIVITY (DIL)
~PARAMETER INFORMATION
#MNEM.UNIT           DATA             DESCRIPTION OF MNEMONIC
#---------         -----------     ------------------------------
GL  .F        1671.9               : gl           - GROUND LEVEL ELEVATION
EREF.F        1671.9               : kb           - ELEVATION OF DEPTH REFERENCE
DATM.F        1671.9               : datum        - DATUM ELEVATION
TDD .F        793                  : tdd          - TOTAL DEPTH DRILLER
RUN .         ONE                  : Run          - RUN NUMBER
ENG .         JO                   : Engineer     - RECORDING ENGINEER
WIT .         TIM                  : Witness      - WITNESSED BY
MUD .         GEL                  : Mud_type     - MUD TYPE
MATR.         SANDSTONE            : Logunit      - NEUTRON MATRIX
TMAX.F        50                   : BHT          - MAXIMUM RECORDED TEMPERATURE
BHTD.F        793                  : BHTDEP       - MAXIMUM RECORDED TEMPERATURE
RMT .F        62                   : MDTP         - TEMPERATURE OF MUD
MUDD.LB/G     9                    : MWT          - MUD DENSITY
NEUT.         1                    : NEUTRON      - NEUTRON TYPE
RESI.         0                    : RESIST       - RESISTIVITY TYPE
RM  .OHMM     7.78                 : RM           - RESISTIVITY OF MUD
RMC .OHMM     7.78                 : RMC          - RESISTIVITY OF MUD CAKE
RMF .OHMM     7.78                 : RMF          - RESISTIVITY OF MUD FILTRATE
SUFT.F        39.2                 : SUFT         - SURFACE TEMPERATURE
~A  DEPTH       GR     PHIN     RESD
# ...
  555.971   64.915    0.206   40.826
  556.791   61.072    0.161   33.855
  557.612   56.691    0.071   21.083
  558.432   55.636    0.125   18.039
  559.252   70.370    0.169   17.047
  560.072   74.421    0.214   18.270
  560.892   80.698    0.269   18.657
  561.713   89.809    0.332   18.687
  562.533   88.778    0.368   19.391
  563.353   87.747    0.380   20.452
  564.173   84.490    0.373   20.141
  564.993   80.062    0.370   20.179
  565.814   75.072    0.377   20.380
  566.634   71.792    0.381   19.892
  567.454   71.369    0.377   18.900
  568.274   72.540    0.376   17.567
  569.094   72.633    0.376   16.567
  569.915   76.122    0.375   15.064
  570.735   82.961    0.383   13.553
  571.555   92.635    0.393   11.710
  572.375  103.995    0.405   11.058
  573.196  110.857    0.415   11.941
  574.016  108.139    0.426   14.364
  574.836   93.615    0.416   16.269
  575.656   83.004    0.397   21.945
  576.476   77.428    0.389   21.968
  577.297   71.899    0.389   18.079
  578.117   74.826    0.390   14.865
  578.937   78.293    0.391   12.339
  579.757   83.445    0.391   13.229
  580.577   90.893    0.391   13.585
  581.398   92.649    0.395   13.112
  582.218   91.056    0.403   12.461
  583.038   87.776    0.409   12.150
  583.858   91.804    0.415   12.522
  584.678   98.666    0.413   12.730
  585.499   98.197    0.410   12.086
  586.319   99.977    0.410   12.109
  587.139   98.383    0.411   12.132
  587.959   97.937    0.406   12.674
  588.780   95.781    0.395   15.608
  589.600   94.750    0.386   17.513
  590.420   94.281    0.375   19.433
  591.240   93.226    0.368   19.293
  592.060   90.531    0.357   19.324
  592.881   88.376    0.361   19.184
  593.701   86.220    0.370   18.873
  594.521   84.064    0.372   18.230
  595.341   85.258    0.374   17.741
  596.161   90.411    0.378   17.253
  596.982   93.338    0.379   16.431
  597.802   94.555    0.382   16.121
  598.622   96.897    0.386   16.159
  599.442   99.262    0.390   16.360
  600.262  100.526    0.386   17.575
  601.083  101.135    0.379   21.192
  601.903  101.228    0.375   22.422
  602.723   88.976    0.367   22.801
  603.543   87.335    0.364   23.002
  604.364   83.516    0.356   22.529
  605.184   84.171    0.337   22.033
  606.004   83.140    0.340   21.560
  606.824   81.546    0.340   22.101
  607.644   80.492    0.341   24.184
  608.465   78.336    0.344   24.385
  609.285   76.743    0.347   24.408
  610.105   75.172    0.349   24.779
  610.925   73.016    0.351   25.506
  611.745   71.985    0.362   25.715
  612.566   71.539    0.361   25.730
  613.386   71.023    0.350   25.938
  614.206   69.430    0.350   26.131
  615.026   65.002    0.360   26.503
  615.846   56.662    0.367   26.533
  616.667   59.050    0.373   26.223
  617.487   60.244    0.377   25.572
  618.307   62.609    0.381   24.579
  619.127   62.679    0.381   23.587
  619.948   60.523    0.373   22.084
  620.768   56.704    0.367   20.914
  621.588   58.484    0.364   17.707
  622.408   61.411    0.366   18.930
  623.228   62.582    0.369   20.161
  624.049   66.048    0.372   20.370
  624.869   84.177    0.379   20.570
  625.689   83.731    0.377   20.423
  626.509   81.552    0.377   20.283
  627.329   77.733    0.386   20.151
  628.150   76.725    0.387   20.011
  628.970   76.795    0.387   19.530
  629.790   76.865    0.388   19.041
  630.610   77.520    0.389   18.220
  631.430   79.861    0.389   17.228
  632.251   81.079    0.383   16.243
  633.071   80.071    0.382   15.414
  633.891   77.892    0.391   14.252
  634.711   74.096    0.404   13.252
  635.531   75.267    0.419   11.579
  636.352   81.567    0.444   10.587
  637.172   86.157    0.456    9.765
  637.992   93.582    0.454    8.944
  638.812   94.237    0.454    8.292
  639.633   94.330    0.455    8.656
  640.453  101.193    0.458   10.739
  641.273  109.156    0.465   12.132
  642.093  112.083    0.467   13.200
  642.913  107.093    0.430   13.920
  643.734   97.067    0.402   14.965
  644.554   87.603    0.388   18.063
  645.374   76.452    0.374   23.561
  646.194   74.812    0.356   21.709
  647.014   61.412    0.361   31.305
  647.835   47.427    0.369   32.017
  648.655   33.442    0.364   39.390
  649.475   25.641    0.358   39.079
  650.295   21.237    0.353   38.265
  651.115   19.643    0.353   40.681
  651.936   16.925    0.354   41.060
  652.756   13.668    0.354   42.276
  653.576   17.134    0.359   44.366
  654.396   18.914    0.361   40.973
  655.217   19.546    0.365   39.470
  656.037   17.976    0.364   37.626
  656.857   16.921    0.366   37.486
  657.677   17.037    0.367   37.005
  658.497   18.255    0.368   36.525
  659.318   18.347    0.369   35.873
  660.138   20.150    0.369   34.703
  660.958   21.344    0.370   33.208
  661.778   24.295    0.372   31.527
  662.598   28.862    0.373   27.460
  663.419   41.346    0.374   25.794
  664.239   36.942    0.374   26.491
  665.059   27.454    0.372   28.574
  665.879   26.446    0.364   30.486
  666.699   31.576    0.356   21.974
  667.520   55.889    0.361   11.262
  668.340   67.811    0.393   10.432
  669.160   75.236    0.425    8.581
  669.980   79.826    0.446    7.426
  670.801   82.168    0.456    7.449
  671.621   87.344    0.466    7.324
  672.441   91.935    0.457    7.169
  673.261   95.986    0.450    7.207
  674.081   96.102    0.443    7.245
  674.902   99.545    0.432    7.268
  675.722   98.514    0.424    7.817
  676.542   85.653    0.415    9.373
  677.362   80.686    0.415   11.967
  678.182   74.595    0.431   10.642
  679.003   74.126    0.446    9.813
  679.823   93.357    0.459    8.991
  680.643  100.805    0.458    8.673
  681.463  103.685    0.451    8.533
  682.283  106.589    0.441    8.912
  683.104  110.664    0.432    9.632
  683.924  109.047    0.424   10.847
  684.744   94.500    0.405   12.419
  685.564   84.450    0.385   16.035
  686.385   71.590    0.374   76.508
  687.205   46.338    0.366   75.857
  688.025   29.542    0.357   70.590
  688.845   24.575    0.355   55.943
  689.665   36.497    0.356   55.292
  690.486   46.756    0.364   52.418
  691.306   46.826    0.374   53.982
  692.126   35.090    0.378   56.917
  692.946   34.081    0.363   62.245
  693.766   37.524    0.351   65.520
  694.587   42.138    0.341   64.869
  695.407   41.130    0.346   61.832
  696.227   41.785    0.345   58.780
  697.047   44.666    0.348   57.788
  697.867   48.717    0.349   47.402
  698.688   52.183    0.352   35.993
  699.508   55.087    0.353   27.999
  700.328   58.577    0.355   19.835
  701.148   62.066    0.356   20.741
  701.969   64.993    0.357   21.453
  702.789   66.164    0.358   21.297
  703.609   64.031    0.361   22.180
  704.429   57.917    0.361   24.944
  705.249   51.826    0.356   24.975
  706.070   54.168    0.350   21.249
  706.890   59.906    0.361   19.746
  707.710   64.496    0.373   19.265
  708.530   68.525    0.379   23.733
  709.350   76.511    0.379   77.382
  710.171   82.789    0.372   84.585
  710.991   81.218    0.363   87.171
  711.811   71.731    0.355   89.091
  712.631   59.432    0.335   82.794
  713.451   46.010    0.331   69.170
  714.272   34.273    0.327   56.560
  715.092   32.117    0.326   51.812
  715.912   32.210    0.324   48.434
  716.732   35.723    0.330   72.374
  717.552   38.041    0.341   71.033
  718.373   39.259    0.347   70.034
  719.193   45.559    0.354   62.381
  720.013   50.150    0.345   54.047
  720.833   54.178    0.333   57.322
  721.654   52.022    0.325   48.988
  722.474   40.309    0.320   36.557
  723.294   37.614    0.322   30.104
  724.114   40.518    0.330   26.386
  724.934   51.316    0.333   24.697
  725.755   54.220    0.333   23.535
  726.575   58.787    0.338   28.344
  727.395   65.088    0.343   65.938
  728.215   65.766    0.349   60.678
  729.035   52.905    0.330   50.462
  729.856   43.980    0.313   45.714
  730.676   44.073    0.309   39.091
  731.496   56.019    0.320   30.409
  732.316   59.508    0.349   26.342
  733.136   61.241    0.363   23.646
