~VERSION INFORMATION
 VERS.                 2.0:   CWLS LOG ASCII STANDARD -VERSION 2.0
 WRAP.                  NO:   ONE LINE PER DEPTH STEP
~WELL INFORMATION BLOCK
#MNEM.UNIT           DATA                    DESCRIPTION OF MNEMONIC
#---------    -------------------            -------------------------------
# Generated from Intellog Unique Number	CN_94_101/WELL/4988
WELL.         TEXACO                         : Well_name    - WELL
LOC .         AA/07-08-101-12W4/0            : Location     - LOCATION
UWI .         AA/07-08-101-12W400            : Uwi          - UNIQUE WELL ID
ENTR.         TIM                            : Entered      - ENTERED BY
SRVC.         SCHLUMBERGER                   : Scn          - SERVICE COMPANY
DATE.         08/11/92                       : Date         - LOG DATE
STRT.M        380                            : top_depth    - START DEPTH
STOP.M        665                            : bot_depth    - STOP DEPTH
STEP.M        0.25                           : increment    - STEP LENGTH
NULL. -999.2500:NULL Value
~CURVE INFORMATION BLOCK
#MNEM UNIT       ERCB CURVE CODE    CURVE DESCRIPTION
#-----------   ------------------   ----------------------------------
DEPT.M        00 001 00 00         : DEPTH        - DEPTH
GR  .API      00 310 00 00         : GR           - GAMMA RAY
ILD .OHMM     00 120 00 00         : RESD         - DEEP RESISTIVITY (DIL)
NPHI.V/V      00 330 00 00         : PHIN         - NEUTRON POROSITY (SANDSTONE)
DPHI.V/V      00 890 00 00         : PHID         - DENSITY POROSITY (SANDSTONE)
~PARAMETER INFORMATION
#MNEM.UNIT           DATA             DESCRIPTION OF MNEMONIC
#---------         -----------     ------------------------------
GL  .M        814.2                : gl           - GROUND LEVEL ELEVATION
EREF.M        817.6                : kb           - ELEVATION OF DEPTH REFERENCE
DATM.M        817.6                : datum        - DATUM ELEVATION
TDD .M        667                  : tdd          - TOTAL DEPTH DRILLER
RUN .         ONE                  : Run          - RUN NUMBER
ENG .         JO                   : Engineer     - RECORDING ENGINEER
WIT .         TIM                  : Witness      - WITNESSED BY
MUD .         GEL                  : Mud_type     - MUD TYPE
MATR.         SANDSTONE            : Logunit      - NEUTRON MATRIX
TMAX.C        25                   : BHT          - MAXIMUM RECORDED TEMPERATURE
BHTD.M        667                  : BHTDEP       - MAXIMUM RECORDED TEMPERATURE
RMT .C        10                   : MDTP         - TEMPERATURE OF MUD
MUDD.KG/M     1050                 : MWT          - MUD DENSITY
NEUT.         1                    : NEUTRON      - NEUTRON TYPE
RESI.         0                    : RESIST       - RESISTIVITY TYPE
RM  .OHMM     0.84                 : RM           - RESISTIVITY OF MUD
RMC .OHMM     0.84                 : RMC          - RESISTIVITY OF MUD CAKE
RMF .OHMM     0.84                 : RMF          - RESISTIVITY OF MUD FILTRATE
SUFT.C        4                    : SUFT         - SURFACE TEMPERATURE
~A  DEPTH       GR     RESD     PHIN     PHID
# ...
  510.500  103.496    7.619    0.465    0.246
  510.750  100.429    7.487    0.464    0.235
  511.000   94.915    7.498    0.457    0.218
  511.250   90.636    7.649    0.444    0.199
  511.500   89.463    7.807    0.391    0.181
  511.750   93.224    8.120    0.375    0.157
  512.000   96.985    8.290    0.374    0.140
  512.250  101.364    8.304    0.410    0.135
  512.500  105.756    8.310    0.431    0.229
  512.750  108.898    8.166    0.459    0.237
  513.000  110.804    8.025    0.465    0.227
  513.250  111.485    7.886    0.447    0.230
  513.500  111.523    7.612    0.442    0.238
  513.750  111.561    7.477    0.438    0.245
  514.000  109.769    7.342    0.449    0.251
  514.250  107.952    7.082    0.473    0.251
  514.500  106.148    6.959    0.481    0.253
  514.750  105.580    6.839    0.491    0.259
  515.000  106.287    6.849    0.501    0.266
  515.250  106.312    6.861    0.512    0.260
  515.500  106.375    6.871    0.512    0.250
  515.750  105.795    7.149    0.504    0.245
  516.000  102.135    7.290    0.476    0.250
  516.250   99.725    7.585    0.460    0.252
  516.500   98.539    8.037    0.442    0.256
  516.750   97.959    8.685    0.437    0.261
  517.000   95.536    9.378    0.439    0.267
  517.250   92.495   10.332    0.434    0.265
  517.500   88.822   10.540    0.373    0.257
  517.750   83.926   10.556    0.343    0.081
  518.000   80.897   10.178    0.321    0.060
  518.250   83.422    9.449    0.292    0.050
  518.500   86.564    7.981    0.291    0.056
  518.750   90.325    5.072    0.320    0.083
  519.000   93.467    4.711    0.345    0.091
  519.250   98.477    4.457    0.386    0.117
  519.500  100.989    4.298    0.471    0.170
  519.750  103.525    4.143    0.508    0.209
  520.000  105.444    3.922    0.522    0.283
  520.250  106.100    3.779    0.511    0.298
  520.500  107.413    3.444    0.510    0.303
  520.750  108.069    3.199    0.516    0.303
  521.000  109.369    3.082    0.524    0.304
  521.250  110.025    2.756    0.535    0.304
  521.500  110.682    2.327    0.552    0.305
  521.750  111.351    2.043    0.583    0.311
  522.000  112.045    2.083    0.590    0.316
  522.250  112.701    2.252    0.580    0.321
  522.500  112.752    2.478    0.570    0.322
  522.750  112.790    2.727    0.563    0.323
  523.000  112.222    3.301    0.553    0.322
  523.250  110.430    3.995    0.538    0.322
  523.500  108.020    4.744    0.515    0.320
  523.750  106.821    5.322    0.493    0.321
  524.000  105.648    5.973    0.480    0.324
  524.250  105.067    6.331    0.479    0.327
  524.500  105.118    6.466    0.490    0.326
  524.750  105.181    6.594    0.486    0.319
  525.000  105.232    6.730    0.471    0.306
  525.250  105.282    6.868    0.455    0.294
  525.500  105.951    6.878    0.487    0.289
  525.750  104.765    7.020    0.489    0.285
  526.000  104.185    7.030    0.482    0.284
  526.250  102.999    7.040    0.473    0.287
  526.500  102.444    6.920    0.456    0.270
  526.750  104.980    6.928    0.434    0.254
  527.000  105.624    6.682    0.463    0.250
  527.250  108.766    6.567    0.467    0.244
  527.500  110.054    6.455    0.466    0.228
  527.750  107.012    6.222    0.459    0.201
  528.000  100.879    6.002    0.452    0.151
  528.250   94.128    5.893    0.437    0.101
  528.500   96.034    5.473    0.442    0.069
  528.750  100.426    5.083    0.498    0.105
  529.000  104.805    4.806    0.509    0.157
  529.250  108.565    4.464    0.509    0.278
  529.500  111.708    4.223    0.499    0.275
  529.750  112.995    3.996    0.492    0.268
  530.000  111.822    3.854    0.491    0.260
  530.250  110.017    3.786    0.507    0.261
  530.500  110.055    3.790    0.518    0.271
  530.750  111.355    3.800    0.524    0.280
  531.000  112.655    3.803    0.528    0.283
  531.250  113.299    3.809    0.530    0.284
  531.500  113.980    3.814    0.532    0.285
  531.750  114.637    3.822    0.527    0.286
  532.000  114.700    3.826    0.529    0.288
  532.250  112.290    3.833    0.533    0.292
  532.500  109.854    3.836    0.532    0.296
  532.750  105.602    3.700    0.525    0.304
  533.000  104.390    3.502    0.522    0.315
  533.250  103.204    3.440    0.528    0.324
  533.500  103.242    3.317    0.534    0.331
  533.750  103.305    3.258    0.535    0.338
  534.000  103.356    3.202    0.535    0.339
  534.250  103.394    3.147    0.530    0.339
  534.500  103.457    3.151    0.525    0.323
  534.750  104.113    3.218    0.521    0.309
  535.000  105.426    3.283    0.515    0.306
  535.250  106.713    3.414    0.505    0.302
  535.500  107.395    3.483    0.494    0.296
  535.750  107.420    3.765    0.488    0.287
  536.000  107.471    3.991    0.498    0.287
  536.250  107.547    4.231    0.509    0.287
  536.500  106.966    4.318    0.515    0.281
  536.750  106.966    4.162    0.522    0.275
  537.000  105.856    3.321    0.554    0.270
  537.250  107.724    2.600    0.582    0.279
  537.500  107.787    2.324    0.584    0.299
  537.750  107.825    2.157    0.584    0.312
  538.000  107.876    2.080    0.586    0.316
  538.250  107.939    2.045    0.591    0.318
  538.500  107.371    2.010    0.596    0.325
  538.750  106.791    1.975    0.597    0.334
  539.000  105.605    1.979    0.599    0.342
  539.250  105.037    1.980    0.599    0.345
  539.500  104.469    2.021    0.595    0.341
  539.750  103.283    2.064    0.594    0.344
  540.000  102.097    2.105    0.585    0.347
  540.250  100.292    2.189    0.572    0.353
  540.500   96.027    2.321    0.570    0.355
  540.750   92.355    2.461    0.576    0.345
  541.000   84.998    2.510    0.580    0.334
  541.250   84.430    2.661    0.549    0.304
  541.500   85.086    3.043    0.483    0.294
  541.750   85.755    3.414    0.465    0.283
  542.000   83.951    3.979    0.449    0.268
  542.250   80.291    3.985    0.438    0.257
  542.500   77.263    3.916    0.435    0.249
  542.750   77.919    3.923    0.466    0.245
  543.000   79.206    3.929    0.490    0.255
  543.250   78.664    3.933    0.501    0.269
  543.500   78.071    4.012    0.496    0.283
  543.750   76.266    4.020    0.488    0.290
  544.000   73.869    3.951    0.481    0.288
  544.250   73.276    3.881    0.471    0.284
  544.500   75.181    3.672    0.471    0.283
  544.750   82.046    3.410    0.503    0.283
  545.000   88.899    3.165    0.526    0.284
  545.250   95.159    3.051    0.533    0.286
  545.500   96.421    2.889    0.535    0.288
  545.750   97.115    2.838    0.537    0.287
  546.000   96.522    2.790    0.538    0.275
  546.250   95.361    2.795    0.538    0.271
  546.500   95.399    2.798    0.541    0.277
  546.750   95.450    2.856    0.543    0.287
  547.000   95.513    2.914    0.546    0.296
  547.250   96.182    3.030    0.549    0.291
  547.500   93.141    3.212    0.552    0.278
  547.750   90.087    3.340    0.555    0.274
  548.000   79.007    3.608    0.558    0.276
  548.250   77.808    4.204    0.547    0.276
  548.500   72.912    6.034    0.504    0.275
  548.750   63.069    7.877    0.467    0.272
  549.000   50.133    9.899    0.434    0.283
  549.250   42.751   13.682    0.406    0.295
  549.500   38.486   16.246    0.390    0.292
  549.750   41.641   16.898    0.383    0.295
  550.000   44.152   16.610    0.386    0.300
  550.250   47.926   16.610    0.390    0.304
  550.500   51.674   15.438    0.392    0.310
  550.750   58.526   13.542    0.395    0.312
  551.000   64.761    9.645    0.399    0.307
  551.250   74.718    6.741    0.428    0.298
  551.500   81.570    5.080    0.472    0.292
  551.750   95.250    3.903    0.502    0.299
  552.000   93.433    3.424    0.521    0.310
  552.250   81.129    3.629    0.507    0.300
  552.500   80.536    4.229    0.489    0.291
  552.750   76.258    6.070    0.475    0.286
  553.000   62.705   10.524    0.466    0.298
  553.250   58.427   21.240    0.457    0.296
  553.500   51.057   28.255    0.437    0.284
  553.750   41.201   42.122    0.410    0.279
