~VERSION INFORMATION
 VERS.                 2.0:   CWLS LOG ASCII STANDARD -VERSION 2.0
 WRAP.                  NO:   ONE LINE PER DEPTH STEP
~WELL INFORMATION BLOCK
#MNEM.UNIT           DATA                    DESCRIPTION OF MNEMONIC
#---------    -------------------            -------------------------------
# Generated from Intellog Unique Number	CC_80_83/WELL/2303
NULL.         -999.25                        : NULL_VALUE
WELL.         ARCO ACI MCMURRAY OV           : Well_name    - WELL
LOC .         07-26-080-11W4                 : Location     - LOCATION          
UWI .         AA/07-26-080-11W400            : Uwi          - UNIQUE WELL ID    
ENTR.         DW                             : Entered      - ENTERED BY        
SRVC.         SCHLUMBERGER                   : Scn          - SERVICE COMPANY   
DATE.         19 JAN 76                      : Date         - LOG DATE
STRT.M        256.032                        : top_depth    - START DEPTH       
STOP.M        481.591                        : bot_depth    - STOP DEPTH        
STEP.M        0.305                          : increment    - STEP LENGTH       
~CURVE INFORMATION BLOCK
#MNEM UNIT       ERCB CURVE CODE    CURVE DESCRIPTION
#-----------   ------------------   ----------------------------------
DEPT.M        00 001 00 00         : DEPTH        - DEPTH                       
NPHI.V/V      00 330 00 00         : PHIN         - NEUTRON POROSITY (LIMESTONE)
GR  .API      00 310 00 00         : GR           - GAMMA RAY                   
RHOB.KG/M3    00 350 00 00         : DENS         - BULK DENSITY                
ILD .OHMM     00 120 00 00         : RESD         - DEEP RESISTIVITY (DIL)      
~PARAMETER INFORMATION       
#MNEM.UNIT           DATA             DESCRIPTION OF MNEMONIC
#---------         -----------     ------------------------------
GL  .M        685.678              : gl           - GROUND LEVEL ELEVATION      
EREF.M        688.726              : kb           - ELEVATION OF DEPTH REFERENCE
DATM.M        688.726              : datum        - DATUM ELEVATION             
TDD .M        481.584              : tdd          - TOTAL DEPTH DRILLER         
RUN .         ONE                  : Run          - RUN NUMBER                  
ENG .         BILL                 : Engineer     - RECORDING ENGINEER          
WIT .         JIM                  : Witness      - WITNESSED BY                
MUD .         GEL                  : Mud_type     - MUD TYPE                    
MATR.         LIMESTONE            : Logunit      - NEUTRON MATRIX              
TMAX.C        22.7778              : BHT          - MAXIMUM RECORDED TEMPERATURE
BHTD.M        481.584              : BHTDEP       - MAXIMUM RECORDED TEMPERATURE
MATR.         1                    : LOGUNIT      - NEUTRON MATRIX              
RMT .C        25                   : MDTP         - TEMPERATURE OF MUD          
NEUT.         1                    : NEUTRON      - NEUTRON TYPE                
RESI.         0                    : RESIST       - RESISTIVITY TYPE            
RMC .OHMM     0.25                 : RMC          - RESISTIVITY OF MUD CAKE     
RMF .OHMM     0.25                 : RMF          - RESISTIVITY OF MUD FILTRATE 
SUFT.C        15                   : SUFT         - SURFACE TEMPERATURE         
~A  DEPTH     PHIN       GR     DENS     RESD
# ...
  415.143    0.522   79.128 2223.180    2.333
  415.447    0.508   80.918 2203.000    2.087
  415.752    0.498   81.517 2196.890    1.974
  416.057    0.464   79.143 2216.900    2.048
  416.362    0.440   78.550 2224.890    2.419
  416.667    0.420   77.960 2232.840    2.806
  416.971    0.411   77.964 2242.820    3.706
  417.276    0.393   79.159 2238.720    4.545
  417.581    0.390   79.760 2234.640    6.114
  417.886    0.403   79.763 2286.810    7.092
  418.191    0.394   80.364 2312.860    7.925
  418.496    0.403   80.367 2413.270    7.778
  418.800    0.412   82.157 2441.340    7.087
  419.105    0.415   83.948 2423.170    5.995
  419.410    0.409   86.335 2332.650    4.709
  419.715    0.388   86.934 2300.420    4.058
  420.020    0.357   83.964 2264.170    3.909
  420.324    0.353   82.775 2245.990    3.909
  420.629    0.384   86.352 2308.230    4.288
  420.934    0.457   88.144 2438.790    4.532
  421.239    0.451   88.743 2380.420    4.129
  421.544    0.449   89.940 2231.620    3.762
  421.848    0.457   90.539 2233.540    3.558
  422.153    0.462   90.542 2227.440    3.492
  422.458    0.463   89.953 2217.310    3.491
  422.763    0.461   89.957 2213.220    3.622
  423.068    0.447   89.960 2215.150    3.829
  423.372    0.429   91.751 2277.390    4.200
  423.677    0.406   91.755 2299.420    4.607
  423.982    0.396   89.974 2293.300    4.693
  424.287    0.394   90.576 2301.280    4.692
  424.592    0.410   91.769 2313.240    4.691
  424.897    0.396   93.561 2311.160    4.689
  425.201    0.393   94.159 2303.060    4.688
  425.506    0.397   92.975 2304.980    4.775
  425.811    0.396   92.381 2292.840    4.864
  426.116    0.385   90.005 2278.710    5.436
  426.421    0.309   86.437 2282.650    6.918
  426.725    0.257   63.223 2448.680   16.249
  427.030    0.258   60.251 2241.430   18.503
  427.335    0.317   66.804 2199.160   18.510
  427.640    0.311   71.571 2231.340   15.685
  427.945    0.304   76.936 2247.430   13.789
  428.249    0.303   78.726 2239.370   12.351
  428.554    0.305   78.135 2229.300   11.271
  428.859    0.305   79.330 2235.320   11.274
  429.164    0.305   81.716 2241.350   11.280
  429.469    0.306   84.697 2259.450   10.677
  429.773    0.309   87.083 2261.450    9.742
  430.078    0.312   90.658 2301.680    8.888
  430.383    0.330   97.213 2349.960    8.109
  430.688    0.327   99.598 2353.970    7.963
  430.993    0.322  100.793 2351.950    8.268
  431.298    0.320   98.417 2372.050    8.582
  431.602    0.317   95.445 2370.030    9.246
  431.907    0.315   94.258 2323.750   10.335
  432.212    0.311   93.072 2253.310   11.550
  432.517    0.303   91.885 2213.060   13.394
  432.822    0.295   89.508 2229.150   17.355
  433.126    0.291   75.224 2209.020   26.550
  433.431    0.292   66.894 2202.970   46.227
  433.736    0.293   67.493 2213.020   54.613
  434.041    0.292   66.904 2221.060   53.644
  434.346    0.291   65.717 2229.090   48.936
  434.650    0.288   66.317 2239.140   41.469
  434.955    0.287   70.490 2247.180   38.537
  435.260    0.283   71.088 2247.170   43.066
  435.565    0.279   71.689 2255.210   49.036
  435.870    0.262   70.502 2249.160   43.114
  436.174    0.236   69.913 2277.320   32.102
  436.479    0.224   71.106 2530.820   24.351
  436.784    0.264   74.683 2327.600   19.884
  437.089    0.275   75.283 2285.330   24.378
  437.394    0.285   71.715 2295.380   32.768
  437.699    0.289   60.408 2247.080   42.458
  438.003    0.283   53.865 2156.530   44.899
  438.308    0.273   56.846 2132.370   38.043
  438.613    0.266   63.993 2180.650   21.877
  438.918    0.264   75.309 2317.460   17.864
  439.223    0.275   81.268 2301.350   13.058
  439.527    0.286   82.463 2305.360   11.482
  439.832    0.285   78.300 2289.260   11.279
  440.137    0.283   72.351 2265.100   11.712
  440.442    0.287   68.784 2259.050   12.613
  440.747    0.283   68.192 2269.100   16.044
  441.051    0.277   66.411 2287.200   19.304
  441.356    0.277   62.843 2285.180   29.532
  441.661    0.293   59.871 2206.700   35.546
  441.966    0.312   62.852 2156.390   34.911
  442.271    0.312   70.002 2178.510   27.986
  442.575    0.311   73.577 2323.360   20.459
  442.880    0.311   77.154 2329.390   18.664
  443.185    0.311   77.753 2260.970   18.332
  443.490    0.311   71.805 2224.740   21.261
  443.795    0.306   65.261 2202.600   33.749
  444.100    0.300   62.885 2176.430   56.624
  444.404    0.295   63.485 2168.370   70.705
  444.709    0.275   65.275 2355.480   72.059
  445.014    0.192   69.447 2385.650   64.543
  445.319    0.194   71.833 2397.710   50.793
  445.624    0.269   72.432 2363.490   31.447
  445.928    0.290   74.819 2248.800   22.155
  446.233    0.282   77.204 2295.060   17.118
  446.538    0.268   80.185 2333.280   14.238
  446.843    0.259   82.570 2353.390   12.066
  447.148    0.262   82.575 2361.430   11.852
  447.452    0.274   84.365 2363.430   11.639
  447.757    0.289   88.537 2309.090   10.816
  448.062    0.301   94.495 2331.210   10.052
  448.367    0.313   96.286 2325.170    9.343
  448.672    0.342   96.292 2301.010    9.009
  448.976    0.329   95.699 2276.860    8.848
  449.281    0.309   99.871 2266.790    9.018
  449.586    0.287   99.876 2315.060    9.360
  449.891    0.264   96.904 2315.050   11.475
  450.196    0.209   94.526 2393.510   13.064
  450.501    0.188   89.172 2824.070   14.604
  450.805    0.287   86.200 2558.470   14.344
  451.110    0.295   92.756 2323.060   13.830
  451.415    0.278   93.949 2302.930   12.390
  451.720    0.253   93.955 2341.140   12.166
  452.025    0.251   92.767 2343.150   12.633
  452.329    0.258   90.985 2329.050   12.872
  452.634    0.274   88.611 2335.080   13.613
  452.939    0.284   88.614 2351.160   14.133
  453.244    0.287   88.619 2347.120   14.138
  453.549    0.284   88.624 2339.060   13.888
  453.853    0.284   88.627 2333.020   13.391
  454.158    0.287   87.441 2318.930   12.914
  454.463    0.289   85.660 2306.840   12.226
  454.768    0.284   85.068 2318.900   12.006
  455.073    0.282   84.479 2339.010   11.793
  455.377    0.281   85.673 2353.080   12.244
  455.682    0.289   84.487 2359.110   12.948
  455.987    0.283   81.515 2345.020   13.691
  456.292    0.277   80.923 2320.860   14.479
  456.597    0.278   81.524 2330.910   14.757
  456.902    0.281   83.910 2401.320   14.230
  457.206    0.295   88.103 2359.060   13.470
  457.511    0.301   85.132 2272.530   12.751
  457.816    0.299   83.354 2322.810   12.294
  458.121    0.294   83.954 2332.870   11.638
  458.426    0.286   85.747 2336.880   11.222
  458.730    0.279   83.373 2334.850   11.022
  459.035    0.278   80.999 2332.830   11.443
  459.340    0.282   81.008 2332.820   12.103
  459.645    0.290   81.610 2332.810   12.107
  459.950    0.292   82.212 2336.820   12.115
  460.254    0.295   83.409 2328.770   12.123
  460.559    0.295   84.605 2288.520   12.127
  460.864    0.296   85.210 2306.610   12.133
  461.169    0.286   85.214 2336.780   12.138
  461.474    0.285   81.647 2332.740   12.836
  461.778    0.302   78.083 2326.700   13.083
  462.083    0.301   81.067 2316.630   12.852
  462.388    0.293   85.243 2276.380   12.392
  462.693    0.295   87.037 2272.340   11.304
  462.998    0.298   84.661 2298.490   10.700
  463.303    0.288   79.903 2320.610   10.708
  463.607    0.274   78.718 2330.660   11.322
  463.912    0.261   66.814 2356.800   12.423
  464.217    0.293   59.079 2439.280   14.145
  464.522    0.302   63.850 2483.540   16.711
  464.827    0.303   60.878 2312.510   18.337
  465.131    0.309   61.482 2256.150   18.010
  465.436    0.317   70.421 2254.130   16.431
  465.741    0.321   80.556 2252.110   14.447
  466.046    0.318   82.346 2292.340   11.582
  466.351    0.295   81.759 2330.560   10.566
  466.655    0.269   75.214 2352.680   10.003
  466.960    0.292   77.605 2322.490   10.385
  467.265    0.301   79.991 2334.550   10.582
  467.570    0.303   76.426 2362.710   11.829
  467.875    0.310   71.073 2332.520   13.221
