~VERSION INFORMATION
 VERS.                 2.0:   CWLS LOG ASCII STANDARD -VERSION 2.0
 WRAP.                  NO:   ONE LINE PER DEPTH STEP
~WELL INFORMATION BLOCK
#MNEM.UNIT           DATA                    DESCRIPTION OF MNEMONIC
#---------    -------------------            -------------------------------
# Generated from Intellog Unique Number	CN_94_101/WELL/2376
WELL.         02-04-097-07W4                 : Well_name    - WELL
LOC .         AA/02-04-097-07W4/0            : Location     - LOCATION
UWI .         AA/02-04-097-07W400            : Uwi          - UNIQUE WELL ID
ENTR.         JOETTE                         : Entered      - ENTERED BY
SRVC.         SCHLUMBERGER                   : Scn          - SERVICE COMPANY
DATE.         08/11/92                       : Date         - LOG DATE
STRT.M        0                              : top_depth    - START DEPTH
STOP.M        106.75                         : bot_depth    - STOP DEPTH
STEP.M        0.25                           : increment    - STEP LENGTH
 NULL. -999.2500:NULL Value
~CURVE INFORMATION BLOCK
#MNEM UNIT       ERCB CURVE CODE    CURVE DESCRIPTION
#-----------   ------------------   ----------------------------------
DEPT.M        00 001 00 00         : DEPTH        - DEPTH
GR  .API      00 310 00 00         : GR           - GAMMA RAY
ILD .OHMM     00 120 00 00         : RESD         - DEEP RESISTIVITY (DIL)
DPHI.V/V      00 890 00 00         : PHID         - DENSITY POROSITY (SANDSTONE)
~PARAMETER INFORMATION
#MNEM.UNIT           DATA             DESCRIPTION OF MNEMONIC
#---------         -----------     ------------------------------
GL  .M        354.604              : gl           - GROUND LEVEL ELEVATION
EREF.M        354.604              : kb           - ELEVATION OF DEPTH REFERENCE
DATM.M        354.604              : datum        - DATUM ELEVATION
TDD .M        121.92               : tdd          - TOTAL DEPTH DRILLER
RUN .         ONE                  : Run          - RUN NUMBER
ENG .         JO                   : Engineer     - RECORDING ENGINEER
WIT .         TIM                  : Witness      - WITNESSED BY
MUD .         GEL                  : Mud_type     - MUD TYPE
MATR.         SANDSTONE            : Logunit      - NEUTRON MATRIX
TMAX.C        0                    : BHT          - MAXIMUM RECORDED TEMPERATURE
BHTD.M        121.92               : BHTDEP       - MAXIMUM RECORDED TEMPERATURE
RMT .C        0                    : MDTP         - TEMPERATURE OF MUD
MUDD.KG/M     0                    : MWT          - MUD DENSITY
NEUT.         1                    : NEUTRON      - NEUTRON TYPE
RESI.         0                    : RESIST       - RESISTIVITY TYPE
RM  .OHMM     13.8                 : RM           - RESISTIVITY OF MUD
RMC .OHMM     13.8                 : RMC          - RESISTIVITY OF MUD CAKE
RMF .OHMM     13.8                 : RMF          - RESISTIVITY OF MUD FILTRATE
SUFT.C        4                    : SUFT         - SURFACE TEMPERATURE
~A  DEPTH       GR     RESD     PHID
    0.000   25.080  982.476    0.453
    0.250   25.543  948.781    0.452
    0.500   25.582  933.574    0.451
    0.750   25.620  901.556    0.246
    1.000   25.301  887.679    0.241
    1.250   25.327  890.548    0.228
    1.500   25.008  892.274    0.065
    1.750   24.637  912.092    0.046
    2.000   24.689  931.147    0.035
    2.250   24.369  987.541    0.125
    2.500   24.434 1194.930    0.183
    2.750   24.460 1445.880    0.432
    3.000   24.525 1652.810    0.396
    3.250   24.961 1855.480    0.320
    3.500   25.411 1930.080    0.314
    3.750   25.476 2087.040    0.357
    4.000   27.514 2054.920    0.387
    4.250   32.333 1805.780    0.425
    4.500   35.179 1528.470    0.391
    4.750   32.040 1685.130    0.327
    5.000   26.530 1481.780    0.314
    5.250   19.418 1327.620    0.318
    5.500   35.387 1281.260    0.334
    5.750   32.274  933.515    0.323
    6.000   29.532  553.452    0.300
    6.250   27.213  213.231    0.296
    6.500   28.059   91.870    0.309
    6.750   30.124   69.537    0.293
    7.000   30.931   56.730    0.281
    7.250   32.572   89.236    0.273
    7.500   33.842  275.765    0.284
    7.750   33.484   60.477    0.297
    8.000   33.139   62.989    0.285
    8.250   31.627   68.156    0.259
    8.500   30.872   70.896    0.234
    8.750   30.116   73.794    0.235
    9.000   28.579   72.564    0.232
    9.250   26.645   62.623    0.226
    9.500   24.313   43.160    0.221
    9.750   22.776   44.925    0.222
   10.000   22.444  323.060    0.425
   10.250   23.687  537.562    0.391
   10.500   25.328  406.621    0.378
   10.750   27.367  371.208    0.368
   11.000   29.008  466.319    0.369
   11.250   31.046  564.250    0.368
   11.500   33.084  524.515    0.359
   11.750   34.341  469.945    0.325
   12.000   31.612  413.236    0.317
   12.250   29.678  414.304    0.316
   12.500   30.524  431.796    0.305
   12.750   33.755  440.817    0.331
   13.000   35.396  442.527    0.344
   13.250   38.255  434.873    0.351
   13.500   39.883  419.958    0.339
   13.750   40.345  390.636    0.350
   14.000   40.781  337.338    0.363
   14.250   42.038  351.127    0.364
   14.500   43.282  449.146    0.372
   14.750   44.923  585.396    0.369
   15.000   44.975  554.824    0.326
   15.250   41.054  412.153    0.291
   15.500   38.735  405.809    0.298
   15.750   37.992  472.663    0.311
   16.000   36.853  447.978    0.315
   16.250   34.918  365.235    0.323
   16.500   33.368  271.316    0.322
   16.750   29.050  262.180    0.311
   17.000   29.499  278.059    0.320
   17.250   28.359  284.052    0.349
   17.500   28.014  324.705    0.355
   17.750   30.065  378.198    0.365
   18.000   28.515  440.789    0.359
   18.250   26.581  359.838    0.347
   18.500   24.262  322.193    0.336
   18.750   23.917  323.026    0.341
   19.000   24.366  342.811    0.336
   19.250   25.994  337.317    0.347
   19.500   25.675  319.700    0.357
   19.750   23.727  303.004    0.345
   20.000   24.587  292.612    0.348
   20.250   25.831  287.922    0.364
   20.500   26.677  283.124    0.377
   20.750   27.113  284.223    0.382
   21.000   26.768  284.774    0.387
   21.250   26.833  296.797    0.385
   21.500   27.282  314.569    0.389
   21.750   27.732  346.139    0.380
   22.000   30.167  353.827    0.358
   22.250   36.217  311.331    0.354
   22.500   37.832  324.266    0.364
   22.750   44.651  330.827    0.328
   23.000   44.703  351.090    0.296
   23.250   43.960  338.830    0.258
   23.500   44.025  247.028    0.229
   23.750   46.474  247.826    0.236
   24.000   47.692  267.635    0.235
   24.250   48.154  273.403    0.239
   24.500   45.809  249.753    0.251
   24.750   42.683  241.032    0.280
   25.000   39.160  232.916    0.295
   25.250   36.841  237.936    0.281
   25.500   38.879  243.220    0.272
   25.750   41.315  253.162    0.255
   26.000   42.956  263.510    0.242
   26.250   43.405  259.286    0.245
   26.500   42.265  241.183    0.245
   26.750   39.934  208.007    0.235
   27.000   42.779  200.873    0.222
   27.250   44.023  243.058    0.221
   27.500   45.677  288.642    0.213
   27.750   46.908  283.832    0.203
   28.000   43.385  235.937    0.218
   28.250   43.052  223.760    0.237
   28.500   44.680  255.950    0.240
   28.750   45.143  271.276    0.241
   29.000   43.990  293.148    0.235
   29.250   43.657  288.450    0.233
   29.500   44.901  258.440    0.232
   29.750   46.542  231.702    0.221
   30.000   47.799  219.601    0.228
   30.250   49.427  215.942    0.248
   30.500   50.287  200.865    0.267
   30.750   49.544  180.083    0.268
   31.000   48.814  194.603    0.262
   31.250   50.840  218.325    0.265
   31.500   54.070  235.927    0.265
   31.750   58.108  250.378    0.254
   32.000   61.351  232.746    0.243
   32.250   62.197  197.131    0.238
   32.500   64.646  193.972    0.250
   32.750   66.274  198.280    0.252
   33.000   68.710  214.267    0.255
   33.250   68.364  231.542    0.285
   33.500   64.046  232.141    0.329
   33.750   59.344  255.933    0.330
   34.000   56.999  237.910    0.334
   34.250   55.065  197.764    0.347
   34.500   54.322  183.838    0.358
   34.750   54.387  202.549    0.351
   35.000   50.453  263.993    0.352
   35.250   46.122  274.961    0.348
   35.500   33.051  326.317    0.348
   35.750   28.733  409.926    0.350
   36.000   38.333  468.897    0.343
   36.250   39.974  515.955    0.331
   36.500   36.847  568.836    0.332
   36.750   34.132  637.763    0.336
   37.000   32.581  715.967    0.334
   37.250   29.058  704.492    0.333
   37.500   26.726  706.313    0.340
   37.750   25.984  721.535    0.344
   38.000   27.638  825.333    0.350
   38.250   28.100  908.748    0.363
   38.500   27.344 1038.810    0.353
   38.750   25.794 1187.480    0.346
   39.000   23.078 1491.740    0.360
   39.250   26.308 1872.740    0.356
   39.500   27.962 2352.570    0.342
   39.750   26.412 2689.270    0.344
   40.000   24.081 3136.360    0.350
   40.250   22.159 3028.800    0.354
   40.500   23.006 2980.250    0.345
   40.750   22.276 3158.710    0.334
   41.000   22.302 3415.590    0.318
   41.250   23.148 3298.450    0.319
   41.500   23.213 3775.400    0.324
   41.750   23.663 3998.890    0.336
   42.000   24.522 4326.890    0.346
   42.250   25.369 4420.140    0.339
   42.500   26.215 4431.560    0.326
   42.750   27.446 4440.150    0.323
   43.000   26.703 3904.350    0.311
   43.250   24.372 2844.680    0.319
   43.500   25.616 2193.880    0.339
   43.750   30.845 1823.680    0.358
   44.000   34.486 1487.800    0.358
   44.250   31.359 1259.320    0.360
   44.500   27.823  706.253    0.369
   44.750   23.902  459.846    0.380
   45.000   20.789  288.395    0.386
   45.250   19.252  383.238    0.371
   45.500   18.112  637.696    0.361
   45.750   17.753 1041.410    0.356
   46.000   18.997 1867.750    0.354
   46.250   21.433 2937.980    0.358
   46.500   26.265 4129.960    0.356
   46.750   31.879 4810.350    0.341
   47.000   40.287 5502.360    0.332
   47.250   50.681 4084.810    0.333
   47.500   57.102  455.984    0.327
   47.750   50.388  232.702    0.327
   48.000   36.932  182.860    0.352
   48.250   27.834  242.996    0.344
   48.500   24.707  382.234    0.347
   48.750   24.759  507.610    0.362
   49.000   27.195  945.774    0.362
   49.250   30.451  464.600    0.356
   49.500   28.093  250.810    0.348
   49.750   24.570  182.856    0.343
   50.000   22.251  346.916    0.350
   50.250   23.879  496.891    0.357
   50.500   23.957 1249.500    0.349
   50.750   23.599 1928.980    0.336
   51.000   22.856 2611.840    0.318
   51.250   22.127 3218.050    0.305
   51.500   21.371 4196.970    0.297
   51.750   19.040 4535.360    0.348
   52.000   19.091 3914.030    0.344
   52.250   19.938 4229.610    0.335
   52.500   18.414 4326.340    0.325
   52.750   17.274 3947.010    0.305
   53.000   18.505 3340.880    0.289
   53.250   19.774 3051.900    0.295
   53.500   19.826 2535.270    0.323
   53.750   20.686 2404.420    0.324
   54.000   21.109 2596.600    0.320
