~Version Information Block
VERS .                 2.00:  CWLS LOG ASCII STANDARD - VERSION 2.00
WRAP .                   NO:  One line per depth step
~Well Information Block
#MNEM.UNIT        Data Type   Information
#---------- ----------------  -----------
STRT .M               30.48:  START DEPTH
STOP .M              130.76:  STOP DEPTH
STEP .M                .305:  STEP
NULL .              -999.25:  NULL VALUE
COMP . UNOCAL              :  COMPANY
WELL .                     :  WELL
FLD  . BLACK DIAMOND       :  FIELD
LOC  . 03-01-092-09W4      :  LOCATION
PROV . ALBERTA             :  PROVINCE
SRVC . BPB                 :  SERVICE COMPANY
DATE . 28 JAN 89           :  LOG DATE
UWI  . AA/03-01-092-09W400 :  UNIQUE WELL ID
~Curve Information Block
#MNEM.UNIT         API CODE   Curve Description
#---------- ----------------  -----------------
DEPTH.M                    :  Transferred from LOGMATE/ESP.
DENS .KG/M3                 :  Loaded from 920717.113006
GR   .API                  :  Loaded from 920717.113006
PHIN .FRAC                 :  Loaded from 920717.113006
RESD .OHMM                 :  Loaded from 920717.113006
~Parameter Information Block
#MNEM.UNIT            Value   Description
#---------- ----------------  -----------
PROJECT.             MOS_92_9:
SET  .                  RAW:
~A        DEPTH           DENS             GR           PHIN         RESD
        30.4800      2186.2000        99.7500         0.4667         7.2
        30.7800      2191.8000       100.8900         0.4712         6.4
        31.0900      2229.1001       111.1600         0.4252         6.3
        31.3900      2266.8000       108.2400         0.4436         7.1
        31.7000      2039.4000        94.3400         0.6187         3.6
        32.0000      1971.4000        98.7700         0.6291         2.0
        32.3100      1998.4000        94.1800         0.6201         2.1
        32.6100      1996.9000        92.6900         0.6174         2.1
        32.9200      2068.1001        88.8200         0.6141         2.0
        33.2200      2120.3000       101.7800         0.5266         2.4
        33.5300      2107.8000        96.4100         0.5567         2.8
        33.8300      2128.8999        92.4200         0.6005         3.7
        34.1400      2161.8000        93.8600         0.5857         5.6
        34.4400      2164.6001        96.6100         0.6135         4.3
        34.7500      2137.7000        99.1800         0.4857         3.1
        35.0500      2219.3999        97.0400         0.4540         5.2
        35.3600      2188.3000        90.9000         0.4376         6.1
        35.6600      2447.3000        79.0300         0.4169        10.2
        35.9700      2446.0000        80.2900         0.4682         6.5
        36.2700      2383.0000        82.3800         0.5092         5.1
        36.5800      2038.6000        93.3100         0.5631         3.7
        36.8800      2122.1001       110.9900         0.5308         3.0
        37.1900      2111.3999       101.5600         0.5522         2.9
        37.4900      2121.6001       101.8700         0.5912         2.6
        37.8000      2058.7000       100.9800         0.5494         3.3
        38.1000      2130.6001       104.9300         0.5888         3.1
        38.4000      2121.3000       111.9200         0.5658         2.5
        38.7100      2077.5000        96.2200         0.5221         2.9
        39.0100      2146.7000        93.2400         0.5820         2.6
        39.3200      2164.2000        87.0500         0.5752         2.7
        39.6200      2130.8999        94.8700         0.6112         2.9
        39.9300      2110.5000        95.9500         0.5716         3.4
        40.2300      2194.3999       107.6600         0.5589         4.2
        40.5400      2204.3999        97.3300         0.5376         3.6
        40.8400      2160.6001        95.7400         0.5543         3.5
        41.1500      2202.5000       105.7000         0.5703         4.1
        41.4500      2180.1001       104.2800         0.4685         2.7
        41.7600      2211.1001       106.9200         0.4696         3.9
        42.0600      2194.8999        94.3800         0.4600         3.6
        42.3700      2300.3999        82.6300         0.4022         6.5
        42.6700      2283.2000        75.0600         0.3515         9.9
        42.9800      2186.0000        74.6500         0.3629        12.5
        43.2800      2204.8999        73.4600         0.3360        13.2
        43.5900      2482.0000        64.5100         0.3591        25.0
        43.8900      2366.2000        80.3400         0.3770        12.1
        44.2000      2186.0000        95.8600         0.3874        11.9
        44.5000      2192.8000        99.3900         0.3936        14.5
        44.8100      2264.6001       123.6900         0.4333        12.0
        45.1100      2238.8000       109.3700         0.3181        11.3
        45.4200      2174.3999        68.3100         0.3043        10.0
        45.7200      2122.5000        59.1800         0.3218        10.0
        46.0200      2113.3999        62.4700         0.3384        10.0
        46.3300      2151.6001        59.7300         0.3331        10.0
        46.6300      2130.3999        58.4900         0.3265        10.0
        46.9400      2120.8999        68.6400         0.2225        10.0
        47.2400      2108.3999        69.4800         0.1882        10.0
        47.5500      2016.2000        56.1800         0.1953        10.0
        47.8500      2047.6000        76.0600         0.3412        10.0
        48.1600      2146.0000        72.6000         0.2884        10.0
        48.4600      2153.6001        78.0400         0.2608        10.0
        48.7700      2122.8999        76.5000         0.2322        10.0
        49.0700      2102.8999        68.7400         0.2669        10.0
        49.3800      2134.3999        75.5000         0.2563        10.0
        49.6800      2197.5000        63.6800         0.2574        30.0
        49.9900      2121.0000        56.7600         0.2722        30.0
        50.2900      2143.5000        47.1100         0.2764        30.0
        50.6000      2111.2000        38.5100         0.2461        30.0
        50.9000      2119.8000        39.1800         0.2283        30.0
        51.2100      2133.5000        49.3300         0.2317        30.0
        51.5100      2046.9000        48.8600         0.2349        30.0
        51.8200      2078.2000        44.5100         0.2577        30.0
        52.1200      2085.2000        46.7900         0.2643        30.0
        52.4300      2107.6001        55.2100         0.2712        30.0
        52.7300      2104.1001        54.4400         0.2825        30.0
        53.0400      2141.2000        47.6400         0.2227        30.0
        53.3400      2110.5000        31.0500         0.2282        30.0
        53.6400      2095.8999        31.6600         0.2130        30.0
        53.9500      2117.7000        27.9600         0.1866        30.0
        54.2500      2126.1001        26.2300         0.2043        30.0
        54.5600      2123.2000        25.4600         0.2171        30.0
        54.8600      2110.8999        23.2600         0.2219        30.0
        55.1700      2138.5000        27.8100         0.1655        30.0
        55.4700      2116.5000        24.4700         0.1731        30.0
        55.7800      2090.8000        29.7900         0.2188        30.0
        56.0800      2149.5000        28.9000         0.2831        30.0
        56.3900      2162.6001        31.0600         0.3208       316.6
        56.6900      2217.0000        25.1600         0.3351       437.1
        57.0000      2201.6001        35.7300         0.3710       237.2
        57.3000      2170.1001        34.0600         0.3685       367.2
        57.6100      2154.0000        30.4900         0.3404       562.3
        57.9100      2149.7000        30.5500         0.3312       522.9
        58.2200      2177.3000        38.1400         0.3336       397.3
        58.5200      2184.1001        38.3900         0.3411       334.9
        58.8300      2153.8000        40.1800         0.3733       205.3
        59.1300      2168.3000        26.8800         0.3931       251.8
        59.4400      2135.8000        32.7900         0.4155       571.3
        59.7400      2099.0000        31.0700         0.4080       219.7
        60.0500      2156.7000        32.0900         0.3632       473.0
        60.3500      2188.5000        22.0100         0.3285       288.3
        60.6600      2205.0000        19.1500         0.3234       812.4
        60.9600      2189.8999        21.6600         0.3394       836.6
        61.2600      2171.8999        29.4300         0.3611       500.8
        61.5700      2191.8000        29.7300         0.3568       349.4
        61.8700      2179.8999        19.9500         0.3455       871.3
        62.1800      2156.8000        28.5500         0.3119       885.9
        62.4800      2205.2000        37.9900         0.2591       250.6
        62.7900      2193.3000        45.8700         0.1953       114.8
        63.0900      2128.3000        28.6300         0.1922       393.0
        63.4000      2138.8000        22.3100         0.3317       458.8
        63.7000      2175.2000        18.7400         0.3468       731.3
