~VERSION INFORMATION
 VERS.                 2.0:   CWLS LOG ASCII STANDARD -VERSION 2.0
 WRAP.                  NO:   ONE LINE PER DEPTH STEP
~WELL INFORMATION BLOCK
#MNEM.UNIT           DATA                    DESCRIPTION OF MNEMONIC
#---------    -------------------            -------------------------------
# Generated from Intellog Unique Number	CN_94_101/WELL/4982
WELL.         PEX/NOVA                       : Well_name    - WELL
LOC .         AA/06-18-097-09W4/0            : Location     - LOCATION
UWI .         AA/06-18-097-09W400            : Uwi          - UNIQUE WELL ID
ENTR.         J                              : Entered      - ENTERED BY
SRVC.         SCHLUMBERGER                   : Scn          - SERVICE COMPANY
DATE.         08/11/92                       : Date         - LOG DATE
STRT.M        50                             : top_depth    - START DEPTH
STOP.M        150                            : bot_depth    - STOP DEPTH
STEP.M        0.25                           : increment    - STEP LENGTH
 NULL. -999.2500:NULL Value
~CURVE INFORMATION BLOCK
#MNEM UNIT       ERCB CURVE CODE    CURVE DESCRIPTION
#-----------   ------------------   ----------------------------------
DEPT.M        00 001 00 00         : DEPTH        - DEPTH
GR  .API      00 310 00 00         : GR           - GAMMA RAY
ILD .OHMM     00 120 00 00         : RESD         - DEEP RESISTIVITY (DIL)
NPHI.V/V      00 330 00 00         : PHIN         - NEUTRON POROSITY (SANDSTONE)
DPHI.V/V      00 890 00 00         : PHID         - DENSITY POROSITY (SANDSTONE)
~PARAMETER INFORMATION
#MNEM.UNIT           DATA             DESCRIPTION OF MNEMONIC
#---------         -----------     ------------------------------
GL  .M        315                  : gl           - GROUND LEVEL ELEVATION
EREF.M        315                  : kb           - ELEVATION OF DEPTH REFERENCE
DATM.M        315                  : datum        - DATUM ELEVATION
TDD .M        151                  : tdd          - TOTAL DEPTH DRILLER
RUN .         ONE                  : Run          - RUN NUMBER
ENG .         JO                   : Engineer     - RECORDING ENGINEER
WIT .         TIM                  : Witness      - WITNESSED BY
MUD .         GEL                  : Mud_type     - MUD TYPE
MATR.         SANDSTONE            : Logunit      - NEUTRON MATRIX
TMAX.C        15                   : BHT          - MAXIMUM RECORDED TEMPERATURE
BHTD.M        151                  : BHTDEP       - MAXIMUM RECORDED TEMPERATURE
RMT .C        15                   : MDTP         - TEMPERATURE OF MUD
MUDD.KG/M     1020                 : MWT          - MUD DENSITY
NEUT.         1                    : NEUTRON      - NEUTRON TYPE
RESI.         0                    : RESIST       - RESISTIVITY TYPE
RM  .OHMM     13.8                 : RM           - RESISTIVITY OF MUD
RMC .OHMM     13.8                 : RMC          - RESISTIVITY OF MUD CAKE
RMF .OHMM     13.8                 : RMF          - RESISTIVITY OF MUD FILTRATE
SUFT.C        4                    : SUFT         - SURFACE TEMPERATURE
~A  DEPTH       GR     RESD     PHIN     PHID
# ...
   93.500  151.087    6.717    0.523    0.301
   93.750  183.349    6.183    0.514    0.279
   94.000  160.054    6.446    0.526    0.299
   94.250  151.693    6.651    0.535    0.327
   94.500  132.580    6.583    0.524    0.349
   94.750  158.271    6.252    0.520    0.317
   95.000  143.340    6.124    0.506    0.273
   95.250  159.472    6.319    0.513    0.256
   95.500  139.164    6.386    0.513    0.258
   95.750  127.817    6.453    0.517    0.267
   96.000  136.781    6.659    0.521    0.272
   96.250  140.368    6.659    0.517    0.271
   96.500  161.877    6.730    0.504    0.261
   96.750  154.712    6.731    0.482    0.251
   97.000  160.689    6.945    0.484    0.245
   97.250  155.315    7.018    0.481    0.243
   97.500  149.344    7.020    0.492    0.243
   97.750  142.179    6.948    0.489    0.241
   98.000  145.766    6.736    0.474    0.239
   98.250  133.822    6.531    0.461    0.237
   98.500  127.851    6.465    0.481    0.231
   98.750  139.205    6.670    0.477    0.223
   99.000  124.870    6.204    0.490    0.230
   99.250  129.652    6.812    0.485    0.230
   99.500  132.643    6.813    0.475    0.231
   99.750  138.620    6.605    0.485    0.235
  100.000  131.454    6.886    0.510    0.236
  100.250  132.054    6.887    0.516    0.230
  100.500  133.850    6.817    0.538    0.228
  100.750  133.853    6.818    0.538    0.233
  101.000  149.986    6.679    0.549    0.251
  101.250  148.196    6.476    0.558    0.264
  101.500  138.642    6.344    0.546    0.308
  101.750  130.281    6.411    0.516    0.356
  102.000   87.869    7.187    0.451    0.421
  102.250  102.807    7.339    0.330    0.454
  102.500   63.980   10.123    0.336    0.362
  102.750   44.867    9.613    0.368    0.246
  103.000   50.844    9.128    0.363    0.237
  103.250   49.054    8.668    0.386    0.238
  103.500   56.226    8.670    0.416    0.234
  103.750   62.800    8.945    0.441    0.232
  104.000   97.452    8.583    0.440    0.236
  104.250  110.001    8.496    0.446    0.250
  104.500   92.082    9.137    0.429    0.260
  104.750   80.137   10.457    0.440    0.252
  105.000   75.362   11.482    0.423    0.260
  105.250   49.079   13.006    0.427    0.286
  105.500   37.732   14.281    0.404    0.308
  105.750   28.774   17.575    0.400    0.327
  106.000   23.998   20.536    0.420    0.326
  106.250   12.651   28.036    0.423    0.329
  106.500   17.433   26.901    0.424    0.335
  106.750   14.449   29.233    0.426    0.338
  107.000   15.647   27.474    0.432    0.341
  107.250   19.235   20.340    0.422    0.341
  107.500   24.614   16.706    0.403    0.341
  107.750   20.436   14.450    0.403    0.330
  108.000   18.646   11.386    0.402    0.323
  108.250   13.273   11.039    0.410    0.314
  108.500   28.808   11.272    0.396    0.301
  108.750   33.591   11.509    0.384    0.280
  109.000   36.581   11.753    0.356    0.263
  109.250   34.792   11.754    0.372    0.280
  109.500   28.821   11.396    0.356    0.296
  109.750   24.045   10.710    0.393    0.301
  110.000   27.035   10.277    0.402    0.300
  110.250   25.246   10.603    0.410    0.295
  110.500   18.677   10.940    0.391    0.300
  110.750   27.044   11.171    0.367    0.284
  111.000   27.047   10.943    0.388    0.293
  111.250   21.077   10.074    0.421    0.284
  111.500   25.859    9.666    0.423    0.271
  111.750   56.330    9.668    0.390    0.272
  112.000   66.488    9.669    0.378    0.287
  112.250   31.245   10.727    0.407    0.290
  112.500   27.067   11.068    0.426    0.290
  112.750   32.446   11.069    0.429    0.296
  113.000   31.852   10.403    0.411    0.310
  113.250   18.114   10.191    0.412    0.336
  113.500   12.144   10.515    0.393    0.361
  113.750    9.160   11.076    0.376    0.353
  114.000   15.137   11.668    0.366    0.321
  114.250   15.738   11.914    0.350    0.308
  114.500   11.559   11.916    0.354    0.300
  114.750    9.173   11.918    0.340    0.302
  115.000   14.552   11.920    0.353    0.294
  115.250   19.932   11.922    0.343    0.286
  115.500   10.377   11.801    0.349    0.290
  115.750   13.367   11.803    0.367    0.296
  116.000   14.565   11.804    0.376    0.300
  116.250   16.360   11.806    0.358    0.310
  116.500   18.155   11.808    0.342    0.313
  116.750   12.782   11.810    0.347    0.317
  117.000   24.733   11.690    0.347    0.317
  117.250   15.177   11.692    0.317    0.303
  117.500   18.168   11.694    0.319    0.301
  117.750   13.392   11.455    0.312    0.300
  118.000   19.369   11.106    0.311    0.287
  118.250   14.593   10.656    0.334    0.272
  118.500   18.181   10.120    0.372    0.263
  118.750   16.989    9.315    0.359    0.273
  119.000   25.953    8.938    0.320    0.268
  119.250   16.397    8.666    0.375    0.262
  119.500   22.375   11.708    0.412    0.275
  119.750   15.209   11.589    0.411    0.318
  120.000   15.810   11.236    0.400    0.346
  120.250   12.825   11.238    0.409    0.348
  120.500   12.231   11.357    0.431    0.328
  120.750   12.832   11.477    0.432    0.320
  121.000   13.432   11.479    0.458    0.326
  121.250   18.812   11.014    0.459    0.322
  121.500   30.166   10.244    0.435    0.299
  121.750   57.051   10.353    0.424    0.290
  122.000   59.444   10.793    0.408    0.305
  122.250   34.357   11.488    0.387    0.312
  122.500   20.023   11.609    0.393    0.319
  122.750   13.454   11.732    0.387    0.316
  123.000   10.470   11.734    0.392    0.318
  123.250   11.668   11.736    0.384    0.320
  123.500   12.269   11.738    0.402    0.320
  123.750   12.869   11.740    0.387    0.308
  124.000   13.470   11.741    0.379    0.318
  124.250   12.875   11.743    0.363    0.310
  124.500   14.671   11.867    0.377    0.303
  124.750   15.272   11.993    0.383    0.311
  125.000   11.093   12.120    0.369    0.319
  125.250   10.498   12.248    0.392    0.315
  125.500   10.502   12.124    0.376    0.307
  125.750   11.699   12.000    0.370    0.313
  126.000   14.690   11.879    0.375    0.307
  126.250   12.901   11.880    0.375    0.301
  126.500   15.891   11.882    0.373    0.302
  126.750   15.893   12.008    0.392    0.309
  127.000   16.494   12.262    0.370    0.311
  127.250   23.666   12.264    0.416    0.309
  127.500   26.656   12.265    0.409    0.298
  127.750   32.633   12.268    0.398    0.297
  128.000   33.832   12.143    0.397    0.310
  128.250   30.848   12.145    0.381    0.302
  128.500   26.072   12.147    0.377    0.296
  128.750   28.464   12.148    0.365    0.302
  129.000   35.636   12.277    0.382    0.310
  129.250   33.249   12.408    0.364    0.309
  129.500   36.837   12.538    0.363    0.292
  129.750   56.554   12.671    0.369    0.288
  130.000   52.375   12.542    0.367    0.289
  130.250   25.495   12.287    0.379    0.294
  130.500   29.681   11.912    0.399    0.295
  130.750   20.723   11.791    0.405    0.294
  131.000   13.557   11.793    0.376    0.310
  131.250   20.729   11.795    0.381    0.315
  131.500   26.109   11.920    0.391    0.314
  131.750   16.554   11.798    0.396    0.300
  132.000   22.530   11.558    0.404    0.285
  132.250   29.702   11.441    0.392    0.275
  132.500   22.537   11.208    0.378    0.271
  132.750   13.579   11.094    0.380    0.276
  133.000   18.361   10.981    0.378    0.290
  133.250   23.144   10.983    0.367    0.300
  133.500   23.146   10.985    0.377    0.300
  133.750   16.579   10.986    0.385    0.296
  134.000   17.776   10.988    0.387    0.288
  134.250   24.948   10.990    0.347    0.272
  134.500   20.770   10.991    0.363    0.265
  134.750   29.136   10.993    0.381    0.262
  135.000   34.516   10.881    0.389    0.266
  135.250   32.130   10.771    0.387    0.274
  135.500   33.327   10.551    0.388    0.290
  135.750   28.551   10.336    0.377    0.307
  136.000   27.957   10.126    0.378    0.298
  136.250   33.934   10.127    0.368    0.279
  136.500   30.951   10.129    0.367    0.282
  136.750   30.953   10.131    0.376    0.282
