~VERSION INFORMATION
 VERS.                 2.0:   CWLS LOG ASCII STANDARD -VERSION 2.0
 WRAP.                  NO:   ONE LINE PER DEPTH STEP
~WELL INFORMATION BLOCK
#MNEM.UNIT           DATA                    DESCRIPTION OF MNEMONIC
#---------    -------------------            -------------------------------
# Generated from Intellog Unique Number	CN_94_101/WELL/3654
WELL.         07-16-096-12W4                 : Well_name    - WELL
LOC .         AA/07-16-096-12W4/0            : Location     - LOCATION
UWI .         AA/07-16-096-12W400            : Uwi          - UNIQUE WELL ID
ENTR.         J                              : Entered      - ENTERED BY
SRVC.         SCHLUMBERGER                   : Scn          - SERVICE COMPANY
DATE.         08\05\92                       : Date         - LOG DATE
STRT.F        50                             : top_depth    - START DEPTH
STOP.F        410.072                        : bot_depth    - STOP DEPTH
STEP.F        0.8202                         : increment    - STEP LENGTH
 NULL. -999.2500:NULL Value
~CURVE INFORMATION BLOCK
#MNEM UNIT       ERCB CURVE CODE    CURVE DESCRIPTION
#-----------   ------------------   ----------------------------------
DEPT.F        00 001 00 00         : DEPTH        - DEPTH
ILD .OHMM     00 120 00 00         : RESD         - DEEP RESISTIVITY (DIL)
GR  .API      00 310 00 00         : GR           - GAMMA RAY
DPHI.V/V      00 890 00 00         : PHID         - DENSITY POROSITY (SANDSTONE)
~PARAMETER INFORMATION
#MNEM.UNIT           DATA             DESCRIPTION OF MNEMONIC
#---------         -----------     ------------------------------
GL  .M        341.681              : gl           - GROUND LEVEL ELEVATION
EREF.M        342.9                : kb           - ELEVATION OF DEPTH REFERENCE
DATM.M        342.9                : datum        - DATUM ELEVATION
TDD .M        129.54               : tdd          - TOTAL DEPTH DRILLER
RUN .         ONE                  : Run          - RUN NUMBER
ENG .         JO                   : Engineer     - RECORDING ENGINEER
WIT .         TIM                  : Witness      - WITNESSED BY
MUD .         GEL                  : Mud_type     - MUD TYPE
MATR.         SANDSTONE            : Logunit      - NEUTRON MATRIX
TMAX.F        45                   : BHT          - MAXIMUM RECORDED TEMPERATURE
BHTD.F        425                  : BHTDEP       - MAXIMUM RECORDED TEMPERATURE
RMT .F        45                   : MDTP         - TEMPERATURE OF MUD
MUDD.LB/G     8.5                  : MWT          - MUD DENSITY
NEUT.         1                    : NEUTRON      - NEUTRON TYPE
RESI.         0                    : RESIST       - RESISTIVITY TYPE
RM  .OHMM     2.58                 : RM           - RESISTIVITY OF MUD
RMC .OHMM     2.58                 : RMC          - RESISTIVITY OF MUD CAKE
RMF .OHMM     2.58                 : RMF          - RESISTIVITY OF MUD FILTRATE
SUFT.F        39.2                 : SUFT         - SURFACE TEMPERATURE
~A  DEPTH     RESD       GR     PHID
# ...
  227.986   16.081   75.287    0.206
  228.806   18.619   78.138    0.202
  229.626   21.955   79.764    0.213
  230.446   21.185   74.558    0.236
  231.266   19.710   72.973    0.249
  232.087   20.838   75.019    0.256
  232.907   19.037   74.628    0.227
  233.727   18.714   72.244    0.222
  234.547   19.416   71.865    0.221
  235.367   22.895   74.704    0.187
  236.188   27.503   75.940    0.176
  237.008   27.022   74.349    0.186
  237.828   34.272   73.165    0.195
  238.648   34.298   72.390    0.199
  239.469   22.986   70.005    0.164
  240.289   27.114   71.632    0.198
  241.109   27.139   81.309    0.219
  241.929   27.150   88.981    0.250
  242.749   28.179   91.016    0.255
  243.570   33.233   85.810    0.246
  244.390   30.914   76.581    0.245
  245.210   30.943   71.778    0.232
  246.030   31.536   73.410    0.241
  246.850   25.360   83.904    0.273
  247.671   33.359   73.462    0.257
  248.491   44.688   67.044    0.243
  249.311   41.585   61.435    0.216
  250.131   53.713   56.229    0.204
  250.951   73.278   52.632    0.210
  251.772   78.894   56.690    0.245
  252.592   54.825   54.696    0.280
  253.412   30.068   52.312    0.284
  254.232   25.538   56.352    0.287
  255.052   34.217   63.219    0.235
  255.873   52.075   67.668    0.234
  256.693   64.855   67.691    0.242
  257.513   56.098   55.250    0.268
  258.333   34.952   55.670    0.280
  259.154   41.980   63.744    0.295
  259.974   31.962   62.158    0.274
  260.794   37.688   50.510    0.285
  261.614   75.391   53.355    0.279
  262.434  130.374   54.585    0.275
  263.255  112.771   46.965    0.281
  264.075   87.439   39.346    0.275
  264.895  123.717   40.576    0.272
  265.715  140.685   37.381    0.284
  266.535   99.601   35.393    0.316
  267.356  117.422   39.043    0.310
  268.176  121.873   36.658    0.321
  268.996  136.060   38.285    0.323
  269.816  166.421   40.325    0.316
  270.636  235.467   34.309    0.324
  271.457  124.514   29.907    0.325
  272.277   83.446   32.746    0.315
  273.097   70.875   37.200    0.303
  273.917   62.445   40.850    0.306
  274.738   56.008   43.287    0.308
  275.558   47.571   44.913    0.312
  276.378   53.108   45.747    0.307
  277.198   68.610   45.770    0.298
  278.018  104.417   45.794    0.323
  278.839   69.978   40.990    0.331
  279.659   50.444   38.600    0.335
  280.479   43.633   50.697    0.315
  281.299   58.450   61.983    0.293
  282.119  106.760   56.777    0.293
  282.940   95.773   47.548    0.300
  283.760   84.365   40.733    0.306
  284.580   84.429   45.182    0.313
  285.400   82.967   50.440    0.247
  286.220   90.986   51.676    0.215
  287.041  115.377   48.475    0.245
  287.861   74.555   39.649    0.294
  288.681   73.264   35.650    0.313
  289.501   83.296   40.500    0.306
  290.322  105.667   40.121    0.304
  291.142   98.311   44.978    0.310
  291.962  109.755   49.828    0.308
  292.782   36.133   53.472    0.298
  293.602   29.592   51.484    0.287
  294.423   33.042   59.156    0.274
  295.243   36.882   62.800    0.267
  296.063   43.489   62.018    0.273
  296.883   53.193   58.025    0.286
  297.703   27.615   61.266    0.293
  298.524   20.273   66.519    0.292
  299.344   15.159   79.823    0.257
  300.164   18.538   85.478    0.229
  300.984   25.756   81.082    0.247
  301.804   55.429   73.054    0.264
  302.625   89.115   54.166    0.294
  303.445  105.060   35.685    0.328
  304.265  286.547   37.725    0.331
  305.085  230.430   38.151    0.308
  305.906  188.711   41.794    0.312
  306.726  195.902   34.979    0.321
  307.546  218.746   33.796    0.334
  308.366  189.175   43.473    0.321
  309.186   12.751   56.375    0.292
  310.007    8.091   82.149    0.239
  310.827    8.098   97.062    0.176
  311.647    8.719  103.125    0.182
  312.467    9.214  103.947    0.185
  313.287    9.393  106.384    0.185
  314.108    9.228  112.045    0.178
  314.928    9.068  108.447    0.176
  315.748    8.750  104.850    0.178
  316.568    8.143  102.862    0.179
  317.388    7.715  103.690    0.202
  318.209    7.049  109.753    0.201
  319.029    6.680  106.156    0.186
  319.849    6.808  101.755    0.211
  320.669    6.938  102.180    0.215
  321.490    6.695  102.204    0.204
  322.310    6.461  105.445    0.152
  323.130    6.235  107.486    0.176
  323.950    6.354  101.475    0.177
  324.770    7.491   95.464    0.122
  325.591   12.955   87.034    0.136
  326.411    7.783   85.851    0.102
  327.231    5.409   99.155    0.130
  328.051    7.382  106.827    0.165
  328.871    7.385  112.884    0.173
  329.692    7.391  116.930    0.172
  330.512    6.876  114.942    0.171
  331.332    6.282  110.540    0.173
  332.152    6.404  105.737    0.179
  332.972   12.131   99.726    0.188
  333.793   18.801   88.888    0.184
  334.613   21.769   72.821    0.177
  335.433   14.589   59.162    0.221
  336.253   12.619   46.318    0.289
  337.073   11.529   47.951    0.278
  337.894   14.099   53.606    0.270
  338.714   23.508   58.456    0.259
  339.534   35.777   47.216    0.259
  340.354   16.653   34.769    0.300
  341.175   18.591   44.045    0.299
  341.995   23.154   49.297    0.277
  342.815   33.375   46.505    0.296
  343.635   35.919   41.299    0.317
  344.455   31.647   42.943    0.293
  345.276   29.444   40.547    0.286
  346.096   22.009   38.559    0.275
  346.916   22.843   40.996    0.280
  347.736   32.921   45.042    0.276
  348.556   38.125   49.105    0.281
  349.377   36.781   46.301    0.283
  350.197  144.441   36.670    0.278
  351.017  186.567   29.855    0.286
  351.837  193.712   24.649    0.297
  352.657  170.607   24.672    0.312
  353.478  110.243   25.500    0.336
  354.298   88.670   25.523    0.331
  355.118  102.647   25.547    0.336
  355.938  127.838   25.570    0.342
  356.759  191.078   25.605    0.350
  357.579  233.673   24.824    0.344
  358.399  291.020   24.042    0.334
  359.219  286.034   26.876    0.337
  360.039  251.916   26.503    0.328
  360.860  206.345   24.515    0.317
  361.680  135.764   24.940    0.320
  362.500   67.971   28.992    0.327
  363.320   81.622   27.803    0.329
  364.140  151.826   27.832    0.327
  364.961   77.411   29.470    0.330
  365.781  103.699   27.878    0.319
  366.601  192.891   25.086    0.304
  367.421  173.040   21.489    0.294
  368.241  134.171   19.507    0.287
  369.062  118.190   20.329    0.295
  369.882  139.363   20.760    0.285
  370.702  190.124   20.784    0.291
  371.522  300.147   24.031    0.303
  372.343  104.348   22.439    0.307
  373.163  104.446   19.652    0.295
  373.983  106.448   19.274    0.292
  374.803  102.734   20.504    0.298
  375.623  104.683   20.533    0.301
  376.444  159.347   20.148    0.300
  377.264  225.458   19.367    0.305
  378.084  213.622   19.798    0.315
  378.904  217.757   18.621    0.307
  379.724  226.012   18.632    0.315
  380.545  202.753   19.058    0.300
  381.365  206.638   18.685    0.294
  382.185  214.471   17.909    0.295
  383.005  178.872   17.933    0.295
  383.825  105.517   19.559    0.282
  384.646   92.948   20.789    0.288
  385.466   89.689   22.830    0.296
  386.286  122.358   22.457    0.309
  387.106  152.415   20.463    0.320
  387.927   76.293   19.682    0.327
  388.747   29.060   22.119    0.318
  389.567   18.778   34.618    0.277
  390.387   24.255   41.480    0.204
  391.207   19.152   38.291    0.234
  392.028   13.806   36.297    0.258
  392.848   10.135   35.924    0.298
  393.668    8.453   66.525    0.305
  394.488    7.312   75.398    0.273
  395.308    6.807   87.093    0.240
  396.129    6.686   92.748    0.223
  396.949    6.570  104.448    0.228
  397.769    6.342  102.460    0.235
  398.589    6.230  100.064    0.212
  399.409    6.350   90.433    0.209
  400.230   29.920   73.159    0.251
  401.050   57.721   53.064    0.283
  401.870  169.338   35.784    0.314
  402.690  136.201   27.762    0.320
  403.510  146.640   41.072    0.307
  404.331  152.141   48.330    0.271
  405.151    6.270   63.645    0.220
