~Version : LASO    vs 4.00
VERS.                2.00:   CWLS Log ASCII Standard -VERSION 2.0
WRAP.                  NO:
~Well Information Block
#MNEM.UNIT       Data                        Description of Mnemonic
#----.----      -------------------------- : -----------------------------
STRT.M            13.0000:
STOP.M           191.0000:
STEP.M             0.2000:
NULL.           -999.2500:
COMP.  MOBIL OIL OF CANADA          :COMPANY
WELL.  MOBIL CLARKE OV 4-1          :WELL
FLD.                                :FIELD
LOC.   04-01-091-08W4               :LOCATION
CTRY.  CANADA                       :COUNTRY
PROV.  ALBERTA                      :PROVINCE
SRVC.  SCHLUMBERGER                 :SERVICE COMPANY
DATE.  12-FEB-81                    :LOG DATE
UWI.   AA/04-01-091-08W400          :UNIQUE WELL ID
~Parameter Information Block
#MNEM.UNIT       Data                        Description of Mnemonic
#----.----      -------------------------- : -----------------------------
RUN .                   1                 : Run Number
GL  .M           444.1000                 : Ground Level Elevation
DREF.                  GD                 : Depth Reference
EREF.M           444.1000                 : Elevation of Depth Reference
TDL .M           191.5000                 : Total Depth Logger
TDD .M           192.0000                 : Total Depth Driller
CSGL.M            15.0000                 : Casing Bottom Logger
CSGD.M            15.0000                 : Casing Bottom Driller
CSGS.MM          179.0000                 : Casing Size
CSGW.KG/M          0.0000                 : Casing Weight
BHT .DEGC         12.0000                 : Bottom Hole Temperature
BS  .MM          158.0000                 : Bit Size
DFD .           1080.0000                 : Mud Weight (Density)
DFV .             85.0000                 : Mud Viscosity
DFPH.             12.6000                 : Mud pH
~Curve Information Block
#MNEM.UNIT        API CODE    Curve Description
#---------    ------------    -------------------------------------------
DEPT.M                    :   DEPTH
CALI.MM       42 280  1  1:   3 DENSITY CALIPER
DPHI.V/V                  :   DPHI
DT  .US/M     60 520  0  1:   2 SONIC INTERVAL TRANSIT TIME (COMPENSATED)
GR  .GAPI     42 310  1  1:   4 GAMMA RAY
ILD .OHMM      5 120 46  1:   7 DEEP INDUCTION
ILM .OHMM      5 120 44  1:   8 MEDIUM INDUCTION
NPHI.V/V      42 890  3  1:   5 NEUTRON POROSITY (SANDSTONE)
RHOB.K/M3     42 350  1  1:   6 BULK DENSITY
SFLU.OHMM      5 220  1  1:   9 FOCUSSED RESISTIVITY
SP  .MV        5  10  1  1:   10 SPONTANEOUS POTENTIAL
~A  Depth           CALI        DPHI          DT          GR         ILD         ILM        NPHI        RHOB        SFLU          SP
# ...
49.6000         185.8500      0.3762    538.2800     30.4800     66.7160    441.6009      0.1509   2032.6000   2442.4736    -80.7600
49.8000         185.8500      0.3774    540.0000     30.5850     66.7160    425.6277      0.1256   2011.8000   2375.9094    -80.5200
50.0000         185.8500      0.3678    537.6000     31.0800     66.1043    441.6009      0.1268   2025.7000   2354.1270    -80.7600
50.2000         184.6000      0.3589    532.3200     32.3850     66.1043    429.5660      0.1361   2051.3999   2354.1270    -80.7600
50.4000         185.8500      0.3512    528.0000     33.5850     66.7160    433.5407      0.1579   2071.2000   2375.9094    -80.5200
50.6000         187.0750      0.3467    532.5600     31.3800     66.7160    417.8592      0.1579   2083.1001   2397.8936    -80.5200
50.8000         185.8500      0.3449    536.6000     31.9800     66.1043    449.8109      0.1624   2079.2000   2487.8826    -80.5200
51.0000         184.6000      0.3578    536.2000     32.8800     64.8978    441.6009      0.1577   2023.7000   2397.8936    -80.0100
51.2000         183.3750      0.3774    527.6000     32.8800     63.1292    425.6277      0.1445   2027.7000   2332.5442    -80.0100
51.4000         183.3750      0.3705    533.0400     33.5850     64.3028    425.6277      0.1474   2041.5000   2354.1270    -80.5200
51.6000         183.3750      0.3631    544.0400     34.2750     63.7133    437.5522      0.1550   2049.5000   2375.9094    -80.7600
51.8000         185.8500      0.3526    562.6000     35.4900     63.7133    458.1735      0.1803   2107.8999   2420.0808    -81.7650
52.0000         185.8500      0.3376    563.5200     35.0850     62.5504    449.8109      0.1861   2118.8000   2420.0808    -82.2750
52.2000         184.6000      0.3230    561.6000     34.7850     61.9769    429.5660      0.1852   2131.6001   2354.1270    -82.2750
52.4000         183.3750      0.3154    564.0400     32.9850     63.7133    402.7448      0.1829   2136.6001   2354.1270    -82.0200
52.6000         183.3750      0.3142    565.3600     31.5750     63.7133    417.8592      0.1848   2135.6001   2332.5442    -82.0200
52.8000         185.8500      0.3211    565.4000     31.0800     64.3028    462.4129      0.1836   2128.7000   2420.0808    -82.0200
53.0000         184.6000      0.3310    563.0000     30.3750     64.8978    458.1735      0.1786   2098.0000   2465.0735    -82.2750
53.2000         183.3750      0.3262    558.6000     30.7800     63.7133    458.1735      0.1747   2102.8999   2465.0735    -82.5150
53.4000         183.3750      0.3173    551.4000     31.3800     63.1292    471.0098      0.1733   2130.6001   2510.9028    -83.0250
53.6000         182.1250      0.3197    542.4800     31.7850     61.9769    475.3680      0.1717   2128.7000   2465.0735    -82.7700
53.8000         182.1250      0.3190    532.2800     31.9800     60.8457    475.3680      0.1762   2111.8000   2465.0735    -82.5150
54.0000         182.1250      0.3155    530.1600     32.1750     61.4087    441.6009      0.1829   2134.6001   2442.4736    -82.2750
54.2000         183.3750      0.3095    540.5200     32.6850     60.8457    441.6009      0.1868   2146.5000   2375.9094    -81.7650
54.4000         183.3750      0.3067    560.2400     30.7800     59.1875    425.6277      0.1688   2140.5000   2375.9094    -81.0150
54.6000         184.6000      0.3125    553.6000     29.9850     58.6449    425.6277      0.1632   2119.7000   2332.5442    -81.0150
54.8000         184.6000      0.3211    549.6400     30.0750     58.6449    433.5407      0.1708   2081.1001   2332.5442    -81.0150
55.0000         183.3750      0.3338    548.0400     29.9850     60.2879    441.6009      0.1951   2091.0000   2420.0808    -81.7650
55.2000         180.9000      0.3469    543.8800     30.2850     59.7351    441.6009      0.1945   2124.7000   2420.0808    -81.7650
55.4000         179.6500      0.3366    538.8800     31.3800     59.7351    453.9729      0.1922   2149.5000   2420.0808    -81.7650
55.6000         180.9000      0.3222    537.6000     34.2750     60.2879    429.5660      0.1815   2180.1001   2375.9094    -81.2700
55.8000         179.6500      0.3112    538.1600     35.6850     60.8457    441.6009      0.1704   2174.2000   2375.9094    -80.7600
56.0000         179.6500      0.2992    541.3200     34.7850     60.8457    425.6277      0.1568   2138.6001   2420.0808    -80.5200
56.2000         179.6500      0.2993    548.9600     32.1750     60.2879    449.8109      0.1334   2098.0000   2465.0735    -80.2650
56.4000         179.6500      0.3123    546.8400     32.0850     58.6449    445.6870      0.1293   2103.8999   2420.0808    -80.2650
56.6000         180.9000      0.3257    541.4800     30.9750     59.1875    449.8109      0.1301   2081.1001   2375.9094    -80.0100
56.8000         180.9000      0.3280    542.8000     31.8750     59.7351    437.5522      0.1357   2116.8000   2420.0808    -80.7600
57.0000         180.9000      0.3345    543.7200     33.6750     59.1875    441.6009      0.1412   2111.8000   2375.9094    -81.0150
57.2000         180.9000      0.3316    543.5600     35.0850     60.8457    475.3680      0.1404   2059.3000   2442.4736    -81.0150
57.4000         180.9000      0.3471    552.9200     35.0850     60.8457    471.0098      0.1359   2057.3999   2420.0808    -81.0150
57.6000         180.9000      0.3584    552.8000     32.0850     59.7351    484.2057      0.1435   2033.6000   2510.9028    -81.0150
57.8000         180.9000      0.3651    547.8400     32.5800     59.1875    437.5522      0.1509   2067.3000   2510.9028    -81.2700
58.0000         178.4250      0.3504    543.3200     33.7800     58.6449    417.8592      0.1599   2100.8999   2397.8936    -81.0150
58.2000         177.1750      0.3322    533.0800     35.1900     56.5236    441.6009      0.1684   2131.6001   2354.1270    -80.7600
58.4000         177.1750      0.3224    549.5600     34.7850     56.0054    466.6915      0.1606   2124.7000   2465.0735    -80.5200
58.6000         178.4250      0.3204    560.0400     35.8800     57.5745    437.5522      0.1507   2114.8000   2465.0735    -80.0100
58.8000         178.4250      0.3060    569.8400     38.3850     57.0466    445.6870      0.1453   2181.1001   2420.0808    -78.7650
59.0000         177.1750      0.2914    570.3200     40.1850     55.4919    441.6009      0.1505   2227.7000   2375.9094    -78.0150
59.2000         177.1750      0.2696    570.3200     41.5950     54.9832    449.8109      0.1523   2222.7000   2375.9094    -77.5050
59.4000         175.9250      0.2629    564.1600     41.3850     53.4847    458.1735      0.1453   2174.2000   2465.0735    -76.0050
59.6000         175.9250      0.2701    547.8800     41.2950     52.0271    429.5660      0.1433   2188.1001   2465.0735    -76.0050
59.8000         175.9250      0.2791    524.8000     40.4850     50.6093    441.6009      0.1451   2211.8000   2465.0735    -76.5000
60.0000         178.4250      0.2659    513.7200     37.4850     45.3137    410.2324      0.1823   2227.7000   2166.8552    -77.7600
60.2000         178.4250      0.2674    541.3600     36.3900     41.7090    406.4713      0.2181   2202.8999    505.6266    -78.2550
60.4000         177.1750      0.2674    541.4000     36.7800     39.4666    406.4713      0.2537   2205.8999    214.6990    -79.0050
60.6000         177.1750      0.2597    538.0400     37.1850     38.0391    402.7448      0.2992   2220.7000    149.9098    -79.5150
60.8000         178.4250      0.2512    551.5200     39.3900     35.3370    417.8592      0.3580   2265.3000     95.4619    -79.5150
61.0000         177.1750      0.2406    549.2800     42.4950     34.3740    406.4713      0.3563   2285.1001     94.5867    -79.0050
61.2000         175.9250      0.2325    553.7200     45.1950     34.3740    395.3939      0.3473   2290.0000    109.6049    -78.5100
61.4000         175.9250      0.2249    643.9600     49.5000     31.6395    381.0921      0.3403   2340.5000    139.2611    -77.0100
61.6000         175.9250      0.2154    649.7200     52.3950     28.3289    384.6183      0.3427   2344.5000    110.6190    -75.4950
