~Version : LASO    vs 4.00
VERS.                2.00:   CWLS Log ASCII Standard -VERSION 2.0
WRAP.                  NO:
~Well Information Block
#MNEM.UNIT       Data                        Description of Mnemonic
#----.----      -------------------------- : -----------------------------
STRT.M            11.0000:
STOP.M           176.0000:
STEP.M             0.1000:
NULL.           -999.2500:
COMP.  MOBIL OIL CANADA LTD.  :COMPANY
WELL.  MOBIL CLARKE OV 5-32   :WELL
FLD.   CLARKE                 :FIELD
LOC.   05-32-089-08W4         :LOCATION
CTRY.  CANADA                 :COUNTRY
PROV.  ALBERTA                :PROVINCE
SRVC.  SCHLUMBERGER           :SERVICE COMPANY
DATE.  04-MAR-81              :LOG DATE
UWI.   AA/05-32-089-08W400    :UNIQUE WELL ID
~Parameter Information Block
#MNEM.UNIT       Data                        Description of Mnemonic
#----.----      -------------------------- : -----------------------------
RUN .                   1                 : Run Number
GL  .M           391.1000                 : Ground Level Elevation
DREF.                  KB                 : Depth Reference
EREF.M           394.5000                 : Elevation of Depth Reference
TDL .M           176.5000                 : Total Depth Logger
TDD .M           174.0000                 : Total Depth Driller
CSGL.M            16.0000                 : Casing Bottom Logger
CSGD.M            14.6000                 : Casing Bottom Driller
CSGS.MM          219.0000                 : Casing Size
CSGW.KG/M          0.0000                 : Casing Weight
BHT .DEGC         23.0000                 : Bottom Hole Temperature
BS  .MM          159.0000                 : Bit Size
DFD .           1110.0000                 : Mud Weight (Density)
DFV .             90.0000                 : Mud Viscosity
DFPH.             10.0000                 : Mud pH
RM  .OHMM          1.9600                 : Mud Resistivity
RMT .DEGC         20.0000                 : Mud Resistivity Temperature
~Curve Information Block
#MNEM.UNIT        API CODE    Curve Description
#---------    ------------    -------------------------------------------
DEPT.M                    :   DEPTH
CALI.MM       42 280  1  1:   3 DENSITY CALIPER
DPHI.V/V                  :   DPHI
DT  .US/M     60 520  0  1:   2 SONIC INTERVAL TRANSIT TIME (COMPENSATED)
GR  .GAPI     42 310  1  1:   4 GAMMA RAY
ILD .OHMM      5 120 46  1:   6 DEEP INDUCTION
ILM .OHMM      5 120 44  1:   7 MEDIUM INDUCTION
NPHI.V/V                  :   NPHI
RHOB.K/M3     42 350  1  1:   5 BULK DENSITY
SFLU.OHMM      5 220  1  1:   8 FOCUSSED RESISTIVITY
SP  .MV        5  10  1  1:   9 SPONTANEOUS POTENTIAL
~A  Depth           CALI        DPHI          DT          GR         ILD         ILM        NPHI        RHOB        SFLU          SP
# ...
29.3000         208.0750      0.1933    539.7600     72.6150     31.3206     29.3650      0.3375   2375.8999     29.3650    -92.0100
29.4000         180.0250      0.1859    544.3600     73.3800     31.3206     29.3650      0.3364   2351.0000     28.0434    -92.2500
29.5000         180.0250      0.1781    548.7600     73.8600     31.3206     29.3650      0.3347   2351.0000     28.0434    -92.2500
29.6000         185.1250      0.1708    551.3600     74.2500     31.0334     29.3650      0.3327   2315.0000     28.0434    -92.2500
29.7000         185.1250      0.1645    551.8800     74.6700     31.0334     29.3650      0.3347   2315.0000     28.0434    -92.2500
29.8000         176.2000      0.1615    523.6801     72.7650     30.4670     29.0958      0.3376   2294.0000     28.0434    -92.2500
29.9000         176.2000      0.1699    504.3600     70.6500     30.4670     29.0958      0.3388   2294.0000     28.0434    -92.2500
30.0000         182.5750      0.1805    497.8800     68.9850     29.6367     27.7863      0.3393   2369.0000     27.0290    -92.2500
30.1000         182.5750      0.2024    496.5600     67.9950     29.6367     27.7863      0.3375   2369.0000     27.0290    -92.2500
30.2000         194.0500      0.2052    502.0000     71.1600     29.0958     27.0290      0.3355   2396.0000     27.0290    -92.2500
30.3000         194.0500      0.2080    515.0400     74.0700     29.0958     27.0290      0.3342   2396.0000     27.0290    -92.2500
30.4000         200.4250      0.2093    531.8800     73.2450     28.8290     26.2924      0.3326   2370.0000     25.3414    -92.5050
30.5000         200.4250      0.2095    537.0000     72.0150     28.8290     26.2924      0.3296   2370.0000     25.3414    -92.5050
30.6000         197.8750      0.2188    538.5600     68.4750     28.0434     26.0513      0.3275   2306.0000     22.6898    -92.5050
30.7000         197.8750      0.2224    521.2400     68.5500     28.0434     26.0513      0.3255   2306.0000     22.6898    -92.5050
30.8000         199.1500      0.2271    512.4800     68.6700     28.0434     26.0513      0.3248   2302.0000     24.2008    -92.5050
30.9000         199.1500      0.2249    510.4400     69.5700     28.0434     26.0513      0.3261   2302.0000     24.2008    -92.5050
31.0000         196.6250      0.2221    514.4000     71.0100     28.0434     26.0513      0.3287   2307.0000     25.5758    -92.5050
31.1000         196.6250      0.2226    519.3200     72.4500     28.0434     26.0513      0.3315   2307.0000     25.5758    -92.5050
31.2000         197.8750      0.2273    526.2400     73.6500     28.0434     26.2924      0.3348   2270.0000     26.0513    -92.7600
31.3000         197.8750      0.2305    531.5200     74.7900     28.0434     26.2924      0.3385   2270.0000     26.0513    -92.7600
31.4000         200.4250      0.2284    533.2000     74.4300     28.3028     26.5357      0.3411   2285.8999     26.0513    -93.0000
31.5000         200.4250      0.2264    516.6801     73.9200     28.3028     26.5357      0.3420   2285.8999     26.0513    -93.0000
31.6000         201.7000      0.2271    515.9200     73.4100     28.5647     26.7812      0.3422   2289.0000     26.0513    -93.0000
31.7000         201.7000      0.2322    515.7600     72.0450     28.5647     26.7812      0.3415   2289.0000     26.0513    -93.0000
31.8000         205.5250      0.2368    512.9600     70.5750     28.8290     27.0290      0.3411   2272.0000     26.2924    -93.0000
31.9000         205.5250      0.2392    508.7200     69.1050     28.8290     27.0290      0.3398   2272.0000     26.2924    -93.0000
32.0000         200.4250      0.2384    503.8000     67.9800     29.0958     27.5315      0.3397   2284.0000     26.2924    -92.7600
32.1000         200.4250      0.2275    500.1600     67.0200     29.0958     27.5315      0.3306   2284.0000     26.2924    -92.7600
32.2000         204.2500      0.2170    500.1600     66.0600     29.3650     28.0434      0.3243   2272.8999     26.2924    -92.7600
32.3000         204.2500      0.2053    500.1600     65.5800     29.3650     28.0434      0.3229   2272.8999     26.2924    -92.7600
32.4000         187.6750      0.1987    491.6000     65.2950     29.9109     28.5647      0.3236   2260.0000     25.8125    -92.7600
32.5000         187.6750      0.1949    488.4000     65.0100     29.9109     28.5647      0.3216   2260.0000     25.8125    -92.7600
32.6000         196.6250      0.1920    487.7600     64.8300     30.7489     29.6367      0.3201   2293.0000     27.2791    -93.0000
32.7000         196.6250      0.1882    485.6800     65.2950     30.7489     29.6367      0.3187   2293.0000     27.2791    -93.0000
32.8000         200.4250      0.1842    483.4800     65.6250     31.0334     29.9109      0.3177   2317.0000     28.3028    -93.2550
32.9000         200.4250      0.1821    480.7200     66.5850     31.0334     29.9109      0.3184   2317.0000     28.3028    -93.2550
33.0000         197.8750      0.1864    479.2000     68.1750     31.3206     30.1877      0.3193   2317.0000     29.3650    -93.5100
33.1000         197.8750      0.1903    478.2400     69.8100     31.3206     30.1877      0.3187   2317.0000     29.3650    -93.5100
33.2000         197.8750      0.1876    477.4800     72.2250     31.3206     30.1877      0.3178   2346.0000     29.9109    -93.5100
33.3000         197.8750      0.1818    479.3200     71.7600     31.3206     30.1877      0.3164   2346.0000     29.9109    -93.5100
33.4000         197.8750      0.1705    480.8800     70.9800     31.3206     30.1877      0.3146   2349.0000     29.0958    -93.2550
33.5000         197.8750      0.1644    483.0400     70.0350     31.3206     30.1877      0.3117   2349.0000     29.0958    -93.2550
33.6000         195.3250      0.1642    484.6000     68.4150     31.3206     30.1877      0.3087   2334.0000     28.3028    -93.2550
33.7000         195.3250      0.1659    482.4800     68.8950     31.3206     30.1877      0.3062   2334.0000     28.3028    -93.2550
33.8000         197.8750      0.1700    480.8400     70.3500     30.7489     29.9109      0.3059   2389.0000     28.0434    -93.2550
33.9000         197.8750      0.1755    478.3600     72.4350     30.7489     29.9109      0.3081   2389.0000     28.0434    -93.2550
34.0000         197.8750      0.1844    480.9600     74.5200     30.4670     29.6367      0.3100   2389.0000     28.3028    -93.2550
34.1000         197.8750      0.1926    484.4400     76.1700     30.4670     29.6367      0.3126   2389.0000     28.3028    -93.2550
34.2000         199.1500      0.2002    482.0400     73.1250     30.1877     29.0958      0.3148   2374.0000     28.5647    -93.2550
34.3000         199.1500      0.2040    482.0800     73.2000     30.1877     29.0958      0.3190   2374.0000     28.5647    -93.2550
34.4000         201.7000      0.2046    482.1600     73.3650     29.0958     28.3028      0.3239   2306.0000     28.5647    -93.2550
34.5000         201.7000      0.2051    489.8400     73.9200     29.0958     28.3028      0.3271   2306.0000     28.5647    -93.2550
34.6000         195.3250      0.2027    499.0800     75.3450     28.3028     27.7863      0.3295   2317.0000     28.3028    -93.0000
34.7000         195.3250      0.2027    501.0400     76.7700     28.3028     27.7863      0.3322   2317.0000     28.3028    -93.0000
34.8000         196.6250      0.2053    519.1600     77.9550     27.5315     27.0290      0.3345   2317.0000     28.5647    -93.0000
34.9000         196.6250      0.2051    537.7600     78.5550     27.5315     27.0290      0.3363   2317.0000     28.5647    -93.0000
35.0000         197.8750      0.2012    540.0800     79.0200     27.0290     24.8788      0.3337   2309.0000     23.9789    -93.0000
35.1000         197.8750      0.1963    526.5600     77.2950     27.0290     24.8788      0.3303   2309.0000     23.9789    -93.0000
35.2000         194.0500      0.1907    515.6000     75.8550     27.0290     25.1090      0.3264   2313.0000     21.0780    -93.0000
35.3000         194.0500      0.1866    506.1600     74.4150     27.0290     25.1090      0.3212   2313.0000     21.0780    -93.0000
