~VERSION INFORMATION
 VERS.                 2.0:   CWLS LOG ASCII STANDARD -VERSION 2.0
 WRAP.                  NO:   ONE LINE PER DEPTH STEP
~WELL INFORMATION BLOCK
#MNEM.UNIT           DATA                    DESCRIPTION OF MNEMONIC
#---------    -------------------            -------------------------------
# Generated from Intellog Unique Number	CX_WELLS/WELL/3528
WELL.         AMOCO GREGOIRE                 : Well_name    - WELL
LOC .         AA/05-15-085-07W4/0            : Location     - LOCATION
UWI .         AA/05-15-085-07W400            : Uwi          - UNIQUE WELL ID
ENTR.         T                              : Entered      - ENTERED BY
SRVC.         SCHLUMBERGER                   : Scn          - SERVICE COMPANY
STRT.F        350                            : top_depth    - START DEPTH
STOP.F        874.114                        : bot_depth    - STOP DEPTH
STEP.F        0.82                           : increment    - STEP LENGTH
 NULL. -999.2500:NULL Value
~CURVE INFORMATION BLOCK
#MNEM UNIT       ERCB CURVE CODE    CURVE DESCRIPTION
#-----------   ------------------   ----------------------------------
DEPT.F        00 001 00 00         : DEPTH        - DEPTH
GR  .API      00 310 00 00         : GR           - GAMMA RAY
DPHI.V/V      00 890 00 00         : PHID         - DENSITY POROSITY (SANDSTONE)
ILD .OHMM     00 120 00 00         : RESD         - DEEP RESISTIVITY (OTHER)
~PARAMETER INFORMATION
#MNEM.UNIT           DATA             DESCRIPTION OF MNEMONIC
#---------         -----------     ------------------------------
GL  .F        1553                 : gl           - GROUND LEVEL ELEVATION
EREF.F        1557                 : kb           - ELEVATION OF DEPTH REFERENCE
DATM.F        1557                 : datum        - DATUM ELEVATION
TDD .F        897                  : tdd          - TOTAL DEPTH DRILLER
RUN .         ONE                  : Run          - RUN NUMBER
ENG .         BILL                 : Engineer     - RECORDING ENGINEER
WIT .         JIM                  : Witness      - WITNESSED BY
MUD .         GEL                  : Mud_type     - MUD TYPE
MATR.         SANDSTONE            : Logunit      - NEUTRON MATRIX
TMAX.F        77                   : BHT          - MAXIMUM RECORDED TEMPERATURE
BHTD.F        897                  : BHTDEP       - MAXIMUM RECORDED TEMPERATURE
MATR.         1                    : LOGUNIT      - NEUTRON MATRIX
RMT .F        62.6                 : MDTP         - TEMPERATURE OF MUD
NEUT.         1                    : NEUTRON      - NEUTRON TYPE
RESI.         6.7                  : RESIST       - RESISTIVITY TYPE
RMC .OHMM     6.3                  : RMC          - RESISTIVITY OF MUD CAKE
RMF .OHMM     6.3                  : RMF          - RESISTIVITY OF MUD FILTRATE
SUFT.F        39.2                 : SUFT         - SURFACE TEMPERATURE
~A  DEPTH       GR     PHID     RESD
# ...
  527.986  107.379    0.257    5.939
  528.806  104.962    0.245    5.641
  529.626  103.149    0.235    6.442
  530.446  105.578    0.235    7.844
  531.266  108.616    0.242    8.645
  532.087  109.834    0.253    8.847
  532.907  109.234    0.266    6.648
  533.727  108.636    0.275    5.950
  534.547  108.639    0.280    5.052
  535.367  108.647    0.282    4.553
  536.188  109.866    0.285    4.255
  537.008  110.476    0.283    4.056
  537.828  112.301    0.282    3.958
  538.648  112.913    0.279    3.859
  539.469  112.312    0.272    3.661
  540.289  111.108    0.263    3.662
  541.109  108.689    0.254    4.964
  541.929  103.848    0.246    6.766
  542.749   97.796    0.253    7.767
  543.570   95.985    0.274   10.869
  544.390  100.841    0.282    9.970
  545.210  103.268    0.273    9.072
  546.030  107.517    0.268    8.173
  546.850  109.340    0.274    6.975
  547.671  111.164    0.288    5.876
  548.491  112.380    0.298    5.278
  549.311  112.387    0.307    5.179
  550.131  112.394    0.315    5.382
  550.951  113.005    0.312    5.483
  551.772  113.617    0.309    5.285
  552.592  111.200    0.312    4.786
  553.412  107.571    0.315    4.088
  554.232  108.185    0.315    4.089
  555.052  108.191    0.311    4.091
  555.873  104.562    0.309    4.492
  556.693   99.115    0.309    5.094
  557.513   94.275    0.308    5.295
  558.333   94.281    0.309    5.797
  559.154   94.894    0.313    6.299
  559.974   94.899    0.316    6.700
  560.794   96.724    0.322    6.502
  561.614   99.152    0.325    5.903
  562.434  102.794    0.323    4.904
  563.255  107.041    0.312    3.906
  564.075  111.288    0.295    3.408
  564.895  110.084    0.287    3.409
  565.715  109.484    0.287    3.611
  566.535  110.094    0.287    3.912
  567.356  107.679    0.285    4.314
  568.176  104.050    0.279    4.815
  568.996  101.632    0.284    5.617
  569.816  101.638    0.290    6.518
  570.636  101.645    0.289    7.320
  571.457  101.652    0.279    7.322
  572.277  101.658    0.269    7.323
  573.097  101.663    0.258    7.325
  573.917  101.670    0.246    7.626
  574.738  101.676    0.231    8.028
  575.558  101.682    0.239    8.229
  576.378  102.296    0.260    8.231
  577.198  102.906    0.264    8.333
  578.018  104.125    0.265    8.335
  578.839  104.736    0.266    8.337
  579.659  105.349    0.267    8.237
  580.479  106.567    0.273    8.039
  581.299  107.784    0.278    6.840
  582.119  105.973    0.272    6.242
  582.940  101.132    0.264    6.143
  583.760   97.504    0.259    5.845
  584.580   98.117    0.264    5.446
  585.400   99.333    0.280    5.149
  586.220   98.129    0.292    4.950
  587.041   93.894    0.314    4.551
  587.861   89.660    0.335    3.953
  588.681   88.456    0.329    3.255
  589.501   89.066    0.317    3.056
  590.322   89.072    0.303    2.957
  591.142   89.078    0.293    3.159
  591.962   88.478    0.286    3.761
  592.782   88.486    0.280    4.363
  593.602   88.493    0.276    4.564
  594.423   88.499    0.274    4.665
  595.243   88.504    0.269    4.667
  596.063   89.117    0.266    4.768
  596.883   89.123    0.263    4.770
  597.703   89.129    0.263    4.771
  598.524   89.134    0.263    4.773
  599.344   89.140    0.266    4.575
  600.164   89.753    0.273    4.177
  600.984   90.368    0.284    3.878
  601.804   90.373    0.295    3.479
  602.625   90.983    0.302    3.381
  603.445   91.595    0.289    3.983
  604.265   93.419    0.262    4.384
  605.085   98.273    0.234    4.985
  605.906  100.702    0.217    5.287
  606.726  101.314    0.268    4.988
  607.546  101.320    0.300    4.390
  608.366  103.145    0.302    3.792
  609.186  105.576    0.302    3.194
  610.007  106.185    0.302    2.995
  610.827  106.797    0.302    2.697
  611.647  106.200    0.302    2.698
  612.467  105.600    0.301    2.700
  613.287  105.606    0.298    2.701
  614.108  105.612    0.294    2.702
  614.928  104.408    0.290    2.805
  615.748  103.805    0.284    2.906
  616.568  101.997    0.272    2.908
  617.388  102.000    0.270    3.210
  618.209  103.219    0.270    3.411
  619.029  105.044    0.270    3.612
  619.849  104.444    0.270    3.813
  620.669  102.633    0.270    3.915
  621.490  100.216    0.270    3.917
  622.310   96.585    0.268    4.219
  623.130   91.745    0.251    4.420
  623.950   86.299    0.239    4.721
  624.770   83.883    0.266    5.023
  625.591   85.102    0.278    5.325
  626.411   86.318    0.279    5.626
  627.231   87.536    0.280    5.828
  628.051   88.754    0.280    5.930
  628.871   89.971    0.284    6.231
  629.692   91.189    0.289    6.333
  630.512   88.169    0.294    6.334
  631.332   84.538    0.299    5.835
  632.152   79.700    0.304    5.437
  632.972   76.675    0.308    5.238
  633.793   73.652    0.312    7.240
  634.613   74.264    0.313    8.442
  635.433   77.905    0.313    8.744
  636.253   80.940    0.313    8.545
  637.073   88.217    0.311    7.947
  637.894   94.283    0.304    7.448
  638.714   97.317    0.293    6.649
  639.534  102.775    0.288    6.151
  640.354  108.840    0.287    6.553
  641.175   94.913    0.286    8.754
  641.995   92.494    0.284    9.556
  642.815   88.261    0.285    9.458
  643.635   83.422    0.285    9.259
  644.455   84.034    0.284    9.261
  645.276   84.647    0.281    9.662
  646.096   85.256    0.280   10.264
  646.916   84.658    0.287   10.465
  647.736   81.633    0.295   10.467
  648.556   75.581    0.303   10.869
  649.377   79.224    0.307   12.071
  650.197   85.894    0.299   11.973
  651.017   86.507    0.283   11.773
  651.837   85.907    0.264   11.075
  652.657   85.913    0.261   10.276
  653.478   87.739    0.260    9.478
  654.298   89.561    0.255    9.679
  655.118   91.990    0.251   10.881
  655.938   91.390    0.245   12.483
  656.759   87.157    0.235   13.684
  657.579   85.344    0.232   15.686
  658.399   82.928    0.232   16.088
  659.219   81.118    0.234   15.689
  660.039   80.516    0.236   14.991
  660.860   81.736    0.240   12.893
  661.680   82.953    0.247   12.293
  662.500   84.170    0.259   10.495
  663.320   79.936    0.301    8.497
  664.140   70.854    0.327    6.698
  664.961   58.744    0.336    9.200
  665.781   55.116    0.338   12.001
  666.601   55.728    0.336   17.603
  667.421   56.944    0.332   22.405
  668.241   57.558    0.330   24.707
  669.062   58.170    0.332   26.709
  669.882   64.840    0.334   38.611
  670.702   69.692    0.335   43.813
  671.522   75.757    0.335   46.215
  672.343   85.456    0.331   48.116
  673.163  103.032    0.328   50.118
  673.983  108.491    0.319   49.020
  674.803  111.528    0.301   44.721
  675.623  111.535    0.265   40.722
  676.444  111.538    0.238   38.623
  677.264  110.941    0.245   35.825
  678.084  110.944    0.254   32.326
  678.904  106.105    0.269   20.127
  679.724   77.033    0.281    5.728
  680.545   76.434    0.293    6.229
  681.365   80.075    0.296    6.731
  682.185   83.108    0.285    7.332
  683.005   82.508    0.276    7.834
  683.825   81.910    0.275    7.836
  684.646   82.522    0.263    7.837
  685.466   83.740    0.253    8.139
  686.286   83.140    0.257    8.940
  687.106   77.694    0.265    9.542
  687.927   71.036    0.266    9.543
  688.747   70.436    0.279    9.445
  689.567   80.741    0.287    9.447
  690.387   86.199    0.274    9.448
  691.207   91.658    0.260    9.050
  692.028   99.541    0.247    8.352
  692.848   98.943    0.243    7.553
  693.668   97.739    0.243    5.854
  694.488   97.138    0.240    5.556
  695.308   97.751    0.239    5.557
  696.129   98.967    0.238    5.559
  696.949  100.183    0.237    5.660
  697.769  101.402    0.238    5.762
  698.589  102.014    0.239    5.763
  699.409  102.022    0.244    5.765
  700.230  102.028    0.247    5.767
  701.050  100.215    0.251    5.768
  701.870   90.528    0.252    5.771
  702.690   84.476    0.252    5.771
  703.510   83.270    0.253    5.873
  704.331   82.068    0.260    6.074
  705.151   78.437    0.270    6.776
