~VERSION INFORMATION
 VERS.                 2.0:   CWLS LOG ASCII STANDARD -VERSION 2.0
 WRAP.                  NO:   ONE LINE PER DEPTH STEP
~WELL INFORMATION BLOCK
#MNEM.UNIT           DATA                    DESCRIPTION OF MNEMONIC
#---------    -------------------            -------------------------------
# Generated from Intellog Unique Number	CN_94_101/WELL/1067
WELL.         05-26-097-10W4                 : Well_name    - WELL
LOC .         AA/05-26-097-10W4/0            : Location     - LOCATION
UWI .         AA/05-26-097-10W400            : Uwi          - UNIQUE WELL ID
ENTR.         JOETTE                         : Entered      - ENTERED BY
SRVC.         SCHLUMBERGER                   : Scn          - SERVICE COMPANY
DATE.         08/13/92                       : Date         - LOG DATE
STRT.M        60                             : top_depth    - START DEPTH
STOP.M        140                            : bot_depth    - STOP DEPTH
STEP.M        0.25                           : increment    - STEP LENGTH
 NULL. -999.2500:NULL Value
~CURVE INFORMATION BLOCK
#MNEM UNIT       ERCB CURVE CODE    CURVE DESCRIPTION
#-----------   ------------------   ----------------------------------
DEPT.M        00 001 00 00         : DEPTH        - DEPTH
GR  .API      00 310 00 00         : GR           - GAMMA RAY
NPHI.V/V      00 330 00 00         : PHIN         - NEUTRON POROSITY (SANDSTONE)
ILD .OHMM     00 120 00 00         : RESD         - DEEP RESISTIVITY (DIL)
~PARAMETER INFORMATION
#MNEM.UNIT           DATA             DESCRIPTION OF MNEMONIC
#---------         -----------     ------------------------------
GL  .M        303.9                : gl           - GROUND LEVEL ELEVATION
EREF.M        303.9                : kb           - ELEVATION OF DEPTH REFERENCE
DATM.M        303.9                : datum        - DATUM ELEVATION
TDD .M        144.5                : tdd          - TOTAL DEPTH DRILLER
RUN .         ONE                  : Run          - RUN NUMBER
ENG .         JO                   : Engineer     - RECORDING ENGINEER
WIT .         TIM                  : Witness      - WITNESSED BY
MUD .         GEL                  : Mud_type     - MUD TYPE
MATR.         SANDSTONE            : Logunit      - NEUTRON MATRIX
TMAX.C        10                   : BHT          - MAXIMUM RECORDED TEMPERATURE
BHTD.M        144.5                : BHTDEP       - MAXIMUM RECORDED TEMPERATURE
RMT .C        10                   : MDTP         - TEMPERATURE OF MUD
MUDD.KG/M     1                    : MWT          - MUD DENSITY
NEUT.         1                    : NEUTRON      - NEUTRON TYPE
RESI.         0                    : RESIST       - RESISTIVITY TYPE
RM  .OHMM     13.8                 : RM           - RESISTIVITY OF MUD
RMC .OHMM     13.8                 : RMC          - RESISTIVITY OF MUD CAKE
RMF .OHMM     13.8                 : RMF          - RESISTIVITY OF MUD FILTRATE
SUFT.C        4                    : SUFT         - SURFACE TEMPERATURE
~A  DEPTH       GR     PHIN     RESD
   60.000   99.602    0.387  148.000
   60.250   81.046    0.384  218.486
   60.500   69.222    0.389  166.991
   60.750   66.660    0.403  159.711
   61.000   73.301    0.416  113.821
   61.250   89.161    0.415  170.396
   61.500  104.421    0.414  133.932
   61.750   83.393    0.398   92.815
   62.000   75.885    0.394  211.427
   62.250   81.912    0.384  275.189
   62.500   66.415    0.378  274.474
   62.750   58.307    0.369  269.695
   63.000   55.715    0.371  265.429
   63.250   63.600    0.383  169.130
   63.500   72.085    0.400  100.487
   63.750   63.963    0.374  121.954
   64.000   65.673    0.386   74.490
   64.250   60.038    0.406  172.131
   64.500   46.385    0.377  178.986
   64.750   45.652    0.381  178.579
   65.000   46.762    0.399  156.989
   65.250   44.800    0.383  262.859
   65.500   45.910    0.377  209.519
   65.750   56.239    0.407  108.229
   66.000   65.953    0.398   99.255
   66.250   74.439    0.406   92.308
   66.500   68.774    0.408   79.995
   66.750   68.670    0.397  126.692
   67.000   63.591    0.391  151.572
   67.250   67.174    0.388  105.039
   67.500   59.081    0.379  226.249
   67.750   57.119    0.376  163.565
   68.000   71.750    0.391   73.435
   68.250   73.460    0.419  143.417
   68.500   69.669    0.404  217.658
   68.750   65.234    0.394  186.124
   69.000   66.344    0.396  106.037
   69.250   66.825    0.389  167.828
   69.500   67.321    0.399  135.701
   69.750   57.370    0.386  181.579
   70.000   54.793    0.366  220.299
   70.250   71.882    0.382  175.596
   70.500   68.690    0.409  262.963
   70.750   75.946    0.393  145.680
   71.000   85.660    0.397   87.773
   71.250   78.782    0.404   63.414
   71.500   66.972    0.404   72.749
   71.750   60.093    0.426   82.324
   72.000   57.516    0.410  102.713
   72.250   57.368    0.397  133.603
   72.500   62.766    0.388  135.134
   72.750   63.906    0.379  123.970
   73.000   64.387    0.376  118.565
   73.250   56.279    0.372  108.699
   73.500   49.401    0.388   81.952
   73.750   46.209    0.379  122.647
   74.000   46.076    0.370  150.897
   74.250   44.713    0.377  170.703
   74.500   41.522    0.385  187.781
   74.750   38.945    0.387  203.762
   75.000   39.441    0.380  224.074
   75.250   42.395    0.387  239.766
   75.500   44.749    0.379  275.059
   75.750   48.303    0.386  306.740
   76.000   53.101    0.385  310.355
   76.250   50.539    0.385  305.149
   76.500   44.875    0.379  295.861
   76.750   48.429    0.375  303.566
   77.000   47.096    0.387  333.935
   77.250   47.592    0.387  332.851
   77.500   47.458    0.379  346.332
   77.750   47.954    0.386  360.242
   78.000   49.050    0.395  364.488
   78.250   47.687    0.397  358.490
   78.500   48.198    0.392  352.476
   78.750   53.011    0.401  281.042
   79.000   58.423    0.406  120.991
   79.250   69.366    0.410   50.666
   79.500   64.946    0.402   55.735
   79.750   52.522    0.393   76.695
   80.000   43.799    0.382  111.648
   80.250   44.280    0.386  169.444
   80.500   46.635    0.391  243.240
   80.750   47.101    0.388  384.982
   81.000   45.154    0.389  429.463
   81.250   49.322    0.388  440.218
   81.500   55.349    0.390  433.256
   81.750   49.714    0.377  386.368
   82.000   45.893    0.381  321.064
   82.250   39.015    0.373  333.959
   82.500   42.554    0.356  367.368
   82.750   42.465    0.338  404.119
   83.000   39.873    0.361  296.272
   83.250   42.213    0.377  407.821
   83.500   47.011    0.367  487.908
   83.750   43.804    0.371  514.655
   84.000   38.170    0.375  558.275
   84.250   36.193    0.380  605.394
   84.500   37.273    0.369  629.913
   84.750   40.242    0.373  610.741
   85.000   45.040    0.380  608.957
   85.250   39.391    0.380  607.573
   85.500   32.527    0.376  614.335
   85.750   26.862    0.368  638.801
   86.000   24.885    0.364  637.556
   86.250   25.981    0.346  601.092
   86.500   28.965    0.360  574.886
   86.750   34.962    0.352  478.029
   87.000   42.862    0.336  375.732
   87.250   56.878    0.319  140.634
   87.500   82.585    0.301   89.641
   87.750   85.540    0.328   65.697
   88.000   90.323    0.380   41.848
   88.250   87.146    0.413   37.331
   88.500   82.111    0.453   31.032
   88.750   85.050    0.365   31.829
   89.000   99.081    0.372   28.785
   89.250  114.326    0.431   22.303
   89.500  129.586    0.518   19.078
   89.750  117.162    0.535   16.533
   90.000   96.748    0.535   17.940
   90.250   94.786    0.518   18.390
   90.500  104.485    0.476   17.343
   90.750  103.153    0.432   17.069
   91.000  109.179    0.423   17.755
   91.250  118.879    0.420   17.457
   91.500  120.619    0.434   16.931
   91.750  121.729    0.428   17.859
   92.000  112.992    0.379   20.475
   92.250   96.895    0.344   21.916
   92.500   82.013    0.284   24.784
   92.750   68.974    0.291   28.037
   93.000   63.924    0.278   30.842
   93.250   59.503    0.289   33.928
   93.500   54.453    0.310   35.799
   93.750   50.633    0.329   38.281
   94.000   48.071    0.344   39.266
   94.250   46.723    0.328   40.856
   94.500   44.746    0.320   45.576
   94.750   42.184    0.318   53.734
   95.000   42.050    0.318   56.698
   95.250   45.634    0.317   58.975
   95.500   47.329    0.311   60.472
   95.750   42.309    0.290   62.047
   96.000   36.630    0.302   65.448
   96.250   35.911    0.319   71.996
   96.500   32.705    0.325   81.472
   96.750   33.816    0.334   96.117
   97.000   38.614    0.315  114.955
   97.250   36.666    0.319  137.575
   97.500   37.762    0.306  117.643
   97.750   30.883    0.308   97.822
   98.000   22.761    0.317   79.071
   98.250   23.271    0.332   68.545
   98.500   27.440    0.306   66.481
   98.750   29.165    0.281   64.457
   99.000   25.944    0.294   63.417
   99.250   25.240    0.280   60.652
   99.500   24.492    0.279   58.825
   99.750   23.130    0.279   58.654
  100.000   19.938    0.273   58.482
  100.250   17.376    0.239   62.557
  100.500   23.389    0.113   79.202
  100.750   29.430    0.007  103.055
  101.000   47.148    0.014   65.666
  101.250   75.314    0.298   37.938
  101.500  116.385    0.388   27.037
  101.750  154.998    0.438   22.482
  102.000  162.883    0.474   20.611
  102.250  149.230    0.471   20.265
  102.500  148.497    0.454   20.219
  102.750  134.229    0.434   20.167
  103.000  131.637    0.428   20.391
  103.250  132.762    0.424   21.210
  103.500  126.483    0.420   22.366
  103.750  117.761    0.413   22.637
  104.000  112.696    0.380   23.204
  104.250  113.807    0.414   22.829
  104.500  109.386    0.407   21.827
  104.750  111.126    0.415   20.882
  105.000  109.749    0.386   20.821
  105.250  113.932    0.382   21.356
  105.500  119.989    0.379   21.587
  105.750  130.917    0.402   21.239
  106.000  138.802    0.408   20.319
  106.250  135.611    0.416   19.701
  106.500  140.409    0.425   19.370
  106.750  140.290    0.430   19.592
  107.000  132.168    0.423   19.817
  107.250  123.431    0.425   20.044
  107.500  116.552    0.415   20.552
  107.750  128.110    0.416   20.801
  108.000  123.689    0.403   20.747
  108.250  122.342    0.410   20.399
  108.500  110.532    0.415   19.779
  108.750  104.268    0.413   19.453
  109.000   95.516    0.400   19.669
  109.250   88.652    0.394   20.473
  109.500   89.148    0.391   22.521
  109.750  111.767    0.401   23.100
  110.000  128.871    0.415   20.890
  110.250  105.999    0.396   20.248
  110.500   94.804    0.387   21.964
  110.750  106.976    0.398   22.846
  111.000  107.472    0.422   22.779
  111.250  108.568    0.416   23.380
  111.500  106.620    0.408   25.345
  111.750   89.894    0.403   26.743
  112.000   81.172    0.396   28.616
  112.250   72.420    0.390   31.032
  112.500   65.556    0.380   33.194
  112.750   46.371    0.371   37.041
  113.000   43.780    0.370   43.092
  113.250   44.890    0.382   47.403
  113.500   44.157    0.384   47.931
  113.750   40.966    0.387   48.480
  114.000   46.978    0.385   49.035
