~VERSION INFORMATION
 VERS.                 2.0:   CWLS LOG ASCII STANDARD -VERSION 2.0
 WRAP.                  NO:   ONE LINE PER DEPTH STEP
~WELL INFORMATION BLOCK
#MNEM.UNIT           DATA                    DESCRIPTION OF MNEMONIC
#---------    -------------------            -------------------------------
# Generated from Intellog Unique Number	CN_91_93/WELL/1074
WELL.         06-11-091-10W4                 : Well_name    - WELL
LOC .         AA/06-11-091-10W4/0            : Location     - LOCATION
UWI .         AA/06-11-091-10W400            : Uwi          - UNIQUE WELL ID
ENTR.         JOETTE                         : Entered      - ENTERED BY
SRVC.         SCHLUMBERGER                   : Scn          - SERVICE COMPANY
DATE.         01/22/92                       : Date         - LOG DATE
STRT.F        32.808                        : top_depth    - START DEPTH
STOP.F        328.084                        : bot_depth    - STOP DEPTH
STEP.F        0.8202                         : increment    - STEP LENGTH
 NULL. -999.2500:NULL Value
~CURVE INFORMATION BLOCK
#MNEM UNIT       ERCB CURVE CODE    CURVE DESCRIPTION
#-----------   ------------------   ----------------------------------
DEPT.F        00 001 00 00         : DEPTH        - DEPTH
GR  .API      00 310 00 00         : GR           - GAMMA RAY
CALI.IN       00 280 01 00         : CAL          - CALIPER
NPHI.V/V      00 330 00 00         : PHIN         - NEUTRON POROSITY (SANDSTONE)
DPHI.V/V      00 890 00 00         : PHID         - DENSITY POROSITY (SANDSTONE)
ILD .OHMM     00 120 00 00         : RESD         - DEEP RESISTIVITY (DIL)
~PARAMETER INFORMATION
#MNEM.UNIT           DATA             DESCRIPTION OF MNEMONIC
#---------         -----------     ------------------------------
GL  .M        335.82               : gl           - GROUND LEVEL ELEVATION
EREF.M        335.82               : kb           - ELEVATION OF DEPTH REFERENCE
DATM.M        335.82               : datum        - DATUM ELEVATION
TDD .M        107.29               : tdd          - TOTAL DEPTH DRILLER
RUN .         ONE                  : Run          - RUN NUMBER
ENG .         JO                   : Engineer     - RECORDING ENGINEER
WIT .         TIM                  : Witness      - WITNESSED BY
MUD .         GEL                  : Mud_type     - MUD TYPE
MATR.         SANDSTONE            : Logunit      - NEUTRON MATRIX
TMAX.F        42.08                : BHT          - MAXIMUM RECORDED TEMPERATURE
BHTD.F        352.001              : BHTDEP       - MAXIMUM RECORDED TEMPERATURE
RMT .F        64.4                 : MDTP         - TEMPERATURE OF MUD
MUDD.LB/G     9.08333              : MWT          - MUD DENSITY
NEUT.         1                    : NEUTRON      - NEUTRON TYPE
RESI.         0                    : RESIST       - RESISTIVITY TYPE
RM  .OHMM     6.2                  : RM           - RESISTIVITY OF MUD
RMC .OHMM     19.8                 : RMC          - RESISTIVITY OF MUD CAKE
RMF .OHMM     11                   : RMF          - RESISTIVITY OF MUD FILTRATE
SUFT.F        39.2                 : SUFT         - SURFACE TEMPERATURE
~A  DEPTH       GR      CAL     PHIN     PHID     RESD
   32.808   90.258    4.190    0.136    0.124    1.729
   33.629   91.423    4.189    0.149    0.093    1.859
   34.449   98.234    4.181    0.154    0.077    1.978
   35.269   89.601    4.181    0.159    0.041    2.741
   36.089   88.394    4.172    0.215    0.054    2.582
   36.910   87.780    4.172    0.353    0.069    2.361
   37.730   85.385    4.171    0.708    0.074    1.931
   38.550   80.614    4.171    0.548    0.087    1.766
   39.370   93.360    4.170    0.561    0.100    1.750
   40.190   93.934    4.169    0.563    0.125    1.735
   41.011   88.864    4.169    0.547    0.071    1.702
   41.831   95.081    4.169    0.576    0.082    1.671
   42.651   93.278    4.168    0.598    0.099    1.656
   43.471   89.398    4.160    0.620    0.107    1.727
   44.291   83.141    4.159    0.583    0.078    1.696
   45.111   89.058    4.159    0.577    0.121    1.630
   45.932   90.822    4.158    0.501    0.159    1.600
   46.752   95.255    4.204    0.448    0.222    1.619
   47.572  112.751    4.406    0.475    0.197    1.638
   48.392  133.812    4.437    0.584    0.212    1.761
   49.213  123.399    4.382    0.545    0.236    2.011
   50.033  114.769    4.475    0.523    0.261    6.082
   50.853  112.077    4.435    0.487    0.255    6.878
   51.673   98.695    4.396    0.501    0.225    7.102
   52.493   98.378    4.434    0.504    0.168    8.980
   53.314  109.936    4.496    0.572    0.208   12.569
   54.134  116.744    4.535    0.559    0.221   10.919
   54.954  117.615    4.480    0.586    0.236    8.402
   55.774  121.751    4.534    0.592    0.306    5.610
   56.594  133.010    4.580    0.586    0.326    5.076
   57.415  138.337    4.571    0.579    0.316    4.412
   58.235  134.457    4.625    0.573    0.289    5.302
   59.055  131.171    4.531    0.552    0.259    5.419
   59.875  126.104    4.523    0.500    0.242    7.208
   60.696  118.065    4.577    0.462    0.240    7.293
   61.516  113.592    4.608    0.443    0.223    8.504
   62.336  105.556    4.545    0.453    0.211    8.346
   63.156   98.705    4.537    0.485    0.197    8.192
   63.976  103.138    4.559    0.462    0.192    8.286
   64.797  108.462    4.606    0.436    0.209    8.467
   65.617  101.317    4.644    0.501    0.223    8.060
   66.437   85.559    4.511    0.422    0.193    7.296
   67.257   86.727    4.581    0.477    0.193    8.250
   68.077   96.801    4.479    0.624    0.284    8.961
   68.898   90.249    4.400    0.645    0.324    6.965
   69.718   92.901    4.392    0.647    0.356    5.252
   70.538   87.240    4.399    0.675    0.351    3.578
   71.358   89.887    4.422    0.659    0.343    3.620
   72.178   93.138    4.445    0.665    0.316    4.623
   72.999  103.805    4.873    0.638    0.302    3.558
   73.819   96.954    4.615    0.704    0.282    3.749
   74.639  104.060    4.607    0.553    0.255    4.031
   75.459  103.446    4.949    0.534    0.286    4.844
   76.279   93.628    5.221    0.532    0.312    5.002
   77.100   81.428    5.034    0.536    0.326    5.269
   77.920   85.273    4.496    0.515    0.321    5.441
   78.740   90.000    4.425    0.493    0.292    8.339
   79.560   85.530    4.588    0.477    0.262    5.798
   80.381   88.478    4.502    0.509    0.262    5.634
   81.201   94.396    4.540    0.494    0.276    5.641
   82.021  102.095    4.384    0.471    0.261    5.426
   82.841  110.981    4.383    0.446    0.181    6.654
   83.661  110.365    4.391    0.580    0.227    4.769
   84.482  111.832    4.413    0.625    0.282    3.860
   85.302  116.859    4.483    0.605    0.281    3.713
   86.122  115.651    4.405    0.610    0.273    3.795
   86.942  110.581    4.622    0.555    0.277    3.838
   87.763  114.421    4.411    0.597    0.290    3.925
   88.583  109.651    4.442    0.664    0.301    3.890
   89.403  101.909    4.371    0.551    0.287    3.629
   90.223  110.798    4.355    0.568    0.271    3.633
   91.043  108.700    4.394    0.597    0.269    3.677
   91.864  106.304    4.370    0.577    0.264    3.682
   92.684  106.282    4.377    0.575    0.259    3.652
   93.504  105.965    4.392    0.570    0.256    3.656
   94.324  102.085    4.446    0.510    0.262    3.662
   95.144  109.188    4.555    0.519    0.264    3.819
   95.965  113.623    4.445    0.553    0.258    4.452
   96.785  121.320    4.452    0.586    0.268    4.239
   97.605  112.099    4.452    0.537    0.254    4.118
   98.425  109.704    4.420    0.510    0.235    4.082
   99.245  101.665    4.326    0.503    0.230    3.886
  100.066   98.973    4.372    0.507    0.246    4.136
  100.886   87.669    4.520    0.497    0.253    3.594
  101.706   87.948    4.324    0.443    0.202    3.673
  102.526   90.004    4.316    0.499    0.122    4.459
  103.346   92.656    4.308    0.475    0.152    8.288
  104.167   86.698    4.323    0.439    0.210    6.508
  104.987   82.225    4.283    0.431    0.227    5.773
  105.807   80.423    4.212    0.419    0.241    5.607
  106.627   80.104    4.165    0.430    0.222    5.730
  107.448   75.630    4.172    0.413    0.212    6.223
  108.268   85.702    4.211    0.423    0.204    5.866
  109.088   90.731    4.319    0.411    0.203    9.269
  109.908   88.630    4.303    0.389    0.168    9.189
  110.728   90.988    4.178    0.444    0.183    8.148
  111.549   93.937    4.154    0.431    0.238    5.224
  112.369  100.745    4.138    0.438    0.246    7.614
  113.189  120.322    4.122    0.444    0.251    6.959
  114.009  127.427    4.137    0.451    0.233    6.762
  114.829  135.719    4.167    0.448    0.209    6.307
  115.650  110.462    4.331    0.463    0.198    5.426
  116.470  103.908    4.205    0.496    0.204    5.716
  117.290  104.184    4.174    0.456    0.212    5.901
  118.110  103.274    4.173    0.473    0.226    5.792
  118.930  103.550    4.173    0.473    0.221    6.164
  119.751  101.452    4.172    0.462    0.229    5.928
  120.571  108.260    4.179    0.453    0.226    6.120
  121.391  113.881    4.179    0.524    0.237    6.006
  122.211  107.921    4.209    0.491    0.243    6.392
  123.031  102.554    4.295    0.500    0.249    5.611
  123.852   95.115    4.341    0.494    0.254    5.621
  124.672   82.031    4.340    0.494    0.251    7.476
  125.492   68.649    4.324    0.494    0.249    7.876
  126.312   41.016    4.285    0.500    0.254    6.439
  127.133   28.824    4.401    0.490    0.249    7.358
  127.953   20.189    4.479    0.391    0.271   14.534
  128.773   23.734    4.579    0.375    0.299   78.310
  129.593   32.917    4.641    0.351    0.287  195.305
  130.413   21.616    4.687    0.362    0.286  355.710
  131.234   19.218    4.772    0.377    0.286  356.303
  132.054   20.086    5.091    0.385    0.306  464.311
  132.874   23.334    5.177    0.421    0.313  465.000
  133.694   28.658    4.950    0.447    0.329  340.147
  134.514   33.979    4.879    0.465    0.345  115.144
  135.335   36.337    4.933    0.477    0.339   73.074
  136.155   32.752    4.894    0.464    0.332  168.054
  136.975   29.169    4.847    0.484    0.315  164.926
  137.795   33.605    4.823    0.484    0.321  149.226
  138.615   32.694    4.822    0.472    0.309  368.414
  139.436   27.921    4.814    0.460    0.296  283.501
  140.256   32.057    4.759    0.436    0.303  251.365
  141.076   37.977    4.696    0.396    0.313  249.200
  141.896   38.252    4.641    0.401    0.261  189.830
  142.717   35.854    4.609    0.416    0.264   30.352
  143.537   36.133    4.593    0.394    0.273   36.112
  144.357   34.629    4.577    0.392    0.267  113.701
  145.177   28.077    4.561    0.403    0.266   40.910
  145.997   23.599    4.552    0.424    0.270   72.265
  146.818   21.500    4.528    0.413    0.286  264.936
  147.638   26.827    4.512    0.364    0.281  345.439
  148.458   29.776    4.473    0.373    0.297  338.947
  149.278   30.349    4.433    0.401    0.305  346.336
  150.098   34.486    4.409    0.372    0.293  479.792
  150.919   37.432    4.401    0.374    0.308  456.764
  151.739   36.523    4.416    0.389    0.322  320.790
