~VERSION INFORMATION
 VERS.                 2.0:   CWLS LOG ASCII STANDARD -VERSION 2.0
 WRAP.                  NO:   ONE LINE PER DEPTH STEP
~WELL INFORMATION BLOCK
#MNEM.UNIT           DATA                    DESCRIPTION OF MNEMONIC
#---------    -------------------            -------------------------------
# Generated from Intellog Unique Number	CC_88_90/WELL/3017
WELL.         WESTERN HEMISPHERE PETROLEM CO : Well_name    - WELL
LOC .         WESTERN HEMISPHERE PETROLEM CO : Location     - LOCATION
UWI .         AA/02-07-088-10W400            : Uwi          - UNIQUE WELL ID
ENTR.         JOETTE                         : Entered      - ENTERED BY
SRVC.         SCHLUMBERGER                   : Scn          - SERVICE COMPANY
DATE.         03/06/92                       : Date         - LOG DATE
STRT.M        30.480                         : top_depth    - START DEPTH
STOP.M        131.480                        : bot_depth    - STOP DEPTH
STEP.M        0.25                           : increment    - STEP LENGTH
 NULL. -999.2500:NULL Value
~CURVE INFORMATION BLOCK
#MNEM UNIT       ERCB CURVE CODE    CURVE DESCRIPTION
#-----------   ------------------   ----------------------------------
DEPT.M        00 001 00 00         : DEPTH        - DEPTH
GR  .API      00 310 00 00         : GR           - GAMMA RAY
NPHI.V/V      00 330 00 00         : PHIN         - NEUTRON POROSITY (SANDSTONE)
ILD .OHMM     00 120 00 00         : RESD         - DEEP RESISTIVITY (DIL)
~PARAMETER INFORMATION
#MNEM.UNIT           DATA             DESCRIPTION OF MNEMONIC
#---------         -----------     ------------------------------
GL  .M        401.117              : gl           - GROUND LEVEL ELEVATION
EREF.M        401.117              : kb           - ELEVATION OF DEPTH REFERENCE
DATM.M        401.117              : datum        - DATUM ELEVATION
TDD .M        139.294              : tdd          - TOTAL DEPTH DRILLER
RUN .         ONE                  : Run          - RUN NUMBER
ENG .         JO                   : Engineer     - RECORDING ENGINEER
WIT .         TIM                  : Witness      - WITNESSED BY
MUD .         GEL                  : Mud_type     - MUD TYPE
MATR.         SANDSTONE            : Logunit      - NEUTRON MATRIX
TMAX.C        10.5556              : BHT          - MAXIMUM RECORDED TEMPERATURE
BHTD.M        139.294              : BHTDEP       - MAXIMUM RECORDED TEMPERATURE
RMT .C        10.5556              : MDTP         - TEMPERATURE OF MUD
MUDD.KG/M     1090                 : MWT          - MUD DENSITY
NEUT.         1                    : NEUTRON      - NEUTRON TYPE
RESI.         0                    : RESIST       - RESISTIVITY TYPE
RM  .OHMM     7                    : RM           - RESISTIVITY OF MUD
RMC .OHMM     7                    : RMC          - RESISTIVITY OF MUD CAKE
RMF .OHMM     7                    : RMF          - RESISTIVITY OF MUD FILTRATE
SUFT.C        4                    : SUFT         - SURFACE TEMPERATURE
~A  DEPTH       GR     PHIN     RESD
# ...
   84.730   84.881    0.541   14.485
   84.980   82.425    0.552   14.659
   85.230   80.585    0.568   15.010
   85.480   91.650    0.562   16.073
   85.730  115.622    0.539   16.247
   85.980  122.385    0.529   16.598
   86.230  116.857    0.532   16.950
   86.480  121.162    0.537   16.411
   86.730  121.780    0.551   14.448
   86.980  121.783    0.559   14.621
   87.230  108.880    0.559   15.150
   87.480   92.905    0.549   17.282
   87.730   83.075    0.521   21.192
   87.980  100.286    0.517   22.789
   88.230  124.257    0.482   22.251
   88.480  124.875    0.469   21.178
   88.730  116.889    0.467   22.063
   88.980  111.361    0.453   23.481
   89.230   97.229    0.442   22.410
   89.480   84.940    0.464   20.982
   89.730   64.663    0.479   21.156
   89.980   41.313    0.438   24.354
   90.230   43.774    0.404   44.989
   90.480   40.705    0.358   43.205
   90.730   33.333    0.308   46.937
   90.980   35.179    0.295   40.705
   91.230   59.151    0.343   36.429
   91.480   99.101    0.372   33.045
   91.730  105.250    0.413   30.905
   91.980  108.326    0.428   32.502
   92.230   84.361    0.445   38.725
   92.480   68.385    0.375   97.971
   92.730   48.722    0.282   99.210
   92.980   46.267    0.128   98.849
   93.230   60.406    0.079   97.600
   93.480   65.940    0.055   95.817
   93.730   57.953    0.054   90.831
   93.980   45.050    0.070   72.499
   94.230   45.668    0.111   52.744
   94.480   51.203    0.210   39.573
   94.730   58.581    0.378   29.249
   94.980   58.584    0.477   21.770
   95.230   54.900    0.523   21.766
   95.480   57.975    0.526   22.473
   95.730   63.510    0.513   28.874
   95.980   61.669    0.490   34.385
   96.230   61.673    0.456   39.897
   96.480   55.530    0.426   47.363
   96.730   62.908    0.404   46.471
   96.980   75.817    0.354   48.246
   97.230   83.809    0.319   53.045
   97.480   83.198    0.307   58.378
   97.730   78.284    0.274   66.558
   97.980   67.840    0.210   65.308
   98.230   57.396    0.196   63.169
   98.480   47.566    0.202   63.164
   98.730   35.892    0.196   65.294
   98.980   32.823    0.196   70.094
   99.230   35.284    0.196   74.893
   99.480   38.360    0.193   83.252
   99.730   37.134    0.190   86.095
   99.980   40.210    0.186   85.022
  100.230   46.359    0.192   83.416
  100.480   38.987    0.164   83.767
  100.730   43.907    0.145   92.125
  100.980   48.826    0.128   94.612
  101.230   48.830    0.109   78.771
  101.480   46.989    0.097   65.245
  101.730   46.377    0.199   68.799
  101.980   46.381    0.253   63.989
  102.230   42.697    0.295   75.017
  102.480   48.231    0.326   83.731
  102.730   48.849    0.332   85.506
  102.980   36.560    0.333   87.459
  103.230   29.189    0.327   91.723
  103.480   25.505    0.321   96.345
  103.730   21.820    0.321   95.984
  103.980   31.042    0.314   58.615
  104.230   48.867    0.362   30.320
  104.480   44.568    0.404   29.248
  104.730   42.728    0.455   30.486
  104.980   45.190    0.467   30.306
  105.230   47.651    0.467   31.369
  105.480   71.622    0.464   31.898
  105.730   87.604    0.461   30.826
  105.980   92.523    0.460   29.577
  106.230   94.370    0.460   31.350
  106.480   77.780    0.468   31.346
  106.730   71.638    0.479   31.518
  106.980   86.391    0.476   32.581
  107.230   96.841    0.464   33.290
  107.480   96.230    0.473   31.861
  107.730   95.618    0.477   30.434
  107.980   82.716    0.480   31.495
  108.230   72.272    0.478   30.245
  108.480   64.285    0.471   31.843
  108.730   64.903    0.458   35.218
  108.980   82.728    0.433   34.325
  109.230   82.117    0.424   38.057
  109.480   75.360    0.417   41.256
  109.730   75.363    0.410   48.902
  109.980   77.210    0.417   51.032
  110.230   71.068    0.436   48.893
  110.480   69.227    0.442   46.219
  110.730   66.772    0.430   45.681
  110.980   63.702    0.411   50.301
  111.230   46.498    0.391   53.321
  111.480   45.886    0.401   54.030
  111.730   55.722    0.417   55.270
  111.980   73.548    0.437   54.555
  112.230   83.999    0.449   52.413
  112.480   79.700    0.444   49.385
  112.730   66.797    0.418   48.312
  112.980   48.978    0.415   47.419
  113.230   71.105    0.424   46.347
  113.480   95.691    0.441   44.740
  113.730  123.964    0.449   43.490
  113.980  115.978    0.447   42.241
  114.230  115.981    0.446   40.991
  114.480  124.588    0.440   39.385
  114.730  120.904    0.435   37.600
  114.980   92.637    0.444   35.816
  115.230   76.047    0.453   36.345
  115.480   47.780    0.416   38.655
  115.730   63.762    0.425   40.963
  115.980  106.785    0.444   39.002
  116.230  104.330    0.428   35.970
  116.480  106.176    0.397   34.898
  116.730   93.888    0.389   34.004
  116.980   61.934    0.386   33.465
  117.230   44.115    0.386   33.285
  117.480   65.014    0.399   32.923
  117.730   74.235    0.448   32.563
  117.980   83.457    0.461   31.847
  118.230  113.573    0.442   31.487
  118.480   96.984    0.428   31.482
  118.730   55.196    0.450   31.300
  118.980   39.221    0.469   30.582
  119.230   52.744    0.489   30.223
  119.480   66.882    0.476   29.149
  119.730   77.948    0.463   28.613
  119.980   87.169    0.477   27.717
  120.230   83.485    0.487   27.358
  120.480   75.499    0.483   26.819
  120.730   73.044    0.482   26.815
  120.980   77.349    0.480   26.453
  121.230   74.894    0.483   25.737
  121.480   76.126    0.486   24.843
  121.730   67.525    0.483   24.127
  121.980   63.841    0.480   23.411
  122.230   65.688    0.496   22.873
  122.480   59.545    0.508   22.866
  122.730   54.632    0.500   23.041
  122.980   60.781    0.483   23.394
  123.230   63.242    0.454   23.565
  123.480   58.944    0.448   23.916
  123.730   62.020    0.423   23.913
  123.980   70.627    0.421   24.265
  124.230   73.703    0.440   26.039
  124.480   74.935    0.440   34.930
  124.730   74.324    0.437   34.215
  124.980   71.869    0.433   33.143
  125.230   63.883    0.424   43.102
  125.480   63.885    0.420   39.539
  125.730   66.347    0.437   35.620
  125.980   67.579    0.458   34.370
  126.230   76.187    0.469   34.010
  126.480   71.887    0.465   45.036
  126.730   69.432    0.455   48.768
  126.980   66.362    0.437   50.721
  127.230   66.980    0.421   57.478
  127.480   68.213    0.433   55.872
  127.730   65.757    0.452   46.614
  127.980   67.605    0.473   37.358
  128.230   76.212    0.471   34.863
  128.480   74.371    0.462   48.914
  128.730   70.072    0.431   44.995
  128.980   72.534    0.419   44.457
  129.230   71.308    0.418   48.545
  129.480   67.623    0.431   52.811
  129.730   65.168    0.456   53.161
  129.980   74.390    0.457   43.015
  130.230   71.935    0.453   34.292
  130.480   59.032    0.448   26.459
  130.730   39.369    0.422   28.233
  130.980   20.320    0.419   35.880
  131.230   21.553    0.418   40.679
  131.480   25.243    0.424   42.632
