~VERSION INFORMATION
 VERS.                 2.0:   CWLS LOG ASCII STANDARD -VERSION 2.0
 WRAP.                  NO:   ONE LINE PER DEPTH STEP
~WELL INFORMATION BLOCK
#MNEM.UNIT           DATA                    DESCRIPTION OF MNEMONIC
#---------    -------------------            -------------------------------
# Generated from Intellog Unique Number	CN_94_101/WELL/3240
WELL.         07-25-096-09W4                 : Well_name    - WELL
LOC .         AA/07-25-096-09W4/0            : Location     - LOCATION
UWI .         AA/07-25-096-09W400            : Uwi          - UNIQUE WELL ID
ENTR.         JOETTE                         : Entered      - ENTERED BY
SRVC.         SCHLUMBERGER                   : Scn          - SERVICE COMPANY
DATE.         07\20\92                       : Date         - LOG DATE
STRT.M        0                              : top_depth    - START DEPTH
STOP.M        100                            : bot_depth    - STOP DEPTH
STEP.M        0.25                           : increment    - STEP LENGTH
 NULL. -999.2500:NULL Value
~CURVE INFORMATION BLOCK
#MNEM UNIT       ERCB CURVE CODE    CURVE DESCRIPTION
#-----------   ------------------   ----------------------------------
DEPT.M        00 001 00 00         : DEPTH        - DEPTH
GR  .API      00 310 00 00         : GR           - GAMMA RAY
RHOB.KG/M3    00 350 00 00         : DENS         - BULK DENSITY
NPHI.V/V      00 330 00 00         : PHIN         - NEUTRON POROSITY (SANDSTONE)
ILD .OHMM     00 120 00 00         : RESD         - DEEP RESISTIVITY (DIL)
DPHI.V/V      00 890 00 00         : PHID         - DENSITY POROSITY (SANDSTONE)
~PARAMETER INFORMATION
#MNEM.UNIT           DATA             DESCRIPTION OF MNEMONIC
#---------         -----------     ------------------------------
GL  .M        288.69               : gl           - GROUND LEVEL ELEVATION
EREF.M        288.69               : kb           - ELEVATION OF DEPTH REFERENCE
DATM.M        288.69               : datum        - DATUM ELEVATION
TDD .M        107.8                : tdd          - TOTAL DEPTH DRILLER
RUN .         ONE                  : Run          - RUN NUMBER
ENG .         JO                   : Engineer     - RECORDING ENGINEER
WIT .         TIM                  : Witness      - WITNESSED BY
MUD .         GEL                  : Mud_type     - MUD TYPE
MATR.         SANDSTONE            : Logunit      - NEUTRON MATRIX
TMAX.C        5                    : BHT          - MAXIMUM RECORDED TEMPERATURE
BHTD.M        107.8                : BHTDEP       - MAXIMUM RECORDED TEMPERATURE
RMT .C        5                    : MDTP         - TEMPERATURE OF MUD
MUDD.KG/M     1000                 : MWT          - MUD DENSITY
NEUT.         1                    : NEUTRON      - NEUTRON TYPE
RESI.         0                    : RESIST       - RESISTIVITY TYPE
RM  .OHMM     5                    : RM           - RESISTIVITY OF MUD
RMC .OHMM     5                    : RMC          - RESISTIVITY OF MUD CAKE
RMF .OHMM     5                    : RMF          - RESISTIVITY OF MUD FILTRATE
SUFT.C        4                    : SUFT         - SURFACE TEMPERATURE
~A  DEPTH       GR     DENS     PHIN     RESD     PHID
# ...
   36.500   23.090 2109.680    0.464   35.176    0.327
   36.750   21.741 2144.450    0.463   38.083    0.306
   37.000   22.801 2161.020    0.460   41.868    0.296
   37.250   22.902 2203.880    0.454   45.342    0.270
   37.500   17.744 2171.910    0.453   46.862    0.290
   37.750   19.270 2188.480    0.444   45.605    0.280
   38.000   17.454 2215.160    0.440   42.300    0.264
   38.250   19.965 2219.640    0.440   33.678    0.261
   38.500   21.971 2220.020    0.442   33.765    0.261
   38.750   22.072 2307.480    0.443   40.111    0.208
   39.000   17.860 2279.500    0.442   37.793    0.225
   39.250   19.399 2172.650    0.434   26.609    0.289
   39.500   21.897 2185.120    0.441   23.957    0.282
   39.750   22.490 2197.690    0.447   30.254    0.274
   40.000   17.786 2212.240    0.449   30.322    0.265
   40.250   16.449 2166.060    0.445   27.309    0.293
   40.500   16.576 2184.750    0.447   29.115    0.282
   40.750   17.610 2193.170    0.449   35.644    0.277
   41.000   17.232 2167.320    0.450   41.670    0.293
   41.250   16.388 2163.660    0.448   48.005    0.295
   41.500   18.406 2176.130    0.445   51.955    0.287
   41.750   16.603 2186.630    0.447   52.912    0.281
   42.000   15.733 2160.780    0.451   44.769    0.296
   42.250   15.355 2149.030    0.450   32.505    0.304
   42.500   19.783 2212.070    0.449   39.794    0.265
   42.750   24.185 2178.170    0.444   51.049    0.286
   43.000   20.944 2237.210    0.438   60.605    0.250
   43.250   18.661 2188.960    0.442   58.005    0.279
   43.500   18.737 2163.050    0.448   51.460    0.295
   43.750   18.851 2177.600    0.449   49.252    0.286
   44.000   18.953 2145.630    0.448   46.435    0.306
   44.250   20.504 2150.060    0.442   41.182    0.303
   44.500   21.564 2148.420    0.436   28.544    0.304
   44.750   24.541 2148.810    0.432   22.032    0.304
   45.000   28.957 2288.850    0.424   16.746    0.219
   45.250   28.566 2331.710    0.421   11.973    0.193
   45.500   31.556 2348.320    0.431   12.004    0.183
   45.750   19.662 2455.950    0.456   16.618    0.118
   46.000   17.379 2215.520    0.479   24.850    0.263
   46.250   16.030 2258.420    0.461   36.595    0.237
   46.500   15.652 2262.860    0.451   43.446    0.235
   46.750   14.340 2350.260    0.443   47.764    0.182
   47.000   14.908 2285.880    0.443   43.669    0.221
   47.250   17.406 2241.820    0.442   43.795    0.247
   47.500   15.111 2219.910    0.438   45.264    0.261
   47.750   15.212 2238.500    0.442   42.037    0.249
   48.000   15.780 2257.090    0.453   38.433    0.238
   48.250   13.977 2202.870    0.460   36.784    0.271
   48.500   15.037 2172.920    0.457   29.287    0.289
   48.750   15.617 2153.080    0.452   53.498    0.301
   49.000   15.706 2220.210    0.453   82.472    0.260
   49.250   14.861 2212.510    0.446  123.290    0.265
   49.500   14.004 2158.290    0.442  173.491    0.298
   49.750   13.626 2215.360    0.437  179.307    0.263
   50.000   13.740 2165.130    0.445  156.549    0.294
   50.250   14.308 2127.050    0.452  111.895    0.317
   50.500   14.409 2119.390    0.454   74.063    0.322
   50.750   15.961 2133.990    0.455   49.797    0.313
   51.000   17.967 2140.340    0.458   12.324    0.309
   51.250   31.035 2108.370    0.462    6.379    0.328
   51.500   39.751 2066.290    0.459    6.018    0.354
   51.750   68.170 2256.880    0.465    7.140    0.238
   52.000   66.821 2510.230    0.470   12.644    0.085
   52.250   52.063 2417.530    0.470   23.447    0.141
   52.500   39.677 2191.260    0.462   39.649    0.278
   52.750   21.565 2126.920    0.456   33.057    0.317
   53.000   12.546 2119.220    0.456   12.013    0.322
   53.250   16.028 2111.520    0.452    4.170    0.326
   53.500   20.431 2156.450    0.450    5.955    0.299
   53.750   26.284 2215.490    0.454    6.159    0.263
   54.000   27.848 2416.200    0.476    5.986    0.142
   54.250   30.334 2244.580    0.478    5.226    0.246
   54.500   30.914 2202.490    0.486    5.836    0.271
   54.750   34.863 2059.190    0.481    4.236    0.358
   55.000   42.141 2045.420    0.481    3.994    0.366
   55.250   54.238 2337.290    0.495    4.965    0.190
   55.500   83.123 2331.560    0.498    4.830    0.193
   55.750   69.791 2370.370    0.477    4.482    0.169
   56.000   60.293 2334.350    0.456    4.162    0.191
   56.250   74.307 2421.810    0.461    4.648    0.138
   56.500   59.071 2361.420    0.459    4.588    0.175
   56.750   55.325 2325.400    0.449    4.260    0.197
   57.000   54.468 2350.060    0.448    4.541    0.182
   57.250   43.065 2231.070    0.458    4.841    0.254
   57.500   44.125 2207.190    0.449    4.710    0.268
   57.750   50.950 2298.640    0.441    4.438    0.213
   58.000   61.116 2412.330    0.450    4.518    0.144
   58.250   58.355 2410.700    0.467    4.328    0.145
   58.500   56.539 2330.140    0.466    4.271    0.194
   58.750   57.106 2271.870    0.459    3.847    0.229
   59.000   70.641 2245.970    0.477    3.570    0.245
   59.250   79.850 2254.450    0.512    3.214    0.240
   59.500   96.739 2177.930    0.527    3.534    0.286
   59.750   93.485 2255.220    0.533    3.653    0.239
   60.000   87.848 2330.490    0.520    3.554    0.194
   60.250   88.428 2377.390    0.511    3.454    0.165
   60.500   87.571 2345.420    0.530    3.518    0.185
   60.750   85.742 2279.020    0.544    3.366    0.225
   61.000   83.447 2129.690    0.555    3.173    0.315
   61.250   90.763 1945.890    0.559    3.182    0.427
   61.500   95.645 1954.420    0.559    3.245    0.422
   61.750   95.267 1902.170    0.559    3.403    0.453
   62.000   95.848 2082.660    0.558    3.799    0.344
   62.250   87.309 2014.280    0.557    3.473    0.385
   62.500   77.345 1796.090    0.555    3.536    0.518
   62.750   89.933 1747.890    0.555    3.284    0.547
   63.000   90.981 1896.020    0.551    3.291    0.457
   63.250   95.408 2090.710    0.548    3.351    0.339
   63.500   96.935 1965.610    0.539    3.465    0.415
   63.750   99.458 2123.840    0.533    3.473    0.319
   64.000   98.109 2274.040    0.531    3.429    0.228
   64.250   90.049 2304.720    0.532    3.439    0.209
   64.500   86.808 2292.970    0.532    3.722    0.216
   64.750   89.306 2289.310    0.525    4.556    0.219
   65.000   82.205 2320.080    0.514    5.169    0.200
   65.250   72.240 2460.070    0.468    5.103    0.115
   65.500   75.218 2484.780    0.455    4.663    0.100
   65.750   78.195 2503.370    0.471    4.010    0.089
   66.000   72.078 2479.480    0.503    4.022    0.103
   66.250   68.799 2388.810    0.492    4.700    0.158
   66.500   36.294 2356.890    0.457    5.014    0.178
   66.750   25.851 2361.320    0.427    4.949    0.175
   67.000   26.898 2333.300    0.430    4.960    0.192
   67.250   31.326 2204.250    0.450    4.137    0.270
   67.500   44.847 2182.340    0.476    3.557    0.283
   67.750  101.079 2152.390    0.540    3.565    0.302
   68.000   98.304 2140.590    0.545    3.744    0.309
   68.250   96.955 2203.720    0.545    3.810    0.270
   68.500  105.217 2256.740    0.542    3.821    0.238
   68.750  109.632 2265.220    0.540    3.771    0.233
   69.000  111.651 2210.950    0.535    3.723    0.266
   69.250  101.207 2142.580    0.531    3.851    0.308
   69.500  109.457 2138.920    0.528    4.170    0.310
   69.750  111.009 2169.640    0.528    4.117    0.291
   70.000  115.424 2234.800    0.534    3.940    0.252
   70.250  124.153 2320.180    0.535    4.266    0.200
   70.500  115.627 2332.750    0.531    4.989    0.192
   70.750  103.732 2333.090    0.525    5.399    0.192
   71.000   93.302 2380.040    0.520    5.417    0.164
   71.250   92.911 2382.450    0.517    5.515    0.162
   71.500   99.723 2445.580    0.517    5.446    0.124
   71.750  107.039 2468.220    0.520    5.132    0.110
   72.000  119.123 2470.680    0.525    4.622    0.109
   72.250  118.758 2442.700    0.527    4.426    0.126
   72.500  116.929 2426.910    0.520    4.647    0.135
   72.750  102.651 2407.020    0.503    5.186    0.147
