~VERSION INFORMATION
 VERS.                 2.0:   CWLS LOG ASCII STANDARD -VERSION 2.0
 WRAP.                  NO:   ONE LINE PER DEPTH STEP
~WELL INFORMATION BLOCK
#MNEM.UNIT           DATA                    DESCRIPTION OF MNEMONIC
#---------    -------------------            -------------------------------
# Generated from Intellog Unique Number	CX_WELLS/WELL/3751
WELL.         AMOCO GREGOIRE                 : Well_name    - WELL
LOC .         AA/01-18-086-08W4/0            : Location     - LOCATION
UWI .         AA/01-18-086-08W400            : Uwi          - UNIQUE WELL ID
ENTR.         T                              : Entered      - ENTERED BY
SRVC.         SCHLUMBERGER                   : Scn          - SERVICE COMPANY
STRT.F        200                            : top_depth    - START DEPTH
STOP.F        861.909                        : bot_depth    - STOP DEPTH
STEP.F        0.82                           : increment    - STEP LENGTH
 NULL. -999.2500:NULL Value
~CURVE INFORMATION BLOCK
#MNEM UNIT       ERCB CURVE CODE    CURVE DESCRIPTION
#-----------   ------------------   ----------------------------------
DEPT.F        00 001 00 00         : DEPTH        - DEPTH
GR  .API      00 310 00 00         : GR           - GAMMA RAY
DPHI.V/V      00 890 00 00         : PHID         - DENSITY POROSITY (SANDSTONE)
ILD .OHMM     00 120 00 00         : RESD         - DEEP RESISTIVITY (DIL)
~PARAMETER INFORMATION
#MNEM.UNIT           DATA             DESCRIPTION OF MNEMONIC
#---------         -----------     ------------------------------
GL  .F        1610                 : gl           - GROUND LEVEL ELEVATION
EREF.F        1615.5               : kb           - ELEVATION OF DEPTH REFERENCE
DATM.F        1615.5               : datum        - DATUM ELEVATION
TDD .F        870                  : tdd          - TOTAL DEPTH DRILLER
RUN .         ONE                  : Run          - RUN NUMBER
ENG .         BILL                 : Engineer     - RECORDING ENGINEER
WIT .         JIM                  : Witness      - WITNESSED BY
MUD .         GEL                  : Mud_type     - MUD TYPE
MATR.         SANDSTONE            : Logunit      - NEUTRON MATRIX
TMAX.F        70                   : BHT          - MAXIMUM RECORDED TEMPERATURE
BHTD.F        870                  : BHTDEP       - MAXIMUM RECORDED TEMPERATURE
MATR.         1                    : LOGUNIT      - NEUTRON MATRIX
RMT .F        68                   : MDTP         - TEMPERATURE OF MUD
NEUT.         1                    : NEUTRON      - NEUTRON TYPE
RESI.         3.5                  : RESIST       - RESISTIVITY TYPE
RMC .OHMM     2.3                  : RMC          - RESISTIVITY OF MUD CAKE
RMF .OHMM     4.5                  : RMF          - RESISTIVITY OF MUD FILTRATE
SUFT.F        39.2                 : SUFT         - SURFACE TEMPERATURE
~A  DEPTH       GR     PHID     RESD
# ...
  555.971   97.418    0.336    6.639
  556.791   98.011    0.340    6.266
  557.612   98.035    0.344    6.072
  558.432   98.084    0.350    5.888
  559.252   98.132    0.356    5.716
  560.072   98.193    0.362    5.727
  560.892   99.270    0.358    5.761
  561.713   99.863    0.350    5.772
  562.533   99.391    0.346    6.006
  563.353   97.347    0.344    6.029
  564.173   94.276    0.345    6.051
  564.993   91.192    0.352    6.073
  565.814   86.559    0.356    6.101
  566.634   83.500    0.348    6.113
  567.454   82.000    0.341    5.735
  568.274   82.025    0.342    5.334
  569.094   83.138    0.343    4.961
  569.915   84.202    0.348    4.978
  570.735   87.904    0.351    4.789
  571.555   92.125    0.363    4.817
  572.375   93.722    0.378    4.845
  573.196   94.823    0.388    4.862
  574.016   95.391    0.390    5.090
  574.836   97.000    0.387    5.107
  575.656   97.037    0.382    5.336
  576.476   96.578    0.379    5.564
  577.297   95.054    0.375    6.004
  578.117   91.994    0.370    6.444
  578.937   89.950    0.364    6.872
  579.757   85.838    0.350    7.318
  580.577   83.807    0.340    7.535
  581.398   83.347    0.329    8.181
  582.218   82.368    0.323    8.197
  583.038   81.872    0.320    8.637
  583.858   80.881    0.318    8.660
  584.678   80.409    0.313    8.682
  585.499   80.458    0.305    8.304
  586.319   81.051    0.299    7.903
  587.139   81.100    0.303    7.113
  587.959   82.188    0.315    6.713
  588.780   84.825    0.320    5.923
  589.600   89.034    0.313    5.528
  590.420   93.256    0.301    5.139
  591.240   95.905    0.290    4.744
  592.060   96.474    0.276    4.360
  592.881   97.055    0.272    3.976
  593.701   97.611    0.275    3.993
  594.521   98.192    0.276    3.804
  595.341   98.253    0.279    3.832
  596.161   97.757    0.280    3.643
  596.982   94.685    0.281    3.671
  597.802   89.013    0.281    3.688
  598.622   84.901    0.283    3.710
  599.442   81.297    0.290    3.738
  600.262   77.717    0.295    3.761
  601.083   76.726    0.291    3.789
  601.903   76.266    0.287    3.800
  602.723   76.823    0.283    3.834
  603.543   77.416    0.279    3.850
  604.364   77.960    0.286    3.878
  605.184   79.569    0.289    3.901
  606.004   82.751    0.285    3.923
  606.824   85.387    0.285    3.740
  607.644   87.008    0.291    3.768
  608.465   84.965    0.296    3.579
  609.285   82.425    0.299    3.596
  610.105   82.461    0.300    3.629
  610.925   80.962    0.302    3.435
  611.745   79.450    0.308    3.457
  612.566   80.539    0.332    3.479
  613.386   85.269    0.342    3.513
  614.206   88.958    0.363    3.530
  615.026   89.031    0.372    3.358
  615.846   89.055    0.387    3.380
  616.667   89.624    0.388    3.397
  617.487   89.697    0.388    3.414
  618.307   89.721    0.388    3.236
  619.127   88.754    0.387    3.253
  619.948   88.778    0.385    3.281
  620.768   88.307    0.383    3.309
  621.588   85.767    0.382    3.320
  622.408   83.215    0.381    3.348
  623.228   82.224    0.378    3.376
  624.049   82.793    0.373    3.399
  624.869   84.401    0.365    3.421
  625.689   85.502    0.361    3.438
  626.509   88.164    0.364    3.666
  627.329   89.240    0.364    3.694
  628.150   89.301    0.362    3.711
  628.970   88.285    0.358    3.956
  629.790   87.318    0.352    3.973
  630.610   87.862    0.349    4.196
  631.430   86.871    0.342    4.224
  632.251   82.251    0.337    4.447
  633.071   77.607    0.329    4.469
  633.891   75.575    0.321    4.703
  634.711   75.624    0.312    4.720
  635.531   77.233    0.318    4.965
  636.352   77.801    0.326    4.976
  637.172   76.302    0.335    5.416
  637.992   75.310    0.342    5.633
  638.812   74.307    0.337    6.067
  639.633   73.339    0.332    7.125
  640.453   72.844    0.323    7.771
  641.273   72.372    0.314    7.999
  642.093   73.461    0.312    7.810
  642.913   76.642    0.312    7.432
  643.734   78.783    0.312    7.237
  644.554   80.912    0.312    6.853
  645.374   82.521    0.315    7.087
  646.194   84.638    0.317    7.304
  647.014   86.767    0.319    7.744
  647.835   87.348    0.320    7.761
  648.655   88.437    0.320    7.578
  649.475   91.086    0.321    7.405
  650.295   95.815    0.321    7.422
  651.115  100.557    0.322    7.244
  651.936  103.714    0.323    7.066
  652.756  107.935    0.324    7.078
  653.576  113.704    0.323    7.306
  654.396  115.833    0.324    7.534
  655.217  116.402    0.325    8.392
  656.037  117.503    0.326    8.820
  656.857  117.540    0.327    9.666
  657.677  114.988    0.327   11.130
  658.497  110.356    0.325   13.829
  659.318  100.535    0.322   13.440
  660.138   96.931    0.317   12.644
  660.958   88.126    0.304   12.255
  661.778   85.054    0.291   15.571
  662.598   79.382    0.273   18.270
  663.419   71.641    0.273   18.710
  664.239   75.319    0.286   18.315
  665.059   76.407    0.295   17.932
  665.879   74.376    0.299   19.189
  666.699   71.824    0.307   21.477
  667.520   69.817    0.311   23.146
  668.340   69.321    0.316   28.322
  669.160   68.329    0.321   28.350
  669.980   67.338    0.325   26.931
  670.801   68.451    0.326   25.712
  671.621   66.915    0.325   24.088
  672.441   63.843    0.324   22.257
  673.261   60.783    0.322   20.426
  674.081   59.272    0.318   19.002
  674.902   60.881    0.313   17.789
  675.722   62.998    0.311   17.811
  676.542   67.219    0.307   18.663
  677.362   71.960    0.303   19.927
  678.182   74.597    0.300   19.326
  679.003   75.686    0.304   18.936
  679.823   74.695    0.309   18.553
  680.643   73.703    0.309   19.198
  681.463   70.656    0.306   19.621
  682.283   69.640    0.300   20.261
  683.104   71.781    0.297   19.878
  683.924   74.938    0.298   19.282
  684.744   77.623    0.300   18.687
  685.564   76.608    0.302   17.892
  686.385   75.096    0.303   17.491
  687.205   73.064    0.306   16.484
  688.025   72.073    0.307   15.477
  688.845   73.682    0.308   14.470
  689.665   75.811    0.308   14.081
  690.486   78.472    0.307   14.726
  691.306   79.548    0.306   15.778
  692.126   81.689    0.305   17.042
  692.946   82.258    0.304   18.088
  693.766   80.734    0.302   19.557
  694.587   77.687    0.301   22.050
  695.407   76.683    0.300   23.720
  696.227   74.132    0.302   24.154
  697.047   72.620    0.305   23.971
  697.867   71.616    0.307   23.381
  698.688   69.064    0.309   22.986
  699.508   64.952    0.312   22.185
  700.328   60.333    0.314   21.384
  701.148   57.261    0.319   20.594
  701.969   58.870    0.321   20.193
  702.789   59.426    0.322   19.186
  703.609   60.527    0.318   18.185
  704.429   61.084    0.309   17.378
  705.249   63.733    0.309   15.965
  706.070   66.394    0.312   15.570
  706.890   69.599    0.318   14.975
  707.710   70.652    0.323   14.185
  708.530   74.353    0.324   14.001
  709.350   78.042    0.323   13.606
  710.171   82.784    0.321   13.623
  710.991   84.381    0.321   13.445
  711.811   84.441    0.321   13.473
  712.631   84.998    0.322   13.485
  713.451   85.071    0.322   13.518
  714.272   85.615    0.321   13.741
  715.092   86.208    0.321   13.741
  715.912   87.297    0.321   15.450
  716.732   87.321    0.321   15.467
  717.552   86.342    0.319   15.684
  718.373   85.363    0.317   16.541
  719.193   84.867    0.312   17.387
  720.013   84.420    0.310   18.645
  720.833   83.416    0.308   19.691
  721.654   81.892    0.308   22.184
  722.474   78.820    0.308   25.306
  723.294   74.721    0.306   25.329
  724.114   72.157    0.307   25.963
  724.934   68.045    0.308   31.962
  725.755   64.453    0.311   60.627
  726.575   60.341    0.314   61.679
  727.395   55.189    0.316   61.907
  728.215   53.157    0.319   60.694
  729.035   49.057    0.327   58.657
  729.856   45.973    0.331   57.244
  730.676   43.929    0.335   56.643
  731.496   39.297    0.337   57.907
  732.316   35.197    0.336   59.571
  733.136   33.154    0.334   62.281
