~VERSION INFORMATION
 VERS.                 2.0:   CWLS LOG ASCII STANDARD -VERSION 2.0
 WRAP.                  NO:   ONE LINE PER DEPTH STEP
~WELL INFORMATION BLOCK
#MNEM.UNIT           DATA                    DESCRIPTION OF MNEMONIC
#---------    -------------------            -------------------------------
# Generated from Intellog Unique Number	CW_76_78/WELL/2567
WELL.         06-06-078-25W4                 : Well_name    - WELL
LOC .         AA/06-06-078-25W4/0            : Location     - LOCATION
UWI .         AA/06-06-078-25W4/0            : Uwi          - UNIQUE WELL ID
ENTR.         MAX                            : Entered      - ENTERED BY
SRVC.         SCHLUMBERGER                   : Scn          - SERVICE COMPANY
STRT.M        350                            : top_depth    - START DEPTH
STOP.M        590                            : bot_depth    - STOP DEPTH
STEP.M        0.25                           : increment    - STEP LENGTH
 NULL. -999.2500:NULL Value
~CURVE INFORMATION BLOCK
#MNEM UNIT       ERCB CURVE CODE    CURVE DESCRIPTION
#-----------   ------------------   ----------------------------------
DEPT.M        00 001 00 00         : DEPTH        - DEPTH
ILD .OHMM     00 120 00 00         : RESD         - DEEP RESISTIVITY (DIL)
NPHI.V/V      00 330 00 00         : PHIN         - NEUTRON POROSITY (SANDSTONE)
DPHI.V/V      00 890 00 00         : PHID         - DENSITY POROSITY (SANDSTONE)
CALI.MM       00 280 01 00         : CAL          - CALIPER
GR  .API      00 310 00 00         : GR           - GAMMA RAY
~PARAMETER INFORMATION
#MNEM.UNIT           DATA             DESCRIPTION OF MNEMONIC
#---------         -----------     ------------------------------
GL  .M        645.28               : gl           - GROUND LEVEL ELEVATION
EREF.M        650.03               : kb           - ELEVATION OF DEPTH REFERENCE
DATM.M        645.28               : datum        - DATUM ELEVATION
TDD .M        594                  : tdd          - TOTAL DEPTH DRILLER
RUN .         ONE                  : Run          - RUN NUMBER
ENG .         BILL                 : Engineer     - RECORDING ENGINEER
WIT .         JIM                  : Witness      - WITNESSED BY
MUD .         GEL                  : Mud_type     - MUD TYPE
MATR.         SANDSTONE            : Logunit      - NEUTRON MATRIX
TMAX.C        34.4                 : BHT          - MAXIMUM RECORDED TEMPERATURE
BHTD.M        594                  : BHTDEP       - MAXIMUM RECORDED TEMPERATURE
RMT .C        18                   : MDTP         - TEMPERATURE OF MUD
MUDD.KG/M     8.5                  : MWT          - MUD DENSITY
NEUT.         1                    : NEUTRON      - NEUTRON TYPE
RESI.         0                    : RESIST       - RESISTIVITY TYPE
RM  .OHMM     6.56                 : RM           - RESISTIVITY OF MUD
RMC .OHMM     0.25                 : RMC          - RESISTIVITY OF MUD CAKE
RMF .OHMM     5.94                 : RMF          - RESISTIVITY OF MUD FILTRATE
SUFT.C        -20                  : SUFT         - SURFACE TEMPERATURE
~A  DEPTH     RESD     PHIN     PHID      CAL       GR
# ...
  459.500   12.478    0.402    0.171  222.633   80.529
  459.750   12.615    0.402    0.182  222.698   82.342
  460.000   12.627    0.399    0.178  222.772   82.677
  460.250   12.642    0.390    0.151  222.837   80.938
  460.500   12.540    0.378    0.125  223.388   80.389
  460.750   12.209    0.385    0.114  223.956   83.106
  461.000   11.888    0.405    0.158  223.535   84.025
  461.250   11.467    0.416    0.173  221.616   82.582
  461.500   11.273    0.427    0.173  221.698   81.435
  461.750   11.288    0.425    0.180  223.245   82.077
  462.000   11.288    0.419    0.159  223.302   82.996
  462.250   11.205    0.415    0.160  222.865   83.628
  462.500   11.117    0.425    0.151  223.433   82.783
  462.750   10.923    0.423    0.157  224.981   81.932
  463.000   10.735    0.422    0.185  224.058   80.781
  463.250   10.752    0.420    0.173  222.155   79.342
  463.500   10.762    0.415    0.194  221.223   78.492
  463.750   10.777    0.404    0.185  219.806   78.526
  464.000   10.889    0.407    0.189  220.852   81.239
  464.250   11.107    0.417    0.172  220.942   80.097
  464.500   11.435    0.408    0.170  219.516   77.463
  464.750   11.342    0.401    0.169  219.079   75.728
  465.000   11.253    0.395    0.170  219.153   76.059
  465.250   11.162    0.399    0.167  220.206   76.400
  465.500   11.072    0.411    0.159  221.260   78.213
  465.750   11.084    0.430    0.165  221.317   80.327
  466.000   10.997    0.440    0.177  220.896   78.296
  466.250   11.009    0.442    0.180  220.459   76.265
  466.500   11.229    0.428    0.177  218.548   74.515
  466.750   11.561    0.410    0.173  213.178   71.293
  467.000   12.241    0.414    0.172  210.773   71.930
  467.250   13.081    0.413    0.197  211.834   69.593
  467.500   14.106    0.406    0.199  212.880   65.190
  467.750   16.092    0.335    0.177  210.483   62.560
  468.000   17.519    0.344    0.145  210.540   63.484
  468.250   18.202    0.388    0.177  212.606   66.192
  468.500   18.569    0.394    0.202  213.660   70.095
  468.750   17.747    0.388    0.190  213.717   71.320
  469.000   16.960    0.387    0.161  213.782   71.651
  469.250   16.821    0.373    0.156  215.322   69.911
  469.500   17.163    0.357    0.154  216.383   67.875
  469.750   18.001    0.344    0.148  215.954   68.803
  470.000   18.359    0.346    0.140  216.012   70.918
  470.250   18.211    0.378    0.140  216.085   73.042
  470.500   17.733    0.380    0.157  216.150   74.569
  470.750   16.788    0.380    0.160  216.224   74.899
  471.000   15.605    0.382    0.175  216.289   75.527
  471.250   15.194    0.395    0.184  215.852   77.058
  471.500   14.794    0.398    0.197  215.934   76.791
  471.750   14.672    0.402    0.167  215.983   76.534
  472.000   14.421    0.413    0.161  216.048   77.171
  472.250   14.175    0.410    0.167  216.624   78.396
  472.500   13.926    0.397    0.169  216.673   80.520
  472.750   13.685    0.404    0.151  216.738   82.625
  473.000   13.327    0.406    0.146  217.314   84.151
  473.250   13.099    0.406    0.153  218.375   83.004
  473.500   13.113    0.402    0.161  218.935   82.451
  473.750   13.253    0.391    0.162  218.992   82.188
  474.000   13.024    0.380    0.157  219.543   81.931
  474.250   12.798    0.389    0.148  219.609   81.387
  474.500   12.815    0.390    0.172  219.674   81.120
  474.750   12.831    0.387    0.174  218.257   80.280
  475.000   12.555    0.376    0.158  220.055   78.453
  475.250   12.555    0.385    0.152  219.070   78.468
  475.500   12.586    0.388    0.156  217.592   74.863
  475.750   12.593    0.397    0.173  217.619   72.768
  476.000   12.965    0.400    0.196  217.643   73.086
  476.250   12.855    0.401    0.194  218.180   72.802
  476.500   12.630    0.396    0.178  218.204   73.726
  476.750   12.411    0.393    0.171  216.719   76.458
  477.000   12.194    0.412    0.175  217.759   78.886
  477.250   11.868    0.436    0.172  219.804   81.919
  477.500   11.662    0.479    0.242  220.827   85.860
  477.750   11.781    0.477    0.229  228.404   90.402
  478.000   12.241    0.452    0.204  215.856   91.323
  478.250   12.836    0.418    0.151  213.369   86.210
  478.500   13.845    0.414    0.165  212.893   80.492
  478.750   14.514    0.399    0.181  212.414   74.176
  479.000   15.798    0.388    0.167  210.936   73.889
  479.250   16.719    0.374    0.152  210.464   72.095
  479.500   18.373    0.365    0.128  210.484   70.607
  479.750   18.563    0.351    0.144  211.517   71.830
  480.000   18.236    0.367    0.163  212.557   74.258
  480.250   17.261    0.380    0.169  212.078   77.895
  480.500   15.892    0.387    0.176  214.116   80.625
  480.750   15.762    0.395    0.174  215.153   78.529
  481.000   16.374    0.372    0.149  215.180   73.718
  481.250   20.680    0.317    0.091  214.704   68.909
  481.500   26.860    0.274    0.073  215.234   64.701
  481.750   32.383    0.270    0.111  214.762   61.099
  482.000   39.045    0.273    0.094  214.280   59.602
  482.250   42.102    0.313    0.097  213.807   58.112
  482.500   46.676    0.308    0.100  213.838   56.014
  482.750   56.280    0.283    0.101  214.364   52.716
  483.000   67.231    0.265    0.092  214.898   51.221
  483.250   69.838    0.255    0.069  214.922   50.634
  483.500   71.901    0.247    0.058  214.949   50.347
  483.750   71.988    0.252    0.069  215.985   50.665
  484.000   71.373    0.289    0.082  216.515   51.588
  484.250   69.477    0.305    0.108  216.539   53.719
  484.500   65.161    0.295    0.095  216.573   55.851
  484.750   57.796    0.256    0.042  217.096   57.068
  485.000   49.848    0.261    0.051  218.136   59.800
  485.250   39.540    0.299    0.067  219.162   64.042
  485.500   28.055    0.349    0.127  219.696   69.488
  485.750   23.534    0.387    0.162  219.726   74.335
  486.000   21.467    0.397    0.181  219.747   76.160
  486.250   20.899    0.403    0.174  219.271   77.689
  486.500   20.721    0.402    0.176  218.799   77.098
  486.750   19.803    0.397    0.180  218.836   75.608
  487.000   18.744    0.377    0.178  218.853   77.434
  487.250   17.580    0.375    0.167  219.383   79.563
  487.500   17.595    0.396    0.170  219.414   78.672
  487.750   18.113    0.403    0.151  219.437   74.768
  488.000   18.817    0.367    0.126  218.965   74.782
  488.250   19.189    0.319    0.103  218.989   74.197
  488.500   18.858    0.322    0.129  218.520   74.215
  488.750   18.187    0.360    0.157  218.038   77.549
  489.000   17.373    0.393    0.163  218.065   79.979
  489.250   16.296    0.401    0.124  218.095   78.184
  489.500   16.009    0.379    0.099  218.126   76.091
  489.750   15.730    0.353    0.068  218.153   77.010
  490.000   15.457    0.347    0.098  217.674   80.346
  490.250   15.046    0.416    0.153  217.701   82.174
  490.500   14.785    0.414    0.132  217.226   79.475
  490.750   14.394    0.387    0.135  217.253   77.983
  491.000   14.142    0.387    0.149  217.280   80.417
  491.250   14.023    0.409    0.163  216.804   80.731
  491.500   14.037    0.404    0.163  216.835   79.842
  491.750   14.052    0.400    0.158  216.363   78.651
  492.000   14.062    0.403    0.164  216.893   79.579
  492.250   13.945    0.404    0.168  218.928   79.891
  492.500   13.959    0.406    0.150  218.955   78.099
  492.750   13.974    0.404    0.137  218.479   78.115
  493.000   13.988    0.392    0.122  218.007   79.035
  493.250   14.003    0.407    0.144  217.029   78.148
  493.500   14.015    0.391    0.153  217.555   77.257
  493.750   14.292    0.387    0.137  218.588   78.784
  494.000   14.441    0.394    0.140  219.118   80.309
  494.250   14.728    0.393    0.143  220.155   81.834
  494.500   14.743    0.382    0.124  220.182   82.755
  494.750   14.759    0.374    0.133  220.209   84.886
  495.000   14.365    0.386    0.160  220.236   86.712
  495.250   13.983    0.390    0.176  219.757   86.727
  495.500   13.610    0.387    0.154  219.288   85.536
  495.750   13.127    0.386    0.158  219.315   83.744
