~VERSION INFORMATION
 VERS.                 2.0:   CWLS LOG ASCII STANDARD -VERSION 2.0
 WRAP.                  NO:   ONE LINE PER DEPTH STEP
~WELL INFORMATION BLOCK
#MNEM.UNIT           DATA                    DESCRIPTION OF MNEMONIC
#---------    -------------------            -------------------------------
# Generated from Intellog Unique Number	CN_94_101/WELL/3480
WELL.         08-31-095-10W4                 : Well_name    - WELL
LOC .         AA/08-31-095-10W4/0            : Location     - LOCATION
UWI .         AA/08-31-095-10W400            : Uwi          - UNIQUE WELL ID
ENTR.         JOETTE                         : Entered      - ENTERED BY
SRVC.         SCHLUMBERGER                   : Scn          - SERVICE COMPANY
DATE.         07/29/92                       : Date         - LOG DATE
STRT.M        0                              : top_depth    - START DEPTH
STOP.M        84.25                          : bot_depth    - STOP DEPTH
STEP.M        0.25                           : increment    - STEP LENGTH
 NULL. -999.2500:NULL Value
~CURVE INFORMATION BLOCK
#MNEM UNIT       ERCB CURVE CODE    CURVE DESCRIPTION
#-----------   ------------------   ----------------------------------
DEPT.M        00 001 00 00         : DEPTH        - DEPTH
GR  .API      00 310 00 00         : GR           - GAMMA RAY
RHOB.KG/M3    00 350 00 00         : DENS         - BULK DENSITY
ILD .OHMM     00 120 00 00         : RESD         - DEEP RESISTIVITY (DIL)
NPHI.V/V      00 330 00 00         : PHIN         - NEUTRON POROSITY (SANDSTONE)
~PARAMETER INFORMATION
#MNEM.UNIT           DATA             DESCRIPTION OF MNEMONIC
#---------         -----------     ------------------------------
GL  .M        290.4                : gl           - GROUND LEVEL ELEVATION
EREF.M        290.4                : kb           - ELEVATION OF DEPTH REFERENCE
DATM.M        290.4                : datum        - DATUM ELEVATION
TDD .M        84.3                 : tdd          - TOTAL DEPTH DRILLER
RUN .         ONE                  : Run          - RUN NUMBER
ENG .         JO                   : Engineer     - RECORDING ENGINEER
WIT .         TIM                  : Witness      - WITNESSED BY
MUD .         GEL                  : Mud_type     - MUD TYPE
MATR.         SANDSTONE            : Logunit      - NEUTRON MATRIX
TMAX.C        63                   : BHT          - MAXIMUM RECORDED TEMPERATURE
BHTD.M        84.3                 : BHTDEP       - MAXIMUM RECORDED TEMPERATURE
RMT .C        63                   : MDTP         - TEMPERATURE OF MUD
MUDD.KG/M     1080                 : MWT          - MUD DENSITY
NEUT.         1                    : NEUTRON      - NEUTRON TYPE
RESI.         0                    : RESIST       - RESISTIVITY TYPE
RM  .OHMM     2.53                 : RM           - RESISTIVITY OF MUD
RMC .OHMM     2.53                 : RMC          - RESISTIVITY OF MUD CAKE
RMF .OHMM     2.53                 : RMF          - RESISTIVITY OF MUD FILTRATE
SUFT.C        4                    : SUFT         - SURFACE TEMPERATURE
~A  DEPTH       GR     DENS     RESD     PHIN
# ...
   43.500   14.484 2251.380  388.265    0.370
   43.750   15.072 2215.490  387.575    0.354
   44.000   16.324 2230.600  387.300    0.348
   44.250   15.636 2225.340  386.750    0.370
   44.500   15.586 2291.420  390.653    0.387
   44.750   14.861 2301.440  390.099    0.390
   45.000   15.461 2270.650  389.545    0.388
   45.250   16.075 2278.120  388.853    0.372
   45.500   16.676 2306.020  393.057    0.366
   45.750   15.325 2318.590  392.359    0.349
   46.000   15.262 2244.480  391.802    0.364
   46.250   18.467 2188.240  391.245    0.347
   46.500   21.033 2190.620  386.237    0.335
   46.750   19.681 2297.470  385.552    0.368
   47.000   15.701 2338.080  385.141    0.365
   47.250   17.616 2299.680  389.028    0.364
   47.500   16.265 2307.110  388.613    0.359
   47.750   14.250 2281.500  392.535    0.353
   48.000   15.502 2245.560  391.978    0.353
   48.250   18.719 2314.280  382.278    0.365
   48.500   18.669 2362.480  355.606    0.351
   48.750   19.270 2390.300  350.929    0.331
   49.000   49.810 2346.850  367.393    0.546
   49.250   67.997 2560.820  375.646    0.638
   49.500   86.171 2280.250  353.590    0.639
   49.750  104.358 2387.150   49.563    0.638
   50.000  125.787 2374.200   35.120    0.637
   50.250  139.405 2371.480   19.874    0.631
   50.500  130.894 2363.660   12.220    0.615
   50.750  135.400 2327.810   10.097    0.581
   51.000  143.812 2253.700    8.959    0.562
   51.250  152.874 2263.680    8.533    0.519
   51.500  145.664 2209.990    8.119    0.457
   51.750  133.236 2156.300    8.406    0.422
   52.000  113.009 2092.380    9.563    0.398
   52.250   94.723 2474.580   12.532    0.381
   52.500   78.389 2326.570   10.988    0.348
   52.750   67.925 2257.550   14.576    0.311
   53.000   58.764 2257.380   19.791    0.314
   53.250   78.890 2081.330   34.060    0.332
   53.500   91.207 2190.740   67.522    0.335
   53.750   80.092 2236.480   62.073    0.324
   54.000   64.409 2177.610   78.511    0.407
   54.250   50.691 2195.270   86.204    0.447
   54.500   70.818 2223.180   93.472    0.444
   54.750   59.704 2205.170   90.121    0.431
   55.000   45.973 2189.700  125.288    0.427
   55.250   38.752 2199.680  122.188    0.420
   55.500   40.667 2202.060  102.158    0.419
   55.750   52.983 2212.120  169.688    0.426
   56.000   54.874 2196.620  184.060    0.444
   56.250   36.600 2198.950  113.179    0.447
   56.500   32.620 2191.140  113.018    0.431
   56.750   31.931 2229.230  124.048    0.426
   57.000   31.869 2213.770  126.789    0.431
   57.250   31.844 2188.070   49.740    0.440
   57.500   30.455 2190.490   65.981    0.424
   57.750   27.827 2195.420   88.565    0.444
   58.000   27.777 2177.360  140.268    0.444
   58.250   36.188 2189.930  167.234    0.448
   58.500   32.221 2194.860  211.596    0.447
   58.750   25.024 2138.630  283.920    0.429
   59.000   24.962 2135.910  322.874    0.419
   59.250   30.770 2135.650  286.480    0.409
   59.500   30.057 2140.570  269.659    0.414
   59.750   27.416 2150.640  321.501    0.414
   60.000   24.112 2152.970  344.635    0.409
   60.250   24.062 2147.750  192.800    0.402
   60.500   25.965 2173.060  159.301    0.400
   60.750   31.122 2177.940  203.955    0.405
   61.000   27.166 2180.360  257.966    0.412
   61.250   32.324 2198.020  213.220    0.425
   61.500   32.925 2164.720  152.881    0.440
   61.750   20.496 2095.660  156.315    0.423
   62.000   26.304 2103.180  217.391    0.426
   62.250   32.099 2159.070  235.803    0.429
   62.500   30.748 2135.960  268.156    0.423
   62.750   29.396 2166.370  201.578    0.418
   63.000   27.381 2206.970  315.504    0.422
   63.250   24.728 2196.610  293.491    0.424
   63.500   22.075 2168.400  273.013    0.412
   63.750   24.641 2150.350  337.246    0.400
   64.000   27.194 2170.570  313.716    0.407
   64.250   22.576 2178.040  224.937    0.407
   64.500   24.466 2162.530  274.595    0.407
   64.750   25.743 2136.920  294.249    0.407
   65.000   25.042 2192.810  308.163    0.405
   65.250   24.955 2202.830  273.427    0.401
   65.500   28.172 2187.290  289.555    0.398
   65.750   26.833 2182.100  220.329    0.425
   66.000   25.469 2148.720  275.402    0.431
   66.250   26.721 2171.530  291.854    0.426
   66.500   26.671 2171.350  312.743    0.413
   66.750   28.586 2171.180  312.299    0.410
   67.000   24.619 2178.610  294.067    0.408
   67.250   16.108 2180.950  257.763    0.415
   67.500   16.696 2191.010  326.139    0.418
   67.750   21.866 2203.620  357.968    0.418
   68.000   29.626 2177.970  282.116    0.412
   68.250   23.068 2177.800  227.735    0.418
   68.500   23.018 2177.580  246.936    0.435
   68.750   22.292 2159.530  267.946    0.427
   69.000   20.953 2144.070  287.225    0.423
   69.250   19.589 2161.780  226.363    0.412
   69.500   20.841 2143.770  286.410    0.418
   69.750   19.502 2169.080  260.111    0.426
   70.000   19.452 2168.910  275.650    0.452
   70.250   40.881 2155.950   93.808    0.420
   70.500   42.783 2183.810   77.510    0.415
   70.750   29.053 2155.610   99.236    0.406
   71.000   30.305 2127.400  127.008    0.403
   71.250   37.427 2162.910  151.478    0.399
   71.500   77.092 2211.150  115.222    0.390
   71.750   60.107 2259.400  151.048    0.395
   72.000   46.389 2231.200  259.858    0.403
   72.250   30.694 2205.540  320.882    0.402
   72.500   30.006 2184.980  291.522    0.406
   72.750   24.086 2192.460  274.503    0.406
   73.000   40.971 2217.720  237.787    0.413
   73.250   50.684 2225.200  201.242    0.413
   73.500   38.918 2235.220  147.744    0.408
   73.750   30.395 2209.520  169.951    0.441
   74.000   23.173 2222.130  169.710    0.423
   74.250   25.076 2229.610  171.484    0.421
   74.500   27.630 2214.100  179.593    0.417
   74.750   26.290 2196.140  199.463    0.418
   75.000   28.831 2203.610  199.180    0.421
   75.250   24.877 2226.330  170.572    0.460
   75.500   20.922 2162.450  160.557    0.425
   75.750   21.523 2141.850  182.521    0.409
   76.000   22.123 2157.010  193.287    0.414
   76.250   25.303 2189.970  193.150    0.411
   76.500   26.580 2222.920  157.716    0.407
   76.750   34.991 2319.580   31.525    0.414
   77.000   36.243 2281.190   56.860    0.413
   77.250   21.862 2201.980  134.680    0.409
   77.500   25.054 2219.600  132.862    0.412
   77.750   26.969 2214.330  122.140    0.508
   78.000   23.665 2232.040  108.372    0.513
   78.250   26.206 2221.630   97.265    0.495
   78.500   29.423 2201.120  133.679    0.491
   78.750   50.201 2313.110  135.076    0.463
   79.000   79.452 2557.570   83.059    0.455
   79.250   91.118 2537.060    5.027    0.437
   79.500   96.926 2513.950   11.489    0.424
   79.750  102.083 2610.620   17.550    0.443
   80.000   87.063 2641.020   19.972    0.440
   80.250   85.061 2498.110   16.117    0.470
   80.500   83.046 2653.420   14.132    0.465
   80.750   70.629 2760.280   13.946    0.449
   81.000   92.709 2704.040   14.944    0.454
   81.250   86.801 2525.450   11.238    0.427
   81.500   83.485 2548.210   19.333    0.525
   81.750   88.654 2616.840   18.415    0.513
   82.000   95.764 2558.020   18.388    0.499
   82.250   40.366 2583.370   15.934    0.491
   82.500   26.648 2585.750   16.682    0.481
   82.750  102.774 2572.790   12.247    0.473
   83.000  102.724 2615.990   11.804    0.463
   83.250  102.724 2518.940   12.649    0.453
   83.500   99.983 2513.670   12.048    0.446
   83.750   99.959 2610.330    3.434    0.145
   84.000   99.909 2617.800   11.459    0.128
   84.250   99.195 2561.570   11.044    0.093
