~VERSION INFORMATION
 VERS.                 2.0:   CWLS LOG ASCII STANDARD -VERSION 2.0
 WRAP.                  NO:   ONE LINE PER DEPTH STEP
~WELL INFORMATION BLOCK
#MNEM.UNIT           DATA                    DESCRIPTION OF MNEMONIC
#---------    -------------------            -------------------------------
# Generated from Intellog Unique Number	CS_77_79/WELL/925
WELL.         PEX PCEJ ALGAR OV              : Well_name    - WELL
LOC .         AA/09-11-079-15W4/0            : Location     - LOCATION
UWI .         AA/09-11-079-15W4/0            : Uwi          - UNIQUE WELL ID
ENTR.         JHS                            : Entered      - ENTERED BY
SRVC.         SCHLUMBERGER                   : Scn          - SERVICE COMPANY
STRT.M        225                            : top_depth    - START DEPTH
STOP.M        455                            : bot_depth    - STOP DEPTH
STEP.M        0.25                           : increment    - STEP LENGTH
 NULL. -999.2500:NULL Value
~CURVE INFORMATION BLOCK
#MNEM UNIT       ERCB CURVE CODE    CURVE DESCRIPTION
#-----------   ------------------   ----------------------------------
DEPT.M        00 001 00 00         : DEPTH        - DEPTH
DPHI.V/V      00 890 00 00         : PHID         - DENSITY POROSITY (LIMESTONE)
NPHI.V/V      00 330 00 00         : PHIN         - NEUTRON POROSITY (LIMESTONE)
GR  .API      00 310 00 00         : GR           - GAMMA RAY
ILD .OHMM     00 120 00 00         : RESD         - DEEP RESISTIVITY (DIL)
RHOB.KG/M3    00 350 00 00         : DENS         - BULK DENSITY
~PARAMETER INFORMATION
#MNEM.UNIT           DATA             DESCRIPTION OF MNEMONIC
#---------         -----------     ------------------------------
GL  .M        633.71               : gl           - GROUND LEVEL ELEVATION
EREF.M        637.08               : kb           - ELEVATION OF DEPTH REFERENCE
DATM.M        637.08               : datum        - DATUM ELEVATION
TDD .M        454                  : tdd          - TOTAL DEPTH DRILLER
RUN .         ONE                  : Run          - RUN NUMBER
ENG .         BILL                 : Engineer     - RECORDING ENGINEER
WIT .         JIM                  : Witness      - WITNESSED BY
MUD .         GEL                  : Mud_type     - MUD TYPE
MATR.         LIMESTONE            : Logunit      - NEUTRON MATRIX
TMAX.C        20                   : BHT          - MAXIMUM RECORDED TEMPERATURE
BHTD.M        454                  : BHTDEP       - MAXIMUM RECORDED TEMPERATURE
MATR.         1                    : LOGUNIT      - NEUTRON MATRIX
RMT .C        25                   : MDTP         - TEMPERATURE OF MUD
NEUT.         1                    : NEUTRON      - NEUTRON TYPE
RESI.         0                    : RESIST       - RESISTIVITY TYPE
RMC .OHMM     0.25                 : RMC          - RESISTIVITY OF MUD CAKE
RMF .OHMM     0.25                 : RMF          - RESISTIVITY OF MUD FILTRATE
SUFT.C        15                   : SUFT         - SURFACE TEMPERATURE
~A  DEPTH     PHID     PHIN       GR     RESD     DENS
# ...
  371.000    0.331    0.359   64.463    9.485    0.000
  371.250    0.316    0.342   61.356   10.043    0.000
  371.500    0.290    0.322   57.011   10.632    0.000
  371.750    0.097    0.290   52.665   12.141    0.000
  372.000    0.036    0.223   47.078   13.603    0.000
  372.250    0.054    0.264   46.451   14.676    0.000
  372.500    0.086    0.317   53.882   14.684    0.000
  372.750    0.152    0.385   58.834   13.624    0.000
  373.000    0.304    0.406   61.926   12.402    0.000
  373.250    0.312    0.415   66.875   10.670    0.000
  373.500    0.317    0.412   70.588    8.839    0.000
  373.750    0.318    0.394   73.061    8.517    0.000
  374.000    0.320    0.399   69.953    8.682    0.000
  374.250    0.312    0.422   68.087    9.022    0.000
  374.500    0.305    0.434   70.558    9.197    0.000
  374.750    0.309    0.431   67.452    9.738    0.000
  375.000    0.306    0.422   71.782    9.927    0.000
  375.250    0.309    0.433   71.157   10.315    0.000
  375.500    0.296    0.430   71.769   10.922    0.000
  375.750    0.296    0.428   73.621   10.926    0.000
  376.000    0.304    0.416   66.176   11.140    0.000
  376.250    0.328    0.414   66.788   11.360    0.000
  376.500    0.332    0.422   70.499   11.153    0.000
  376.750    0.319    0.422   74.212   11.156    0.000
  377.000    0.311    0.416   64.906   10.749    0.000
  377.250    0.311    0.422   59.320   10.355    0.000
  377.500    0.303    0.431   59.314    9.977    0.000
  377.750    0.300    0.424   64.885    9.612    0.000
  378.000    0.307    0.411   71.075    9.088    0.000
  378.250    0.300    0.419   64.869    8.922    0.000
  378.500    0.296    0.424   65.481    8.595    0.000
  378.750    0.309    0.431   67.955    8.439    0.000
  379.000    0.301    0.436   67.327    8.286    0.000
  379.250    0.299    0.417   66.699    8.290    0.000
  379.500    0.288    0.417   62.354    8.296    0.000
  379.750    0.278    0.410   66.685    8.299    0.000
  380.000    0.282    0.409   68.537    8.147    0.000
  380.250    0.314    0.416   73.489    8.153    0.000
  380.500    0.305    0.424   74.102    8.155    0.000
  380.750    0.306    0.440   78.433    8.160    0.000
  381.000    0.315    0.457   82.764    8.163    0.000
  381.250    0.298    0.451   71.600    8.323    0.000
  381.500    0.282    0.439   69.731    8.171    0.000
  381.750    0.261    0.427   64.147    8.332    0.000
  382.000    0.240    0.408   57.942    8.336    0.000
  382.250    0.224    0.397   63.513    8.338    0.000
  382.500    0.260    0.400   66.603    8.344    0.000
  382.750    0.284    0.415   69.696    8.191    0.000
  383.000    0.295    0.403   72.169    8.196    0.000
  383.250    0.288    0.400   74.019    8.046    0.000
  383.500    0.299    0.393   76.492    8.049    0.000
  383.750    0.298    0.409   77.724    8.056    0.000
  384.000    0.277    0.407   69.659    8.058    0.000
  384.250    0.265    0.408   69.652    8.063    0.000
  384.500    0.292    0.410   67.165    8.066    0.000
  384.750    0.298    0.420   71.497    8.071    0.000
  385.000    0.287    0.415   76.445    7.924    0.000
  385.250    0.291    0.437   78.300    7.927    0.000
  385.500    0.276    0.444   81.391    7.783    0.000
  385.750    0.276    0.445   84.483    7.641    0.000
  386.000    0.265    0.456   83.237    7.502    0.000
  386.250    0.275    0.444   86.949    7.364    0.000
  386.500    0.265    0.442   81.363    7.230    0.000
  386.750    0.263    0.456   90.650    6.836    0.000
  387.000    0.249    0.465   93.741    6.463    0.000
  387.250    0.236    0.447   96.215    5.666    0.000
  387.500    0.226    0.441   99.306    5.257    0.000
  387.750    0.235    0.423  103.019    5.461    0.000
  388.000    0.230    0.408  109.209    6.120    0.000
  388.250    0.241    0.401   97.426    6.856    0.000
  388.500    0.218    0.402   89.980    8.131 2337.460
  388.750    0.187    0.387   79.437    8.607 2390.220
  389.000    0.206    0.389   78.810    9.113 2358.530
  389.250    0.187    0.409   77.562    8.949 2390.180
  389.500    0.197    0.425   86.232    8.784 2373.270
  389.750    0.224    0.425   92.422    8.625 2326.800
  390.000    0.222    0.411   89.317    8.468 2331.010
  390.250    0.198    0.430   80.013    8.799 2371.100
  390.500    0.183    0.448   86.821    8.970 2396.410
  390.750    0.204    0.432   86.815    9.147 2360.500
  391.000    0.204    0.445   89.288    9.325 2360.480
  391.250    0.193    0.428   83.082    9.506 2379.460
  391.500    0.206    0.420   88.651    9.511 2358.330
  391.750    0.223    0.413   89.265    9.341 2328.760
  392.000    0.217    0.403   89.879    9.343 2339.290
  392.250    0.204    0.390   93.590    9.346 2360.380
  392.500    0.208    0.380   91.103    9.352 2354.030
  392.750    0.209    0.375   96.055    9.717 2351.900
  393.000    0.206    0.383   94.808    9.905 2358.210
  393.250    0.211    0.395   98.519   10.101 2349.750
  393.500    0.221    0.419   95.411   10.298 2332.840
  393.750    0.211    0.422   91.067   10.700 2349.700
  394.000    0.207    0.418   89.818   10.907 2356.020
  394.250    0.188    0.401   91.671   11.120 2387.670
  394.500    0.159    0.403   86.085   11.554 2438.310
  394.750    0.140    0.398   82.979   12.004 2469.960
  395.000    0.142    0.389   87.931   12.239 2467.830
  395.250    0.189    0.422   93.501   11.793 2387.590
  395.500    0.219    0.434   96.593   11.149 2334.790
  395.750    0.217    0.443   92.865    9.960 2338.990
  396.000    0.202    0.427   99.677    9.415 2364.310
  396.250    0.206    0.424  105.869    8.413 2357.950
  396.500    0.226    0.437  107.721    7.805 2324.160
  396.750    0.238    0.431  100.895    7.378 2303.020
  397.000    0.243    0.423  100.267    6.846 2294.560
  397.250    0.231    0.464   95.303    6.351 2315.650
  397.500    0.215    0.471   91.575    5.782 2343.070
  397.750    0.199    0.481   92.188    4.974 2370.500
  398.000    0.192    0.474   94.660    4.120 2381.030
  398.250    0.216    0.487   94.031    3.349 2340.900
  398.500    0.255    0.497   92.166    2.723 2273.330
  398.750    0.301    0.512   85.961    2.433 2195.200
  399.000    0.308    0.520   89.052    2.344 2182.510
  399.250    0.305    0.480   91.524    2.482 2188.820
  399.500    0.294    0.450   89.657    2.677 2207.800
  399.750    0.275    0.444   90.889    3.175 2239.450
  400.000    0.242    0.428   90.263    3.764 2296.430
  400.250    0.213    0.412   84.676    4.463 2344.960
  400.500    0.225    0.405   88.385    5.393 2325.940
  400.750    0.210    0.396   89.001    6.158 2351.250
  401.000    0.205    0.407   87.753    7.165 2359.680
  401.250    0.263    0.389   78.449    8.495 2260.440
  401.500    0.239    0.385   82.161   10.266 2300.530
  401.750    0.185    0.378   80.914   11.075 2393.400
  402.000    0.114    0.359   78.427   11.507 2515.820
  402.250    0.184    0.372   85.237   11.087 2395.470
  402.500    0.214    0.416   85.850    9.720 2344.780
  402.750    0.196    0.428   87.702    8.521 2374.320
  403.000    0.189    0.416   87.695    7.470 2386.970
  403.250    0.193    0.405   83.349    6.800 2380.610
  403.500    0.204    0.416   86.441    6.191 2361.590
  403.750    0.194    0.447   94.490    5.744 2378.460
  404.000    0.193    0.465   98.822    5.329 2380.550
  404.250    0.214    0.453   94.476    4.672 2344.640
  404.500    0.227    0.461   97.568    4.019 2321.400
  404.750    0.222    0.464   93.842    3.872 2329.820
  405.000    0.216    0.427   94.455    3.731 2340.360
  405.250    0.200    0.401   94.446    3.876 2367.790
  405.500    0.199    0.390  100.018    4.262 2369.870
  405.750    0.198    0.392  106.828    4.512 2371.970
  406.000    0.185    0.395   99.384    4.868 2393.060
  406.250    0.175    0.384   98.757    5.154 2409.920
  406.500    0.164    0.377   94.408    5.457 2428.910
  406.750    0.163    0.404   99.981    5.670 2431.000
  407.000    0.192    0.436  108.650    5.781 2382.430
  407.250    0.197    0.420  113.602    5.784 2373.960
