~VERSION INFORMATION
 VERS.                 2.0:   CWLS LOG ASCII STANDARD -VERSION 2.0
 WRAP.                  NO:   ONE LINE PER DEPTH STEP
~WELL INFORMATION BLOCK
#MNEM.UNIT           DATA                    DESCRIPTION OF MNEMONIC
#---------    -------------------            -------------------------------
# Generated from Intellog Unique Number	CC_84_87/WELL/1181
NULL.         -999.25                        : NULL_VALUE
WELL.         SUN CHEECHAM-19                : Well_name    - WELL              
LOC .         09-29-084-07W4                 : Location     - LOCATION          
UWI .         AA/09-29-084-07W4/0            : Uwi          - UNIQUE WELL ID    
ENTR.         JHS                            : Entered      - ENTERED BY        
SRVC.         SCHLUMBERGER                   : Scn          - SERVICE COMPANY   
DATE.         20 JAN 80                      : Date         - LOG DATE
STRT.M        140                            : top_depth    - START DEPTH       
STOP.M        430.094                        : bot_depth    - STOP DEPTH        
STEP.M        0.3                            : increment    - STEP LENGTH       
~CURVE INFORMATION BLOCK
#MNEM UNIT       ERCB CURVE CODE    CURVE DESCRIPTION
#-----------   ------------------   ----------------------------------
DEPT.M        00 001 00 00         : DEPTH        - DEPTH                       
ILD .OHMM     00 120 00 00         : RESD         - DEEP RESISTIVITY (DIL)      
GR  .API      00 310 00 00         : GR           - GAMMA RAY                   
NPHI.V/V      00 330 00 00         : PHIN         - NEUTRON POROSITY (LIMESTONE)
DPHI.V/V      00 890 00 00         : PHID         - DENSITY POROSITY (LIMESTONE)
~PARAMETER INFORMATION       
#MNEM.UNIT           DATA             DESCRIPTION OF MNEMONIC
#---------         -----------     ------------------------------
GL  .M        597.9                : gl           - GROUND LEVEL ELEVATION      
EREF.M        600.85               : kb           - ELEVATION OF DEPTH REFERENCE
DATM.M        600.85               : datum        - DATUM ELEVATION             
TDD .M        434                  : tdd          - TOTAL DEPTH DRILLER         
RUN .         ONE                  : Run          - RUN NUMBER                  
ENG .         BILL                 : Engineer     - RECORDING ENGINEER          
WIT .         JIM                  : Witness      - WITNESSED BY                
MUD .         GEL                  : Mud_type     - MUD TYPE                    
MATR.         LIMESTONE            : Logunit      - NEUTRON MATRIX              
TMAX.C        20                   : BHT          - MAXIMUM RECORDED TEMPERATURE
BHTD.M        434                  : BHTDEP       - MAXIMUM RECORDED TEMPERATURE
MATR.         1                    : LOGUNIT      - NEUTRON MATRIX              
RMT .C        25                   : MDTP         - TEMPERATURE OF MUD          
NEUT.         1                    : NEUTRON      - NEUTRON TYPE                
RESI.         0                    : RESIST       - RESISTIVITY TYPE            
RMC .OHMM     0.25                 : RMC          - RESISTIVITY OF MUD CAKE     
RMF .OHMM     0.25                 : RMF          - RESISTIVITY OF MUD FILTRATE 
SUFT.C        15                   : SUFT         - SURFACE TEMPERATURE         
~A  DEPTH     RESD       GR     PHIN     PHID
# ...
  348.797    6.735   92.488    0.386    0.244
  349.097    6.609   95.507    0.395    0.247
  349.397    6.608   89.559    0.410    0.242
  349.697    6.484   84.801    0.404    0.246
  349.997    5.909   51.385    0.385    0.287
  350.297    5.286   44.197    0.396    0.323
  350.597    5.092   32.227    0.393    0.321
  350.897    5.380   31.016    0.367    0.330
  351.197    5.686   29.803    0.372    0.331
  351.497    6.236   33.969    0.383    0.316
  351.797    6.966   30.365    0.371    0.321
  352.097    7.499   27.957    0.377    0.316
  352.397    7.637   28.536    0.362    0.303
  352.697    8.070   33.894    0.363    0.308
  352.997    8.687   35.673    0.384    0.323
  353.297    9.527   29.078    0.404    0.316
  353.597   10.448   26.073    0.388    0.332
  353.897   11.891   26.057    0.393    0.317
  354.197   15.985   30.220    0.389    0.331
  354.497   22.301   34.386    0.371    0.327
  354.797   27.841   30.188    0.358    0.334
  355.097   32.878   22.401    0.355    0.341
  355.397   36.057   24.178    0.363    0.334
  355.697   36.043   22.965    0.368    0.331
  355.997   34.723   24.738    0.381    0.337
  356.297   34.073   28.902    0.388    0.321
  356.597   34.695   28.884    0.376    0.320
  356.897   35.992   33.648    0.386    0.318
  357.197   39.472   32.435    0.399    0.339
  357.497   43.284   30.626    0.393    0.313
  357.797   43.275   28.812    0.380    0.319
  358.097   42.463   29.990    0.385    0.342
  358.397   44.047   29.974    0.386    0.349
  358.697   45.697   26.969    0.381    0.317
  358.997   50.112   27.548    0.394    0.331
  359.297   53.948   26.935    0.380    0.337
  359.597   59.166   23.328    0.389    0.323
  359.897   67.329   21.522    0.386    0.313
  360.197   68.565   19.709    0.390    0.326
  360.497   62.475   22.081    0.386    0.361
  360.797   54.864   22.061    0.393    0.357
  361.097   45.576   23.242    0.400    0.363
  361.397   26.141   33.382    0.393    0.347
  361.697   19.431   44.717    0.395    0.319
  361.997   14.443   56.649    0.384    0.279
  362.297   10.937   73.362    0.413    0.293
  362.597    8.594   84.100    0.405    0.257
  362.897    7.007   94.837    0.413    0.234
  363.197    6.269   99.597    0.402    0.230
  363.497    6.384   95.996    0.406    0.262
  363.797    7.680   86.415    0.405    0.297
  364.097    9.069   79.829    0.403    0.302
  364.397   10.710   70.251    0.430    0.297
  364.697   12.649   55.893    0.416    0.325
  364.997   16.387   40.936    0.385    0.320
  365.297   24.168   48.090    0.397    0.314
  365.597   31.895   47.475    0.389    0.328
  365.897   40.560   40.881    0.381    0.342
  366.197   48.798   37.879    0.391    0.344
  366.497   54.513   36.663    0.387    0.357
  366.797   53.495   39.036    0.393    0.351
  367.097   48.744   40.812    0.384    0.363
  367.397   42.804   40.790    0.391    0.343
  367.697   38.291   40.778    0.407    0.335
  367.997   36.206   44.345    0.405    0.320
  368.297   37.560   50.898    0.403    0.331
  368.597   40.435   52.073    0.408    0.339
  368.897   39.681   48.475    0.405    0.359
  369.197   32.358   44.270    0.397    0.329
  369.497   22.336   41.268    0.402    0.328
  369.797   17.550   44.837    0.401    0.341
  370.097   17.871   50.196    0.409    0.350
  370.397   18.541   50.176    0.420    0.353
  370.697   21.100   44.184    0.436    0.367
  370.996   24.917   35.204    0.453    0.367
  371.296   29.976   30.407    0.431    0.363
  371.596   28.877   29.790    0.435    0.360
  371.896   24.436   29.775    0.435    0.370
  372.196   20.677   31.550    0.425    0.383
  372.496   16.551   35.712    0.418    0.376
  372.796   14.267   37.489    0.400    0.358
  373.096   12.299   42.252    0.396    0.296
  373.396   10.407   54.781    0.398    0.287
  373.696    9.310   68.505    0.384    0.300
  373.996    8.968   70.876    0.394    0.264
  374.296    9.477   69.663    0.409    0.278
  374.596   10.014   64.867    0.437    0.307
  374.896   10.012   58.876    0.422    0.335
  375.196    8.956   58.854    0.398    0.327
  375.496    7.303   68.998    0.382    0.283
  375.796    6.655   92.880    0.417    0.228
  376.096    6.293  114.369    0.442    0.247
  376.396    6.062   98.819    0.468    0.283
  376.696    6.526   67.731    0.451    0.300
  376.996    6.896   65.320    0.394    0.277
  377.296    7.023   79.646    0.410    0.282
  377.596    6.891   67.676    0.420    0.273
  377.896    6.763   50.930    0.398    0.294
  378.196    6.515   43.142    0.378    0.321
  378.496    6.393   53.882    0.360    0.299
  378.796    6.158   75.972    0.371    0.239
  379.096    5.824   74.759    0.395    0.260
  379.396    5.610   62.194    0.401    0.288
  379.696    5.608   50.823    0.403    0.308
  379.996    5.607   53.793    0.395    0.295
  380.296    6.036   51.384    0.396    0.318
  380.596    6.869   43.596    0.400    0.344
  380.896    8.111   43.581    0.394    0.348
  381.196    9.061   45.955    0.383    0.329
  381.496    9.058   41.755    0.394    0.329
  381.796    8.254   38.150    0.402    0.323
  382.096    7.521   41.121    0.373    0.329
  382.396    6.982   48.274    0.358    0.305
  382.696    6.851   51.841    0.357    0.311
  382.996    6.978   51.824    0.381    0.320
  383.296    6.847   44.635    0.411    0.336
  383.596    6.476   43.424    0.386    0.334
  383.896    6.594   47.588    0.383    0.315
  384.196    6.968   46.972    0.399    0.320
  384.496    7.642   40.979    0.394    0.340
  384.796    8.536   43.352    0.387    0.325
  385.096    9.021   46.917    0.394    0.322
  385.396    9.018   51.679    0.382    0.329
  385.696    7.774   49.871    0.380    0.311
  385.996    6.339   46.867    0.386    0.324
  386.296    5.364   61.188    0.369    0.313
  386.596    4.539   82.681    0.348    0.266
  386.896    3.913   98.796    0.363    0.222
  387.196    3.700   99.374    0.381    0.211
  387.496    3.768   95.772    0.367    0.232
  387.796    3.909   92.170    0.377    0.218
  388.096    4.131   86.773    0.380    0.242
  388.396    4.129   84.366    0.372    0.257
  388.696    3.626   80.762    0.380    0.254
  388.996    3.068   84.328    0.393    0.234
  389.296    2.596   80.728    0.393    0.250
  389.596    2.366   69.954    0.383    0.268
  389.896    2.237   62.171    0.370    0.277
  390.196    2.196   59.764    0.354    0.226
  390.496    2.236   72.292    0.356    0.194
  390.796    2.235   84.820    0.368    0.169
  391.096    2.276   91.378    0.361    0.183
  391.396    2.234   88.372    0.359    0.220
  391.696    2.192   88.947    0.365    0.234
  391.996    2.151   90.125    0.361    0.253
  392.296    2.072   90.112    0.346    0.229
  392.596    2.071   99.056    0.339    0.219
  392.896    2.071  100.230    0.336    0.236
  393.196    2.070   96.628    0.340    0.244
  393.496    2.031  101.991    0.345    0.219
  393.796    1.957   99.583    0.346    0.209
  394.096    1.783   91.797    0.345    0.204
  394.396    1.595   84.610    0.358    0.223
  394.696    1.453   67.862    0.374    0.267
  394.996    1.325   52.308    0.376    0.291
  395.296    1.185   48.705    0.370    0.297
  395.595    1.120   44.507    0.377    0.281
  395.895    1.040   37.914    0.380    0.292
  396.195    0.965   33.714    0.380    0.307
  396.495    0.965   30.710    0.368    0.309
  396.795    0.965   34.276    0.354    0.318
  397.095    1.001   38.440    0.352    0.321
  397.395    1.019   45.594    0.363    0.302
  397.695    1.038   52.150    0.372    0.285
  397.995    1.057   52.730    0.375    0.272
  398.295    1.076   45.542    0.372    0.290
  398.595    1.117   50.899    0.363    0.276
  398.895    1.116   53.870    0.361    0.261
  399.195    1.116   50.866    0.375    0.279
  399.495    1.095   38.898    0.399    0.306
  399.795    1.075   39.476    0.391    0.299
  400.095    1.054   51.410    0.396    0.280
  400.395    0.997   61.550    0.400    0.287
  400.695    0.926   53.763    0.388    0.317
