~VERSION INFORMATION
 VERS.                 2.0:   CWLS LOG ASCII STANDARD -VERSION 2.0
 WRAP.                  NO:   ONE LINE PER DEPTH STEP
~WELL INFORMATION BLOCK
#MNEM.UNIT           DATA                    DESCRIPTION OF MNEMONIC
#---------    -------------------            -------------------------------
# Generated from Intellog Unique Number	CC_80_83/WELL/2303
NULL.         -999.25                        : NULL_VALUE
WELL.         ARCO ACI MCMURRAY OV           : Well_name    - WELL
LOC .         07-26-080-11W4                 : Location     - LOCATION          
UWI .         AA/07-26-080-11W400            : Uwi          - UNIQUE WELL ID    
ENTR.         DW                             : Entered      - ENTERED BY        
SRVC.         SCHLUMBERGER                   : Scn          - SERVICE COMPANY   
DATE.         19 JAN 76                      : Date         - LOG DATE
STRT.M        256.032                        : top_depth    - START DEPTH       
STOP.M        481.591                        : bot_depth    - STOP DEPTH        
STEP.M        0.305                          : increment    - STEP LENGTH       
~CURVE INFORMATION BLOCK
#MNEM UNIT       ERCB CURVE CODE    CURVE DESCRIPTION
#-----------   ------------------   ----------------------------------
DEPT.M        00 001 00 00         : DEPTH        - DEPTH                       
NPHI.V/V      00 330 00 00         : PHIN         - NEUTRON POROSITY (LIMESTONE)
GR  .API      00 310 00 00         : GR           - GAMMA RAY                   
RHOB.KG/M3    00 350 00 00         : DENS         - BULK DENSITY                
ILD .OHMM     00 120 00 00         : RESD         - DEEP RESISTIVITY (DIL)      
~PARAMETER INFORMATION       
#MNEM.UNIT           DATA             DESCRIPTION OF MNEMONIC
#---------         -----------     ------------------------------
GL  .M        685.678              : gl           - GROUND LEVEL ELEVATION      
EREF.M        688.726              : kb           - ELEVATION OF DEPTH REFERENCE
DATM.M        688.726              : datum        - DATUM ELEVATION             
TDD .M        481.584              : tdd          - TOTAL DEPTH DRILLER         
RUN .         ONE                  : Run          - RUN NUMBER                  
ENG .         BILL                 : Engineer     - RECORDING ENGINEER          
WIT .         JIM                  : Witness      - WITNESSED BY                
MUD .         GEL                  : Mud_type     - MUD TYPE                    
MATR.         LIMESTONE            : Logunit      - NEUTRON MATRIX              
TMAX.C        22.7778              : BHT          - MAXIMUM RECORDED TEMPERATURE
BHTD.M        481.584              : BHTDEP       - MAXIMUM RECORDED TEMPERATURE
MATR.         1                    : LOGUNIT      - NEUTRON MATRIX              
RMT .C        25                   : MDTP         - TEMPERATURE OF MUD          
NEUT.         1                    : NEUTRON      - NEUTRON TYPE                
RESI.         0                    : RESIST       - RESISTIVITY TYPE            
RMC .OHMM     0.25                 : RMC          - RESISTIVITY OF MUD CAKE     
RMF .OHMM     0.25                 : RMF          - RESISTIVITY OF MUD FILTRATE 
SUFT.C        15                   : SUFT         - SURFACE TEMPERATURE         
~A  DEPTH     PHIN       GR     DENS     RESD
  256.032    0.506   88.695 2267.300    3.805
  256.337    0.495   88.103 2281.290    3.875
  256.642    0.492   87.512 2289.210    3.874
  256.946    0.484   91.090 2287.160    3.874
  257.251    0.477   92.878 2283.070    3.801
  257.556    0.477   93.478 2258.880    3.662
  257.861    0.478   91.102 2232.650    3.594
  258.166    0.477   87.534 2226.560    3.527
  258.470    0.466   86.944 2242.550    3.592
  258.775    0.446   87.544 2264.600    3.659
  259.080    0.459   88.738 2304.710    3.867
  259.385    0.461   87.552 2326.750    4.088
  259.690    0.458   83.389 2300.550    4.164
  259.995    0.447   81.608 2270.310    4.086
  260.299    0.460   81.613 2286.310    4.010
  260.604    0.458   79.235 2300.310    4.239
  260.909    0.399   73.287 2346.460    4.916
  261.214    0.412   70.909 2245.900    5.702
  261.519    0.420   72.702 2171.440    7.531
  261.823    0.422   73.300 2197.500    7.391
  262.128    0.411   73.305 2225.550    7.119
  262.433    0.404   72.714 2235.540    7.118
  262.738    0.376   67.359 2225.410    8.255
  263.043    0.369   56.648 2183.120   10.506
  263.347    0.383   54.271 2154.910   13.369
  263.652    0.388   57.252 2180.970   14.665
  263.957    0.385   66.188 2231.120   15.793
  264.262    0.383   66.192 2227.020   16.692
  264.567    0.384   67.387 2255.090   16.081
  264.871    0.385   72.155 2248.980   14.652
  265.176    0.388   73.349 2236.850   13.602
  265.481    0.407   72.163 2327.220   12.392
  265.786    0.424   70.381 2301.010   12.390
  266.091    0.447   65.623 2256.730   11.717
  266.396    0.573   57.292 2194.350   10.875
  266.700    0.324   56.106 2166.120   10.674
  267.005    0.314   58.493 2230.350   10.871
  267.310    0.334   56.115 2248.380   12.376
  267.615    0.366   47.786 2204.070   14.623
  267.920    0.373   47.194 2161.790   17.601
  268.224    0.382   49.581 2101.420   22.398
  268.529    0.387   54.943 2113.410   25.501
  268.834    0.384   57.924 2125.380   30.128
  269.139    0.381   59.714 2145.400   31.847
  269.444    0.378   59.124 2141.320   33.045
  269.748    0.385   59.128 2121.130   33.038
  270.053    0.390   62.110 2121.040   31.827
  270.358    0.391   65.091 2139.080   29.543
  270.663    0.373   69.263 2151.070   26.424
  270.968    0.362   75.221 2163.050   23.200
  271.272    0.358   77.012 2148.890   18.564
  271.577    0.356   76.421 2166.900   15.998
  271.882    0.364   75.234 2225.110   17.879
  272.187    0.366   75.239 2204.950   19.253
  272.492    0.372   75.839 2232.990   20.730
  272.797    0.378   79.415 2249.010   19.971
  273.101    0.385   78.824 2218.770   16.280
  273.406    0.393   72.874 2186.550   15.111
  273.711    0.403   57.401 2098.040   16.578
  274.016    0.403   57.406 2061.780   23.580
  274.321    0.393   59.196 2077.780   28.914
  274.625    0.387   62.772 2093.730   32.312
  274.930    0.384   64.563 2103.730   32.912
  275.235    0.395   65.759 2113.730   32.298
  275.540    0.403   66.953 2115.640   31.699
  275.845    0.409   70.530 2129.640   29.973
  276.149    0.409   72.320 2163.740   28.876
  276.454    0.419   72.920 2185.780   26.310
  276.759    0.406   77.093 2177.650   25.347
  277.064    0.395   79.478 2195.660   23.968
  277.369    0.390   78.886 2177.510   23.964
  277.673    0.384   79.488 2169.390   24.863
  277.978    0.380   81.277 2175.330   25.324
  278.283    0.378   84.258 2165.220   25.316
  278.588    0.374   89.621 2161.120   25.311
  278.893    0.370   93.793 2191.200   24.384
  279.198    0.359   89.630 2213.200   23.932
  279.502    0.346   86.063 2217.140   21.804
  279.807    0.341   89.043 2221.060   20.239
  280.112    0.331   87.857 2221.020   19.499
  280.417    0.325   83.694 2228.990   17.119
  280.722    0.323   84.890 2277.140   14.754
  281.026    0.356   92.633 2269.040   13.695
  281.331    0.402   99.186 2264.910   13.193
  281.636    0.412  104.550 2274.920   11.800
  281.941    0.423  105.149 2333.130    9.441
  282.246    0.450  107.534 2373.240    7.279
  282.550    0.456  111.707 2341.010    6.511
  282.855    0.462  109.330 2258.530    5.824
  283.160    0.464  103.381 2246.390    4.747
  283.465    0.473  103.386 2264.400    4.489
  283.770    0.488  108.749 2344.730    4.014
  284.074    0.488  110.539 2386.850    3.796
  284.379    0.467  109.948 2274.210    3.657
  284.684    0.427  107.570 2252.030    3.458
  284.989    0.366  101.622 2241.910    3.458
  285.294    0.367   97.458 2243.810    3.793
  285.599    0.371   92.105 2239.730    5.920
  285.903    0.362   89.135 2221.590    8.741
  286.208    0.359   88.542 2201.400   12.666
  286.513    0.371   86.761 2201.330   14.691
  286.818    0.388   87.362 2195.230   15.819
  287.123    0.391   86.770 2177.050   16.109
  287.427    0.395   85.583 2168.950   16.106
  287.732    0.398   88.564 2170.880   16.104
  288.037    0.410   97.498 2168.800   15.805
  288.342    0.427  100.480 2319.450   13.124
  288.647    0.436  100.484 2367.610    9.750
  288.951    0.426  102.871 2459.980    7.379
  289.256    0.403  101.089 2463.930    6.850
  289.561    0.392   99.903 2236.740    7.107
  289.866    0.377   95.144 2214.560    8.715
  290.171    0.377   90.387 2218.500   10.886
  290.475    0.383   87.415 2234.480   12.166
  290.780    0.386   83.846 2228.380   13.851
  291.085    0.388   77.897 2143.910   15.478
  291.390    0.388   73.734 2151.860   16.361
  291.695    0.385   72.550 2147.770   15.762
  292.000    0.386   71.957 2133.630   14.361
  292.304    0.397   68.987 2151.640   13.835
  292.609    0.391   65.418 2211.860   14.897
  292.914    0.383   64.829 2181.630   17.602
  293.219    0.390   65.427 2151.370   20.040
  293.524    0.396   66.028 2151.330   21.983
  293.828    0.401   65.437 2149.240   22.808
  294.133    0.404   66.038 2145.130   22.385
  294.438    0.409   66.635 2165.170   22.382
  294.743    0.424   69.021 2161.050   21.559
  295.048    0.440   71.407 2140.870   21.160
  295.352    0.437   74.987 2136.770   20.009
  295.657    0.421   75.585 2146.770   19.275
  295.962    0.420   76.780 2172.810   18.226
  296.267    0.428   77.974 2180.790   17.558
  296.572    0.440   79.169 2164.640   15.997
  296.876    0.448   77.388 2190.650   14.851
  297.181    0.442   74.416 2194.630   14.307
  297.486    0.342   74.422 2190.530   13.781
  297.791    0.310   76.210 2114.080   14.037
  298.096    0.356   78.003 2142.140   14.565
  298.401    0.401   78.601 2200.350   15.110
  298.705    0.413   79.797 2214.330   14.830
  299.010    0.420   81.588 2200.190   14.555
  299.315    0.422   82.782 2208.150   14.552
  299.620    0.422   82.787 2216.100   15.380
  299.925    0.426   82.790 2222.060   15.666
  300.229    0.428   81.605 2221.990   16.253
  300.534    0.428   82.801 2248.050   15.952
  300.839    0.426   84.591 2258.020   15.656
  301.144    0.410   87.572 2274.020   14.264
  301.449    0.404   89.364 2275.950   13.489
  301.753    0.415   89.962 2271.830   12.995
  302.058    0.416   89.965 2267.760   12.519
  302.363    0.413   88.780 2257.620   11.620
  302.668    0.398   89.382 2241.480   11.194
  302.973    0.387   89.385 2195.180   10.200
  303.277    0.384   89.983 2191.070    8.955
  303.582    0.384   87.607 2186.960    8.160
  303.887    0.385   82.849 2180.850    8.311
  304.192    0.385   75.709 2176.730   10.190
  304.497    0.384   70.355 2178.700   11.819
  304.802    0.378   64.407 2172.580   12.966
  305.106    0.360   59.648 2172.510   13.961
  305.411    0.360   54.890 2186.510   15.895
  305.716    0.363   52.514 2196.490   18.096
  306.021    0.367   53.711 2196.420   23.029
  306.326    0.370   54.310 2166.200   26.217
  306.630    0.374   54.909 2150.040   29.297
  306.935    0.378   57.295 2159.990   29.841
  307.240    0.379   58.489 2161.930   30.963
  307.545    0.379   58.495 2149.800   30.957
  307.850    0.392   57.903 2111.530   30.377
  308.154    0.402   57.314 2125.530   29.815
  308.459    0.419   57.913 2129.460   28.721
  308.764    0.411   58.511 2113.300   28.188
