~VERSION INFORMATION
 VERS.                 2.0:   CWLS LOG ASCII STANDARD -VERSION 2.0
 WRAP.                  NO:   ONE LINE PER DEPTH STEP
~WELL INFORMATION BLOCK
#MNEM.UNIT           DATA                    DESCRIPTION OF MNEMONIC
#---------    -------------------            -------------------------------
# Generated from Intellog Unique Number	CN_94_101/WELL/3654
WELL.         07-16-096-12W4                 : Well_name    - WELL
LOC .         AA/07-16-096-12W4/0            : Location     - LOCATION
UWI .         AA/07-16-096-12W400            : Uwi          - UNIQUE WELL ID
ENTR.         J                              : Entered      - ENTERED BY
SRVC.         SCHLUMBERGER                   : Scn          - SERVICE COMPANY
DATE.         08\05\92                       : Date         - LOG DATE
STRT.F        50                             : top_depth    - START DEPTH
STOP.F        410.072                        : bot_depth    - STOP DEPTH
STEP.F        0.8202                         : increment    - STEP LENGTH
 NULL. -999.2500:NULL Value
~CURVE INFORMATION BLOCK
#MNEM UNIT       ERCB CURVE CODE    CURVE DESCRIPTION
#-----------   ------------------   ----------------------------------
DEPT.F        00 001 00 00         : DEPTH        - DEPTH
ILD .OHMM     00 120 00 00         : RESD         - DEEP RESISTIVITY (DIL)
GR  .API      00 310 00 00         : GR           - GAMMA RAY
DPHI.V/V      00 890 00 00         : PHID         - DENSITY POROSITY (SANDSTONE)
~PARAMETER INFORMATION
#MNEM.UNIT           DATA             DESCRIPTION OF MNEMONIC
#---------         -----------     ------------------------------
GL  .M        341.681              : gl           - GROUND LEVEL ELEVATION
EREF.M        342.9                : kb           - ELEVATION OF DEPTH REFERENCE
DATM.M        342.9                : datum        - DATUM ELEVATION
TDD .M        129.54               : tdd          - TOTAL DEPTH DRILLER
RUN .         ONE                  : Run          - RUN NUMBER
ENG .         JO                   : Engineer     - RECORDING ENGINEER
WIT .         TIM                  : Witness      - WITNESSED BY
MUD .         GEL                  : Mud_type     - MUD TYPE
MATR.         SANDSTONE            : Logunit      - NEUTRON MATRIX
TMAX.F        45                   : BHT          - MAXIMUM RECORDED TEMPERATURE
BHTD.F        425                  : BHTDEP       - MAXIMUM RECORDED TEMPERATURE
RMT .F        45                   : MDTP         - TEMPERATURE OF MUD
MUDD.LB/G     8.5                  : MWT          - MUD DENSITY
NEUT.         1                    : NEUTRON      - NEUTRON TYPE
RESI.         0                    : RESIST       - RESISTIVITY TYPE
RM  .OHMM     2.58                 : RM           - RESISTIVITY OF MUD
RMC .OHMM     2.58                 : RMC          - RESISTIVITY OF MUD CAKE
RMF .OHMM     2.58                 : RMF          - RESISTIVITY OF MUD FILTRATE
SUFT.F        39.2                 : SUFT         - SURFACE TEMPERATURE
~A  DEPTH     RESD       GR     PHID
   50.000   16.871   55.122    0.258
   50.820   15.132   75.666    0.226
   51.640   13.577   81.327    0.260
   52.461   14.354   84.971    0.259
   53.281   13.114   85.798    0.271
   54.101   12.423   83.408    0.297
   54.921   11.144   83.035    0.306
   55.742   10.181   85.472    0.317
   56.562    9.473   89.524    0.322
   57.382    9.656   90.748    0.318
   58.202   10.978   90.375    0.319
   59.022   12.256   85.169    0.292
   59.843   13.193   87.612    0.294
   60.663   12.970   88.031    0.284
   61.483   13.459   85.239    0.278
   62.303   12.293   86.871    0.286
   63.123   12.083   87.297    0.296
   63.944   14.509   85.309    0.296
   64.764   13.255   85.746    0.290
   65.584   14.799   87.775    0.280
   66.404   20.196   87.396    0.273
   67.224   20.579   86.615    0.282
   68.045   35.582   77.788    0.263
   68.865   41.198   76.605    0.215
   69.685   19.176   72.203    0.188
   70.505   17.519   74.244    0.176
   71.326   21.041   76.686    0.214
   72.146   24.367   77.106    0.248
   72.966   21.461   73.509    0.287
   73.786   18.904   73.136    0.297
   74.606   18.581   76.774    0.300
   75.427   19.285   81.636    0.301
   76.247   17.622   84.067    0.248
   77.067   16.392   86.504    0.235
   77.887   17.970   87.332    0.237
   78.707   24.515   82.930    0.248
   79.528   49.049   77.724    0.242
   80.348  117.733   71.713    0.214
   81.168   31.146   62.485    0.207
   81.988   13.234   57.279    0.212
   82.808    8.709   63.342    0.235
   83.629   10.086   77.444    0.230
   84.449    8.565   84.714    0.225
   85.269    7.545   85.944    0.237
   86.089    6.647   92.001    0.234
   86.909    6.899   97.668    0.246
   87.730    7.291   96.076    0.261
   88.550    7.570   92.479    0.261
   89.370    8.147   88.882    0.247
   90.190    9.437   92.526    0.239
   91.010    9.103   97.382    0.241
   91.831    7.874   96.601    0.253
   92.651    8.172   93.809    0.256
   93.471   10.949   89.407    0.230
   94.291   13.636   93.051    0.195
   95.112   11.795   91.465    0.149
   95.932    7.905   87.868    0.124
   96.752    6.019   85.880    0.110
   97.572    5.601   91.541    0.074
   98.392    5.708   97.196    0.248
   99.213    5.215  104.868    0.282
  100.033    4.678  103.288    0.284
  100.853    4.274   99.283    0.280
  101.673    3.976   97.301    0.281
  102.493    3.907   99.732    0.298
  103.314    4.607  100.962    0.322
  104.134    5.952  100.583    0.286
  104.954    7.413  100.216    0.272
  105.774   10.299   99.032    0.265
  106.594   11.503   93.016    0.233
  107.415   10.317   89.419    0.223
  108.235    9.088   91.856    0.230
  109.055    8.007   95.097    0.246
  109.875    8.776   98.752    0.246
  110.696   10.732   98.368    0.252
  111.516   10.173  100.408    0.217
  112.336    9.294  100.431    0.196
  113.156   13.886   99.242    0.211
  113.976   16.981   95.645    0.217
  114.797   23.171   91.249    0.214
  115.617   23.619   88.853    0.166
  116.437   15.826   84.049    0.114
  117.257   13.442   76.028    0.155
  118.077   11.008   89.739    0.196
  118.898    9.879   94.182    0.225
  119.718   10.250   96.624    0.197
  120.538   12.535   99.866    0.196
  121.358   13.495   97.079    0.214
  122.178   10.275   96.298    0.213
  122.999    8.115   98.327    0.179
  123.819    7.414  101.982    0.216
  124.639    7.025  100.793    0.230
  125.459    7.841  105.643    0.224
  126.280    8.754  112.913    0.229
  127.100    8.450  112.132    0.230
  127.920    8.303  110.546    0.222
  128.740    7.585  104.536    0.257
  129.560    6.804   99.738    0.250
  130.381    6.105  101.772    0.219
  131.201    6.110  101.790    0.221
  132.021    6.821  100.612    0.227
  132.841    7.479  104.658    0.220
  133.661    6.831  108.302    0.213
  134.482    6.356  108.331    0.212
  135.302    6.596  104.728    0.228
  136.122    7.638  101.131    0.222
  136.942    9.009   97.132    0.207
  137.762    6.984   94.345    0.202
  138.583    4.945   95.575    0.187
  139.403    4.355   98.018    0.220
  140.223    4.279   99.248    0.259
  141.043    5.838   97.668    0.259
  141.864    6.400   97.680    0.248
  142.684    5.956   98.910    0.246
  143.504    5.643   96.928    0.230
  144.324    5.347   94.940    0.207
  145.144    5.255   95.767    0.238
  145.965    5.163   98.204    0.244
  146.785    5.168  101.854    0.231
  147.605    5.770  105.101    0.230
  148.425    7.056  101.498    0.232
  149.245    6.446   99.108    0.221
  150.066    3.227   94.707    0.191
  150.886    2.243   91.109    0.185
  151.706    2.204   88.317    0.254
  152.526    2.373   84.318    0.326
  153.346    2.602   81.123    0.321
  154.167    2.604   78.733    0.312
  154.987    2.559   76.750    0.315
  155.807    2.515   77.176    0.334
  156.627    2.563   82.435    0.333
  157.448    2.708   84.469    0.335
  158.268    3.833   82.475    0.331
  159.088    4.951   78.476    0.313
  159.908    6.512   74.879    0.259
  160.728    6.401   72.897    0.231
  161.549    5.638   78.150    0.216
  162.369    6.069   78.173    0.213
  163.189    7.559   76.989    0.214
  164.009    9.943   72.990    0.218
  164.829    7.996   69.393    0.254
  165.650    4.717   75.048    0.268
  166.470    3.793   86.743    0.259
  167.290    3.530   90.789    0.258
  168.110    3.664   91.220    0.261
  168.930    3.803   86.416    0.258
  169.751    3.947   88.049    0.258
  170.571    4.488   90.492    0.251
  171.391    4.919   89.302    0.244
  172.211    5.297   88.521    0.244
  173.031    4.927   89.349    0.233
  173.852    4.501   93.004    0.224
  174.672    4.759   94.234    0.224
  175.492    5.409   92.246    0.239
  176.312    7.796   89.850    0.241
  177.133    8.546   87.064    0.220
  177.953    4.951   85.070    0.190
  178.773    3.981   87.915    0.155
  179.593    3.985   92.765    0.139
  180.413    4.212   97.616    0.202
  181.234    4.215   96.840    0.241
  182.054    4.218   97.266    0.241
  182.874    4.796  103.323    0.243
  183.694    7.995   94.899    0.234
  184.514    9.961   86.877    0.210
  185.335    8.156   84.895    0.203
  186.155    7.186   84.912    0.183
  186.975    8.471   94.193    0.178
  187.795   11.557   91.803    0.203
  188.615   18.922   79.753    0.227
  189.436   29.867   66.099    0.222
  190.256   38.577   52.848    0.240
  191.076   56.620   46.033    0.289
  191.896   45.531   40.827    0.320
  192.717   35.953   41.252    0.354
  193.537   29.449   43.695    0.362
  194.357   34.092   44.919    0.322
  195.177   40.938   46.161    0.319
  195.997   50.074   48.994    0.307
  196.818   51.043   56.661    0.250
  197.638   40.298   62.322    0.236
  198.458   29.583   59.127    0.252
  199.278   27.027   56.736    0.281
  200.098   35.551   60.782    0.261
  200.919   43.485   62.817    0.237
  201.739   39.010   57.209    0.287
  202.559   28.638   60.456    0.265
  203.379   31.971   66.921    0.262
  204.199   39.817   64.123    0.264
  205.020   47.823   52.481    0.277
  205.840   43.699   44.470    0.307
  206.660   45.347   46.499    0.305
  207.480   37.820   50.941    0.301
  208.301   24.888   58.211    0.273
  209.121   26.307   59.844    0.273
  209.941   38.603   69.521    0.286
  210.761   52.673   69.953    0.278
  211.581   48.131   68.769    0.291
  212.402   38.698   74.424    0.313
  213.222   34.095   75.258    0.287
  214.042   37.369   72.057    0.274
  214.862   31.166   64.846    0.269
  215.682   18.385   66.880    0.273
  216.503   16.493   72.133    0.258
  217.323   22.919   77.392    0.235
  218.143   26.057   74.191    0.235
  218.963   22.539   70.192    0.243
  219.783   17.797   69.416    0.235
  220.604   19.869   68.635    0.222
  221.424   28.118   68.659    0.244
  222.244   22.203   68.285    0.252
  223.064   17.855   75.141    0.278
  223.885   17.868   80.004    0.237
  224.705   17.241   77.607    0.242
  225.525   19.967   78.843    0.234
  226.345   16.956   76.447    0.204
  227.165   13.638   72.850    0.197
