~Version : LASO    vs 4.00
VERS.                2.00:   CWLS Log ASCII Standard -VERSION 2.0
WRAP.                  NO:
~Well Information Block
#MNEM.UNIT       Data                        Description of Mnemonic
#----.----      -------------------------- : -----------------------------
STRT.M            15.0000:
STOP.M           186.3750:
STEP.M             0.1250:
NULL.           -999.2500:
COMP.  MOBIL OIL OF CANADA                :COMPANY
WELL.  MOBIL CLARKE OV 2-19               :WELL
FLD.                                      :FIELD
LOC.   02-19-090-07W4                     :LOCATION
CTRY.  CANADA                             :COUNTRY
PROV.  ALBERTA                            :PROVINCE
SRVC.  DRESSER ATLAS                      :SERVICE COMPANY
DATE.  24-FEB-81                          :LOG DATE
UWI.   AA/02-19-090-07W400                :UNIQUE WELL ID
~Parameter Information Block
#MNEM.UNIT       Data                        Description of Mnemonic
#----.----      -------------------------- : -----------------------------
RUN .                   1                 : Run Number
GL  .M           444.6000                 : Ground Level Elevation
DREF.                  KB                 : Depth Reference
EREF.M           444.6000                 : Elevation of Depth Reference
TDL .M           186.3000                 : Total Depth Logger
TDD .M           185.0000                 : Total Depth Driller
CSGL.M            14.7000                 : Casing Bottom Logger
CSGD.M            14.7000                 : Casing Bottom Driller
CSGS.MM          219.0000                 : Casing Size
CSGW.KG/M          0.0000                 : Casing Weight
BHT .DEGC         20.0000                 : Bottom Hole Temperature
BS  .MM          159.0000                 : Bit Size
DFD .           9999.0000                 : Mud Weight (Density)
DFV .             90.0000                 : Mud Viscosity
RM  .OHMM          2.5000                 : Mud Resistivity
RMT .DEGC         20.0000                 : Mud Resistivity Temperature
~Curve Information Block
#MNEM.UNIT        API CODE    Curve Description
#---------    ------------    -------------------------------------------
DEPT.M                    :   DEPTH
CALI.MM       42 280  1  1:   3 DENSITY CALIPER
DPHI.V/V                  :   DPHI
DT  .US/M     60 520 32  1:   2 SONIC INTERVAL TRANSIT TIME (COMPENSATED)
GR  .GAPI     42 310  1  1:   4 GAMMA RAY
ILD .OHMM      5 120 45  1:   7 DEEP INDUCTION
NPHI.V/V      42 890  3  1:   5 NEUTRON POROSITY (SANDSTONE)
RHOB.K/M3     42 350  1  1:   6 BULK DENSITY
SN  .OHMM      5  40 16  1:   8 SHORT NORMAL
SP  .MV        5  10  1  1:   9 SPONTANEOUS POTENTIAL
~A  Depth           CALI        DPHI          DT          GR         ILD        NPHI        RHOB          SN          SP
# ...
98.7500         201.8500      0.2900    584.3600     92.2800      5.4050      0.4673   2199.3999      9.3400    -49.7700
98.8750         199.1500      0.2839    575.4000     93.8850      5.4650      0.4651   2209.8000      9.4650    -49.8000
99.0000         198.5500      0.2774    573.4800     96.1650      5.6600      0.4565   2215.3000      9.2800    -49.8300
99.1250         197.0250      0.2708    567.7600     98.8650      5.8550      0.4508   2226.8999      9.2200    -49.4700
99.2500         197.3250      0.2652    557.9200     98.6250      5.9850      0.4550   2220.2000      9.2200    -49.2900
99.3750         200.0500      0.2648    510.8000     98.3850      6.1800      0.4565   2217.1001      9.0350    -49.3350
99.5000         202.7500      0.2665    493.8400     99.7200      6.3050      0.4501   2215.8999      9.6450    -50.9100
99.6250         199.4500      0.2685    485.2000     99.4950      6.2400      0.4490   2206.2000     10.9250    -51.7050
99.7500         200.9500      0.2673    473.2400     98.7450      6.2400      0.4572   2201.3000     12.0250    -51.8400
99.8750         199.4500      0.2652    472.0400     97.6650      6.2400      0.4430   2201.3000     12.6350    -53.0700
100.0000        197.9250      0.2609    476.3600     96.9300      6.2400      0.4366   2213.5000     12.6350    -53.7000
100.1250        197.3250      0.2578    486.6400     96.2400      6.2400      0.4366   2229.8999     11.7800    -53.7450
100.2500        199.4500      0.2560    502.1600     96.9300      6.1150      0.4343   2239.7000     10.0150    -52.5600
100.3750        201.8500      0.2554    519.4400     96.2250      5.8550      0.4276   2237.2000      8.8550    -51.3900
100.5000        204.8500      0.2560    521.0800     95.3400      5.5950      0.4223   2229.8999      8.8550    -51.9900
100.6250        207.5750      0.2585    520.8400     97.0500      5.3400      0.4208   2225.1001      9.3400    -51.4500
100.7500        203.6500      0.2630    517.5200     96.2850      5.0800      0.4167   2217.1001      9.5850    -51.4050
100.8750        194.6250      0.2752    517.5200     95.8350      4.8200      0.4272   2194.0000      9.6450    -49.6350
101.0000        193.4250      0.2913    523.4800     99.5850      4.6950      0.4373   2170.8000      9.2200    -46.6950
101.1250        194.3250      0.2959    525.8800    101.1150      4.5000      0.4490   2147.0000      8.4900    -44.9400
101.2500        196.4250      0.3022    509.6000    102.2700      4.5000      0.4606   2138.5000      8.3650    -43.1850
101.3750        198.2500      0.3023    528.0400    100.1250      4.3050      0.4808   2150.1001      8.3650    -42.6150
101.5000        199.1500      0.2936    548.3600     99.0300      4.3050      0.4783   2161.6001      8.3650    -42.6450
101.6250        200.0500      0.2879    551.7200     98.5050      4.4350      0.4786   2186.6001      8.3650    -42.6750
101.7500        202.4500      0.2838    536.1600     98.5950      4.3700      0.4858   2205.5000      8.1250    -42.7050
101.8750        204.5500      0.2799    537.3600     99.4650      4.4350      0.4798   2215.3000      7.8200    -42.7500
102.0000        199.7500      0.2760    558.6400    101.3850      4.4350      0.4768   2202.5000      7.7550    -42.7800
102.1250        196.1250      0.2734    568.7200    102.5100      4.4350      0.4658   2188.5000      8.0600    -42.8100
102.2500        196.7250      0.2776    569.4400    102.1200      4.4350      0.4606   2187.8999      8.6700    -43.1250
102.3750        199.7500      0.2820    578.0400    101.6250      4.5000      0.4576   2188.5000      9.1600    -44.0700
102.5000        205.1500      0.2836    582.0000    100.6500      4.6300      0.4490   2180.5000      9.1000    -44.1150
102.6250        203.9500      0.2848    582.2800     97.3050      4.7550      0.4418   2170.2000      8.7950    -44.1450
102.7500        203.3500      0.2859    584.3200     96.1350      5.0150      0.4508   2171.3999      8.1850    -44.1750
102.8750        204.2500      0.2842    592.6400     94.6200      4.9500      0.4505   2177.5000      8.0000    -44.2050
103.0000        205.1500      0.2819    593.3600     94.9800      4.9500      0.4520   2179.8999      7.9400    -44.2350
103.1250        206.3750      0.2821    593.3600     95.4900      4.7550      0.4591   2184.2000      8.4900    -44.8500
103.2500        208.4750      0.2846    439.7600     96.0000      4.4350      0.4718   2179.3000      9.1600    -44.3250
103.3750        207.8750      0.2845    586.8800     96.6300      4.0450      0.4632   2177.5000      9.2200    -44.3400
103.5000        208.1750      0.2827    598.2800     98.2050      3.7250      0.4610   2181.2000      9.3400    -44.3700
103.6250        207.8750      0.2803    606.6800     99.3450      3.5950      0.4613   2184.2000      9.4650    -44.3250
103.7500        206.9750      0.2778    597.3600     94.3200      3.3350      0.4666   2198.8000      8.7950    -43.8300
103.8750        207.8750      0.2759    604.8000     91.3350      3.2700      0.4628   2210.3999      7.2700    -43.2600
104.0000        206.6750      0.2737    604.0000     92.2200      3.0800      0.4670   2201.3000      6.5350    -43.3650
104.1250        207.5750      0.2754    601.7200     93.2250      3.0150      0.4748   2201.3000      6.4150    -43.9200
104.2500        209.9750      0.2796    606.8000     94.2300      2.8850      0.4768   2197.0000      6.1700    -44.5650
104.3750        209.9750      0.2903    620.6800     95.2350      2.8850      0.4741   2186.0000      6.4750    -44.5950
104.5000        209.3750      0.2984    610.3200     97.6500      3.0150      0.4888   2169.0000      6.9650    -44.4750
104.6250        208.7750      0.3039    613.7600     97.2000      3.0800      0.4906   2154.8999      7.2700    -44.0550
104.7500        208.1750      0.3088    613.3600     96.6750      3.2100      0.4858   2137.2000      7.3900    -44.0850
104.8750        206.3750      0.3066    623.7200     98.0100      3.8550      0.5079   2122.6001      7.8200    -44.1150
105.0000        206.6750      0.3016    635.8000     97.4850      4.1100      0.5113   2128.7000      8.0600    -44.1150
105.1250        206.6750      0.2996    614.0000     96.8850      4.3700      0.5049   2139.7000      8.1250    -44.1450
105.2500        206.9750      0.2976    585.6800     96.0600      4.8200      0.5030   2155.5000      8.2450    -44.1900
105.3750        206.6750      0.3008    570.3600     94.4700      5.0800      0.4993   2165.3000      8.4900    -44.2200
105.5000        206.9750      0.2963    573.4800     93.4500      5.4650      0.4963   2165.3000      8.5500    -45.1200
105.6250        206.6750      0.2936    574.2000     93.0300      5.9200      0.4936   2162.8999      8.5500    -45.4800
105.7500        206.9750      0.2934    573.7200     95.1000      6.4350      0.4793   2161.6001      8.6700    -45.5100
105.8750        206.9750      0.2910    563.2000     94.9350      6.6300      0.4760   2161.0000      8.9750    -45.5550
106.0000        207.5750      0.2884    555.0800     94.6050      6.8250      0.4711   2166.5000      9.7100    -45.6300
106.1250        207.2750      0.2870    538.0800     93.8850      7.0150      0.4628   2184.2000     11.0500    -46.2150
106.2500        206.6750      0.2844    507.7200     92.9700      7.4050      0.4613   2185.3999     13.4900    -46.8450
106.3750        206.9750      0.2819    471.8000     92.0550      7.7250      0.4452   2187.2000     13.5500    -47.2950
106.5000        208.7750      0.2780    479.9600     91.0950      7.9200      0.4422   2186.6001     12.0850    -47.5200
106.6250        208.7750      0.2701    499.8000     89.6850      8.1150      0.4445   2189.7000     11.0500    -47.5500
106.7500        210.2750      0.2556    531.1600     88.2750      8.0500      0.4411   2204.8999     10.6250    -48.1800
106.8750        210.8750      0.2385    540.7200     85.7100      7.7250      0.4377   2223.8000     10.1950    -47.6100
107.0000        209.3750      0.2228    530.4400     83.9250      7.5350      0.4433   2256.8000     10.1950    -46.4400
