~Version : LASO    vs 4.00
VERS.                2.00:   CWLS Log ASCII Standard -VERSION 2.0
WRAP.                  NO:
~Well Information Block
#MNEM.UNIT       Data                        Description of Mnemonic
#----.----      -------------------------- : -----------------------------
STRT.M            15.0000:
STOP.M           186.3750:
STEP.M             0.1250:
NULL.           -999.2500:
COMP.  MOBIL OIL OF CANADA                :COMPANY
WELL.  MOBIL CLARKE OV 2-19               :WELL
FLD.                                      :FIELD
LOC.   02-19-090-07W4                     :LOCATION
CTRY.  CANADA                             :COUNTRY
PROV.  ALBERTA                            :PROVINCE
SRVC.  DRESSER ATLAS                      :SERVICE COMPANY
DATE.  24-FEB-81                          :LOG DATE
UWI.   AA/02-19-090-07W400                :UNIQUE WELL ID
~Parameter Information Block
#MNEM.UNIT       Data                        Description of Mnemonic
#----.----      -------------------------- : -----------------------------
RUN .                   1                 : Run Number
GL  .M           444.6000                 : Ground Level Elevation
DREF.                  KB                 : Depth Reference
EREF.M           444.6000                 : Elevation of Depth Reference
TDL .M           186.3000                 : Total Depth Logger
TDD .M           185.0000                 : Total Depth Driller
CSGL.M            14.7000                 : Casing Bottom Logger
CSGD.M            14.7000                 : Casing Bottom Driller
CSGS.MM          219.0000                 : Casing Size
CSGW.KG/M          0.0000                 : Casing Weight
BHT .DEGC         20.0000                 : Bottom Hole Temperature
BS  .MM          159.0000                 : Bit Size
DFD .           9999.0000                 : Mud Weight (Density)
DFV .             90.0000                 : Mud Viscosity
RM  .OHMM          2.5000                 : Mud Resistivity
RMT .DEGC         20.0000                 : Mud Resistivity Temperature
~Curve Information Block
#MNEM.UNIT        API CODE    Curve Description
#---------    ------------    -------------------------------------------
DEPT.M                    :   DEPTH
CALI.MM       42 280  1  1:   3 DENSITY CALIPER
DPHI.V/V                  :   DPHI
DT  .US/M     60 520 32  1:   2 SONIC INTERVAL TRANSIT TIME (COMPENSATED)
GR  .GAPI     42 310  1  1:   4 GAMMA RAY
ILD .OHMM      5 120 45  1:   7 DEEP INDUCTION
NPHI.V/V      42 890  3  1:   5 NEUTRON POROSITY (SANDSTONE)
RHOB.K/M3     42 350  1  1:   6 BULK DENSITY
SN  .OHMM      5  40 16  1:   8 SHORT NORMAL
SP  .MV        5  10  1  1:   9 SPONTANEOUS POTENTIAL
~A  Depth           CALI        DPHI          DT          GR         ILD        NPHI        RHOB          SN          SP
# ...
174.1250        185.6000      0.3540    408.2000     35.7900     66.4500      0.4092   2065.8999    145.1000   -109.5600
174.2500        185.3000      0.3531    406.5200     35.8350     67.2500      0.4081   2069.0000    179.2500   -107.9700
174.3750        185.0000      0.3522    408.2000     35.2650     67.5000      0.3972   2064.7000    189.6000   -101.5050
174.5000        185.0000      0.3516    410.0800     34.3650     68.8000      0.3897   2061.6001    192.6500    -96.3900
174.6250        185.0000      0.3522    406.2800     34.5450     69.5000      0.3878   2061.0000    186.6000    -95.0250
174.7500        184.1000      0.3547    405.5600     34.9050     69.7000      0.3852   2053.1001    168.3000    -91.2150
174.8750        185.0000      0.3570    412.4800     35.4750     69.7500      0.3919   2050.7000    131.7000    -87.3750
175.0000        186.2000      0.3593    416.3200     36.3450     69.7500      0.3968   2056.2000    121.9500    -86.8800
175.1250        186.8000      0.3572    418.7200     37.1700     69.6000      0.3983   2063.5000    162.2000    -87.9000
175.2500        186.5000      0.3522    421.8400     37.2900     67.6000      0.4043   2067.1001    160.3500    -91.4550
175.3750        186.5000      0.3518    425.1600     35.6250     65.9999      0.4062   2070.2000    150.6000    -93.9900
175.5000        185.0000      0.3517    423.4800     33.2850     65.7000      0.4137   2071.3999    144.5000    -98.2800
175.6250        184.1000      0.3493    420.8800     33.5100     66.2000      0.4212   2073.8000    150.6000   -101.5350
175.7500        182.2750      0.3479    418.0000     33.8850     66.3500      0.4253   2072.6001    155.5000   -102.9150
175.8750        181.6750      0.3476    415.1200     34.3050     66.3500      0.4351   2072.6001    153.0500   -105.9750
176.0000        182.8750      0.3485    415.8400     35.8350     68.1500      0.4231   2069.6001    146.3500   -109.7550
176.1250        183.7750      0.3515    416.3200     37.3950     69.3000      0.4208   2059.2000    143.9000   -113.9850
176.2500        183.7750      0.3556    417.2800     39.3450     69.3500      0.4182   2059.2000    146.3500   -112.6650
176.3750        184.1000      0.3557    421.8400     39.2250     69.5500      0.4145   2053.7000    148.7500   -107.0250
176.5000        184.1000      0.3556    424.6800     39.0750     70.4000      0.4084   2048.8000    153.6500   -106.5450
176.6250        184.1000      0.3564    426.3600     38.9850     71.7000      0.4024   2047.6000    156.1000   -110.0850
176.7500        183.7750      0.3604    427.0800     40.6950     71.9000      0.3991   2047.0000    155.5000   -112.0050
176.8750        182.5750      0.3614    422.0800     40.6950     71.5500      0.4013   2049.3999    156.1000   -114.4800
177.0000        183.7750      0.3565    417.2800     40.2900     71.0500      0.3991   2059.8000    162.8000   -114.5100
177.1250        184.1000      0.3539    414.8800     39.2250     69.7500      0.4024   2070.8000    171.9500   -114.5400
177.2500        183.7750      0.3529    414.1600     39.6600     69.9999      0.4009   2074.3999    170.7000   -113.2350
177.3750        183.7750      0.3512    419.9200     40.2750     71.9000      0.4002   2067.1001    163.9999   -110.2950
177.5000        183.7750      0.3522    425.4000     40.8900     73.1500      0.4096   2053.1001    156.1000   -109.1250
177.6250        184.7000      0.3564    427.3200     41.5050     73.5500      0.4197   2044.0000    140.2500   -107.9400
177.7500        185.3000      0.3608    425.4000     42.1200     72.6000      0.4257   2045.2000    110.3500   -104.4150
177.8750        185.6000      0.3596    425.4000     42.6300     72.6500      0.4246   2050.7000    102.8500   -100.9200
178.0000        185.6000      0.3573    423.4800     43.1100     71.7000      0.4238   2046.4000    121.9500    -98.5500
178.1250        185.3000      0.3567    420.1600     43.5900     70.0500      0.4193   2039.7000    162.8000    -96.1200
178.2500        185.3000      0.3575    415.8400     44.0850     68.1500      0.4227   2040.3000    171.3500    -96.7650
178.3750        185.0000      0.3602    419.4400     43.4250     66.9000      0.4077   2046.4000    174.4000    -96.1950
178.5000        185.3000      0.3591    422.7600     42.7500     67.9500      0.4084   2044.6000    167.0500    -94.9950
178.6250        185.0000      0.3587    424.2000     43.2150     68.9500      0.4145   2025.7000    154.2500    -93.8250
178.7500        184.7000      0.3610    424.4400     43.9650     68.5000      0.4171   2005.5000    118.9000    -91.4700
178.8750        185.0000      0.3633    422.2800     45.6750     67.4000      0.4321   2007.4000     86.2500    -89.7000
179.0000        185.3000      0.3607    424.4400     45.3900     66.3500      0.4317   2042.7000     97.1000    -84.9900
179.1250        185.3000      0.3590    428.2800     44.8800     64.7000      0.4246   2057.3999    130.5000    -86.7300
179.2500        185.3000      0.3568    431.1600     44.6700     63.1500      0.4208   2048.2000    138.9999    -90.3900
179.3750        184.7000      0.3551    436.1600     44.5050     62.6500      0.4133   2048.2000    129.8500    -92.4300
179.5000        184.7000      0.3529    434.7200     43.5300     63.3000      0.4171   2057.3999    117.0500    -96.5250
179.6250        184.7000      0.3515    432.8400     42.5100     64.3500      0.4193   2068.3000    137.8000   -101.7000
179.7500        183.4750      0.3502    431.6400     43.4700     65.1000      0.4208   2074.3999    147.5500   -107.4450
179.8750        180.1750      0.3508    424.6800     44.6100     65.3500      0.4366   2071.3999    140.8500   -109.8300
180.0000        183.7750      0.3533    420.1600     45.9150     65.4000      0.4373   2068.3000    132.9000   -108.9600
180.1250        183.1750      0.3535    417.2800     45.6450     65.5000      0.4238   2069.6001    131.1000   -103.1700
180.2500        183.4750      0.3519    417.5200     45.3750     63.8500      0.4156   2066.5000    114.6000    -97.3950
180.3750        183.4750      0.3510    424.9200     44.8050     63.2500      0.4062   2061.6001    135.3500    -90.6750
180.5000        184.7000      0.3507    429.9600     43.5000     63.5000      0.4043   2059.8000    159.1500    -89.5050
180.6250        200.3500      0.3525    429.7200     42.1950     62.7000      0.4066   2064.7000    156.1000    -89.5350
180.7500        201.5500      0.3564    427.8000     41.2950     61.3000      0.4036   2059.8000    145.1000    -88.3650
180.8750        201.8500      0.3599    420.6400     41.4900     60.6500      0.4054   2046.4000    131.7000    -86.7450
181.0000        208.4750      0.3633    418.7200     41.6400     59.9999      0.3998   2033.6000    148.1500    -85.5000
181.1250        209.9750      0.3660    418.2400     42.1800     58.9500      0.3942   2033.6000    162.2000    -84.8550
181.2500        209.6750      0.3683    421.6000     42.9900     58.3000      0.3859   2035.4000    173.1500    -86.0850
181.3750        208.4750      0.3684    421.6000     42.9750     57.8000      0.3946   2031.2000    172.5500    -86.1150
181.5000        208.1750      0.3672    419.9200     42.9450     56.7500      0.4002   2037.3000    168.9000    -85.5600
181.6250        207.5750      0.3648    417.2800     42.9150     55.1000      0.3983   2045.2000    165.2500    -84.3900
181.7500        206.6750      0.3610    413.9200     42.8100     54.1500      0.3953   2058.0000    152.4500    -83.2050
181.8750        206.3750      0.3583    395.2800     42.6600     52.6000      0.3934   2064.7000    124.9999    -81.4500
182.0000        207.8750      0.3545    390.7200     42.5100     50.7500      0.3916   2078.1001    116.4500    -80.2650
182.1250        210.8750      0.3468    388.8000     42.3450     48.5300      0.3901   2079.8999    132.9000    -80.2650
182.2500        211.1750      0.3424    387.8400     41.9700     46.5950      0.3961   2080.5000    113.9999    -79.7700
182.3750        210.8750      0.3387    401.0000     41.4150     46.0150      0.3949   2087.2000     86.4000    -82.4550
