~VERSION INFORMATION
 VERS.                 2.0:   CWLS LOG ASCII STANDARD -VERSION 2.0
 WRAP.                  NO:   ONE LINE PER DEPTH STEP
~WELL INFORMATION BLOCK
#MNEM.UNIT           DATA                    DESCRIPTION OF MNEMONIC
#---------    -------------------            -------------------------------
# Generated from Intellog Unique Number	CC_84_87/WELL/1062
NULL.         -999.2500                      : null value
LOC .         05-25-085-09W4                 : Location     - LOCATION          
UWI .         AA/05-25-085-09W400            : Uwi          - UNIQUE WELL ID    
ENTR.         DW                             : Entered      - ENTERED BY        
SRVC.         SCHLUMBERGER                   : Scn          - SERVICE COMPANY   
STRT.M        200.000                        : top_depth    - START DEPTH       
STOP.M        449.893                        : bot_depth    - STOP DEPTH        
STEP.M        0.3                            : increment    - STEP LENGTH       
~CURVE INFORMATION BLOCK
#MNEM UNIT       ERCB CURVE CODE    CURVE DESCRIPTION
#-----------   ------------------   ----------------------------------
DEPT.M        00 001 00 00         : DEPTH        - DEPTH                       
DPHI.V/V      00 890 00 00         : PHID         - DENSITY POROSITY (LIMESTONE)
NPHI.V/V      00 330 00 00         : PHIN         - NEUTRON POROSITY (LIMESTONE)
GR  .API      00 310 00 00         : GR           - GAMMA RAY                   
ILD .OHMM     00 120 00 00         : RESD         - DEEP RESISTIVITY (DIL)      
~PARAMETER INFORMATION       
#MNEM.UNIT           DATA             DESCRIPTION OF MNEMONIC
#---------         -----------     ------------------------------
GL  .M        705                  : gl           - GROUND LEVEL ELEVATION      
EREF.M        708.5                : kb           - ELEVATION OF DEPTH REFERENCE
DATM.M        708.5                : datum        - DATUM ELEVATION             
TDD .M        449                  : tdd          - TOTAL DEPTH DRILLER         
RUN .         ONE                  : Run          - RUN NUMBER                  
ENG .         BILL                 : Engineer     - RECORDING ENGINEER          
WIT .         JIM                  : Witness      - WITNESSED BY                
MUD .         GEL                  : Mud_type     - MUD TYPE                    
MATR.         LIMESTONE            : Logunit      - NEUTRON MATRIX              
TMAX.C        17                   : BHT          - MAXIMUM RECORDED TEMPERATURE
BHTD.M        449                  : BHTDEP       - MAXIMUM RECORDED TEMPERATURE
MATR.         1                    : LOGUNIT      - NEUTRON MATRIX              
RMT .C        25                   : MDTP         - TEMPERATURE OF MUD          
NEUT.         1                    : NEUTRON      - NEUTRON TYPE                
RESI.         0                    : RESIST       - RESISTIVITY TYPE            
RMC .OHMM     0.25                 : RMC          - RESISTIVITY OF MUD CAKE     
RMF .OHMM     0.25                 : RMF          - RESISTIVITY OF MUD FILTRATE 
SUFT.C        15                   : SUFT         - SURFACE TEMPERATURE         
~A  DEPTH     PHID     PHIN       GR     RESD
# ...
  304.399    0.260    0.441   70.462    9.489
  304.699    0.267    0.431   61.755   10.046
  304.999    0.273    0.440   60.519   10.437
  305.299    0.283    0.449   64.264   10.637
  305.599    0.287    0.420   56.184   11.049
  305.899    0.289    0.408   57.437   11.048
  306.199    0.290    0.451   61.180   11.259
  306.499    0.298    0.434   56.208   11.257
  306.798    0.302    0.415   49.991   11.473
  307.098    0.302    0.409   51.869   11.472
  307.398    0.300    0.419   45.032   11.470
  307.698    0.300    0.403   40.682   11.252
  307.998    0.305    0.401   48.161   11.252
  308.298    0.309    0.431   38.833   11.250
  308.598    0.310    0.445   38.843   11.036
  308.898    0.306    0.436   41.964   11.035
  309.198    0.299    0.421   47.578   11.034
  309.498    0.303    0.444   50.076   11.461
  309.798    0.315    0.462   40.125   11.681
  310.098    0.301    0.464   32.662   11.904
  310.398    0.303    0.445   28.314   12.133
  310.698    0.313    0.445   33.926   12.132
  310.998    0.310    0.452   28.332   12.130
  311.298    0.304    0.457   25.854   12.129
  311.598    0.311    0.452   27.108   11.898
  311.898    0.319    0.458   23.382   11.896
  312.198    0.319    0.488   21.524   11.896
  312.498    0.310    0.475   23.399   11.449
  312.798    0.329    0.461   26.522   11.231
  313.098    0.332    0.446   26.529   10.605
  313.398    0.319    0.430   32.144   10.207
  313.698    0.301    0.420   39.001   10.013
  313.998    0.284    0.442   48.347    9.637
  314.298    0.251    0.455   53.336    9.099
  314.598    0.216    0.487   59.571    8.592
  314.898    0.218    0.501   67.052    8.113
  315.198    0.219    0.476   74.530    7.959
  315.498    0.218    0.460   83.255    7.807
  315.798    0.220    0.467   87.624    7.659
  316.098    0.217    0.457   85.765    7.658
  316.398    0.198    0.498   85.773    7.513
  316.698    0.200    0.512   90.762    6.960
  316.998    0.214    0.536   85.170    6.698
  317.298    0.215    0.504   82.066    6.698
  317.598    0.217    0.479   89.547    6.826
  317.898    0.222    0.481   90.803    6.957
  318.198    0.217    0.481   87.075    7.226
  318.498    0.215    0.476   84.594    7.089
  318.798    0.216    0.472   83.980    6.955
  319.098    0.209    0.478   82.748    6.567
  319.398    0.207    0.493   82.132    6.083
  319.698    0.219    0.506   79.029    5.968
  319.998    0.229    0.477   76.546    5.967
  320.298    0.230    0.456   79.045    5.966
  320.598    0.227    0.458   80.924    5.966
  320.898    0.230    0.459   77.200    6.316
  321.198    0.233    0.474   76.585    6.316
  321.498    0.233    0.512   72.857    6.437
  321.798    0.225    0.503   67.888    6.686
  322.098    0.213    0.508   68.520    6.945
  322.398    0.212    0.487   71.019    7.079
  322.698    0.222    0.490   75.389    7.078
  322.998    0.226    0.475   79.132    6.943
  323.298    0.231    0.458   82.252    6.942
  323.598    0.237    0.482   83.506    6.942
  323.898    0.236    0.512   81.648    6.941
  324.198    0.236    0.540   70.451    6.940
  324.498    0.233    0.539   64.856    6.940
  324.798    0.235    0.521   63.623    6.807
  325.098    0.244    0.519   66.743    6.807
  325.398    0.256    0.508   69.244    6.937
  325.698    0.258    0.509   68.632    7.070
  325.998    0.261    0.516   64.281    7.485
  326.298    0.263    0.506   58.067    7.926
  326.598    0.269    0.486   54.340    8.718
  326.898    0.269    0.476   61.196    9.963
  327.198    0.277    0.483   66.809   12.525
  327.498    0.297    0.495   59.348   13.517
  327.798    0.289    0.495   44.416   13.515
  328.098    0.276    0.500   44.426   11.601
  328.398    0.282    0.481   53.149    9.769
  328.698    0.276    0.471   50.046    8.711
  328.998    0.268    0.480   53.791    8.225
  329.298    0.283    0.515   57.536    8.224
  329.598    0.285    0.541   55.677    8.068
  329.898    0.287    0.561   51.952    8.067
  330.198    0.273    0.560   60.053    7.914
  330.498    0.247    0.547   70.024    8.065
  330.798    0.259    0.534   64.430    8.540
  331.098    0.258    0.511   65.684    9.393
  331.397    0.243    0.484   70.051    9.946
  331.697    0.239    0.496   70.684   10.136
  331.997    0.247    0.486   66.335    9.944
  332.297    0.249    0.475   63.853    9.570
  332.597    0.249    0.505   60.751    9.036
  332.897    0.248    0.490   59.514    8.697
  333.197    0.245    0.494   62.016    8.696
  333.497    0.245    0.484   61.404    8.695
  333.797    0.248    0.471   61.409    8.861
  334.097    0.247    0.459   62.664    9.205
  334.397    0.243    0.455   62.673    9.382
  334.697    0.242    0.450   62.059    9.381
  334.997    0.248    0.496   62.691    9.028
  335.297    0.250    0.507   65.192    8.525
  335.597    0.255    0.511   91.347    7.898
  335.897    0.255    0.528   90.111    7.178
  336.197    0.256    0.555   72.691    6.524
  336.497    0.249    0.578   71.454    5.818
  336.797    0.241    0.553   73.330    5.599
  337.097    0.240    0.563   71.473    5.599
  337.397    0.253    0.558   68.372    5.928
  337.697    0.268    0.528   65.268    7.038
  337.997    0.299    0.515   59.050    8.355
  338.297    0.306    0.498   52.211   10.111
  338.597    0.276    0.502   52.221   10.503
  338.897    0.265    0.511   57.211   10.108
  339.197    0.244    0.497   64.066    9.545
  339.497    0.219    0.492   65.945    8.675
  339.797    0.250    0.496   67.820    8.192
  340.097    0.252    0.528   76.546    7.446
  340.397    0.250    0.518   80.290    6.270
  340.697    0.269    0.511   78.432    5.485
  340.997    0.266    0.534   69.725    5.082
  341.297    0.244    0.572   71.602    4.279
  341.597    0.247    0.599   78.458    3.816
  341.897    0.249    0.578   83.448    3.403
  342.197    0.244    0.551   78.481    3.213
  342.497    0.241    0.549   75.999    3.213
  342.797    0.239    0.563   77.875    3.212
  343.097    0.240    0.537   81.618    3.337
  343.397    0.247    0.512   82.874    3.401
  343.697    0.255    0.531   79.149    3.741
  343.997    0.261    0.531   76.669    4.194
  344.297    0.267    0.529   74.187    5.173
  344.597    0.283    0.499   69.214    6.381
  344.897    0.288    0.503   68.603    7.154
  345.197    0.270    0.497   70.477    7.869
  345.497    0.265    0.535   71.733    7.868
  345.797    0.270    0.525   71.119    7.719
  346.097    0.265    0.508   66.148    7.429
  346.397    0.246    0.482   62.422    7.865
  346.697    0.246    0.479   60.562    8.328
  346.997    0.277    0.456   59.328    8.488
  347.297    0.291    0.458   54.978    8.169
  347.597    0.296    0.513   58.102    7.713
  347.897    0.278    0.519   63.714    7.145
  348.197    0.266    0.498   64.969    6.877
  348.497    0.280    0.470   64.353    6.494
  348.797    0.280    0.464   64.986    6.746
  349.097    0.292    0.453   68.109    8.320
  349.397    0.329    0.418   72.476   10.460
  349.697    0.334    0.377   74.353   15.029
  349.997    0.326    0.356   71.248   25.640
  350.297    0.266    0.323   56.939   29.865
  350.597    0.064    0.263   48.855   28.744
  350.897    0.064    0.247   43.884   22.858
  351.197    0.210    0.314   35.178   19.620
  351.497    0.254    0.458   49.506   16.210
  351.797    0.312    0.483   57.609   14.182
  352.097    0.323    0.468   57.617   12.172
  352.397    0.319    0.449   53.891   11.715
  352.697    0.257    0.469   52.658   11.939
  352.997    0.258    0.468   54.532   11.938
  353.297    0.318    0.461   59.522   12.640
  353.597    0.302    0.436   65.756   13.131
  353.897    0.267    0.448   68.259   13.640
  354.197    0.247    0.439   70.755   14.442
  354.497    0.322    0.419   75.124   15.885
  354.797    0.312    0.418   72.019   16.190
  355.097    0.283    0.382   60.200   16.188
  355.397    0.196    0.340   48.381   15.880
  355.697    0.303    0.440   39.052   15.579
  355.996    0.275    0.460   47.777   14.993
  356.296    0.250    0.465   51.523   14.157
