~VERSION INFORMATION
 VERS.                 2.0:   CWLS LOG ASCII STANDARD -VERSION 2.0
 WRAP.                  NO:   ONE LINE PER DEPTH STEP
~WELL INFORMATION BLOCK
#MNEM.UNIT           DATA                    DESCRIPTION OF MNEMONIC
#---------    -------------------            -------------------------------
# Generated from Intellog Unique Number	CN_91_93/WELL/3084
WELL.         IMPERIAL OIL LTD.              : Well_name    - WELL
LOC .         AA/09-16-092-14W4/0            : Location     - LOCATION
UWI .         AA/09-16-092-14W400            : Uwi          - UNIQUE WELL ID
ENTR.         JOETTE                         : Entered      - ENTERED BY
SRVC.         SCHLUMBERGER                   : Scn          - SERVICE COMPANY
DATE.         04/10/92                       : Date         - LOG DATE
STRT.F        100                            : top_depth    - START DEPTH
STOP.F        539.633                        : bot_depth    - STOP DEPTH
STEP.F        0.82                           : increment    - STEP LENGTH
 NULL. -999.2500:NULL Value
~CURVE INFORMATION BLOCK
#MNEM UNIT       ERCB CURVE CODE    CURVE DESCRIPTION
#-----------   ------------------   ----------------------------------
DEPT.F        00 001 00 00         : DEPTH        - DEPTH
GR  .API      00 310 00 00         : GR           - GAMMA RAY
NPHI.V/V      00 330 00 00         : PHIN         - NEUTRON POROSITY (SANDSTONE)
ILD .OHMM     00 120 00 00         : RESD         - DEEP RESISTIVITY (DIL)
~PARAMETER INFORMATION
#MNEM.UNIT           DATA             DESCRIPTION OF MNEMONIC
#---------         -----------     ------------------------------
GL  .F        1528.8               : gl           - GROUND LEVEL ELEVATION
EREF.F        1531.8               : kb           - ELEVATION OF DEPTH REFERENCE
DATM.F        1531.8               : datum        - DATUM ELEVATION
TDD .F        545                  : tdd          - TOTAL DEPTH DRILLER
RUN .         ONE                  : Run          - RUN NUMBER
ENG .         BILL                 : Engineer     - RECORDING ENGINEER
WIT .         JIM                  : Witness      - WITNESSED BY
MUD .         GEL                  : Mud_type     - MUD TYPE
MATR.         SANDSTONE            : Logunit      - NEUTRON MATRIX
TMAX.F        43                   : BHT          - MAXIMUM RECORDED TEMPERATURE
BHTD.F        545                  : BHTDEP       - MAXIMUM RECORDED TEMPERATURE
RMT .F        101                  : MDTP         - TEMPERATURE OF MUD
MUDD.LB/G     1.1                  : MWT          - MUD DENSITY
NEUT.         1                    : NEUTRON      - NEUTRON TYPE
RESI.         0                    : RESIST       - RESISTIVITY TYPE
RM  .OHMM     4.7                  : RM           - RESISTIVITY OF MUD
RMC .OHMM     4.7                  : RMC          - RESISTIVITY OF MUD CAKE
RMF .OHMM     4.7                  : RMF          - RESISTIVITY OF MUD FILTRATE
SUFT.F        5                    : SUFT         - SURFACE TEMPERATURE
~A  DEPTH       GR     PHIN     RESD
  100.000   70.121    0.352   25.424
  100.820   71.976    0.354   26.615
  101.640   74.091    0.358   28.101
  102.461   74.116    0.362   30.181
  103.281   73.350    0.354   31.742
  104.101   72.067    0.340   40.048
  104.921   80.460    0.322   40.645
  105.741   82.578    0.280   40.874
  106.562   74.225    0.292   40.432
  107.382   62.736    0.324   39.918
  108.202   69.301    0.368   39.848
  109.022   80.311    0.381   40.223
  109.843   89.231    0.391   40.747
  110.663   95.796    0.404   40.158
  111.483   98.172    0.421   36.974
  112.303  100.028    0.433   28.381
  113.123   99.788    0.432   25.643
  113.944   98.764    0.428   23.573
  114.764  100.096    0.415   20.908
  115.584  101.162    0.420   18.912
  116.404   97.783    0.427   17.433
  117.224  102.517    0.438   16.177
  118.045  106.463    0.437   14.996
  118.865  108.319    0.445   14.334
  119.685  109.649    0.452   14.042
  120.505  114.382    0.440   13.897
  121.325  116.497    0.428   13.606
  122.146  122.013    0.426   13.313
  122.966  123.604    0.435   13.169
  123.786  122.844    0.453   13.323
  124.606  118.942    0.463   13.548
  125.427  112.947    0.460   13.776
  126.247  113.754    0.438   14.003
  127.067  119.272    0.433   14.377
  127.887  115.631    0.433   14.826
  128.707  120.362    0.429   15.350
  129.528  115.675    0.419   15.576
  130.348  110.726    0.416   15.285
  131.168  106.827    0.412   15.066
  131.988  114.174    0.411   15.519
  132.808  116.812    0.409   15.819
  133.629  114.741    0.406   16.191
  134.449  117.908    0.402   17.235
  135.269  120.807    0.408   16.944
  136.089  118.734    0.415   16.649
  136.909  117.974    0.425   16.283
  137.730  115.118    0.438   15.917
  138.550  114.616    0.451   15.107
  139.370  109.932    0.454   14.962
  140.190  112.567    0.453   14.596
  141.010  109.188    0.452   14.231
  141.831  112.875    0.448   13.790
  142.651  117.873    0.448   13.349
  143.471  115.802    0.460   12.910
  144.291  116.083    0.458   12.543
  145.112  116.108    0.451   12.324
  145.932  112.203    0.459   11.958
  146.752  112.225    0.465   11.518
  147.572  107.799    0.460   11.152
  148.392  107.039    0.457   10.860
  149.213  110.988    0.447   10.568
  150.033  108.394    0.435   10.128
  150.853  112.340    0.428    9.836
  151.673  111.580    0.435    9.619
  152.493  113.956    0.443    9.402
  153.314  109.266    0.460    9.255
  154.134  110.340    0.473    9.113
  154.954  106.173    0.474    8.967
  155.774  108.027    0.471    9.047
  156.594  111.188    0.470    9.199
  157.415  115.398    0.462    9.280
  158.235  112.281    0.448    9.283
  159.055  115.965    0.448    9.214
  159.875  106.569    0.450    9.219
  160.696  105.283    0.455    9.296
  161.516  105.308    0.457    9.375
  162.336  113.178    0.456    9.452
  163.156  115.034    0.449    9.457
  163.976  115.317    0.448    9.388
  164.797  111.154    0.438    9.392
  165.617  103.850    0.421    9.322
  166.437   96.809    0.411    9.251
  167.257   98.400    0.419    9.181
  168.077   99.210    0.439    8.964
  168.898  100.801    0.446    8.897
  169.718   95.591    0.435    8.899
  170.538   96.662    0.424    9.052
  171.358   92.496    0.423    9.354
  172.178   89.901    0.434    9.803
  172.999   99.606    0.446   10.621
  173.819  110.618    0.456   11.591
  174.639  112.210    0.450   12.335
  175.459  113.801    0.439   13.302
  176.280  103.882    0.428   13.308
  177.100   95.532    0.417   11.384
  177.920   91.107    0.412   10.277
  178.740   93.483    0.418    9.466
  179.560   92.723    0.415    9.841
  180.381   95.102    0.400   10.364
  181.201   92.505    0.394   11.035
  182.021   84.155    0.398   12.226
  182.841   90.197    0.411   12.602
  183.661   97.021    0.423   12.904
  184.482  101.231    0.417   13.574
  185.302  105.177    0.407   14.986
  186.122  113.048    0.404   16.622
  186.942  108.363    0.396   18.479
  187.762  105.769    0.401   16.778
  188.583  102.652    0.394   13.670
  189.403   97.180    0.387   11.376
  190.223   88.045    0.384    9.675
  191.043   77.864    0.384    9.904
  191.864   72.133    0.386   10.055
  192.684   70.586    0.390   11.764
  193.504   72.436    0.387   13.844
  194.324   75.600    0.391   17.036
  195.144   73.791    0.395   18.819
  195.965   77.737    0.398   19.343
  196.785   81.947    0.400   19.569
  197.605   83.277    0.404   20.240
  198.425   81.468    0.408   20.690
  199.245   88.030    0.413   16.025
  200.066   91.717    0.416   14.918
  200.886   92.262    0.415   15.292
  201.706   91.241    0.411   15.889
  202.526   94.143    0.409   14.634
  203.346   89.979    0.404   13.229
  204.167   87.382    0.398   12.641
  204.987   87.145    0.387   11.684
  205.807   88.475    0.390   11.687
  206.627   91.636    0.430   13.321
  207.448   97.937    0.445   15.253
  208.268   98.223    0.438   15.926
  209.088  101.126    0.427   15.114
  209.908  102.456    0.425   14.006
  210.728  105.617    0.421   13.789
  211.549  107.993    0.417   11.865
  212.369  112.201    0.415   11.203
  213.189  114.057    0.415   10.318
  214.009  106.754    0.412    9.284
  214.829  101.020    0.411    8.695
  215.650   98.690    0.408    9.368
  216.470  100.802    0.408   10.335
  217.290   98.208    0.408   11.824
  218.110   98.497    0.408   11.531
  218.930   96.685    0.412   11.536
  219.751   95.137    0.416   11.835
  220.571   93.328    0.421   12.434
  221.391   99.631    0.428   12.587
  222.211  104.101    0.429   12.442
  223.031  103.599    0.401   12.001
  223.852   99.174    0.358   11.338
  224.672   95.539    0.316   10.750
  225.492   88.494    0.300    9.940
  226.312   77.526    0.283    9.203
  227.133   66.298    0.319    9.429
  227.953   55.856    0.378   11.583
  228.773   53.523    0.401   14.923
  229.593   69.244    0.401   16.410
  230.413   86.535    0.388   37.539
  231.234   92.313    0.393   36.135
  232.054   94.172    0.407   33.694
  232.874   94.717    0.415   26.433
  233.694   99.448    0.411   15.617
  234.514  100.516    0.402   17.844
  235.335   87.719    0.393   15.699
  236.155   80.418    0.395   12.517
  236.975   79.394    0.403   11.781
  237.795   81.244    0.415   12.451
  238.615   86.501    0.414   14.087
  239.436   96.988    0.404   14.759
  240.256  102.768    0.384   14.393
  241.076   91.802    0.381   12.469
  241.896   91.039    0.397   10.694
  242.717   96.032    0.417   10.625
  243.537  101.291    0.418   11.444
  244.357  100.267    0.402   13.228
  245.177  101.071    0.399   13.528
  245.997   99.784    0.403   11.754
  246.818   96.408    0.415   10.795
  247.638   98.528    0.421   10.280
  248.458  100.638    0.422   10.358
  249.278  102.494    0.423   10.734
  250.098   98.333    0.433   10.887
  250.919   95.997    0.442   11.039
  251.739   97.850    0.449   11.117
  252.559  101.797    0.449   10.677
  253.379  101.824    0.450   10.237
  254.199  104.198    0.455   10.983
  255.020  109.190    0.462   11.431
  255.840  116.540    0.462    9.879
  256.660  119.963    0.457    9.439
  257.480  118.941    0.450    8.925
  258.301  122.364    0.439    9.226
  259.121  121.604    0.428    9.527
  259.941  123.719    0.430    9.827
  260.761  120.604    0.442    9.980
  261.581  123.762    0.449    9.318
  262.402  121.691    0.444    9.026
  263.222  120.405    0.442    8.956
  264.042  119.383    0.444    9.183
  264.862  117.574    0.444    9.411
  265.682  118.904    0.434    9.340
  266.503  123.899    0.415    9.270
  267.323  122.875    0.390    9.200
  268.143  111.909    0.372    9.649
  268.963  101.725    0.361   13.804
  269.783   84.481    0.359   17.366
  270.604   75.346    0.352   22.930
  271.424   73.537    0.340   23.602
  272.244   77.224    0.348   21.087
  273.064   77.249    0.357   19.089
  273.885   73.605    0.364   17.388
  274.705   71.537    0.372   22.952
  275.525   72.079    0.384   24.959
  276.345   73.935    0.350   24.517
  277.165   74.219    0.313   24.152
