~VERSION INFORMATION
 VERS.                 2.0:   CWLS LOG ASCII STANDARD -VERSION 2.0
 WRAP.                  NO:   ONE LINE PER DEPTH STEP
~WELL INFORMATION BLOCK
#MNEM.UNIT           DATA                    DESCRIPTION OF MNEMONIC
#---------    -------------------            -------------------------------
# Generated from Intellog Unique Number	CC_84_87/WELL/1181
NULL.         -999.25                        : NULL_VALUE
WELL.         SUN CHEECHAM-19                : Well_name    - WELL              
LOC .         09-29-084-07W4                 : Location     - LOCATION          
UWI .         AA/09-29-084-07W4/0            : Uwi          - UNIQUE WELL ID    
ENTR.         JHS                            : Entered      - ENTERED BY        
SRVC.         SCHLUMBERGER                   : Scn          - SERVICE COMPANY   
DATE.         20 JAN 80                      : Date         - LOG DATE
STRT.M        140                            : top_depth    - START DEPTH       
STOP.M        430.094                        : bot_depth    - STOP DEPTH        
STEP.M        0.3                            : increment    - STEP LENGTH       
~CURVE INFORMATION BLOCK
#MNEM UNIT       ERCB CURVE CODE    CURVE DESCRIPTION
#-----------   ------------------   ----------------------------------
DEPT.M        00 001 00 00         : DEPTH        - DEPTH                       
ILD .OHMM     00 120 00 00         : RESD         - DEEP RESISTIVITY (DIL)      
GR  .API      00 310 00 00         : GR           - GAMMA RAY                   
NPHI.V/V      00 330 00 00         : PHIN         - NEUTRON POROSITY (LIMESTONE)
DPHI.V/V      00 890 00 00         : PHID         - DENSITY POROSITY (LIMESTONE)
~PARAMETER INFORMATION       
#MNEM.UNIT           DATA             DESCRIPTION OF MNEMONIC
#---------         -----------     ------------------------------
GL  .M        597.9                : gl           - GROUND LEVEL ELEVATION      
EREF.M        600.85               : kb           - ELEVATION OF DEPTH REFERENCE
DATM.M        600.85               : datum        - DATUM ELEVATION             
TDD .M        434                  : tdd          - TOTAL DEPTH DRILLER         
RUN .         ONE                  : Run          - RUN NUMBER                  
ENG .         BILL                 : Engineer     - RECORDING ENGINEER          
WIT .         JIM                  : Witness      - WITNESSED BY                
MUD .         GEL                  : Mud_type     - MUD TYPE                    
MATR.         LIMESTONE            : Logunit      - NEUTRON MATRIX              
TMAX.C        20                   : BHT          - MAXIMUM RECORDED TEMPERATURE
BHTD.M        434                  : BHTDEP       - MAXIMUM RECORDED TEMPERATURE
MATR.         1                    : LOGUNIT      - NEUTRON MATRIX              
RMT .C        25                   : MDTP         - TEMPERATURE OF MUD          
NEUT.         1                    : NEUTRON      - NEUTRON TYPE                
RESI.         0                    : RESIST       - RESISTIVITY TYPE            
RMC .OHMM     0.25                 : RMC          - RESISTIVITY OF MUD CAKE     
RMF .OHMM     0.25                 : RMF          - RESISTIVITY OF MUD FILTRATE 
SUFT.C        15                   : SUFT         - SURFACE TEMPERATURE         
~A  DEPTH     RESD       GR     PHIN     PHID
# ...
  400.995    0.892   38.810    0.386    0.300
  401.295    0.843   26.244    0.382    0.315
  401.595    0.812   16.068    0.375    0.319
  401.895    0.797   16.050    0.376    0.333
  402.195    0.768   15.429    0.382    0.318
  402.495    0.768   13.621    0.388    0.340
  402.795    0.767   13.011    0.396    0.346
  403.095    0.767   14.783    0.387    0.339
  403.395    0.841   21.340    0.380    0.339
  403.695    1.070   45.819    0.380    0.296
  403.995    1.386   72.690    0.394    0.242
  404.295    1.829  131.228    0.422    0.160
  404.595    2.600  131.210    0.448    0.178
  404.895    3.368  125.812    0.477    0.183
  405.195    3.559  122.807    0.509    0.193
  405.495    3.624  124.581    0.501    0.209
  405.795    3.690  129.345    0.488    0.220
  406.095    3.758  122.157    0.465    0.230
  406.395    3.827  120.944    0.443    0.238
  406.695    3.897  127.496    0.459    0.180
  406.995    3.896  131.066    0.430    0.146
  407.295    3.895  125.075    0.398    0.157
  407.595    3.822  119.679    0.408    0.127
  407.895    3.750  120.857    0.402    0.105
  408.195    3.681  138.166    0.391    0.103
  408.495    3.679  145.320    0.395    0.179
  408.795    3.544  142.308    0.413    0.189
  409.095    3.478  139.307    0.434    0.181
  409.395    3.477  133.312    0.419    0.169
  409.695    3.541  131.506    0.432    0.180
  409.995    3.673  127.303    0.418    0.169
  410.295    3.810  126.093    0.430    0.142
  410.595    3.809  120.697    0.420    0.128
  410.895    3.808  114.704    0.401    0.145
  411.195    3.806  117.076    0.380    0.167
  411.495    3.735  129.008    0.364    0.179
  411.795    3.666  126.600    0.382    0.172
  412.095    3.597  127.181    0.397    0.154
  412.395    3.465  133.734    0.393    0.172
  412.695    3.276  141.486    0.388    0.181
  412.995    3.216  143.858    0.399    0.154
  413.295    3.041  143.839    0.419    0.166
  413.595    2.771  139.041    0.435    0.185
  413.895    2.525  136.633    0.454    0.197
  414.195    2.433  136.617    0.472    0.210
  414.495    2.258  138.388    0.488    0.214
  414.795    2.216  140.166    0.506    0.209
  415.095    2.256  135.365    0.549    0.207
  415.395    2.341  135.352    0.556    0.205
  415.695    2.340  135.331    0.526    0.202
  415.995    2.339  133.522    0.499    0.205
  416.295    2.382  135.896    0.514    0.218
  416.595    2.517  135.280    0.515    0.234
  416.895    2.611  145.419    0.489    0.218
  417.195    2.709  148.387    0.447    0.184
  417.495    2.916  141.796    0.430    0.195
  417.795    3.198  128.633    0.408    0.236
  418.095    3.443  121.449    0.435    0.259
  418.395    3.638  105.299    0.458    0.330
  418.695    3.774  104.082    0.495    0.395
  418.995    3.704  108.847    0.534    0.552
  419.295    3.438  166.190    0.613    0.581
  419.595    3.251  171.550    0.589    0.509
  419.895    2.962  172.127    0.420    0.190
  420.194    2.802  164.941    0.395    0.179
  420.494    2.649  157.154    0.409    0.160
  420.794    2.649  151.164    0.418    0.125
  421.094    2.747  134.416    0.408    0.094
  421.394    2.850  110.499    0.421    0.059
  421.694    3.126   92.556    0.385    0.047
  421.994    3.428   84.173    0.329    0.010
  422.294    4.124   76.388    0.255    0.028
  422.594    5.342   63.225    0.217    0.042
  422.894    7.593   48.864    0.173    0.051
  423.194   10.020   27.937    0.148    0.027
  423.494   12.279   21.347    0.129    0.024
  423.794   13.218   21.325    0.128    0.020
  424.094   13.214   22.505    0.136    0.015
  424.394   13.457   22.488    0.136    0.006
  424.694   13.453   21.870    0.124    0.000
  424.994   13.201   21.853    0.130    0.008
  425.294   13.197   23.625    0.143    0.001
  425.594   12.711   26.002    0.147    0.008
  425.894   12.708   28.374    0.148    0.003
  426.194   12.471   28.355    0.143    0.000
  426.494   12.466   28.339    0.135    0.012
  426.794   12.009   28.918    0.141    0.002
  427.094   11.569   31.291    0.160    0.015
  427.394   11.780   36.049    0.174    0.022
  427.694   11.997   33.046    0.159    0.012
  427.994   12.678   31.230    0.147    0.021
  428.294   13.398   32.414    0.152    0.019
  428.594   14.692   35.384    0.157    0.023
  428.894   15.817   30.587    0.150    0.015
  429.194   16.715   25.192    0.127    0.026
  429.494   17.339   34.733    0.116    0.024
  429.794   16.397   43.679    0.126    0.000
  430.094    0.000   44.856    0.142    0.010
