~VERSION INFORMATION
 VERS.                 2.0:   CWLS LOG ASCII STANDARD -VERSION 2.0
 WRAP.                  NO:   ONE LINE PER DEPTH STEP
~WELL INFORMATION BLOCK
#MNEM.UNIT           DATA                    DESCRIPTION OF MNEMONIC
#---------    -------------------            -------------------------------
# Generated from Intellog Unique Number	CX_WELLS/WELL/1056
WELL.         COSEKA TOTAL LYNTON CTL 10     : Well_name    - WELL
LOC .         AA/05-03-088-07W4/0            : Location     - LOCATION
UWI .         AA/05-03-088-07W400            : Uwi          - UNIQUE WELL ID
ENTR.         DW                             : Entered      - ENTERED BY
SRVC.         SCHLUMBERGER                   : Scn          - SERVICE COMPANY
STRT.M        35                             : top_depth    - START DEPTH
STOP.M        160                            : bot_depth    - STOP DEPTH
STEP.M        0.25                           : increment    - STEP LENGTH
 NULL. -999.2500:NULL Value
~CURVE INFORMATION BLOCK
#MNEM UNIT       ERCB CURVE CODE    CURVE DESCRIPTION
#-----------   ------------------   ----------------------------------
DEPT.M        00 001 00 00         : DEPTH        - DEPTH
GR  .API      00 310 00 00         : GR           - GAMMA RAY
NPHI.V/V      00 330 00 00         : PHIN         - NEUTRON POROSITY (SANDSTONE)
DPHI.V/V      00 890 00 00         : PHID         - DENSITY POROSITY (SANDSTONE)
ILD .OHMM     00 120 00 00         : RESD         - DEEP RESISTIVITY (DIL)
~PARAMETER INFORMATION
#MNEM.UNIT           DATA             DESCRIPTION OF MNEMONIC
#---------         -----------     ------------------------------
GL  .M        402.77               : gl           - GROUND LEVEL ELEVATION
EREF.M        404.27               : kb           - ELEVATION OF DEPTH REFERENCE
DATM.M        404.27               : datum        - DATUM ELEVATION
TDD .M        167                  : tdd          - TOTAL DEPTH DRILLER
RUN .         ONE                  : Run          - RUN NUMBER
ENG .         BILL                 : Engineer     - RECORDING ENGINEER
WIT .         JIM                  : Witness      - WITNESSED BY
MUD .         GEL                  : Mud_type     - MUD TYPE
MATR.         SANDSTONE            : Logunit      - NEUTRON MATRIX
TMAX.C        25                   : BHT          - MAXIMUM RECORDED TEMPERATURE
BHTD.M        167                  : BHTDEP       - MAXIMUM RECORDED TEMPERATURE
MATR.         1                    : LOGUNIT      - NEUTRON MATRIX
RMT .C        25                   : MDTP         - TEMPERATURE OF MUD
NEUT.         1                    : NEUTRON      - NEUTRON TYPE
RESI.         0                    : RESIST       - RESISTIVITY TYPE
RMC .OHMM     0.25                 : RMC          - RESISTIVITY OF MUD CAKE
RMF .OHMM     0.25                 : RMF          - RESISTIVITY OF MUD FILTRATE
SUFT.C        4                    : SUFT         - SURFACE TEMPERATURE
~A  DEPTH       GR     PHIN     PHID     RESD
# ...
   78.500  108.561    0.467    0.257    7.877
   78.750  107.381    0.474    0.254    7.597
   79.000  106.201    0.477    0.252    7.466
   79.250  106.221    0.479    0.242    7.469
   79.500  106.246    0.480    0.233    7.613
   79.750  105.666    0.480    0.206    7.906
   80.000  103.291    0.475    0.196    8.057
   80.250  100.310    0.466    0.173    8.216
   80.500   97.330    0.464    0.126    8.220
   80.750   97.350    0.427    0.120    8.536
   81.000   99.775    0.419    0.166    8.701
   81.250  101.585    0.424    0.220    8.867
   81.500  103.410    0.448    0.213    8.877
   81.750  104.025    0.453    0.208    8.881
   82.000  104.050    0.463    0.231    8.889
   82.250  102.870    0.474    0.238    8.266
   82.500  101.090    0.483    0.259    7.408
   82.750   99.305    0.491    0.272    6.401
   83.000   96.924    0.504    0.284    5.045
   83.250   95.749    0.521    0.298    3.978
   83.500   95.779    0.552    0.305    3.501
   83.750   96.394    0.569    0.297    3.503
   84.000   96.414    0.550    0.288    3.843
   84.250   96.434    0.524    0.287    4.454
   84.500   97.054    0.522    0.281    5.164
   84.750   97.074    0.517    0.274    5.169
   85.000   95.894    0.500    0.267    5.171
   85.250   95.909    0.489    0.264    5.469
   85.500   96.529    0.493    0.265    6.456
   85.750   97.749    0.505    0.270    6.228
   86.000   98.369    0.519    0.280    5.686
   86.250   98.389    0.488    0.294    5.098
   86.500   98.409    0.481    0.294    5.292
   86.750   99.039    0.478    0.268    5.914
   87.000  100.259    0.474    0.262    6.488
   87.250  100.874    0.481    0.260    6.734
   87.500  102.094    0.481    0.258    6.991
   87.750  102.714    0.476    0.258    6.622
   88.000  103.334    0.488    0.258    6.271
   88.250  103.955    0.526    0.259    5.519
   88.500  103.974    0.542    0.263    4.513
   88.750  103.994    0.517    0.263    4.434
   89.000  104.019    0.526    0.260    4.278
   89.250  105.240    0.538    0.259    4.204
   89.500  105.860    0.546    0.256    4.285
   89.750  105.885    0.540    0.255    4.368
   90.000  106.505    0.534    0.261    4.371
   90.250  107.120    0.542    0.265    4.295
   90.500  107.745    0.551    0.270    4.299
   90.750  107.765    0.551    0.263    4.302
   91.000  108.385    0.538    0.251    4.385
   91.250  107.805    0.522    0.241    4.471
   91.500  107.829    0.509    0.241    4.557
   91.750  107.839    0.512    0.241    4.730
   92.000  107.259    0.518    0.243    4.821
   92.250  106.679    0.516    0.245    4.826
   92.500  104.299    0.500    0.246    4.918
   92.750  101.919    0.468    0.263    5.495
   93.000   98.343    0.435    0.281    6.730
   93.250   94.763    0.421    0.286   11.902
   93.500   91.182    0.404    0.288   13.798
   93.750   87.602    0.390    0.289   15.417
   94.000   84.022    0.396    0.287   16.003
   94.250   79.846    0.398    0.280   17.236
   94.500   78.666    0.398    0.271   18.226
   94.750   79.886    0.389    0.250   20.001
   95.000   81.101    0.369    0.177   21.542
   95.250   82.321    0.345    0.146   24.511
   95.500   85.947    0.374    0.196   23.650
   95.750   88.362    0.394    0.235   21.587
   96.000   91.982    0.409    0.251   18.653
   96.250   95.603    0.426    0.271   14.435
   96.500   96.833    0.427    0.278   10.769
   96.750   94.447    0.422    0.284   10.014
   97.000   81.861    0.410    0.292   13.444
   97.250   71.680    0.372    0.304   16.166
   97.500   69.899    0.366    0.306   17.734
   97.750   77.730    0.391    0.293   18.753
   98.000   79.545    0.401    0.279   20.953
   98.250   78.370    0.404    0.269   23.420
   98.500   76.595    0.403    0.272   23.438
   98.750   76.015    0.403    0.278   23.456
   99.000   76.630    0.404    0.287   25.263
   99.250   77.850    0.404    0.284   26.714
   99.500   79.670    0.406    0.277   26.253
   99.750   80.885    0.407    0.276   25.316
  100.000   83.306    0.404    0.280   23.546
  100.250   87.536    0.401    0.281   21.497
  100.500   89.351    0.400    0.277   19.622
  100.750   93.572    0.400    0.267   17.589
  101.000   94.197    0.397    0.254   16.659
  101.250   90.611    0.395    0.259   15.778
  101.500   85.231    0.394    0.263   14.947
  101.750   79.850    0.393    0.268   16.393
  102.000   78.670    0.391    0.270   18.656
  102.250   79.895    0.390    0.274   22.438
  102.500   82.910    0.386    0.275   24.619
  102.750   87.731    0.386    0.268   22.889
  103.000   93.156    0.386    0.256   20.143
  103.250   94.977    0.386    0.244   18.390
  103.500   94.996    0.387    0.247   16.185
  103.750   89.016    0.394    0.258   14.507
  104.000   75.829    0.405    0.267   13.245
  104.250   69.853    0.401    0.282   12.545
  104.500   63.268    0.395    0.295   14.017
  104.750   56.687    0.390    0.302   17.485
  105.000   59.722    0.395    0.318   18.496
  105.250   60.942    0.400    0.317   18.167
  105.500   62.157    0.401    0.316   17.209
  105.750   63.973    0.403    0.314   16.003
  106.000   66.998    0.409    0.314   15.438
  106.250   68.818    0.419    0.313   14.893
  106.500   71.233    0.428    0.315   14.633
  106.750   74.254    0.432    0.319   14.641
  107.000   77.879    0.435    0.322   14.655
  107.250   80.899    0.438    0.323   14.669
  107.500   84.525    0.438    0.320   14.413
  107.750   87.545    0.438    0.314   14.424
  108.000   89.970    0.438    0.302   14.173
  108.250   91.180    0.439    0.298   14.181
  108.500   93.601    0.436    0.294   13.936
  108.750   97.226    0.428    0.286   13.447
  109.000   99.041    0.424    0.278   12.967
  109.250  101.461    0.418    0.274   12.511
  109.500  105.097    0.415    0.267   12.291
  109.750  106.907    0.415    0.258   12.081
  110.000  108.127    0.421    0.251   11.866
  110.250  110.552    0.431    0.246   11.449
  110.500  111.777    0.445    0.244   11.042
  110.750  112.987    0.455    0.244   10.652
  111.000  113.608    0.467    0.248   10.091
  111.250  115.428    0.484    0.251    9.557
  111.500  116.653    0.501    0.255    9.220
  111.750  118.473    0.509    0.260    9.057
  112.000  120.298    0.512    0.261    8.582
  112.250  122.118    0.514    0.262    8.279
  112.500  122.138    0.514    0.263    7.985
  112.750  121.553    0.513    0.268    7.703
  113.000  120.973    0.511    0.270    7.165
  113.250  119.793    0.516    0.270    7.039
  113.500  117.413    0.521    0.267    6.916
  113.750  115.037    0.527    0.262    6.794
  114.000  113.857    0.534    0.260    6.557
  114.250  113.277    0.546    0.276    6.559
  114.500  113.297    0.559    0.310    6.445
  114.750  113.312    0.570    0.327    6.693
  115.000  113.337    0.573    0.334    7.209
  115.250  113.357    0.562    0.324    7.482
  115.500  112.777    0.543    0.307    7.769
  115.750  112.197    0.531    0.271    7.775
  116.000  111.617    0.510    0.255    7.925
  116.250  111.637    0.474    0.238    8.230
  116.500  109.856    0.454    0.217    8.544
  116.750  105.676    0.433    0.209    8.870
  117.000  100.895    0.415    0.202    9.209
  117.250  101.515    0.402    0.195    9.559
  117.500  105.136    0.392    0.195   10.296
  117.750  109.961    0.383    0.198   11.091
  118.000  111.776    0.389    0.208   11.945
  118.250  114.797    0.405    0.214   13.104
  118.500  116.622    0.425    0.223   13.357
  118.750  115.442    0.444    0.232   10.722
  119.000  113.061    0.462    0.232    9.096
  119.250  108.886    0.491    0.222    7.860
  119.500  106.501    0.493    0.212    7.866
  119.750  104.720    0.423    0.205    8.018
  120.000  104.140    0.407    0.212    8.479
  120.250  102.960    0.390    0.218    9.303
  120.500   99.980    0.358    0.228   10.393
  120.750   95.799    0.349    0.234   12.046
  121.000   88.018    0.310    0.282   14.757
  121.250   76.037    0.271    0.332   16.185
  121.500   62.855    0.246    0.353   18.422
  121.750   58.080    0.149    0.373   21.349
