~VERSION INFORMATION
 VERS.                 2.0:   CWLS LOG ASCII STANDARD -VERSION 2.0
 WRAP.                  NO:   ONE LINE PER DEPTH STEP
~WELL INFORMATION BLOCK
#MNEM.UNIT           DATA                    DESCRIPTION OF MNEMONIC
#---------    -------------------            -------------------------------
# Generated from Intellog Unique Number	CN_94_101/WELL/3216
WELL.         01-01-096-07W4                 : Well_name    - WELL
LOC .         AA/01-01-096-07W4/0            : Location     - LOCATION
UWI .         AA/01-01-096-07W400            : Uwi          - UNIQUE WELL ID
ENTR.         JOETTE                         : Entered      - ENTERED BY
SRVC.         SCHLUMBERGER                   : Scn          - SERVICE COMPANY
DATE.         07/20/92                       : Date         - LOG DATE
STRT.M        25                             : top_depth    - START DEPTH
STOP.M        205                            : bot_depth    - STOP DEPTH
STEP.M        0.25                           : increment    - STEP LENGTH
 NULL. -999.2500:NULL Value
~CURVE INFORMATION BLOCK
#MNEM UNIT       ERCB CURVE CODE    CURVE DESCRIPTION
#-----------   ------------------   ----------------------------------
DEPT.M        00 001 00 00         : DEPTH        - DEPTH
ILD .OHMM     00 120 00 00         : RESD         - DEEP RESISTIVITY (DIL)
GR  .API      00 310 00 00         : GR           - GAMMA RAY
NPHI.V/V      00 330 00 00         : PHIN         - NEUTRON POROSITY (SANDSTONE)
DPHI.V/V      00 890 00 00         : PHID         - DENSITY POROSITY (SANDSTONE)
~PARAMETER INFORMATION
#MNEM.UNIT           DATA             DESCRIPTION OF MNEMONIC
#---------         -----------     ------------------------------
GL  .M        488.01               : gl           - GROUND LEVEL ELEVATION
EREF.M        490.01               : kb           - ELEVATION OF DEPTH REFERENCE
DATM.M        490.01               : datum        - DATUM ELEVATION
TDD .M        205                  : tdd          - TOTAL DEPTH DRILLER
RUN .         ONE                  : Run          - RUN NUMBER
ENG .         JO                   : Engineer     - RECORDING ENGINEER
WIT .         TIM                  : Witness      - WITNESSED BY
MUD .         GEL                  : Mud_type     - MUD TYPE
MATR.         SANDSTONE            : Logunit      - NEUTRON MATRIX
TMAX.C        13                   : BHT          - MAXIMUM RECORDED TEMPERATURE
BHTD.M        205                  : BHTDEP       - MAXIMUM RECORDED TEMPERATURE
RMT .C        13                   : MDTP         - TEMPERATURE OF MUD
MUDD.KG/M     1110                 : MWT          - MUD DENSITY
NEUT.         1                    : NEUTRON      - NEUTRON TYPE
RESI.         0                    : RESIST       - RESISTIVITY TYPE
RM  .OHMM     4.23                 : RM           - RESISTIVITY OF MUD
RMC .OHMM     4.23                 : RMC          - RESISTIVITY OF MUD CAKE
RMF .OHMM     4.23                 : RMF          - RESISTIVITY OF MUD FILTRATE
SUFT.C        4                    : SUFT         - SURFACE TEMPERATURE
~A  DEPTH     RESD       GR     PHIN     PHID
# ...
   68.500   31.036   89.420    0.275    0.219
   68.750   31.703   91.972    0.285    0.217
   69.000   31.212   92.692    0.312    0.201
   69.250   30.176   92.801    0.310    0.198
   69.500   29.671   92.234    0.303    0.204
   69.750   29.175   91.100    0.299    0.213
   70.000   28.669   89.965    0.304    0.230
   70.250   27.717   88.242    0.291    0.231
   70.500   27.787   88.329    0.290    0.236
   70.750   27.822   89.027    0.316    0.238
   71.000   28.437   90.336    0.330    0.252
   71.250   29.617   91.012    0.333    0.252
   71.500   30.253   91.710    0.324    0.225
   71.750   30.291   91.209    0.309    0.240
   72.000   29.249   90.663    0.306    0.233
   72.250   28.778   92.583    0.312    0.214
   72.500   29.415   94.503    0.318    0.221
   72.750   30.616   93.979    0.320    0.215
   73.000   30.122   92.256    0.319    0.211
   73.250   29.105   92.343    0.323    0.203
   73.500   28.599   93.652    0.329    0.197
   73.750   27.616   96.182    0.332    0.204
   74.000   27.685   98.102    0.341    0.216
   74.250   27.772   98.189    0.348    0.219
   74.500   27.807   94.612    0.353    0.222
   74.750   28.404   88.591    0.349    0.222
   75.000   28.512   89.289    0.345    0.224
   75.250   28.565   91.841    0.341    0.217
   75.500   28.619   94.372    0.337    0.211
   75.750   28.175   95.070    0.332    0.214
   76.000   27.704   95.157    0.329    0.204
   76.250   27.274   98.277    0.333    0.203
   76.500   26.336  100.218    0.333    0.213
   76.750   24.039   97.840    0.329    0.216
   77.000   23.622   96.706    0.319    0.202
   77.250   22.400   98.647    0.310    0.183
   77.500   22.039   98.735    0.296    0.203
   77.750   22.512  103.709    0.287    0.197
   78.000   24.342  105.039    0.287    0.189
   78.250   26.786  101.440    0.290    0.203
   78.500   27.862   98.495    0.287    0.221
   78.750   31.870   98.582    0.278    0.215
   79.000   34.440   99.280    0.276    0.223
   79.250   36.524   98.778    0.284    0.190
   79.500   36.616   97.600    0.290    0.195
   79.750   35.357   95.244    0.299    0.205
   80.000   35.445   94.110    0.307    0.212
   80.250   40.545   92.976    0.314    0.223
   80.500   42.200   93.063    0.318    0.232
   80.750   42.306   93.150    0.306    0.244
   81.000   41.624   93.237    0.292    0.239
   81.250   40.928   95.157    0.278    0.244
   81.500   41.031   96.488    0.268    0.261
   81.750   40.369   97.186    0.283    0.269
   82.000   38.981   97.273    0.297    0.282
   82.250   36.941   97.382    0.309    0.183
   82.500   34.378   99.891    0.320    0.185
   82.750   31.974  104.254    0.335    0.195
   83.000   30.835  106.174    0.351    0.206
   83.250   28.128  106.283    0.342    0.212
   83.500   26.177  106.370    0.333    0.211
   83.750   24.807  103.992    0.323    0.212
   84.000   24.422  104.712    0.319    0.204
   84.250   24.453  104.188    0.320    0.195
   84.500   24.979  101.811    0.315    0.183
   84.750   25.998  100.698    0.320    0.200
   85.000   25.579  102.618    0.328    0.222
   85.250   25.167  103.927    0.344    0.218
   85.500   25.246  101.571    0.344    0.218
   85.750   25.310  100.436    0.345    0.228
   86.000   25.853  104.188    0.350    0.234
   86.250   25.437  106.719    0.352    0.228
   86.500   24.995  104.363    0.348    0.231
   86.750   24.593  102.007    0.346    0.249
   87.000   23.747  100.284    0.339    0.248
   87.250   23.806  101.592    0.333    0.237
   87.500   25.263  101.069    0.328    0.219
   87.750   26.793  100.524    0.325    0.223
   88.000   25.871   99.389    0.324    0.218
   88.250   24.965   97.077    0.327    0.200
   88.500   24.107   94.677    0.334    0.196
   88.750   25.107   90.510    0.324    0.174
   89.000   27.113   92.408    0.312    0.196
   89.250   30.995   97.993    0.323    0.194
   89.500   34.149  101.767    0.344    0.210
   89.750   30.572  101.243    0.336    0.205
   90.000   26.379   99.520    0.336    0.189
   90.250   24.108  100.218    0.339    0.184
   90.500   24.168  103.949    0.336    0.195
   90.750   24.657  107.090    0.328    0.206
   91.000   25.203  110.842    0.326    0.216
   91.250   25.234  111.540    0.328    0.208
   91.500   24.827  110.406    0.330    0.204
   91.750   22.241  109.904    0.331    0.220
   92.000   22.297  115.510    0.331    0.234
   92.250   22.776  119.241    0.329    0.235
   92.500   23.265  122.993    0.327    0.231
   92.750   22.465  123.691    0.324    0.229
   93.000   21.692  114.616    0.340    0.228
   93.250   21.747  108.006    0.355    0.225
   93.500   23.063  106.850    0.353    0.240
   93.750   25.410  108.813    0.346    0.240
   94.000   24.521  109.468    0.348    0.235
   94.250   21.980  108.966    0.354    0.198
   94.500   21.598  104.756    0.361    0.212
   94.750   21.250  102.400    0.369    0.232
   95.000   21.304  103.752    0.367    0.233
   95.250   21.357  104.407    0.360    0.210
   95.500   21.816  105.716    0.355    0.206
   95.750   21.465  103.970    0.353    0.217
   96.000   21.119  104.668    0.355    0.223
   96.250   20.791  102.923    0.363    0.243
   96.500   20.830  100.589    0.366    0.299
   96.750   21.291  101.898    0.365    0.306
   97.000   21.735  104.428    0.362    0.234
   97.250   23.065  104.494    0.357    0.213
   97.500   24.007  100.305    0.348    0.217
   97.750   24.082   92.474    0.344    0.187
   98.000   24.113   92.561    0.332    0.180
   98.250   23.298   96.902    0.324    0.193
   98.500   24.249  101.265    0.324    0.194
   98.750   24.755  105.061    0.330    0.180
   99.000   26.253  105.148    0.335    0.209
   99.250   25.846  104.036    0.338    0.211
   99.500   24.478  102.858    0.337    0.201
   99.750   24.069  102.334    0.335    0.200
  100.000   24.586  100.589    0.334    0.221
  100.250   25.606   99.455    0.339    0.219
  100.500   23.830   98.320    0.342    0.214
  100.750   23.010   96.575    0.347    0.210
  101.000   23.053   92.387    0.352    0.205
  101.250   23.563   95.550    0.356    0.207
  101.500   23.608   95.615    0.355    0.223
  101.750   24.100   88.962    0.354    0.223
  102.000   24.618   79.276    0.367    0.242
  102.250   25.147   70.179    0.357    0.286
  102.500   26.174   70.899    0.340    0.273
  102.750   27.259   76.505    0.332    0.246
  103.000   28.927   79.014    0.336    0.229
  103.250   30.659   79.734    0.342    0.233
  103.500   34.397   77.378    0.348    0.262
  103.750   48.331   75.000    0.350    0.254
  104.000   61.830   73.255    0.339    0.255
  104.250   68.079   75.174    0.327    0.248
  104.500   73.613   78.927    0.295    0.246
  104.750   78.069   85.144    0.291    0.252
  105.000   78.265   90.750    0.287    0.252
  105.250   79.947   96.357    0.300    0.237
  105.500   84.840   97.666    0.324    0.228
  105.750   86.554   98.364    0.329    0.237
  106.000   93.531   96.619    0.336    0.259
  106.250  105.066   96.684    0.346    0.265
  106.500  109.424   96.771    0.352    0.261
  106.750  109.561   96.248    0.342    0.283
  107.000  105.793   93.303    0.333    0.281
  107.250   98.455   97.055    0.328    0.298
  107.500   94.949   94.066    0.334    0.291
  107.750   90.036   90.489    0.342    0.273
  108.000   88.641   83.246    0.352    0.251
  108.250   87.103   77.203    0.359    0.277
  108.500   87.376   63.831    0.367    0.283
  108.750   89.198   54.145    0.370    0.287
  109.000   91.115   52.400    0.375    0.313
  109.250   94.835   53.098    0.379    0.330
  109.500   98.769   54.407    0.373    0.335
  109.750   88.423   55.715    0.370    0.328
  110.000   74.830   57.024    0.361    0.312
  110.250   65.830   66.296    0.351    0.311
  110.500   63.565   70.048    0.338    0.306
  110.750   63.765   69.546    0.330    0.293
  111.000   63.845   66.579    0.364    0.279
  111.250   66.452   62.391    0.374    0.285
  111.500   69.208   58.202    0.385    0.297
  111.750   74.740   60.122    0.383    0.312
