~VERSION INFORMATION
 VERS.                 2.0:   CWLS LOG ASCII STANDARD -VERSION 2.0
 WRAP.                  NO:   ONE LINE PER DEPTH STEP
~WELL INFORMATION BLOCK
#MNEM.UNIT           DATA                    DESCRIPTION OF MNEMONIC
#---------    -------------------            -------------------------------
# Generated from Intellog Unique Number	CX_WELLS/WELL/3923
WELL.         04-08-098-12W4                 : Well_name    - WELL
LOC .         AA/04-08-098-12W4/0            : Location     - LOCATION
UWI .         AA/04-08-098-12W400            : Uwi          - UNIQUE WELL ID
ENTR.         JOETTE                         : Entered      - ENTERED BY
SRVC.         SCHLUMBERGER                   : Scn          - SERVICE COMPANY
DATE.         08/28/92                       : Date         - LOG DATE
STRT.M        75                             : top_depth    - START DEPTH
STOP.M        270                            : bot_depth    - STOP DEPTH
STEP.M        0.25                           : increment    - STEP LENGTH
 NULL. -999.2500:NULL Value
~CURVE INFORMATION BLOCK
#MNEM UNIT       ERCB CURVE CODE    CURVE DESCRIPTION
#-----------   ------------------   ----------------------------------
DEPT.M        00 001 00 00         : DEPTH        - DEPTH
GR  .API      00 310 00 00         : GR           - GAMMA RAY
NPHI.V/V      00 330 00 00         : PHIN         - NEUTRON POROSITY (SANDSTONE)
DPHI.V/V      00 890 00 00         : PHID         - DENSITY POROSITY (SANDSTONE)
ILD .OHMM     00 120 00 00         : RESD         - DEEP RESISTIVITY (DIL)
~PARAMETER INFORMATION
#MNEM.UNIT           DATA             DESCRIPTION OF MNEMONIC
#---------         -----------     ------------------------------
GL  .M        513.25               : gl           - GROUND LEVEL ELEVATION
EREF.M        516.5                : kb           - ELEVATION OF DEPTH REFERENCE
DATM.M        516.5                : datum        - DATUM ELEVATION
TDD .M        275                  : tdd          - TOTAL DEPTH DRILLER
RUN .         ONE                  : Run          - RUN NUMBER
ENG .         JO                   : Engineer     - RECORDING ENGINEER
WIT .         TIM                  : Witness      - WITNESSED BY
MUD .         GEL                  : Mud_type     - MUD TYPE
MATR.         SANDSTONE            : Logunit      - NEUTRON MATRIX
TMAX.C        17                   : BHT          - MAXIMUM RECORDED TEMPERATURE
BHTD.M        275                  : BHTDEP       - MAXIMUM RECORDED TEMPERATURE
RMT .C        17                   : MDTP         - TEMPERATURE OF MUD
MUDD.KG/M     1080                 : MWT          - MUD DENSITY
NEUT.         1                    : NEUTRON      - NEUTRON TYPE
RESI.         0                    : RESIST       - RESISTIVITY TYPE
RM  .OHMM     4.35                 : RM           - RESISTIVITY OF MUD
RMC .OHMM     3.95                 : RMC          - RESISTIVITY OF MUD CAKE
RMF .OHMM     2.85                 : RMF          - RESISTIVITY OF MUD FILTRATE
SUFT.C        4                    : SUFT         - SURFACE TEMPERATURE
~A  DEPTH       GR     PHIN     PHID     RESD
# ...
  118.500  117.008    0.562    0.263    9.815
  118.750  114.144    0.564    0.272    9.281
  119.000  111.276    0.567    0.273    8.778
  119.250  111.772    0.564    0.273    7.841
  119.500  112.744    0.563    0.272    7.276
  119.750  109.876    0.557    0.279    6.880
  120.000  110.856    0.554    0.289    6.758
  120.250  111.347    0.553    0.289    6.765
  120.500  110.401    0.554    0.290    6.900
  120.750  109.943    0.558    0.292    7.035
  121.000  110.431    0.564    0.296    7.175
  121.250  111.895    0.570    0.295    7.320
  121.500  111.910    0.572    0.291    7.466
  121.750  111.925    0.573    0.289    7.472
  122.000  113.377    0.573    0.288    7.339
  122.250  116.756    0.575    0.291    7.070
  122.500  116.770    0.577    0.296    6.687
  122.750  113.907    0.570    0.302    6.565
  123.000  111.996    0.568    0.306    6.448
  123.250  111.050    0.573    0.308    6.333
  123.500  110.104    0.565    0.312    6.106
  123.750  104.834    0.558    0.321    6.110
  124.000  105.333    0.552    0.319    6.115
  124.250  107.270    0.555    0.315    6.599
  124.500  108.726    0.563    0.298    7.984
  124.750  110.183    0.569    0.284    8.295
  125.000  113.084    0.574    0.273    8.461
  125.250  111.654    0.578    0.273    8.153
  125.500  111.673    0.583    0.287    7.423
  125.750  112.164    0.585    0.305    6.509
  126.000  113.148    0.590    0.328    6.040
  126.250  112.675    0.592    0.348    5.710
  126.500  111.248    0.591    0.345    5.298
  126.750  111.263    0.596    0.345    4.916
  127.000  111.282    0.600    0.353    4.649
  127.250  110.336    0.596    0.360    4.396
  127.500  108.433    0.595    0.369    4.003
  127.750  108.928    0.599    0.370    3.716
  128.000  109.424    0.596    0.369    3.580
  128.250  109.439    0.588    0.376    3.385
  128.500  108.973    0.588    0.370    3.389
  128.750  107.066    0.593    0.354    3.391
  129.000  103.238    0.596    0.347    3.592
  129.250  105.655    0.589    0.345    3.664
  129.500  106.631    0.587    0.341    3.808
  129.750  106.650    0.588    0.338    3.884
  130.000  106.657    0.589    0.341    3.887
  130.250  108.113    0.584    0.340    3.890
  130.500  110.531    0.574    0.328    3.893
  130.750  112.951    0.569    0.321    3.898
  131.000  114.408    0.568    0.320    3.901
  131.250  115.864    0.571    0.313    3.979
  131.500  119.242    0.575    0.315    4.059
  131.750  115.898    0.579    0.317    4.140
  132.000  112.069    0.585    0.317    4.140
  132.250  108.721    0.588    0.320    4.307
  132.500  107.771    0.591    0.325    4.228
  132.750  104.904    0.590    0.322    4.396
  133.000  101.555    0.587    0.323    4.483
  133.250   99.649    0.586    0.326    4.751
  133.500  100.625    0.585    0.326    4.753
  133.750   99.679    0.584    0.321    4.847
  134.000   99.217    0.584    0.315    4.760
  134.250   99.228    0.582    0.318    4.255
  134.500  100.204    0.582    0.329    4.022
  134.750  102.629    0.582    0.337    3.876
  135.000  103.120    0.582    0.345    4.107
  135.250  104.100    0.583    0.339    4.432
  135.500  102.189    0.585    0.349    4.876
  135.750   97.884    0.583    0.406    5.467
  136.000   96.934    0.581    0.431    6.247
  136.250   93.106    0.581    0.438    6.871
  136.500   91.206    0.573    0.467    7.851
  136.750   92.178    0.565    0.458    8.972
  137.000   92.194    0.559    0.398    9.151
  137.250   89.810    0.546    0.355    8.491
  137.500   88.380    0.524    0.344    8.029
  137.750   86.950    0.524    0.331    8.189
  138.000   85.050    0.531    0.305    8.675
  138.250   84.097    0.531    0.300    9.726
  138.500   82.190    0.534    0.308   11.114
  138.750   80.287    0.528    0.315   15.636
  139.000   79.826    0.500    0.309   15.948
  139.250   79.360    0.496    0.293   16.893
  139.500   78.414    0.475    0.288   17.230
  139.750   77.468    0.471    0.294   14.272
  140.000   77.006    0.463    0.296    9.971
  140.250   76.533    0.451    0.294   10.170
  140.500   75.591    0.438    0.287   11.404
  140.750   75.606    0.441    0.289   10.990
  141.000   76.098    0.447    0.282   12.554
  141.250   79.003    0.462    0.280   15.766
  141.500   80.932    0.495    0.285   19.066
  141.750   85.275    0.509    0.289   18.032
  142.000   89.614    0.521    0.290   15.509
  142.250   91.554    0.536    0.305   12.370
  142.500   91.566    0.545    0.335    9.499
  142.750   91.100    0.553    0.400    8.328
  143.000   88.716    0.546    0.422    7.586
  143.250   87.294    0.541    0.430    7.447
  143.500   88.262    0.541    0.428    7.043
  143.750   91.640    0.543    0.423    6.787
  144.000   94.538    0.551    0.379    6.300
  144.250  102.240    0.565    0.340    6.423
  144.500  105.633    0.560    0.324    6.934
  144.750  106.121    0.561    0.308    7.345
  145.000  107.577    0.563    0.297    7.782
  145.250  110.002    0.561    0.305    7.787
  145.500  110.970    0.560    0.310    7.227
  145.750  111.942    0.559    0.316    6.704
  146.000  112.918    0.559    0.322    5.659
  146.250  113.417    0.561    0.326    4.961
  146.500  111.510    0.563    0.335    4.351
  146.750  109.119    0.557    0.347    4.354
  147.000  105.775    0.553    0.357    4.357
  147.250  103.384    0.558    0.347    4.530
  147.500   99.555    0.560    0.349    4.619
  147.750  101.496    0.553    0.354    5.083
  148.000   97.667    0.553    0.354    5.487
  148.250   93.839    0.558    0.354    5.923
  148.500   91.455    0.563    0.391    6.274
  148.750   90.990    0.560    0.423    6.524
  149.000   94.364    0.565    0.457    6.527
  149.250   90.055    0.564    0.463    6.532
  149.500   87.187    0.551    0.451    6.416
  149.750   85.761    0.534    0.378    6.301
  150.000   87.217    0.524    0.371    6.306
  150.250   84.350    0.517    0.343    6.682
  150.500   81.962    0.508    0.325    7.351
  150.750   81.985    0.512    0.339    7.933
  151.000   81.996    0.522    0.355    9.239
  151.250   82.011    0.538    0.377   12.516
  151.500   82.022    0.554    0.422   13.258
  151.750   82.998    0.563    0.427   13.017
  152.000   85.423    0.573    0.434    9.268
  152.250   85.914    0.583    0.453    6.853
  152.500   86.898    0.588    0.488    6.732
  152.750   87.386    0.584    0.505    6.736
  153.000   90.764    0.586    0.504    6.741
  153.250   91.743    0.595    0.500    6.622
  153.500   91.274    0.597    0.483    6.502
  153.750   89.852    0.585    0.457    6.033
  154.000   89.382    0.573    0.395    5.925
  154.250   90.838    0.564    0.374    6.160
  154.500   91.334    0.558    0.350    6.651
  154.750   89.911    0.555    0.360    6.911
  155.000   92.329    0.558    0.358    7.605
  155.250   93.308    0.563    0.353    7.610
  155.500   92.843    0.560    0.350    7.618
  155.750   95.736    0.564    0.346    7.480
  156.000   95.271    0.558    0.333    6.684
  156.250   91.923    0.552    0.328    6.201
  156.500   92.902    0.560    0.332    6.092
  156.750   91.957    0.567    0.361    6.211
  157.000   91.007    0.576    0.356    6.579
  157.250   88.620    0.581    0.351    6.970
  157.500   88.635    0.577    0.350    7.385
  157.750   90.091    0.572    0.349    7.531
  158.000   94.437    0.570    0.338    7.259
  158.250   97.335    0.570    0.325    6.735
  158.500   99.752    0.568    0.310    6.132
  158.750   97.841    0.562    0.296    5.690
  159.000   94.017    0.552    0.272    5.587
  159.250   93.547    0.533    0.257    5.807
  159.500   96.445    0.523    0.249    5.923
  159.750  101.745    0.525    0.245    5.818
  160.000  105.123    0.519    0.230    5.296
  160.250  110.907    0.521    0.235    5.009
  160.500  113.804    0.553    0.267    4.918
  160.750  121.987    0.570    0.292    5.113
  161.000  121.521    0.568    0.306    5.316
  161.250  117.216    0.556    0.295    5.219
  161.500  115.306    0.547    0.301    4.752
  161.750  112.442    0.547    0.304    4.246
