~VERSION INFORMATION
 VERS.                 2.0:   CWLS LOG ASCII STANDARD -VERSION 2.0
 WRAP.                  NO:   ONE LINE PER DEPTH STEP
~WELL INFORMATION BLOCK
#MNEM.UNIT           DATA                    DESCRIPTION OF MNEMONIC
#---------    -------------------            -------------------------------
# Generated from Intellog Unique Number	CN_94_101/WELL/3616
WELL.         07-24-096-13W4                 : Well_name    - WELL
LOC .         AA/07-24-096-13W4/0            : Location     - LOCATION
UWI .         AA/07-24-096-13W400            : Uwi          - UNIQUE WELL ID
ENTR.         JOETTE                         : Entered      - ENTERED BY
SRVC.         SCHLUMBERGER                   : Scn          - SERVICE COMPANY
DATE.         08\04\92                       : Date         - LOG DATE
STRT.F        50                             : top_depth    - START DEPTH
STOP.F        674.18                         : bot_depth    - STOP DEPTH
STEP.F        0.8202                         : increment    - STEP LENGTH
 NULL. -999.2500:NULL Value
~CURVE INFORMATION BLOCK
#MNEM UNIT       ERCB CURVE CODE    CURVE DESCRIPTION
#-----------   ------------------   ----------------------------------
DEPT.F        00 001 00 00         : DEPTH        - DEPTH
ILD .OHMM     00 120 00 00         : RESD         - DEEP RESISTIVITY (DIL)
GR  .API      00 310 00 00         : GR           - GAMMA RAY
DPHI.V/V      00 890 00 00         : PHID         - DENSITY POROSITY (SANDSTONE)
~PARAMETER INFORMATION
#MNEM.UNIT           DATA             DESCRIPTION OF MNEMONIC
#---------         -----------     ------------------------------
GL  .M        413.309              : gl           - GROUND LEVEL ELEVATION
EREF.M        414.528              : kb           - ELEVATION OF DEPTH REFERENCE
DATM.M        414.528              : datum        - DATUM ELEVATION
TDD .M        209.55               : tdd          - TOTAL DEPTH DRILLER
RUN .         ONE                  : Run          - RUN NUMBER
ENG .         JO                   : Engineer     - RECORDING ENGINEER
WIT .         TIM                  : Witness      - WITNESSED BY
MUD .         GEL                  : Mud_type     - MUD TYPE
MATR.         SANDSTONE            : Logunit      - NEUTRON MATRIX
TMAX.F        89.6                 : BHT          - MAXIMUM RECORDED TEMPERATURE
BHTD.F        687.5                : BHTDEP       - MAXIMUM RECORDED TEMPERATURE
RMT .F        66.2                 : MDTP         - TEMPERATURE OF MUD
MUDD.LB/G     9                    : MWT          - MUD DENSITY
NEUT.         1                    : NEUTRON      - NEUTRON TYPE
RESI.         0                    : RESIST       - RESISTIVITY TYPE
RM  .OHMM     5.3                  : RM           - RESISTIVITY OF MUD
RMC .OHMM     5.3                  : RMC          - RESISTIVITY OF MUD CAKE
RMF .OHMM     5.3                  : RMF          - RESISTIVITY OF MUD FILTRATE
SUFT.F        39.2                 : SUFT         - SURFACE TEMPERATURE
~A  DEPTH     RESD       GR     PHID
# ...
  583.957   77.127   30.375    0.251
  584.777   69.168   41.194    0.246
  585.597   48.897   43.218    0.262
  586.417   38.585   43.273    0.282
  587.238   46.412   35.740    0.286
  588.058   64.643   32.609    0.287
  588.878   96.952   34.644    0.247
  589.698   56.004   42.266    0.221
  590.518   30.074   43.493    0.226
  591.339   22.462   49.124    0.226
  592.159   22.902   52.752    0.228
  592.979   24.679   56.004    0.241
  593.799   26.593   54.455    0.250
  594.619   31.418   52.497    0.241
  595.440   20.633   48.559    0.231
  596.260   18.511   43.426    0.223
  597.080   23.105   54.233    0.223
  597.900   26.801   57.065    0.212
  598.720   27.841   55.516    0.217
  599.541   26.379   52.374    0.219
  600.361   26.943   55.217    0.204
  601.181   27.461   56.467    0.193
  602.001   26.529   58.093    0.204
  602.822   25.601   58.137    0.215
  603.642   24.257   56.200    0.210
  604.462   22.156   60.625    0.204
  605.282   17.483   64.663    0.211
  606.102   16.884   62.705    0.211
  606.923   18.524   60.757    0.214
  607.743   21.885   58.014    0.239
  608.563   24.924   58.456    0.235
  609.383   26.361   58.920    0.221
  610.203   30.023   56.166    0.213
  611.024   30.621   54.617    0.221
  611.844   23.285   58.245    0.233
  612.664   25.101   55.501    0.266
  613.484   28.588   47.979    0.291
  614.304   33.137   42.049    0.287
  615.125   57.528   38.100    0.245
  615.945  149.472   30.190    0.217
  616.765   22.251   33.420    0.198
  617.585   23.533   42.635    0.193
  618.406   34.037   48.653    0.222
  619.226   34.691   56.672    0.230
  620.046   37.383   56.318    0.212
  620.866   41.029   50.787    0.216
  621.686   46.711   46.837    0.221
  622.507   55.166   43.297    0.206
  623.327   67.608   38.164    0.190
  624.147   92.454   32.633    0.203
  624.967  143.791   28.695    0.247
  625.787   87.755   23.960    0.271
  626.608   99.945   25.597    0.269
  627.428  122.486   28.838    0.280
  628.248  144.605   27.289    0.286
  629.068  174.000   24.955    0.275
  629.888  198.099   23.395    0.279
  630.709  251.752   17.863    0.295
  631.529  314.237   19.899    0.289
  632.349  234.700   21.137    0.256
  633.169  192.050   21.580    0.216
  633.990  133.300   20.031    0.189
  634.810   90.874   18.095    0.161
  635.630   97.890   16.535    0.162
  636.450  109.423   17.397    0.163
  637.270  117.997   19.034    0.148
  638.091  127.152   19.078    0.114
  638.911  107.968   19.111    0.114
  639.731   69.642   18.757    0.138
  640.551   61.322   18.016    0.124
  641.371   38.117   22.042    0.203
  642.192   24.140   29.266    0.211
  643.012   20.498   34.100    0.212
  643.832   23.768   32.540    0.212
  644.652   36.295   29.000    0.179
  645.472   40.571   29.442    0.158
  646.293   46.190   40.249    0.112
  647.113   41.438   49.464    0.087
  647.933   26.729   59.475    0.131
  648.753   13.339   63.900    0.160
  649.573   11.117   53.988    0.149
  650.394   10.537   52.041    0.155
  651.214   17.005   47.306    0.186
  652.034   19.002   46.553    0.195
  652.854   18.703   43.411    0.186
  653.675   17.399   44.252    0.175
  654.495   15.604   43.898    0.167
  655.315   18.769   31.995    0.182
  656.135   24.294   28.455    0.167
  656.955   32.038   28.897    0.168
  657.776   17.517   32.536    0.196
  658.596   12.158   39.748    0.217
  659.416   14.895   36.208    0.226
  660.236   21.528   31.075    0.232
  661.056   22.785   29.925    0.241
  661.877   20.441   32.369    0.266
  662.697   18.671   33.199    0.295
  663.517   17.697   30.853    0.290
  664.337   27.523   21.340    0.287
  665.157   33.130   21.384    0.291
  665.978   35.027   22.224    0.285
  666.798   40.630   21.074    0.281
  667.618   49.776   19.126    0.251
  668.438   41.499   21.571    0.230
  669.259   42.356   22.412    0.209
  670.079   44.782   21.659    0.198
  670.899   39.459   20.110    0.197
  671.719   25.443   20.552    0.202
  672.539    9.126   21.802    0.210
  673.360    3.790   22.256    0.220
  674.180    6.004   22.288    0.202
