~VERSION INFORMATION
 VERS.                 2.0:   CWLS LOG ASCII STANDARD -VERSION 2.0
 WRAP.                  NO:   ONE LINE PER DEPTH STEP
~WELL INFORMATION BLOCK
#MNEM.UNIT           DATA                    DESCRIPTION OF MNEMONIC
#---------    -------------------            -------------------------------
# Generated from Intellog Unique Number	CW_79_81/WELL/2445
WELL.         04-30-081-19W4                 : Well_name    - WELL
LOC .         AA/04-30-081-19W4/0            : Location     - LOCATION
UWI .         AA/04-30-081-19W400            : Uwi          - UNIQUE WELL ID
ENTR.         MAX                            : Entered      - ENTERED BY
SRVC.         COMPUTALOG                     : Scn          - SERVICE COMPANY
STRT.M        185                            : top_depth    - START DEPTH
STOP.M        374.75                         : bot_depth    - STOP DEPTH
STEP.M        0.25                           : increment    - STEP LENGTH
 NULL. -999.2500:NULL Value
~CURVE INFORMATION BLOCK
#MNEM UNIT       ERCB CURVE CODE    CURVE DESCRIPTION
#-----------   ------------------   ----------------------------------
DEPT.M        00 001 00 00         : DEPTH        - DEPTH
ILD .OHMM     00 120 00 00         : RESD         - DEEP RESISTIVITY (DIL)
NPHI.V/V      00 330 00 00         : PHIN         - NEUTRON POROSITY (SANDSTONE)
DPHI.V/V      00 890 00 00         : PHID         - DENSITY POROSITY (SANDSTONE)
GR  .API      00 310 00 00         : GR           - GAMMA RAY
CALI.MM       00 280 01 00         : CAL          - CALIPER
~PARAMETER INFORMATION
#MNEM.UNIT           DATA             DESCRIPTION OF MNEMONIC
#---------         -----------     ------------------------------
GL  .M        585                  : gl           - GROUND LEVEL ELEVATION
EREF.M        588.2                : kb           - ELEVATION OF DEPTH REFERENCE
DATM.M        585                  : datum        - DATUM ELEVATION
TDD .M        376                  : tdd          - TOTAL DEPTH DRILLER
RUN .         ONE                  : Run          - RUN NUMBER
ENG .         BILL                 : Engineer     - RECORDING ENGINEER
WIT .         JIM                  : Witness      - WITNESSED BY
MUD .         GEL                  : Mud_type     - MUD TYPE
MATR.         SANDSTONE            : Logunit      - NEUTRON MATRIX
TMAX.C        18                   : BHT          - MAXIMUM RECORDED TEMPERATURE
BHTD.M        376                  : BHTDEP       - MAXIMUM RECORDED TEMPERATURE
MATR.         1                    : LOGUNIT      - NEUTRON MATRIX
RMT .C        20                   : MDTP         - TEMPERATURE OF MUD
NEUT.         1                    : NEUTRON      - NEUTRON TYPE
RESI.         0                    : RESIST       - RESISTIVITY TYPE
RMC .OHMM     7                    : RMC          - RESISTIVITY OF MUD CAKE
RMF .OHMM     9                    : RMF          - RESISTIVITY OF MUD FILTRATE
SUFT.C        -15                  : SUFT         - SURFACE TEMPERATURE
~A  DEPTH     RESD     PHIN     PHID       GR      CAL
  185.000    2.782    0.572    0.237   98.842  260.934
  185.250    2.760    0.583    0.250   96.581  259.266
  185.500    2.756    0.568    0.234   97.591  259.250
  185.750    2.766    0.553    0.222   99.299  259.674
  186.000    2.786    0.547    0.231   99.672  259.694
  186.250    2.815    0.544    0.256   96.371  258.331
  186.500    2.858    0.549    0.263   94.362  257.505
  186.750    2.900    0.544    0.253   93.888  256.314
  187.000    2.975    0.546    0.246   93.413  255.727
  187.250    3.053    0.547    0.241   92.816  255.540
  187.500    3.138    0.542    0.238   91.977  255.554
  187.750    3.334    0.510    0.240   89.159  255.576
  188.000    3.630    0.453    0.242   81.086  255.595
  188.250    4.077    0.420    0.255   69.453  256.423
  188.500    4.679    0.387    0.277   58.913  256.036
  188.750    5.476    0.387    0.302   51.647  253.830
  189.000    6.539    0.410    0.323   48.929  249.402
  189.250    8.498    0.412    0.327   51.832  242.132
  189.500   12.136    0.425    0.323   55.381  240.041
  189.750   14.426    0.453    0.327   57.575  243.697
  190.000   15.728    0.462    0.327   59.950  246.746
  190.250   16.735    0.459    0.326   61.052  248.380
  190.500   18.052    0.449    0.328   60.518  248.499
  190.750   19.910    0.422    0.326   58.619  247.711
  191.000   21.678    0.375    0.319   56.359  247.729
  191.250   22.817    0.407    0.321   56.126  248.558
  191.500   23.633    0.445    0.325   56.985  249.384
  191.750   23.897    0.467    0.326   57.601  249.805
  192.000   23.126    0.462    0.320   57.672  249.621
  192.250   19.832    0.433    0.303   58.129  248.668
  192.500   15.838    0.426    0.286   59.151  247.843
  192.750   13.734    0.448    0.315   58.192  247.050
  193.000   13.218    0.449    0.325   55.959  247.171
  193.250   13.554    0.448    0.324   53.666  247.592
  193.500   14.738    0.445    0.319   52.040  247.911
  193.750   18.049    0.419    0.322   51.627  247.681
  194.000   21.260    0.425    0.333   53.153  246.433
  194.250   22.214    0.446    0.349   56.803  244.834
  194.500   21.846    0.472    0.350   60.269  243.843
  194.750   21.053    0.468    0.344   61.735  244.266
  195.000   20.445    0.435    0.337   61.199  245.598
  195.250   20.324    0.421    0.328   60.687  246.107
  195.500   20.479    0.434    0.320   61.710  246.549
  195.750   20.934    0.464    0.317   60.023  246.967
  196.000   21.517    0.461    0.322   58.152  247.086
  196.250   21.999    0.438    0.326   56.586  247.103
  196.500   22.364    0.412    0.326   55.688  247.119
  196.750   22.933    0.403    0.327   55.702  247.142
  197.000   23.287    0.389    0.331   55.711  247.165
  197.250   23.285    0.392    0.325   54.267  247.179
  197.500   23.283    0.414    0.326   54.822  247.195
  197.750   23.281    0.415    0.331   57.501  246.405
  198.000   23.279    0.396    0.336   59.998  243.998
  198.250   23.240    0.408    0.331   57.737  239.672
  198.500   23.060    0.409    0.320   58.506  242.216
  198.750   22.889    0.429    0.284   56.818  248.297
  199.000   22.593    0.443    0.301   57.132  250.743
  199.250   22.177    0.432    0.326   58.355  251.569
  199.500   21.690    0.412    0.338   59.032  251.889
  199.750   21.083    0.423    0.336   57.045  251.909
  200.000   20.445    0.422    0.347   55.541  251.930
  200.250   19.554    0.445    0.349   57.492  252.352
  200.500   18.387    0.470    0.342   57.987  252.470
  200.750   17.005    0.472    0.325   58.968  252.486
  201.000   15.508    0.450    0.301   61.283  252.503
  201.250   13.474    0.429    0.281   64.641  252.527
  201.500   11.328    0.409    0.281   64.399  252.546
  201.750    9.168    0.449    0.268   69.987  252.561
  202.000    6.903    0.463    0.259   73.212  252.578
  202.250    6.029    0.448    0.262   71.040  252.798
  202.500    6.113    0.415    0.280   64.986  253.221
  202.750    6.844    0.388    0.305   61.118  253.648
  203.000    8.125    0.406    0.308   61.130  253.663
  203.250    9.590    0.446    0.305   60.656  253.683
  203.500   11.572    0.444    0.315   59.635  253.702
  203.750   13.208    0.422    0.321   59.524  253.720
  204.000   13.528    0.395    0.315   61.232  253.838
  204.250   12.450    0.367    0.288   66.692  254.263
  204.500   11.109    0.360    0.248   74.536  254.282
  204.750   10.235    0.370    0.235   81.338  254.298
  205.000    9.541    0.386    0.261   84.684  254.317
  205.250    9.237    0.400    0.289   83.361  254.334
  205.500    9.385    0.407    0.297   79.551  254.451
  205.750   10.109    0.403    0.277   79.189  255.047
  206.000   10.506    0.417    0.256   80.971  255.906
  206.250    9.606    0.423    0.221   81.465  257.945
  206.500    8.041    0.429    0.210   83.597  260.592
  206.750    6.893    0.429    0.209   87.610  263.844
  207.000    6.326    0.425    0.212   92.654  267.599
  207.250    6.382    0.430    0.222   96.891  269.894
  207.500    6.684    0.456    0.213   97.408  261.070
  207.750    7.190    0.414    0.234   97.418  259.067
  208.000    7.778    0.383    0.225   93.245  259.185
  208.250    8.464    0.352    0.213   90.588  260.012
  208.500    9.090    0.331    0.211   91.143  260.336
  208.750    9.253    0.349    0.212   92.863  258.890
  209.000    9.395    0.347    0.211   94.138  257.644
  209.250    9.889    0.340    0.215   90.997  258.470
  209.500   10.131    0.343    0.241   86.216  256.869
  209.750   10.130    0.356    0.256   79.677  255.470
  210.000    9.943    0.367    0.242   75.079  255.287
  210.250    9.548    0.349    0.198   81.207  255.717
  210.500    9.051    0.373    0.184   87.534  255.733
  210.750    8.464    0.372    0.199   95.307  256.154
  211.000    7.827    0.368    0.203   97.622  256.880
  211.250    7.469    0.364    0.200   96.784  257.303
  211.500    7.400    0.362    0.195   95.583  257.218
  211.750    7.443    0.362    0.197   98.707  256.665
  212.000    7.385    0.379    0.209  105.792  255.842
  212.250    6.652    0.407    0.214  109.683  255.054
  212.500    5.549    0.467    0.216  113.574  254.565
  212.750    4.834    0.506    0.188  115.404  254.177
  213.000    4.538    0.508    0.153  115.354  253.687
  213.250    4.606    0.484    0.174  115.145  252.900
  213.500    4.786    0.454    0.169  111.618  252.921
  213.750    4.857    0.439    0.133  110.175  253.345
  214.000    4.847    0.462    0.156  111.822  253.159
  214.250    4.650    0.497    0.186  114.986  252.972
  214.500    4.277    0.530    0.208  118.877  253.091
  214.750    3.761    0.570    0.243  123.093  253.605
  215.000    3.433    0.596    0.239  121.083  254.043
  215.250    3.535    0.514    0.227  112.848  254.463
  215.500    3.981    0.456    0.224  105.884  255.795
  215.750    4.694    0.403    0.222  100.438  257.430
  216.000    5.543    0.359    0.216   97.781  258.761
  216.250    6.401    0.354    0.208  101.281  258.847
  216.500    7.306    0.380    0.211  106.597  257.183
  216.750    7.802    0.385    0.204  111.215  255.584
  217.000    7.805    0.382    0.196  113.652  256.106
  217.250    7.461    0.388    0.191  112.814  257.538
  217.500    7.010    0.401    0.189  109.549  259.071
  217.750    6.639    0.403    0.191  104.933  260.391
  218.000    6.537    0.408    0.232   96.354  260.831
  218.250    6.931    0.393    0.261   84.965  260.443
  218.500    7.907    0.381    0.278   73.393  256.417
  218.750    9.568    0.378    0.287   64.914  253.200
  219.000   11.903    0.379    0.290   61.226  252.309
  219.250   14.311    0.381    0.285   62.300  252.416
  219.500   15.828    0.412    0.278   61.553  252.853
  219.750   16.659    0.399    0.283   62.050  253.681
  220.000   17.349    0.390    0.282   60.000  254.205
  220.250   17.934    0.402    0.285   58.554  254.829
  220.500   18.503    0.435    0.293   58.685  255.452
  220.750   19.258    0.468    0.289   58.829  255.137
  221.000   19.555    0.448    0.285   57.071  253.471
  221.250   19.553    0.430    0.288   56.596  252.275
