~VERSION INFORMATION
 VERS.                 2.0:   CWLS LOG ASCII STANDARD -VERSION 2.0
 WRAP.                  NO:   ONE LINE PER DEPTH STEP
~WELL INFORMATION BLOCK
#MNEM.UNIT           DATA                    DESCRIPTION OF MNEMONIC
#---------    -------------------            -------------------------------
# Generated from Intellog Unique Number	CN_94_101/WELL/2379
WELL.         02-21-097-11W4                 : Well_name    - WELL
LOC .         AA/02-21-097-11W4/0            : Location     - LOCATION
UWI .         AA/02-21-097-11W400            : Uwi          - UNIQUE WELL ID
ENTR.         JOETTE                         : Entered      - ENTERED BY
SRVC.         SCHLUMBERGER                   : Scn          - SERVICE COMPANY
DATE.         08/13/92                       : Date         - LOG DATE
STRT.M        5                              : top_depth    - START DEPTH
STOP.M        120                            : bot_depth    - STOP DEPTH
STEP.M        0.25                           : increment    - STEP LENGTH
 NULL. -999.2500:NULL Value
~CURVE INFORMATION BLOCK
#MNEM UNIT       ERCB CURVE CODE    CURVE DESCRIPTION
#-----------   ------------------   ----------------------------------
DEPT.M        00 001 00 00         : DEPTH        - DEPTH
DPHI.V/V      00 890 00 00         : PHID         - DENSITY POROSITY (SANDSTONE)
NPHI.V/V      00 330 00 00         : PHIN         - NEUTRON POROSITY (SANDSTONE)
ILD .OHMM     00 120 00 00         : RESD         - DEEP RESISTIVITY (DIL)
GR  .API      00 310 00 00         : GR           - GAMMA RAY
~PARAMETER INFORMATION
#MNEM.UNIT           DATA             DESCRIPTION OF MNEMONIC
#---------         -----------     ------------------------------
GL  .M        336.25               : gl           - GROUND LEVEL ELEVATION
EREF.M        336.25               : kb           - ELEVATION OF DEPTH REFERENCE
DATM.M        336.25               : datum        - DATUM ELEVATION
TDD .M        118.8                : tdd          - TOTAL DEPTH DRILLER
RUN .         ONE                  : Run          - RUN NUMBER
ENG .         JO                   : Engineer     - RECORDING ENGINEER
WIT .         TIM                  : Witness      - WITNESSED BY
MUD .         GEL                  : Mud_type     - MUD TYPE
MATR.         SANDSTONE            : Logunit      - NEUTRON MATRIX
TMAX.C        15                   : BHT          - MAXIMUM RECORDED TEMPERATURE
BHTD.M        118.8                : BHTDEP       - MAXIMUM RECORDED TEMPERATURE
RMT .C        15                   : MDTP         - TEMPERATURE OF MUD
MUDD.KG/M     1000                 : MWT          - MUD DENSITY
NEUT.         1                    : NEUTRON      - NEUTRON TYPE
RESI.         0                    : RESIST       - RESISTIVITY TYPE
RM  .OHMM     13.8                 : RM           - RESISTIVITY OF MUD
RMC .OHMM     13.8                 : RMC          - RESISTIVITY OF MUD CAKE
RMF .OHMM     13.8                 : RMF          - RESISTIVITY OF MUD FILTRATE
SUFT.C        4                    : SUFT         - SURFACE TEMPERATURE
~A  DEPTH     PHID     PHIN     RESD       GR
    5.000    0.000    0.372    5.145   61.856
    5.250    0.280    0.389    5.149   53.395
    5.500   -0.033    0.419    5.225   54.643
    5.750   -0.033    0.431   38.325   57.096
    6.000   -0.031    0.457  134.860   57.723
    6.250   -0.024    0.486  347.786   55.932
    6.500    0.007    0.498  562.709   53.535
    6.750    0.082    0.510  686.243   53.570
    7.000    0.128    0.518  802.173   54.197
    7.250    0.126    0.514  924.532   54.232
    7.500    0.125    0.508 1050.610   56.685
    7.750    0.120    0.508 1081.470   53.682
    8.000    0.104    0.510 1052.080   55.522
    8.250    0.106    0.507 1009.130   49.494
    8.500    0.128    0.501  995.845   50.128
    8.750    0.130    0.491  982.563   50.762
    9.000    0.159    0.487 1011.430   52.602
    9.250    0.166    0.480 1086.400   54.449
    9.500    0.158    0.458 1118.120   53.871
    9.750    0.156    0.445 1183.940   55.718
   10.000    0.182    0.437 1236.060   55.745
   10.250    0.184    0.438 1272.590   52.749
   10.500    0.159    0.448 1273.480   55.202
   10.750    0.149    0.464 1274.150   55.836
   11.000    0.133    0.477 1222.350   56.464
   11.250    0.160    0.488 1189.130   49.822
   11.500    0.174    0.498 1173.060   49.244
   11.750    0.162    0.493 1141.380   45.641
   12.000    0.159    0.488 1126.160   49.906
   12.250    0.182    0.477 1127.140   50.547
   12.500    0.176    0.447 1127.730   52.394
   12.750    0.177    0.440 1112.690   48.778
   13.000    0.178    0.432 1082.640   51.231
   13.250    0.176    0.433 1052.850   52.478
   13.500    0.323    0.437  981.908   48.255
   13.750    0.372    0.435  928.612   53.140
   14.000    0.384    0.465  853.893   53.789
   14.250    0.355    0.475  830.397   53.803
   14.500    0.268    0.471  785.324   54.437
   14.750    0.215    0.468  742.958   58.102
   15.000    0.199    0.464  732.792   61.768
   15.250    0.200    0.469  733.305   56.953
   15.500    0.222    0.471  765.585   53.343
   15.750    0.221    0.473  822.478   49.127
   16.000    0.192    0.471  846.343   50.974
   16.250    0.165    0.472  858.983   52.814
   16.500    0.135    0.476  835.785   55.267
   16.750    0.136    0.480  848.268   56.514
   17.000    0.145    0.481  860.788   54.110
   17.250    0.159    0.480  873.797   51.107
   17.500    0.174    0.478  874.256   49.922
   17.750    0.183    0.487  875.020   46.925
   18.000    0.197    0.494  863.349   51.190
   18.250    0.205    0.480  828.104   51.218
   18.500    0.206    0.471  783.156   54.884
   18.750    0.210    0.478  751.185   53.700
   19.000    0.213    0.488  720.519   54.947
   19.250    0.198    0.497  701.059   57.999
   19.500    0.213    0.495  691.588   61.665
   19.750    0.186    0.488  691.951   56.850
   20.000    0.167    0.493  702.409   56.264
   20.250    0.169    0.499  712.900   62.969
   20.500    0.210    0.477  703.392   67.847
   20.750    0.219    0.479  674.677   62.418
   21.000    0.238    0.474  638.168   62.446
   21.250    0.240    0.465  620.607   62.474
   21.500    0.240    0.482  612.330   66.140
   21.750    0.241    0.486  604.163   63.136
   22.000    0.246    0.460  587.846   57.708
   22.250    0.262    0.458  588.155   54.105
   22.500    0.288    0.465  564.144   55.345
   22.750    0.289    0.456  541.208   56.579
   23.000    0.223    0.437  511.743   62.670
   23.250    0.198    0.429  490.852   60.879
   23.500    0.162    0.425  491.195   62.733
   23.750    0.151    0.410  542.819   64.579
   24.000    0.138    0.410  574.676   61.569
   24.250    0.166    0.457  567.110   57.966
   24.500    0.174    0.480  521.297   57.381
   24.750    0.221    0.480  452.858   54.377
   25.000    0.247    0.473  356.426   50.775
   25.250    0.296    0.462  268.888   54.440
   25.500    0.397    0.468  217.696   55.674
   25.750    0.415    0.478  178.757   53.883
   26.000    0.389    0.477  155.316   50.886
   26.250    0.367    0.472  140.815   50.914
   26.500    0.367    0.464  135.067   49.730
   26.750    0.360    0.460  129.530   49.151
   27.000    0.355    0.465  122.542   50.385
   27.250    0.357    0.477  117.519   47.995
   27.500    0.358    0.481  111.140   49.228
   27.750    0.345    0.481  106.585   52.295
   28.000    0.336    0.485  100.817   54.748
   28.250    0.347    0.494   98.060   51.131
   28.500    0.361    0.490   95.395   51.159
   28.750    0.375    0.485   92.819   49.375
   29.000    0.381    0.489   91.564   48.184
   29.250    0.367    0.464   91.661   51.257
   29.500    0.357    0.471   91.693   50.664
   29.750    0.344    0.479   91.757   53.125
   30.000    0.343    0.482   90.533   51.940
   30.250    0.348    0.486   85.649   51.968
   30.500    0.340    0.489   82.138   50.783
   30.750    0.344    0.487   75.529   50.811
   31.000    0.339    0.497   72.420   47.209
   31.250    0.347    0.496   68.490   50.261
   31.500    0.348    0.497   63.875   53.934
   31.750    0.355    0.501   63.012   54.561
   32.000    0.368    0.499   60.450   62.471
   32.250    0.377    0.498   58.797   70.380
   32.500    0.372    0.503   58.033   72.227
   32.750    0.380    0.511   58.053   73.475
   33.000    0.379    0.517   58.094   77.740
   33.250    0.378    0.522   60.672   72.311
   33.500    0.379    0.520   62.433   71.126
   33.750    0.368    0.515   64.278   70.548
   34.000    0.352    0.511   66.154   69.970
   34.250    0.362    0.507   69.091   73.029
   34.500    0.376    0.503   70.098   76.709
   34.750    0.366    0.501   72.157   69.447
   35.000    0.352    0.498   74.303   76.158
   35.250    0.351    0.499   73.299   77.399
   35.500    0.362    0.502   72.309   76.207
   35.750    0.369    0.503   70.356   70.172
   36.000    0.359    0.503   70.418   66.563
   36.250    0.358    0.506   70.454   72.660
   36.500    0.370    0.508   71.519   69.044
   36.750    0.364    0.511   72.562   67.253
   37.000    0.376    0.507   75.770   75.769
   37.250    0.378    0.505   76.888   67.309
   37.500    0.367    0.496   79.160   60.061
   37.750    0.363    0.489   79.202   62.521
   38.000    0.355    0.484   80.413   57.086
   38.250    0.357    0.483   80.455   57.121
   38.500    0.363    0.487   79.382   51.685
   38.750    0.361    0.479   79.438   55.358
   39.000    0.360    0.475   78.364   57.204
   39.250    0.359    0.482   76.248   56.619
   39.500    0.348    0.488   75.218   54.828
   39.750    0.346    0.494   73.186   56.682
   40.000    0.343    0.479   71.197   54.884
   40.250    0.340    0.472   69.262   60.369
   40.500    0.343    0.481   67.380   64.641
   40.750    0.340    0.486   64.641   61.644
   41.000    0.349    0.495   62.862   64.697
   41.250    0.349    0.504   59.460   70.188
   41.500    0.338    0.505   57.053   69.610
   41.750    0.354    0.501   56.272   72.662
   42.000    0.369    0.499   56.302   77.547
   42.250    0.370    0.507   56.341   73.324
   42.500    0.363    0.514   57.203   75.791
   42.750    0.368    0.514   57.233   74.600
   43.000    0.365    0.515   57.283   72.210
   43.250    0.364    0.519   55.716   67.980
   43.500    0.378    0.523   50.505   68.628
   43.750    0.378    0.527   46.434   73.499
   44.000    0.366    0.520   43.297   78.984
   44.250    0.331    0.519   40.373   86.287
   44.500    0.330    0.517   38.718   92.984
   44.750    0.307    0.517   36.616   98.469
   45.000    0.291    0.516   35.121   97.891
   45.250    0.337    0.511   34.653   95.493
   45.500    0.317    0.488   35.183   91.883
   45.750    0.167    0.499   35.702   87.667
   46.000    0.196    0.503   35.727   84.058
   46.250    0.219    0.497   35.758   85.912
   46.500    0.213    0.497   35.282   84.121
   46.750    0.228    0.501   34.805   88.992
   47.000    0.223    0.505   33.390   87.814
   47.250    0.229    0.509   32.027   84.811
   47.500    0.226    0.511   31.600   87.863
   47.750    0.217    0.512   31.178   91.529
   48.000    0.221    0.511   32.100   87.919
   48.250    0.235    0.511   32.111   89.167
