~VERSION INFORMATION
 VERS.                 2.0:   CWLS LOG ASCII STANDARD -VERSION 2.0
 WRAP.                  NO:   ONE LINE PER DEPTH STEP
~WELL INFORMATION BLOCK
#MNEM.UNIT           DATA                    DESCRIPTION OF MNEMONIC
#---------    -------------------            -------------------------------
# Generated from Intellog Unique Number	CN_94_101/WELL/3568
WELL.         04-05-096-12W4                 : Well_name    - WELL
LOC .         AA/04-05-096-12W4/0            : Location     - LOCATION
UWI .         AA/04-05-096-12W400            : Uwi          - UNIQUE WELL ID
ENTR.         JOETTE                         : Entered      - ENTERED BY
SRVC.         SCHLUMBERGER                   : Scn          - SERVICE COMPANY
DATE.         07-31-92                       : Date         - LOG DATE
STRT.F        30                             : top_depth    - START DEPTH
STOP.F        430.262                        : bot_depth    - STOP DEPTH
STEP.F        0.8202                         : increment    - STEP LENGTH
 NULL. -999.2500:NULL Value
~CURVE INFORMATION BLOCK
#MNEM UNIT       ERCB CURVE CODE    CURVE DESCRIPTION
#-----------   ------------------   ----------------------------------
DEPT.F        00 001 00 00         : DEPTH        - DEPTH
GR  .API      00 310 00 00         : GR           - GAMMA RAY
RHOB.G/CC     00 350 00 00         : DENS         - BULK DENSITY
ILD .OHMM     00 120 00 00         : RESD         - DEEP RESISTIVITY (DIL)
DPHI.V/V      00 890 00 00         : PHID         - DENSITY POROSITY (SANDSTONE)
~PARAMETER INFORMATION
#MNEM.UNIT           DATA             DESCRIPTION OF MNEMONIC
#---------         -----------     ------------------------------
GL  .M        350.886              : gl           - GROUND LEVEL ELEVATION
EREF.M        350.886              : kb           - ELEVATION OF DEPTH REFERENCE
DATM.M        350.886              : datum        - DATUM ELEVATION
TDD .M        132.283              : tdd          - TOTAL DEPTH DRILLER
RUN .         ONE                  : Run          - RUN NUMBER
ENG .         BILL                 : Engineer     - RECORDING ENGINEER
WIT .         JIM                  : Witness      - WITNESSED BY
MUD .         GEL                  : Mud_type     - MUD TYPE
MATR.         SANDSTONE            : Logunit      - NEUTRON MATRIX
TMAX.F        49                   : BHT          - MAXIMUM RECORDED TEMPERATURE
BHTD.F        434                  : BHTDEP       - MAXIMUM RECORDED TEMPERATURE
RMT .F        49                   : MDTP         - TEMPERATURE OF MUD
MUDD.LB/G     1.1                  : MWT          - MUD DENSITY
NEUT.         1                    : NEUTRON      - NEUTRON TYPE
RESI.         0                    : RESIST       - RESISTIVITY TYPE
RM  .OHMM     3.35                 : RM           - RESISTIVITY OF MUD
RMC .OHMM     3.35                 : RMC          - RESISTIVITY OF MUD CAKE
RMF .OHMM     3.35                 : RMF          - RESISTIVITY OF MUD FILTRATE
SUFT.F        39.2                 : SUFT         - SURFACE TEMPERATURE
~A  DEPTH       GR     DENS     RESD     PHID
   30.000   98.194    2.114    7.658    0.325
   30.820  103.052    2.207    6.875    0.269
   31.640  110.932    2.179    6.396    0.286
   32.461  108.638    2.041    5.051    0.369
   33.281  105.183    1.971    4.214    0.411
   34.101  105.290    1.982    3.785    0.405
   34.921  104.210    1.992    3.527    0.399
   35.742   99.540    2.129    3.531    0.316
   36.562   93.710    2.167    3.670    0.293
   37.382   90.254    2.163    4.183    0.295
   38.202   91.549    2.130    4.850    0.315
   39.022   95.814    2.078    4.955    0.347
   39.843  102.480    2.036    4.782    0.372
   40.663  106.124    2.007    4.372    0.390
   41.483  111.602    1.991    3.854    0.399
   42.303  111.710    1.991    3.337    0.399
   43.123  109.469    2.032    3.050    0.375
   43.944  106.554    2.064    2.787    0.355
   44.764  101.317    2.084    2.459    0.343
   45.584  103.233    2.127    2.373    0.317
   46.404  107.470    2.157    2.656    0.299
   47.224  118.320    2.197    3.196    0.274
   48.045  120.236    2.196    4.139    0.275
   48.865  120.883    2.178    5.262    0.286
   49.685  119.830    2.166    5.998    0.293
   50.505  116.348    2.267    6.121    0.232
   51.325  117.103    2.311    6.134    0.205
   52.146  117.751    2.342    6.146    0.187
   52.966  120.234    2.234    6.392    0.252
   53.786  123.931    2.206    7.019    0.269
   54.606  124.632    2.207    7.292    0.269
   55.426  119.369    2.215    7.720    0.264
   56.247  118.882    2.217    7.879    0.262
   57.067  118.990    2.220    8.045    0.261
   57.887  116.722    2.222    8.062    0.259
   58.707  111.512    2.230    8.228    0.254
   59.528  109.191    2.243    8.397    0.247
   60.348  106.329    2.259    8.414    0.237
   61.168  108.245    2.301    8.587    0.211
   61.988  110.728    2.338    8.764    0.189
   62.808  112.671    2.268    8.944    0.231
   63.629  112.724    2.224    9.128    0.258
   64.449  112.238    2.209    9.493    0.267
   65.269  109.350    2.211    9.683    0.266
   66.089  107.676    2.214    9.703    0.265
   66.909  109.565    2.214    9.547    0.264
   67.730  117.419    2.216    9.059    0.263
   68.550  117.526    2.223    8.747    0.259
   69.370  114.071    2.225    8.458    0.258
   70.190  115.960    2.225    8.467    0.257
   71.010  116.688    2.228    8.339    0.256
   71.831  115.581    2.226    8.506    0.257
   72.651  117.470    2.224    8.686    0.258
   73.471  119.359    2.225    8.699    0.258
   74.291  120.061    2.227    8.712    0.256
   75.112  122.543    2.225    8.735    0.257
   75.932  122.651    2.216    8.753    0.263
   76.752  116.227    2.208    8.933    0.268
   77.572  114.526    2.202    9.121    0.271
   78.392  111.691    2.197    9.130    0.275
   79.213  110.584    2.211    9.318    0.266
   80.033  107.129    2.207    9.342    0.268
   80.853  102.513    2.194    9.361    0.277
   81.673  100.812    2.176    9.210    0.287
   82.493  100.326    2.168    9.062    0.292
   83.314  102.782    2.161    8.911    0.297
   84.134  107.667    2.161    8.938    0.296
   84.954  112.525    2.178    8.947    0.286
   85.774  116.789    2.188    8.966    0.280
   86.594  112.146    2.182    8.821    0.284
   87.415  108.124    2.165    8.530    0.294
   88.235  106.423    2.161    8.392    0.297
   89.055  101.753    2.199    8.401    0.273
   89.875   94.735    2.218    8.278    0.262
   90.695   89.471    2.218    8.440    0.262
   91.516   84.235    2.232    8.609    0.253
   92.336   77.837    2.243    9.114    0.247
   93.156   75.516    2.547   10.382    0.062
   93.976   90.495    2.489   12.051    0.097
   94.797  105.475    2.420   13.234    0.140
   95.617  109.766    2.280   14.277    0.224
   96.437  102.127    2.220   14.571    0.260
   97.257  100.453    2.225   13.323    0.258
   98.077  103.530    2.249   11.110    0.243
   98.898  109.602    2.253    9.788    0.240
   99.718  115.054    2.240    8.471    0.249
  100.538  128.252    2.222    6.939    0.259
  101.358  130.762    2.208    5.897    0.268
  102.178  130.870    2.199    5.297    0.273
  102.999  129.169    2.189    4.935    0.279
  103.819  125.120    2.185    4.850    0.282
  104.639  127.629    2.196    4.772    0.275
  105.459  130.139    2.220    4.963    0.261
  106.280  129.599    2.233    5.062    0.253
  107.100  126.171    2.243    5.562    0.247
  107.920  123.876    2.255    5.779    0.239
  108.740  122.202    2.286    6.237    0.221
  109.560  119.908    2.344    6.476    0.186
  110.381  118.234    2.344    6.732    0.185
  111.201  129.651    2.291    6.388    0.218
  112.021  135.102    2.243    5.946    0.247
  112.841  133.428    2.207    5.338    0.268
  113.661  122.254    2.190    4.971    0.279
  114.482  121.740    2.172    4.629    0.290
  115.302  128.434    2.156    4.160    0.299
  116.122  129.702    2.147    4.015    0.305
  116.942  132.185    2.139    3.806    0.310
  117.762  135.261    2.137    3.417    0.311
  118.583  136.556    2.140    3.182    0.309
  119.403  133.695    2.142    3.074    0.308
  120.223  129.646    2.146    3.024    0.305
  121.043  123.195    2.165    2.977    0.294
  121.864  116.770    2.195    3.152    0.276
  122.684  111.534    2.227    3.588    0.256
  123.504  108.051    2.246    4.321    0.245
  124.324  108.780    2.324    5.296    0.197
  125.144  116.607    2.379    6.258    0.165
  125.965  129.211    2.277    6.628    0.226
  126.785  134.069    2.257    6.642    0.238
  127.605  134.177    2.254    6.656    0.240
  128.425  133.690    2.264    6.669    0.234
  129.245  128.454    2.282    7.060    0.223
  130.066  124.378    2.329    7.474    0.195
  130.886  115.578    2.433    8.059    0.132
  131.706  109.721    2.530    8.532    0.073
  132.526  124.106    2.480    9.199    0.103
  133.346  126.022    2.384    9.218    0.161
  134.167  126.724    2.348    8.743    0.183
  134.987  132.769    2.445    8.293    0.124
  135.807  129.314    2.321    7.723    0.199
  136.627  127.019    2.275    7.192    0.227
  137.448  126.533    2.274    6.825    0.228
  138.268  124.859    2.264    6.237    0.234
  139.088  126.775    2.236    6.028    0.251
  139.908  130.472    2.233    5.928    0.253
  140.728  132.928    2.243    5.729    0.247
  141.549  131.848    2.260    5.738    0.237
  142.369  128.366    2.270    5.648    0.230
  143.189  124.911    2.306    5.660    0.208
  144.009  127.987    2.361    5.671    0.175
  144.829  132.278    2.245    5.686    0.246
  145.650  133.574    2.239    5.591    0.249
  146.470  132.493    2.243    5.498    0.246
  147.290  131.440    2.228    5.314    0.256
  148.110  132.709    2.216    5.228    0.263
  148.930  138.160    2.215    5.141    0.264
  149.751  140.049    2.233    5.064    0.253
  150.571  134.219    2.243    5.069    0.247
  151.391  126.580    2.258    5.079    0.238
  152.211  119.562    2.362    5.280    0.175
  153.031  113.110    2.408    5.391    0.146
  153.852  114.999    2.335    5.399    0.191
  154.672  124.635    2.215    5.121    0.264
  155.492  132.516    2.181    4.682    0.284
  156.312  131.436    2.190    4.358    0.279
  157.133  130.302    2.218    4.061    0.262
  157.953  129.222    2.230    3.852    0.254
  158.773  129.356    2.225    3.789    0.258
  159.593  128.870    2.223    3.795    0.259
  160.413  128.357    2.225    3.875    0.257
  161.234  127.303    2.234    3.955    0.252
  162.054  126.250    2.238    4.034    0.250
  162.874  125.737    2.241    4.122    0.248
  163.694  124.063    2.249    4.126    0.243
  164.514  121.769    2.253    4.136    0.240
  165.335  119.474    2.258    3.996    0.238
  166.155  114.237    2.256    3.790    0.239
  166.975  109.594    2.216    3.463    0.263
  167.795  104.925    2.142    2.943    0.308
  168.615   96.719    2.059    2.411    0.358
  169.436   92.049    2.051    2.166    0.363
  170.256   89.781    2.039    1.980    0.370
  171.076   98.823    2.044    1.911    0.367
  171.896  104.895    2.060    1.846    0.358
