~VERSION INFORMATION
 VERS.                 2.0:   CWLS LOG ASCII STANDARD -VERSION 2.0
 WRAP.                  NO:   ONE LINE PER DEPTH STEP
~WELL INFORMATION BLOCK
#MNEM.UNIT           DATA                    DESCRIPTION OF MNEMONIC
#---------    -------------------            -------------------------------
# Generated from Intellog Unique Number	CN_94_101/WELL/3220
WELL.         02-19-096-07W4                 : Well_name    - WELL
LOC .         AA/02-19-096-07W4/0            : Location     - LOCATION
UWI .         AA/02-19-096-07W400            : Uwi          - UNIQUE WELL ID
ENTR.         JOETTE                         : Entered      - ENTERED BY
SRVC.         SCHLUMBERGER                   : Scn          - SERVICE COMPANY
DATE.         07/20/92                       : Date         - LOG DATE
STRT.F        0                              : top_depth    - START DEPTH
STOP.F        400.262                        : bot_depth    - STOP DEPTH
STEP.F        0.82021                        : increment    - STEP LENGTH
 NULL. -999.2500:NULL Value
~CURVE INFORMATION BLOCK
#MNEM UNIT       ERCB CURVE CODE    CURVE DESCRIPTION
#-----------   ------------------   ----------------------------------
DEPT.F        00 001 00 00         : DEPTH        - DEPTH
ILD .OHMM     00 120 00 00         : RESD         - DEEP RESISTIVITY (DIL)
GR  .API      00 310 00 00         : GR           - GAMMA RAY
DPHI.V/V      00 890 00 00         : PHID         - DENSITY POROSITY (SANDSTONE)
~PARAMETER INFORMATION
#MNEM.UNIT           DATA             DESCRIPTION OF MNEMONIC
#---------         -----------     ------------------------------
GL  .M        335.432              : gl           - GROUND LEVEL ELEVATION
EREF.M        335.432              : kb           - ELEVATION OF DEPTH REFERENCE
DATM.M        335.432              : datum        - DATUM ELEVATION
TDD .M        124.968              : tdd          - TOTAL DEPTH DRILLER
RUN .         ONE                  : Run          - RUN NUMBER
ENG .         JO                   : Engineer     - RECORDING ENGINEER
WIT .         TIM                  : Witness      - WITNESSED BY
MUD .         GEL                  : Mud_type     - MUD TYPE
MATR.         SANDSTONE            : Logunit      - NEUTRON MATRIX
TMAX.F        55                   : BHT          - MAXIMUM RECORDED TEMPERATURE
BHTD.F        410                  : BHTDEP       - MAXIMUM RECORDED TEMPERATURE
RMT .F        55                   : MDTP         - TEMPERATURE OF MUD
MUDD.LB/G     9.2                  : MWT          - MUD DENSITY
NEUT.         1                    : NEUTRON      - NEUTRON TYPE
RESI.         0                    : RESIST       - RESISTIVITY TYPE
RM  .OHMM     1.21                 : RM           - RESISTIVITY OF MUD
RMC .OHMM     1.21                 : RMC          - RESISTIVITY OF MUD CAKE
RMF .OHMM     1.21                 : RMF          - RESISTIVITY OF MUD FILTRATE
SUFT.F        39.2                 : SUFT         - SURFACE TEMPERATURE
~A  DEPTH     RESD       GR     PHID
    0.000   16.668   49.793    0.378
    0.820   16.387   46.301    0.377
    1.640   15.829   43.191    0.376
    2.461   15.838   39.699    0.375
    3.281   15.576   36.182    0.369
    4.101   15.041   30.704    0.357
    4.921   14.261   27.212    0.344
    5.741   13.767   22.930    0.334
    6.562   13.539   21.387    0.339
    7.382   13.306   21.053    0.341
    8.202   12.849   22.287    0.347
    9.022   12.408   21.977    0.355
    9.843   12.202   21.224    0.361
   10.663   12.905   20.890    0.334
   11.483   13.402   20.951    0.327
   12.303   12.941   21.000    0.300
   13.123   11.827   20.271    0.274
   13.944   10.424   20.715    0.266
   14.764    9.351   22.343    0.271
   15.584    7.800   20.812    0.326
   16.404    6.628   17.703    0.398
   17.224    6.883   17.369    0.343
   18.045    8.125   19.404    0.301
   18.865    9.245   20.242    0.270
   19.685    9.784   20.291    0.276
   20.505    9.106   19.969    0.344
   21.326    7.595   22.794    0.278
   22.146    7.467   24.817    0.253
   22.966    7.208   26.839    0.243
   23.786    6.125   26.518    0.237
   24.606   11.839   24.580    0.288
   25.427   20.137   24.246    0.389
   26.247   27.004   25.085    0.440
   27.067   24.686   26.737    0.452
   27.887   21.370   25.601    0.450
   28.707   20.256   23.294    0.384
   29.528   23.464   20.974    0.346
   30.348   27.198   19.048    0.323
   31.168   26.739   17.111    0.297
   31.988  771.772   14.408    0.285
   32.808 1054.360   12.495    0.332
   33.629  946.116   12.162    0.329
   34.449  283.739   12.210    0.301
   35.269  984.063   10.692    0.293
   36.089 2283.050    9.951    0.284
   36.910 3007.140    9.210    0.283
   37.730 1942.470   10.838    0.278
   38.550 1145.260   13.675    0.283
   39.370 1878.060   14.118    0.309
   40.190 3079.770   13.007    0.316
   41.011 1011.920   12.649    0.318
   41.831  729.344   11.513    0.315
   42.651 1723.820   10.785    0.321
   43.471 2986.000   10.846    0.309
   44.291 3790.810   11.277    0.301
   45.111 1268.890   11.745    0.299
   45.932  568.868   12.176    0.321
   46.752  329.328   12.656    0.322
   47.572  361.263   12.693    0.324
   48.392  403.850   12.742    0.326
   49.213  330.664   13.222    0.330
   50.033  265.925   13.641    0.336
   50.853  266.422   15.676    0.337
   51.673  257.187   20.487    0.316
   52.493  222.438   23.682    0.310
   53.314  178.943   26.913    0.306
   54.134  138.748   26.567    0.313
   54.954  120.076   26.221    0.329
   55.774  134.189   28.663    0.338
   56.594  124.853   30.291    0.334
   57.415  100.408   31.129    0.319
   58.235   82.289   32.374    0.317
   59.055  132.460   34.002    0.320
   59.875  213.285   36.050    0.309
   60.696  213.551   36.111    0.309
   61.516  153.918   37.344    0.317
   62.336  281.719   39.366    0.325
   63.156  181.921   38.626    0.336
   63.976  182.261   34.751    0.339
   64.797  258.178   32.419    0.333
   65.617  288.433   30.900    0.313
   66.437  322.334   31.368    0.308
   67.257  204.445   31.393    0.305
   68.077   98.633   31.454    0.299
   68.898  104.285   30.725    0.317
   69.718  106.339   30.379    0.325
   70.538   69.978   28.849    0.325
   71.358   62.794   30.106    0.325
   72.178   60.636   32.129    0.326
   72.999   54.411   34.151    0.329
   73.819   51.575   37.395    0.329
   74.639   55.569   40.985    0.322
   75.459   36.557   47.757    0.265
   76.279   30.493   52.556    0.197
   77.100   57.870   58.946    0.169
   77.920   68.314   60.574    0.175
   78.740   80.617   59.438    0.205
   79.560   45.840   57.118    0.226
   80.381   51.228   54.403    0.233
   81.201   42.718   51.700    0.252
   82.021   37.650   52.144    0.256
   82.841   48.679   57.744    0.249
   83.661   57.463   61.346    0.248
   84.482  101.373   60.630    0.251
   85.302  178.835   58.298    0.252
   86.122  189.141   57.964    0.247
   86.942  133.857   56.828    0.243
   87.763   43.995   53.324    0.245
   88.583   25.009   49.819    0.255
   89.403   24.142   46.315    0.260
   90.223   29.559   45.191    0.256
   91.043   33.043   56.319    0.262
   91.864   29.105   61.895    0.251
   92.684   33.115   57.601    0.239
   93.504   42.067   52.135    0.248
   94.324   34.443   54.947    0.245
   95.144   31.487   58.956    0.240
   95.965   38.540   59.029    0.229
   96.785   40.773   57.486    0.233
   97.605   31.614   55.573    0.238
   98.425   24.069   58.398    0.244
   99.245   25.472   62.000    0.254
  100.066   24.145   67.588    0.253
  100.886   22.886   71.597    0.253
  101.706   22.093   74.421    0.247
  102.526   25.608   74.470    0.238
  103.346   29.673   73.334    0.237
  104.167   34.404   69.052    0.239
  104.987   32.611   64.759    0.242
  105.807   30.920   58.096    0.248
  106.627   30.959   54.986    0.254
  107.448   32.151   51.482    0.264
  108.268   38.640   53.517    0.277
  109.088   66.933   56.748    0.271
  109.908   72.117   54.811    0.265
  110.728   46.584   50.122    0.260
  111.549   67.225   47.025    0.264
  112.369   71.099   47.875    0.274
  113.189   42.692   52.661    0.272
  114.009   24.715   58.250    0.240
  114.829   22.593   57.904    0.237
  115.650   22.622   57.965    0.245
  116.470   23.500   68.290    0.263
  117.290   32.104   75.062    0.251
  118.110   33.954   71.163    0.246
  118.930   64.439   62.539    0.249
  119.751   80.376   58.640    0.248
  120.571   73.431   55.147    0.241
  121.391   40.244   52.420    0.235
  122.211   41.050   48.521    0.238
  123.031   41.101   45.424    0.241
  123.852   33.663   49.026    0.234
  124.672   26.101   55.798    0.237
  125.492   29.707   58.228    0.237
  126.312   41.332   55.908    0.231
  127.133   48.791   56.376    0.228
  127.953   55.513   55.623    0.237
  128.773   75.840   49.762    0.245
  129.593  119.906   45.073    0.246
  130.413  352.723   44.332    0.259
  131.234 1037.910   42.037    0.247
  132.054  161.247   38.125    0.256
  132.874   38.139   40.148    0.284
  133.694   51.160   45.736    0.271
  134.514   63.814   52.114    0.250
  135.335   34.963   56.135    0.237
  136.155   38.365   56.973    0.249
  136.975   39.121   57.812    0.248
  137.795   29.784   60.636    0.251
  138.615   25.768   62.300    0.248
  139.436   23.990   60.351    0.242
  140.256   31.589   56.859    0.246
  141.076   73.310   59.288    0.254
  141.896  101.967   59.337    0.249
  142.717  139.302   55.833    0.248
  143.537   38.131   51.144    0.257
  144.357   30.675   46.850    0.270
  145.177   22.931   46.121    0.277
  145.997   17.143   50.513    0.288
  146.818   31.367   55.311    0.274
  147.638  857.091   54.977    0.265
  148.458 1718.200   49.104    0.267
  149.278 2181.970   38.099    0.276
  150.098  107.285   31.436    0.306
  150.919   89.462   30.695    0.317
  151.739   50.870   34.309    0.342
  152.559   44.821   39.503    0.336
  153.379   46.547   43.906    0.290
  154.199   79.169   47.903    0.265
  155.020   52.082   51.122    0.259
  155.840   30.707   53.959    0.248
  156.660   27.064   54.785    0.246
  157.480   31.939   52.884    0.252
  158.301   92.281   56.092    0.264
  159.121  126.031   60.088    0.273
  159.941  453.360   59.359    0.280
  160.761  654.237   54.276    0.266
  161.581  498.098   48.008    0.290
  162.402  144.021   42.530    0.295
  163.222   40.902   37.841    0.306
  164.042   34.746   40.271    0.315
  164.862   74.934   44.674    0.297
  165.682  144.831   50.657    0.290
  166.503  602.939   43.205    0.281
  167.323 1348.660   36.937    0.286
  168.143  954.762   32.643    0.302
  168.963  198.664   28.361    0.316
  169.783  319.886   28.805    0.315
  170.604  524.568   33.998    0.306
  171.424  126.359   39.981    0.299
  172.244   67.999   41.226    0.297
  173.064   37.267   42.065    0.294
  173.885   34.707   49.232    0.289
  174.705   37.372   57.596    0.286
  175.525   58.017   58.458    0.281
  176.345   51.119   56.521    0.266
  177.165   38.931   51.030    0.245
