~VERSION INFORMATION
 VERS.                 2.0:   CWLS LOG ASCII STANDARD -VERSION 2.0
 WRAP.                  NO:   ONE LINE PER DEPTH STEP
~WELL INFORMATION BLOCK
#MNEM.UNIT           DATA                    DESCRIPTION OF MNEMONIC
#---------    -------------------            -------------------------------
# Generated from Intellog Unique Number	CX_WELLS/WELL/3736
WELL.         AMOCO GREGOIRE                 : Well_name    - WELL
LOC .         AA/08-08-086-08W4/0            : Location     - LOCATION
UWI .         AA/08-08-086-08W400            : Uwi          - UNIQUE WELL ID
ENTR.         T                              : Entered      - ENTERED BY
SRVC.         SCHLUMBERGER                   : Scn          - SERVICE COMPANY
STRT.F        150                            : top_depth    - START DEPTH
STOP.F        860.302                        : bot_depth    - STOP DEPTH
STEP.F        0.82                           : increment    - STEP LENGTH
 NULL. -999.2500:NULL Value
~CURVE INFORMATION BLOCK
#MNEM UNIT       ERCB CURVE CODE    CURVE DESCRIPTION
#-----------   ------------------   ----------------------------------
DEPT.F        00 001 00 00         : DEPTH        - DEPTH
GR  .API      00 310 00 00         : GR           - GAMMA RAY
DPHI.V/V      00 890 00 00         : PHID         - DENSITY POROSITY (SANDSTONE)
ILD .OHMM     00 120 00 00         : RESD         - DEEP RESISTIVITY (DIL)
~PARAMETER INFORMATION
#MNEM.UNIT           DATA             DESCRIPTION OF MNEMONIC
#---------         -----------     ------------------------------
GL  .F        1621                 : gl           - GROUND LEVEL ELEVATION
EREF.F        1625                 : kb           - ELEVATION OF DEPTH REFERENCE
DATM.F        1625                 : datum        - DATUM ELEVATION
TDD .F        884                  : tdd          - TOTAL DEPTH DRILLER
RUN .         ONE                  : Run          - RUN NUMBER
ENG .         BILL                 : Engineer     - RECORDING ENGINEER
WIT .         JIM                  : Witness      - WITNESSED BY
MUD .         GEL                  : Mud_type     - MUD TYPE
MATR.         SANDSTONE            : Logunit      - NEUTRON MATRIX
TMAX.F        64.4                 : BHT          - MAXIMUM RECORDED TEMPERATURE
BHTD.F        882                  : BHTDEP       - MAXIMUM RECORDED TEMPERATURE
MATR.         1                    : LOGUNIT      - NEUTRON MATRIX
RMT .F        54.5                 : MDTP         - TEMPERATURE OF MUD
NEUT.         1                    : NEUTRON      - NEUTRON TYPE
RESI.         4.2                  : RESIST       - RESISTIVITY TYPE
RMC .OHMM     2                    : RMC          - RESISTIVITY OF MUD CAKE
RMF .OHMM     3.9                  : RMF          - RESISTIVITY OF MUD FILTRATE
SUFT.F        39.2                 : SUFT         - SURFACE TEMPERATURE
~A  DEPTH       GR     PHID     RESD
# ...
  327.986   47.782    0.297    8.574
  328.806   47.157    0.297    8.778
  329.626   45.871    0.300    8.987
  330.446   43.933    0.307    8.990
  331.266   43.303    0.312    8.995
  332.087   42.660    0.316    9.204
  332.907   42.683    0.319    9.410
  333.727   43.354    0.321    9.214
  334.547   44.024    0.321    8.814
  335.367   44.690    0.321    9.021
  336.188   46.017    0.320    9.430
  337.008   47.345    0.318    9.235
  337.828   48.672    0.316    8.837
  338.648   49.342    0.316    9.043
  339.469   49.356    0.316    9.049
  340.289   50.022    0.316    8.850
  341.109   50.040    0.316    8.452
  341.929   50.711    0.316    8.458
  342.749   51.386    0.317    8.665
  343.570   53.360    0.322    8.671
  344.390   55.335    0.328    8.878
  345.210   58.614    0.331    8.885
  346.030   63.850    0.327    8.888
  346.850   71.041    0.317    8.692
  347.671   77.581    0.306    8.493
  348.491   85.430    0.300    8.296
  349.311   93.926    0.281    8.301
  350.131  104.379    0.243    8.508
  350.951  129.830    0.212    8.515
  351.772  162.461    0.206    8.320
  352.592  159.223    0.210    8.122
  353.412  156.632    0.219    7.924
  354.232  154.042    0.229    7.327
  355.052  150.148    0.231    7.128
  355.873  147.553    0.223    6.731
  356.693  143.658    0.218    6.533
  357.513  140.416    0.214    6.339
  358.333  137.830    0.210    6.142
  359.154  139.809    0.209    5.945
  359.974  142.436    0.207    5.949
  360.794  143.764    0.206    5.755
  361.614  145.082    0.208    5.757
  362.434  145.752    0.209    5.762
  363.255  146.422    0.213    5.767
  364.075  146.445    0.230    5.774
  364.895  144.507    0.237    5.781
  365.715  140.608    0.231    5.783
  366.535  137.370    0.225    5.991
  367.356  135.432    0.221    5.996
  368.176  136.755    0.213    6.001
  368.996  138.073    0.211    6.006
  369.816  138.743    0.207    6.010
  370.636  137.457    0.203    6.218
  371.457  136.176    0.201    6.223
  372.277  138.151    0.206    6.228
  373.097  140.125    0.214    6.233
  373.917  141.448    0.214    6.237
  374.738  141.475    0.205    6.242
  375.558  141.485    0.204    6.250
  376.378  141.503    0.206    6.456
  377.198  141.526    0.206    6.461
  378.018  141.549    0.207    6.465
  378.839  142.215    0.208    6.672
  379.659  142.237    0.209    6.679
  380.479  141.599    0.210    6.682
  381.299  140.965    0.214    6.486
  382.119  139.027    0.215    6.490
  382.940  138.393    0.216    6.499
  383.760  138.416    0.217    6.502
  384.580  139.091    0.220    6.506
  385.400  139.100    0.221    6.514
  386.220  137.162    0.222    6.517
  387.041  132.620    0.223    6.521
  387.861  127.421    0.227    6.730
  388.681  115.049    0.232    6.732
  389.501  109.850    0.237    6.940
  390.322  102.043    0.242    7.147
  391.142  100.766    0.253    7.356
  391.962  101.427    0.252    7.561
  392.782  101.445    0.257    7.767
  393.602  101.464    0.261    7.974
  394.423  102.786    0.264    8.181
  395.243  105.413    0.265    8.791
  396.063  108.040    0.259    9.805
  396.883  117.193    0.252    9.608
  397.703  127.650    0.233    9.613
  398.524  130.277    0.209    9.820
  399.344  130.943    0.209   10.228
  400.164  130.966    0.214   10.232
  400.984  130.989    0.220    9.835
  401.804  131.002    0.228    9.236
  402.625  131.677    0.229    8.636
  403.445  131.696    0.228    7.836
  404.265  131.057    0.227    7.435
  405.085  131.076    0.227    7.240
  405.906  129.790    0.227    7.244
  406.726  127.852    0.227    7.451
  407.546  120.049    0.228    7.658
  408.366  118.106    0.228    7.663
  409.186  115.520    0.226    7.869
  410.007  113.578    0.226    8.077
  410.827  112.301    0.228    8.081
  411.647  112.319    0.231    8.493
  412.467  114.946    0.233    8.495
  413.287  118.873    0.235    8.703
  414.108  123.465    0.236    8.709
  414.928  122.822    0.237    8.913
  415.748  122.840    0.238    8.920
  416.568  124.824    0.239    8.923
  417.388  126.142    0.240    8.931
  418.209  128.126    0.241    8.933
  419.029  129.449    0.241    8.940
  419.849  129.458    0.243    8.947
  420.669  129.481    0.242    8.949
  421.490  129.495    0.241    9.157
  422.310  129.522    0.241    9.162
  423.130  129.536    0.240    8.964
  423.950  128.897    0.239    8.969
  424.770  128.268    0.237    8.572
  425.591  125.026    0.236    8.175
  426.411  121.131    0.239    7.577
  427.231  116.584    0.239    7.177
  428.051  115.299    0.240    6.981
  428.871  116.626    0.238    6.984
  429.692  119.909    0.237    6.184
  430.512  121.223    0.234    6.995
  431.332  123.197    0.231    7.404
  432.152  126.481    0.238    7.610
  432.972  129.113    0.244    7.615
  433.793  131.735    0.249    7.623
  434.613  134.362    0.250    7.625
  435.433  136.993    0.250    7.631
  436.253  138.968    0.250    7.636
  437.073  140.943    0.250    7.843
  437.894  142.917    0.252    8.049
  438.714  143.588    0.258    8.054
  439.534  143.606    0.260    8.060
  440.354  142.972    0.265    7.864
  441.175  142.339    0.266    7.467
  441.995  141.057    0.264    7.469
  442.815  140.419    0.261    6.872
  443.635  139.785    0.257    6.674
  444.455  137.847    0.251    6.479
  445.276  135.918    0.245    6.482
  446.096  134.627    0.245    6.487
  446.916  132.037    0.248    6.492
  447.736  128.795    0.249    6.297
  448.556  124.905    0.249    6.301
  449.377  121.662    0.249    6.308
  450.197  119.067    0.249    6.311
  451.017  115.825    0.247    6.316
  451.837  111.935    0.245    6.523
  452.657  108.693    0.242    6.528
  453.478  106.750    0.239    6.939
  454.298  103.512    0.244    7.144
  455.118  101.574    0.246    7.352
  455.938  102.897    0.251    7.355
  456.759  107.480    0.256    7.160
  457.579  112.063    0.256    7.164
  458.399  114.690    0.255    6.767
  459.219  114.713    0.254    6.773
  460.039  114.075    0.256    6.574
  460.860  111.489    0.258    6.580
  461.680  110.198    0.261    6.786
  462.500  106.313    0.267    6.791
  463.320  105.022    0.270    6.797
  464.140  101.785    0.277    6.802
  464.961   99.194    0.283    6.807
  465.781   97.908    0.289    6.815
  466.601   97.927    0.293    6.819
  467.421   98.593    0.297    6.823
  468.241  101.224    0.298    6.828
  469.062  103.199    0.292    6.833
  469.882  103.222    0.287    6.838
  470.702  100.631    0.287    7.247
  471.522   98.689    0.286    7.454
  472.343   96.751    0.283    7.460
  473.163   92.861    0.279    7.462
  473.983   87.010    0.262    7.266
  474.803   83.115    0.200    7.474
  475.623   81.829    0.175    7.679
  476.444   84.451    0.145    8.090
  477.264   87.078    0.104    8.698
  478.084   93.623    0.098   16.767
  478.904  100.162    0.111   21.812
  479.724  103.450    0.132   23.833
  480.545  104.764    0.178   22.228
  481.365  106.748    0.266   21.224
  482.185  108.061    0.279   17.196
  483.005  110.693    0.289   15.992
  483.825  112.667    0.299   13.779
  484.646  114.642    0.306   11.163
  485.466  115.317    0.310    7.944
  486.286  115.983    0.309    7.144
  487.106  115.349    0.304    6.744
  487.927  114.063    0.303    6.345
  488.747  111.478    0.300    6.149
  489.567  109.535    0.295    6.153
  490.387  106.297    0.292    6.362
  491.207  103.702    0.292    6.773
  492.028  100.460    0.289    6.977
  492.848   97.227    0.285    7.183
  493.668   95.284    0.281    7.389
  494.488   92.694    0.277    7.596
  495.308   88.151    0.278    7.600
  496.129   84.252    0.283    7.809
  496.949   79.053    0.296    8.016
  497.769   77.768    0.327    8.224
  498.589   77.790    0.383    8.428
  499.409   79.118    0.381    8.837
  500.230   79.779    0.375    8.841
  501.050   82.415    0.363    8.848
  501.870   84.390    0.341    8.852
  502.690   85.060    0.323    8.655
  503.510   86.387    0.308    8.459
  504.331   88.358    0.293    8.060
  505.151   90.332    0.271    7.662
