~VERSION INFORMATION
 VERS.                 2.0:   CWLS LOG ASCII STANDARD -VERSION 2.0
 WRAP.                  NO:   ONE LINE PER DEPTH STEP
~WELL INFORMATION BLOCK
#MNEM.UNIT           DATA                    DESCRIPTION OF MNEMONIC
#---------    -------------------            -------------------------------
# Generated from Intellog Unique Number	CN_94_101/WELL/4983
WELL.         06-18-097-15W4                 : Well_name    - WELL
LOC .         AA/06-18-097-15W4/0            : Location     - LOCATION
UWI .         AA/06-18-097-15W400            : Uwi          - UNIQUE WELL ID
ENTR.         JOETTE                         : Entered      - ENTERED BY
SRVC.         SCHLUMBERGER                   : Scn          - SERVICE COMPANY
DATE.         08/17/92                       : Date         - LOG DATE
STRT.M        243.84                         : top_depth    - START DEPTH
STOP.M        502.84                         : bot_depth    - STOP DEPTH
STEP.M        0.25                           : increment    - STEP LENGTH
 NULL. -999.2500:NULL Value
~CURVE INFORMATION BLOCK
#MNEM UNIT       ERCB CURVE CODE    CURVE DESCRIPTION
#-----------   ------------------   ----------------------------------
DEPT.M        00 001 00 00         : DEPTH        - DEPTH
ILD .OHMM     00 120 00 00         : RESD         - DEEP RESISTIVITY (DIL)
GR  .API      00 310 00 00         : GR           - GAMMA RAY
NPHI.V/V      00 330 00 00         : PHIN         - NEUTRON POROSITY (SANDSTONE)
~PARAMETER INFORMATION
#MNEM.UNIT           DATA             DESCRIPTION OF MNEMONIC
#---------         -----------     ------------------------------
GL  .M        734.964              : gl           - GROUND LEVEL ELEVATION
EREF.M        734.964              : kb           - ELEVATION OF DEPTH REFERENCE
DATM.M        734.964              : datum        - DATUM ELEVATION
TDD .M        505.358              : tdd          - TOTAL DEPTH DRILLER
RUN .         ONE                  : Run          - RUN NUMBER
ENG .         JO                   : Engineer     - RECORDING ENGINEER
WIT .         TIM                  : Witness      - WITNESSED BY
MUD .         GEL                  : Mud_type     - MUD TYPE
MATR.         SANDSTONE            : Logunit      - NEUTRON MATRIX
TMAX.C        15                   : BHT          - MAXIMUM RECORDED TEMPERATURE
BHTD.M        505.358              : BHTDEP       - MAXIMUM RECORDED TEMPERATURE
RMT .C        4.44444              : MDTP         - TEMPERATURE OF MUD
MUDD.KG/M     1020                 : MWT          - MUD DENSITY
NEUT.         1                    : NEUTRON      - NEUTRON TYPE
RESI.         0                    : RESIST       - RESISTIVITY TYPE
RM  .OHMM     9.3                  : RM           - RESISTIVITY OF MUD
RMC .OHMM     9.3                  : RMC          - RESISTIVITY OF MUD CAKE
RMF .OHMM     9.3                  : RMF          - RESISTIVITY OF MUD FILTRATE
SUFT.C        4                    : SUFT         - SURFACE TEMPERATURE
~A  DEPTH     RESD       GR     PHIN
  243.840   17.539   73.416    0.414
  244.090   16.114   96.255    0.423
  244.340   17.620   98.506    0.437
  244.590   14.734  100.201    0.439
  244.840   12.579  100.228    0.431
  245.090   16.997   99.692    0.416
  245.340   25.808   98.050    0.405
  245.590   25.834   86.400    0.369
  245.840   28.062   75.861    0.370
  246.090   38.324   72.558    0.371
  246.340   63.203   66.461    0.371
  246.590   72.004   34.791    0.322
  246.840   82.275   22.029    0.306
  247.090   85.242   18.719    0.228
  247.340   80.156   24.863   -0.034
  247.590   92.609   24.903   -0.042
  247.840   89.723   23.804   -0.040
  248.090   29.124   29.954    0.005
  248.340   32.091   34.986    0.011
  248.590   49.657   39.461    0.021
  248.840   60.650   38.932    0.035
  249.090   65.807   27.288    0.254
  249.340   56.348   22.303    0.256
  249.590   56.384   17.881    0.276
  249.840   60.811   14.572    0.287
  250.090   64.490   15.155    0.286
  250.340   64.526   14.639    0.271
  250.590   66.753   13.553    0.265
  250.840   71.190   13.024    0.258
  251.090   63.912   11.383    0.272
  251.340   45.688   11.965    0.266
  251.590   74.941   11.436    0.269
  251.840   85.942    9.239    0.272
  252.090   75.013    8.703    0.268
  252.340   48.023   12.629    0.259
  252.590   22.493   49.919    0.268
  252.840   15.225   69.965    0.278
  253.090   13.800   78.346    0.291
  253.340   13.106   77.810    0.383
  253.590   11.681   76.169    0.473
  253.840   11.717   73.978    0.472
  254.090   13.231   72.336    0.453
  254.340   13.258   69.583    0.461
  254.590   13.294   67.379    0.473
  254.840   13.330   69.630    0.483
  255.090   14.827   73.000    0.493
  255.340   14.141   74.701    0.496
  255.590   11.255   75.278    0.489
  255.840   13.492   75.311    0.482
  256.090   13.537   76.450    0.482
  256.340   12.833   80.919    0.484
  256.590   12.130   88.744    0.493
  256.840   11.444   87.103    0.503
  257.090   11.480   86.573    0.494
  257.340   11.507   87.149    0.491
  257.590   11.561   88.295    0.493
  257.840   12.327   88.885    0.499
  258.090   12.354   86.680    0.491
  258.340   12.390   82.258    0.452
  258.590   13.887   73.388    0.417
  258.840   16.114   64.518    0.417
  259.090   17.620   53.972    0.423
  259.340   15.464   58.454    0.433
  259.590   26.457   52.364    0.437
  259.840   44.023   31.809    0.407
  260.090   57.216   16.822    0.365
  260.340   32.417   19.629    0.356
  260.590   41.948   21.887    0.361
  260.840   39.793   22.470    0.362
  261.090   25.220   21.941    0.357
  261.340   30.369   30.315    0.353
  261.590   63.284   29.786    0.358
  261.840   83.781   23.689    0.348
  262.090   87.460   16.487    0.304
  262.340   80.191   14.303    0.268
  262.590   63.427   13.218    0.273
  262.840  108.759   13.238    0.278
  263.090  123.421   13.264    0.234
  263.340  105.909   13.847    0.243
  263.590   49.711   13.874    0.274
  263.840   50.468   12.795    0.284
  264.090   70.956   13.934    0.272
  264.340   36.662   22.858    0.285
  264.590   30.133   25.110    0.358
  264.840   39.655   25.692    0.370
  265.090   47.726   22.383    0.362
  265.340   57.266   19.073    0.366
  265.590   39.042   17.431    0.373
  265.840   55.886   16.360    0.383
  266.090   60.305   15.830    0.379
  266.340   42.071   15.301    0.369
  266.590   30.429   15.884    0.368
  266.840   31.926   22.577    0.373
  267.090   31.231   25.947    0.382
  267.340   29.806   27.086    0.386
  267.590   22.538   27.669    0.391
  267.840   55.443   27.695    0.399
  268.090   35.027   23.836    0.369
  268.340   21.915   25.531    0.364
  268.590   48.986   28.338    0.386
  268.840   62.170   27.253    0.356
  269.090   75.353   23.394    0.360
  269.340   28.642   21.753    0.368
  269.590   34.521   26.777    0.377
  269.840   39.670   24.031    0.363
  270.090   36.784   20.714    0.364
  270.340   63.855   18.523    0.358
  270.590   52.935   16.882    0.324
  270.840   69.040   14.122    0.301
  271.090   74.189   12.494    0.302
  271.340   54.503   11.971    0.326
  271.590   40.661   11.428    0.318
  271.840   70.662   10.899    0.300
  272.090   55.350   10.370    0.298
  272.340   64.151   10.403    0.286
  272.590   72.953   11.542    0.280
  272.840   72.258   11.569    0.283
  273.090   57.685   11.046    0.287
  273.340   49.687    9.961    0.300
  273.590   51.914    9.981    0.314
  273.840   43.915   10.564    0.327
  274.090   34.455   12.815    0.342
  274.340   38.152   20.640    0.358
  274.590   39.649   20.660    0.349
  274.840   38.233   20.694    0.348
  275.090   39.730   27.387    0.362
  275.340   38.305   28.526    0.376
  275.590   35.419   28.553    0.389
  275.840   36.176   28.593    0.396
  276.090   37.691   29.182    0.409
  276.340   38.458   31.427    0.412
  276.590   37.754   34.783    0.411
  276.840   39.260   37.597    0.391
  277.090   37.096   35.400    0.389
  277.340   29.827   33.758    0.399
  277.590   32.054   33.785    0.408
  277.840   39.404   33.812    0.398
  278.090   41.631   34.401    0.398
  278.340   40.945   34.421    0.399
  278.590   38.790   34.448    0.400
  278.840   36.634   34.475    0.418
  279.090   35.209   31.728    0.419
  279.340   35.236   33.423    0.413
  279.590   38.212   34.562    0.404
  279.840   38.248   33.497    0.404
  280.090   34.623   32.954    0.407
  280.340   33.198   32.425    0.401
  280.590   36.904   34.120    0.407
  280.840   36.922   35.259    0.418
  281.090   36.227   36.398    0.427
  281.340   37.012   39.761    0.422
  281.590   38.499   44.243    0.410
  281.840   31.970   38.702    0.392
  282.090   30.545   37.061    0.383
  282.340   28.381   40.431    0.388
  282.590   24.034   43.801    0.421
  282.840   24.070   44.940    0.439
  283.090   32.889   47.184    0.409
  283.340   32.195   44.987    0.409
  283.590   28.570   42.240    0.419
  283.840   28.615   45.603    0.430
  284.090   29.381   47.861    0.431
  284.340   30.138   45.107    0.402
  284.590   30.905   41.235    0.363
  284.840   35.341   36.257    0.356
  285.090   35.368   33.510    0.362
  285.340   32.482   42.427    0.369
  285.590   33.258   50.246    0.378
  285.840   33.293   54.721    0.393
  286.090   29.668   77.554    0.411
  286.340   31.165   70.352    0.383
  286.590   42.166   65.374    0.347
  286.840   38.550   63.739    0.359
  287.090   28.369   68.208    0.384
  287.340   29.144   74.907    0.397
  287.590   30.623   79.396    0.421
  287.840   27.007   79.423    0.437
  288.090   23.391   81.118    0.433
  288.340   24.166   83.362    0.424
  288.590   24.220   85.057    0.433
  288.840   23.507   95.107    0.430
  289.090   17.700   95.690    0.430
  289.340   17.005   97.385    0.424
  289.590   20.702   99.629    0.422
  289.840   20.738   99.107    0.428
  290.090   21.505   94.122    0.443
  290.340   20.080   88.032    0.459
  290.590   14.272   86.391    0.497
  290.840   12.126   84.756    0.509
  291.090   12.892   85.339    0.504
  291.340   12.928   85.379    0.493
  291.590   15.877   82.612    0.485
  291.840   19.565   77.641    0.480
  292.090   15.949   75.443    0.487
  292.340   13.081   73.808    0.505
  292.590   12.395   73.822    0.519
  292.840   12.413   76.073    0.533
  293.090   13.188   81.111    0.529
  293.340   13.955   82.250    0.526
  293.590   14.721   83.952    0.508
  293.840   15.479   90.089    0.493
  294.090   15.523   93.459    0.485
  294.340   15.559   90.705    0.486
  294.590   15.604   88.521    0.498
  294.840   15.631   88.541    0.517
  295.090   14.955   89.673    0.513
  295.340   14.982   99.709    0.523
  295.590   15.018  105.310    0.527
  295.840   15.071  104.774    0.532
  296.090   15.098  102.577    0.520
  296.340   15.134  102.604    0.506
  296.590   14.449  105.967    0.508
  296.840   13.745  109.337    0.513
  297.090   13.772  108.814    0.521
  297.340   13.808  105.504    0.521
  297.590   13.123   98.296    0.521
  297.840   13.158   88.869    0.522
