~VERSION INFORMATION
 VERS.                 2.0:   CWLS LOG ASCII STANDARD -VERSION 2.0
 WRAP.                  NO:   ONE LINE PER DEPTH STEP
~WELL INFORMATION BLOCK
#MNEM.UNIT           DATA                    DESCRIPTION OF MNEMONIC
#---------    -------------------            -------------------------------
# Generated from Intellog Unique Number	CN_94_101/WELL/2824
WELL.         06-25-096-14W4                 : Well_name    - WELL
LOC .         AA/06-25-096-14W4/0            : Location     - LOCATION
UWI .         AA/06-25-096-14W400            : Uwi          - UNIQUE WELL ID
ENTR.         JOETTE                         : Entered      - ENTERED BY
SRVC.         SCHLUMBERGER                   : Scn          - SERVICE COMPANY
DATE.         07/07/92                       : Date         - LOG DATE
STRT.M        160                            : top_depth    - START DEPTH
STOP.M        280                            : bot_depth    - STOP DEPTH
STEP.M        0.25                           : increment    - STEP LENGTH
 NULL. -999.2500:NULL Value
~CURVE INFORMATION BLOCK
#MNEM UNIT       ERCB CURVE CODE    CURVE DESCRIPTION
#-----------   ------------------   ----------------------------------
DEPT.M        00 001 00 00         : DEPTH        - DEPTH
CALI.MM       00 280 01 00         : CAL          - CALIPER
GR  .API      00 310 00 00         : GR           - GAMMA RAY
NPHI.V/V      00 330 00 00         : PHIN         - NEUTRON POROSITY (SANDSTONE)
DPHI.V/V      00 890 00 00         : PHID         - DENSITY POROSITY (SANDSTONE)
ILD .OHMM     00 120 00 00         : RESD         - DEEP RESISTIVITY (DIL)
~PARAMETER INFORMATION
#MNEM.UNIT           DATA             DESCRIPTION OF MNEMONIC
#---------         -----------     ------------------------------
GL  .M        524.9                : gl           - GROUND LEVEL ELEVATION
EREF.M        527.9                : kb           - ELEVATION OF DEPTH REFERENCE
DATM.M        527.9                : datum        - DATUM ELEVATION
TDD .M        287                  : tdd          - TOTAL DEPTH DRILLER
RUN .         ONE                  : Run          - RUN NUMBER
ENG .         JO                   : Engineer     - RECORDING ENGINEER
WIT .         TIM                  : Witness      - WITNESSED BY
MUD .         GEL                  : Mud_type     - MUD TYPE
MATR.         SANDSTONE            : Logunit      - NEUTRON MATRIX
TMAX.C        30                   : BHT          - MAXIMUM RECORDED TEMPERATURE
BHTD.M        287                  : BHTDEP       - MAXIMUM RECORDED TEMPERATURE
RMT .C        10                   : MDTP         - TEMPERATURE OF MUD
MUDD.KG/M     1115                 : MWT          - MUD DENSITY
NEUT.         1                    : NEUTRON      - NEUTRON TYPE
RESI.         0                    : RESIST       - RESISTIVITY TYPE
RM  .OHMM     0.979                : RM           - RESISTIVITY OF MUD
RMC .OHMM     0.979                : RMC          - RESISTIVITY OF MUD CAKE
RMF .OHMM     0.979                : RMF          - RESISTIVITY OF MUD FILTRATE
SUFT.C        4                    : SUFT         - SURFACE TEMPERATURE
~A  DEPTH      CAL       GR     PHIN     PHID     RESD
# ...
  233.000  209.030  105.431    0.522    0.281    3.254
  233.250  213.382  100.035    0.487    0.277    2.718
  233.500  217.767  100.156    0.456    0.267    2.630
  233.750  221.122  106.512    0.480    0.264    2.638
  234.000  221.391  109.720    0.573    0.271    2.552
  234.250  221.593  108.626    0.566    0.285    2.470
  234.500  221.794  104.445    0.518    0.302    3.091
  234.750  222.130   97.794    0.468    0.269    5.586
  235.000  221.302   91.164    0.477    0.270    7.121
  235.250  221.537   96.224    0.484    0.267    6.405
  235.500  226.884  102.540    0.475    0.280    6.544
  235.750  221.974  105.191    0.417    0.288    7.900
  236.000  225.330  104.077    0.415    0.238    8.692
  236.250  210.129  103.600    0.448    0.242    8.719
  236.500  210.397  103.761    0.455    0.237    8.760
  236.750  212.690  106.372    0.467    0.245    8.788
  237.000  221.125  109.621    0.492    0.259    8.824
  237.250  213.127  110.359    0.460    0.261    8.857
  237.500  198.955  108.071    0.417    0.243    9.059
  237.750  191.987  105.722    0.404    0.233    9.256
  238.000  191.193  110.185    0.396    0.204    9.462
  238.250  192.457  104.769    0.396    0.201    9.677
  238.500  198.933  103.058    0.421    0.232    9.723
  238.750  191.965  107.541    0.401    0.222    9.753
  239.000  202.457  108.917    0.386    0.219    9.606
  239.250  200.634  109.675    0.419    0.218    9.606
  239.500  212.223  109.199    0.429    0.221    9.515
  239.750  193.934  106.273    0.422    0.227    9.367
  240.000  187.995  100.897    0.414    0.242    9.401
  240.250  188.230   99.743    0.401    0.238    9.436
  240.500  188.465  102.991    0.420    0.230    9.475
  240.750  188.700  100.663    0.428    0.251    9.510
  241.000  186.944   97.079    0.423    0.245    9.555
  241.250  186.117   92.898    0.408    0.245    9.580
  241.500  185.390   86.884    0.408    0.261    9.625
  241.750  187.649   83.938    0.410    0.275    9.839
  242.000  188.880   82.227    0.408    0.242   10.063
  242.250  190.144   87.328    0.383    0.193    9.911
  242.500  192.504   93.005    0.422    0.235    8.743
  242.750  202.997   97.489    0.443    0.227    7.040
  243.000  216.677  104.422    0.468    0.241    5.993
  243.250  221.062  104.583    0.442    0.256    5.807
  243.500  221.263  107.851    0.450    0.265    5.930
  243.750  227.673  109.805    0.474    0.250    5.955
  244.000  225.917  111.201    0.467    0.233    5.973
  244.250  234.317  102.697    0.461    0.256    5.995
  244.500  231.499   97.261    0.445    0.220    6.129
  244.750  220.414  105.449    0.433    0.152    6.272
  245.000  227.920  112.382    0.441    0.243    5.330
  245.250  227.058  115.651    0.463    0.229    3.915
  245.500  226.298  111.470    0.506    0.244    3.655
  245.750  228.558  109.758    0.513    0.270    4.094
  246.000  234.005  109.282    0.512    0.262    4.759
  246.250  233.178  106.933    0.485    0.245    5.432
  246.500  224.151   97.812    0.472    0.229    5.982
  246.750  223.357  103.511    0.471    0.216    5.898
  247.000  230.796  111.081    0.455    0.249    5.913
  247.250  225.919  113.095    0.454    0.232    5.827
  247.500  230.304  108.934    0.467    0.241    5.960
  247.750  226.423  106.565    0.450    0.204    5.988
  248.000  223.537  103.021    0.389    0.174    5.988
  248.250  221.714  103.142    0.416    0.235    6.160
  248.500  234.331  111.350    0.429    0.248    6.280
  248.750  227.363  112.706    0.420    0.224    6.189
  249.000  235.898  110.377    0.423    0.222    6.326
  249.250  239.153  109.941    0.427    0.198    6.464
  249.500  243.605  111.317    0.441    0.213    6.491
  249.750  245.864  111.438    0.441    0.229    6.759
  250.000  247.129  106.639    0.468    0.228    6.783
  250.250  247.364  101.223    0.492    0.240    5.563
  250.500  245.574  104.452    0.520    0.259    4.012
  250.750  244.747  100.291    0.521    0.263    3.608
  251.000  248.102   99.177    0.515    0.283    3.898
  251.250  239.042   99.358    0.475    0.246    4.134
  251.500  238.248   98.862    0.453    0.224    4.388
  251.750  238.483  105.815    0.413    0.184    4.402
  252.000  237.756  104.083    0.473    0.241    4.416
  252.250  236.996   98.050    0.490    0.391    3.070
  252.500  239.256   83.990    0.531    0.439    2.135
  252.750  266.247   75.507    0.610    0.364    2.066
  253.000  258.249   76.862    0.616    0.381    2.190
  253.250  249.222   68.977    0.572    0.297    2.692
  253.500  222.668   59.836    0.436    0.286    3.901
  253.750  212.646   57.507    0.448    0.310    5.063
  254.000  199.469   50.239    0.414    0.344    6.575
  254.250  180.152   38.689    0.354    0.329    9.532
  254.500  180.387   45.004    0.330    0.309   26.294
  254.750  183.777   46.977    0.389    0.297   32.297
  255.000  186.003   44.648    0.408    0.304   33.050
  255.250  189.325   36.763    0.405    0.289   26.100
  255.500  188.632   34.414    0.365    0.283   23.488
  255.750  187.770   42.602    0.349    0.240   24.909
  256.000  185.947   47.703    0.288    0.156   26.416
  256.250  188.241   53.421    0.385    0.196   11.592
  256.500  203.945   60.354    0.444    0.324    6.703
  256.750  225.825   72.226    0.474    0.337    5.202
  257.000  246.708   85.394    0.500    0.318    4.508
  257.250  244.852   88.602    0.512    0.322    4.130
  257.500  230.680   89.361    0.481    0.312    4.145
  257.750  238.118   85.180    0.471    0.292    4.237
  258.000  241.440   79.784    0.481    0.304    4.579
  258.250  227.302   77.475    0.451    0.255    5.132
  258.500  234.741   75.106    0.440    0.233    6.079
  258.750  221.564   67.220    0.451    0.261    6.685
  259.000  218.746   58.080    0.412    0.297    6.716
  259.250  202.482   49.596    0.381    0.272    6.989
  259.500  190.435   50.972    0.360    0.263    8.284
  259.750  191.632   51.154    0.355    0.246    9.803
  260.000  194.954   54.362    0.362    0.271    6.332
  260.250  206.576   58.187    0.391    0.275    5.801
  260.500  217.069   60.859    0.396    0.308    5.719
  260.750  224.541   66.537    0.438    0.302    5.636
  261.000  232.013   73.469    0.451    0.304    5.348
  261.250  242.539   72.376    0.469    0.265    4.993
  261.500  229.430   66.980    0.439    0.253    5.695
  261.750  229.698   68.336    0.409    0.250    8.570
  262.000  231.958   69.094    0.422    0.257    9.963
  262.250  235.246   69.913    0.407    0.259   11.588
  262.500  241.790   70.631    0.397    0.264   10.227
  262.750  245.045   73.900    0.373    0.255   10.078
  263.000  246.276   76.470    0.388    0.246   10.115
  263.250  247.540   80.954    0.383    0.271   10.526
  263.500  247.809   80.497    0.371    0.254   11.587
  263.750  247.015   81.893    0.377    0.248   12.515
  264.000  245.225   80.162    0.390    0.276   15.381
  264.250  245.460   71.659    0.435    0.316   17.564
  264.500  243.671   74.269    0.425    0.318   21.985
  264.750  241.814   78.156    0.412    0.300   21.664
  265.000  238.996   80.746    0.398    0.270   19.111
  265.250  236.110   77.820    0.408    0.258   11.483
  265.500  233.325   73.619    0.408    0.277   10.508
  265.750  230.439   74.975    0.391    0.301    9.987
  266.000  225.562   80.076    0.392    0.278    9.836
  266.250  221.614   89.519    0.380    0.227   10.050
  266.500  213.616   89.022    0.370    0.195   10.279
  266.750  206.648   89.223    0.387    0.178   10.134
  267.000  201.771   91.156    0.366    0.130    7.041
  267.250  210.205   96.895    0.439    0.212    6.215
  267.500  216.716  102.573    0.464    0.219    6.013
  267.750  216.883   98.391    0.455    0.222    6.041
  268.000  217.186  101.640    0.435    0.223    6.403
  268.250  217.354   97.459    0.428    0.227    7.044
  268.500  215.564   99.472    0.415    0.232    7.201
  268.750  214.804  105.170    0.421    0.206    7.096
  269.000  214.010  108.399    0.418    0.223    7.096
  269.250  214.211  104.238    0.417    0.212    6.901
