~VERSION INFORMATION
 VERS.                 2.0:   CWLS LOG ASCII STANDARD -VERSION 2.0
 WRAP.                  NO:   ONE LINE PER DEPTH STEP
~WELL INFORMATION BLOCK
#MNEM.UNIT           DATA                    DESCRIPTION OF MNEMONIC
#---------    -------------------            -------------------------------
# Generated from Intellog Unique Number	CW_76_78/WELL/2778
WELL.         AMOCO MCULLEN                  : Well_name    - WELL
LOC .         AA/06-23-077-25W4/0            : Location     - LOCATION
UWI .         AA/06-23-077-25W4/0            : Uwi          - UNIQUE WELL ID
ENTR.         JOE                            : Entered      - ENTERED BY
SRVC.         WESTERN ATLAS                  : Scn          - SERVICE COMPANY
STRT.M        435                            : top_depth    - START DEPTH
STOP.M        686                            : bot_depth    - STOP DEPTH
STEP.M        0.25                           : increment    - STEP LENGTH
 NULL. -999.2500:NULL Value
~CURVE INFORMATION BLOCK
#MNEM UNIT       ERCB CURVE CODE    CURVE DESCRIPTION
#-----------   ------------------   ----------------------------------
DEPT.M        00 001 00 00         : DEPTH        - DEPTH
CALI.MM       00 280 01 00         : CAL          - CALIPER
ILD .OHMM     00 120 00 00         : RESD         - DEEP RESISTIVITY (DIL)
DPHI.V/V      00 890 00 00         : PHID         - DENSITY POROSITY (SANDSTONE)
NPHI.V/V      00 330 00 00         : PHIN         - NEUTRON POROSITY (SANDSTONE)
GR  .API      00 310 00 00         : GR           - GAMMA RAY
~PARAMETER INFORMATION
#MNEM.UNIT           DATA             DESCRIPTION OF MNEMONIC
#---------         -----------     ------------------------------
GL  .M        737.31               : gl           - GROUND LEVEL ELEVATION
EREF.M        741                  : kb           - ELEVATION OF DEPTH REFERENCE
DATM.M        741                  : datum        - DATUM ELEVATION
TDD .M        690                  : tdd          - TOTAL DEPTH DRILLER
RUN .         ONE                  : Run          - RUN NUMBER
ENG .         KAWOLSKI             : Engineer     - RECORDING ENGINEER
WIT .         BROWN                : Witness      - WITNESSED BY
MUD .         GEL                  : Mud_type     - MUD TYPE
MATR.         SANDSTONE            : Logunit      - NEUTRON MATRIX
TMAX.C        32                   : BHT          - MAXIMUM RECORDED TEMPERATURE
BHTD.M        687.5                : BHTDEP       - MAXIMUM RECORDED TEMPERATURE
RMT .C        24                   : MDTP         - TEMPERATURE OF MUD
MUDD.KG/M     1130                 : MWT          - MUD DENSITY
NEUT.         1                    : NEUTRON      - NEUTRON TYPE
RESI.         0                    : RESIST       - RESISTIVITY TYPE
RM  .OHMM     3                    : RM           - RESISTIVITY OF MUD
RMC .OHMM     3.2                  : RMC          - RESISTIVITY OF MUD CAKE
RMF .OHMM     2.8                  : RMF          - RESISTIVITY OF MUD FILTRATE
SUFT.C        0                    : SUFT         - SURFACE TEMPERATURE
~A  DEPTH      CAL     RESD     PHID     PHIN       GR
# ...
  654.000  178.432   19.135    0.090    0.270   76.402
  654.250  177.931   17.005    0.091    0.264   79.997
  654.500  177.930   13.270    0.087    0.267   83.891
  654.750  177.928   11.255    0.086    0.277   90.482
  655.000  176.928    9.634    0.100    0.321   94.076
  655.250  173.930    8.025    0.142    0.337   88.682
  655.500  172.930    8.115    0.186    0.333   90.479
  655.750  172.929    8.752    0.252    0.328   85.385
  656.000  173.926    9.891    0.313    0.347   62.313
  656.250  174.923   11.072    0.396    0.366   39.842
  656.500  175.422   13.227    0.453    0.425   37.444
  656.750  176.419   16.391    0.532    0.528   40.439
  657.000  176.418   16.733    0.515    0.517   49.127
  657.250  176.416   15.430    0.418    0.490   79.987
  657.500  176.414   12.264    0.314    0.447   98.262
  657.750  175.914    9.749    0.304    0.413  106.950
  658.000  175.413    9.073    0.313    0.452  103.354
  658.250  174.912    8.600    0.387    0.501   87.773
  658.500  174.911    8.152    0.396    0.517   75.189
  658.750  174.410    7.796    0.376    0.502   76.985
  659.000  174.409    7.393    0.288    0.407   90.767
  659.250  174.407    7.203    0.245    0.411  108.743
  659.500  174.406    6.891    0.242    0.442  106.046
  659.750  174.404    6.651    0.258    0.459  101.850
  660.000  174.402    6.544    0.251    0.454  106.044
  660.250  174.402    6.494    0.226    0.445  109.638
  660.500  174.400    6.628    0.174    0.427  110.237
  660.750  174.399    6.958    0.126    0.415  106.041
  661.000  174.399    7.301    0.127    0.381  100.048
  661.250  174.396    7.590    0.170    0.338   96.452
  661.500  174.894    7.817    0.174    0.338   94.953
  661.750  174.892    8.052    0.163    0.342   96.750
  662.000  174.891    8.375    0.141    0.356  103.041
  662.250  175.389    8.391    0.134    0.360  111.429
  662.500  175.388    8.328    0.137    0.351  115.324
  662.750  175.388    8.343    0.142    0.331  107.533
  663.000  175.884    8.676    0.150    0.301   93.750
  663.250  175.883   10.172    0.184    0.281   89.255
  663.500  175.881   12.723    0.190    0.283   89.254
  663.750  176.380   16.065    0.193    0.289   82.961
  664.000  176.378   21.245    0.196    0.287   75.470
  664.250  176.377   23.353    0.207    0.287   69.776
  664.500  176.377   22.548    0.214    0.309   74.569
  664.750  176.374   20.787    0.199    0.324   81.759
  665.000  176.372   17.959    0.184    0.289   87.151
  665.250  176.371   15.956    0.161    0.269   84.754
  665.500  176.370   16.588    0.181    0.282   77.562
  665.750  176.368   18.578    0.231    0.314   70.670
  666.000  176.367   18.961    0.248    0.315   74.564
  666.250  176.367   18.307    0.242    0.314   79.058
  666.500  176.364   17.189    0.231    0.312   83.850
  666.750  176.363   15.850    0.214    0.308   89.542
  667.000  176.363   15.159    0.205    0.301   95.234
  667.250  176.360   16.970    0.187    0.284   90.739
  667.500  176.359   19.896    0.141    0.258   82.948
  667.750  176.357   23.767    0.062    0.235   65.270
  668.000  176.356   30.011    0.005    0.184   58.977
  668.250  176.354   42.340    0.001    0.136   60.774
  668.500  176.353   59.735    0.036    0.126   64.069
  668.750  176.352   57.703    0.078    0.173   70.660
  669.000  174.852   45.011    0.133    0.240   79.048
  669.250  174.851   28.137    0.132    0.260   86.238
  669.500  174.849   21.556    0.121    0.266   90.432
  669.750  175.347   16.066    0.113    0.272   88.633
  670.000  175.845   13.131    0.121    0.278   88.033
  670.250  175.844   11.142    0.130    0.290   90.729
  670.500  175.842   10.270    0.151    0.313   94.623
  670.750  175.342    9.470    0.150    0.366  114.097
  671.000  174.341    9.143    0.136    0.369  121.587
  671.250  173.841    8.910    0.125    0.350  110.800
  671.500  173.340    8.762    0.125    0.276  100.013
  671.750  173.339    8.697    0.133    0.259   92.222
  672.000  173.337    8.718    0.142    0.250   83.532
  672.250  173.336    8.733    0.158    0.252   79.636
  672.500  173.834    8.589    0.178    0.258   80.534
  672.750  174.332    8.293    0.190    0.299   83.530
  673.000  174.330    7.716    0.208    0.342   94.615
  673.250  174.329    7.178    0.235    0.366  120.081
  673.500  174.327    6.681    0.274    0.369  118.283
  673.750  174.326    6.512    0.271    0.352  101.503
  674.000  174.325    6.523    0.236    0.330   87.421
  674.250  174.323    6.537    0.216    0.302   90.116
  674.500  174.322    6.733    0.205    0.279   95.209
  674.750  174.320    6.872    0.202    0.281  108.691
  675.000  174.319    6.882    0.205    0.305  107.192
  675.250  174.318    6.895    0.222    0.300   97.304
  675.500  174.816    6.660    0.236    0.294   79.026
  675.750  174.814    6.311    0.239    0.287   79.924
  676.000  174.813    5.871    0.240    0.287   81.421
  676.250  174.812    5.515    0.233    0.291   83.818
  676.500  174.810    5.227    0.226    0.299   85.914
  676.750  174.809    5.046    0.214    0.296   88.010
  677.000  175.307    4.918    0.213    0.291   90.107
  677.250  175.305    4.928    0.226    0.291   94.001
  677.500  175.803    5.077    0.273    0.332   92.203
  677.750  176.301    5.088    0.331    0.424   84.412
  678.000  176.799    5.050    0.378    0.436   73.924
  678.250  177.796    4.876    0.346    0.425   80.515
  678.500  178.294    4.794    0.226    0.388  101.787
  678.750  178.792    4.894    0.147    0.308  118.864
  679.000  178.791    5.328    0.141    0.279  121.560
  679.250  178.789    5.856    0.134    0.283  120.960
  679.500  178.788    6.261    0.129    0.293  120.060
  679.750  178.787    6.448    0.121    0.298  118.262
  680.000  179.285    6.001    0.113    0.276  115.564
  680.250  179.283    5.584    0.108    0.272  115.264
  680.500  179.282    5.390    0.108    0.278  117.960
  680.750  179.780    5.815    0.121    0.316  116.760
  681.000  179.779    6.158    0.124    0.310  112.864
  681.250  179.277    6.584    0.121    0.300  105.074
  681.500  179.276    7.372    0.118    0.297  100.578
  681.750  179.275    8.025    0.116    0.298  102.675
  682.000  179.273    8.500    0.118    0.307  106.869
  682.250  179.272    7.766    0.118    0.329  111.961
  682.500  179.271    6.897    0.118    0.347  113.458
  682.750  179.269    6.184    0.121    0.363  113.757
  683.000  179.268    5.445    0.120    0.363  111.360
  683.250  178.767    4.927    0.113    0.353  109.561
  683.500  178.266    4.103    0.109    0.346  109.860
  683.750  177.766    3.852    0.115    0.336  111.657
  684.000  177.265    3.789    0.124    0.319  110.158
  684.250  177.263    3.940    0.133    0.326  107.760
  684.500  176.763    4.022    0.152    0.343  107.460
  684.750  176.262    4.182    0.180    0.354  108.657
  685.000  175.262    4.428    0.217    0.362  108.357
  685.250  174.761    4.561    0.323    0.364  107.757
  685.500  174.260    4.569    0.425    0.363  107.456
  685.750  173.759    4.412    0.438    0.363  106.556
  686.000  171.761    4.381    0.526    0.367  106.256
