~VERSION INFORMATION
 VERS.                 2.0:   CWLS LOG ASCII STANDARD -VERSION 2.0
 WRAP.                  NO:   ONE LINE PER DEPTH STEP
~WELL INFORMATION BLOCK
#MNEM.UNIT           DATA                    DESCRIPTION OF MNEMONIC
#---------    -------------------            -------------------------------
# Generated from Intellog Unique Number	CX_WELLS/WELL/3751
WELL.         AMOCO GREGOIRE                 : Well_name    - WELL
LOC .         AA/01-18-086-08W4/0            : Location     - LOCATION
UWI .         AA/01-18-086-08W400            : Uwi          - UNIQUE WELL ID
ENTR.         T                              : Entered      - ENTERED BY
SRVC.         SCHLUMBERGER                   : Scn          - SERVICE COMPANY
STRT.F        200                            : top_depth    - START DEPTH
STOP.F        861.909                        : bot_depth    - STOP DEPTH
STEP.F        0.82                           : increment    - STEP LENGTH
 NULL. -999.2500:NULL Value
~CURVE INFORMATION BLOCK
#MNEM UNIT       ERCB CURVE CODE    CURVE DESCRIPTION
#-----------   ------------------   ----------------------------------
DEPT.F        00 001 00 00         : DEPTH        - DEPTH
GR  .API      00 310 00 00         : GR           - GAMMA RAY
DPHI.V/V      00 890 00 00         : PHID         - DENSITY POROSITY (SANDSTONE)
ILD .OHMM     00 120 00 00         : RESD         - DEEP RESISTIVITY (DIL)
~PARAMETER INFORMATION
#MNEM.UNIT           DATA             DESCRIPTION OF MNEMONIC
#---------         -----------     ------------------------------
GL  .F        1610                 : gl           - GROUND LEVEL ELEVATION
EREF.F        1615.5               : kb           - ELEVATION OF DEPTH REFERENCE
DATM.F        1615.5               : datum        - DATUM ELEVATION
TDD .F        870                  : tdd          - TOTAL DEPTH DRILLER
RUN .         ONE                  : Run          - RUN NUMBER
ENG .         BILL                 : Engineer     - RECORDING ENGINEER
WIT .         JIM                  : Witness      - WITNESSED BY
MUD .         GEL                  : Mud_type     - MUD TYPE
MATR.         SANDSTONE            : Logunit      - NEUTRON MATRIX
TMAX.F        70                   : BHT          - MAXIMUM RECORDED TEMPERATURE
BHTD.F        870                  : BHTDEP       - MAXIMUM RECORDED TEMPERATURE
MATR.         1                    : LOGUNIT      - NEUTRON MATRIX
RMT .F        68                   : MDTP         - TEMPERATURE OF MUD
NEUT.         1                    : NEUTRON      - NEUTRON TYPE
RESI.         3.5                  : RESIST       - RESISTIVITY TYPE
RMC .OHMM     2.3                  : RMC          - RESISTIVITY OF MUD CAKE
RMF .OHMM     4.5                  : RMF          - RESISTIVITY OF MUD FILTRATE
SUFT.F        39.2                 : SUFT         - SURFACE TEMPERATURE
~A  DEPTH       GR     PHID     RESD
# ...
  733.957   34.254    0.333   63.127
  734.777   35.355    0.332   63.350
  735.597   35.380    0.334   63.589
  736.417   33.880    0.331   63.395
  737.238   32.889    0.326   62.599
  738.058   32.405    0.326   61.998
  738.878   32.466    0.328   60.785
  739.698   32.515    0.330   59.778
  740.518   33.616    0.331   59.389
  741.339   34.184    0.333   59.206
  742.159   34.753    0.335   58.204
  742.979   35.309    0.334   57.603
  743.799   35.890    0.335   56.596
  744.619   35.927    0.332   52.913
  745.440   34.935    0.332   44.905
  746.260   35.504    0.334   40.392
  747.080   40.233    0.336   36.085
  747.900   51.736    0.336   28.484
  748.720   56.986    0.328   24.589
  749.541   62.767    0.315   29.970
  750.361   67.496    0.310   31.434
  751.181   71.186    0.310   34.344
  752.001   72.287    0.310   37.455
  752.822   71.815    0.306   43.042
  753.642   69.784    0.304   45.953
  754.462   66.700    0.305   48.652
  755.282   63.628    0.311   53.416
  756.102   58.996    0.316   57.556
  756.923   56.444    0.314   59.849
  757.743   51.824    0.311   61.936
  758.563   48.740    0.308   53.094
  759.383   44.640    0.306   51.057
  760.203   42.076    0.304   43.250
  761.024   40.577    0.310   33.590
  761.844   39.585    0.312   29.900
  762.664   38.061    0.318   29.311
  763.484   34.469    0.320   30.157
  764.304   32.426    0.321   32.032
  765.125   33.527    0.323   47.714
  765.945   38.256    0.325   42.995
  766.765   43.010    0.325   36.635
  767.585   41.994    0.325   33.563
  768.406   39.466    0.326   31.115
  769.226   38.995    0.328   32.167
  770.046   39.019    0.328   36.519
  770.866   37.508    0.326   40.041
  771.686   34.956    0.327   46.452
  772.507   31.896    0.329   55.957
  773.327   29.864    0.329   56.185
  774.147   28.353    0.328   52.913
  774.967   26.829    0.327   50.665
  775.787   23.262    0.328   46.776
  776.608   22.246    0.330   46.592
  777.428   20.214    0.334   47.233
  778.248   19.743    0.334   48.496
  779.068   20.336    0.333   51.813
  779.888   20.372    0.328   59.665
  780.709   20.941    0.323   64.428
  781.529   21.509    0.320   66.304
  782.349   22.090    0.320   66.944
  783.169   22.647    0.321   66.143
  783.990   23.203    0.320   63.700
  784.810   23.797    0.318   62.893
  785.630   24.353    0.318   61.068
  786.450   24.946    0.317   59.438
  787.270   24.971    0.318   57.396
  788.091   26.059    0.319   52.065
  788.911   28.200    0.319   32.717
  789.731   30.317    0.318   26.974
  790.551   34.006    0.317   23.491
  791.371   40.828    0.317   20.219
  792.192   45.558    0.319   18.800
  793.012   49.767    0.321   21.087
  793.832   57.109    0.322   28.733
  794.652   60.798    0.325   55.750
  795.472   65.007    0.330   57.832
  796.293   67.136    0.332   55.795
  797.113   63.544    0.338   54.376
  797.933   51.111    0.340   52.134
  798.753   44.386    0.342   47.215
  799.573   37.154    0.343   45.585
  800.394   34.094    0.341   41.489
  801.214   36.743    0.341   36.565
  802.034   39.380    0.340   29.169
  802.854   48.803    0.341   20.127
  803.675   49.371    0.342   16.437
  804.495   45.791    0.342   15.024
  805.315   43.227    0.342   15.041
  806.135   40.156    0.338   15.069
  806.955   39.164    0.339   15.308
  807.776   36.612    0.341   15.537
  808.596   34.073    0.340   15.754
  809.416   30.481    0.339   15.782
  810.236   27.917    0.338   15.810
  811.056   25.365    0.337   15.821
  811.877   26.466    0.337   16.467
  812.697   28.075    0.334   17.519
  813.517   27.096    0.334   18.165
  814.337   26.092    0.334   18.387
  815.157   25.113    0.336   19.857
  815.978   25.137    0.339   21.109
  816.798   24.665    0.342   54.720
  817.618   24.726    0.343   55.366
  818.438   24.775    0.342   54.353
  819.259   25.344    0.336   49.640
  820.079   25.900    0.333   48.010
  820.899   27.001    0.332   40.826
  821.719   29.118    0.331   36.519
  822.539   36.460    0.330   33.041
  823.360   43.270    0.329   24.405
  824.180   47.999    0.331   19.280
  825.000   49.632    0.332   17.455
  825.820   50.201    0.334   17.065
  826.640   52.850    0.335   17.906
  827.461   56.527    0.334   22.052
  828.281   62.309    0.333   27.633
  829.101   67.038    0.329   29.926
  829.921   62.406    0.322   55.085
  830.741   53.601    0.317   58.819
  831.562   48.969    0.315   58.636
  832.382   44.337    0.318   57.011
  833.202   40.225    0.322   46.521
  834.022   35.593    0.324   36.243
  834.843   30.453    0.322   32.148
  835.663   28.397    0.320   30.518
  836.483   25.845    0.320   30.546
  837.303   23.825    0.322   31.603
  838.123   22.302    0.324   32.649
  838.944   20.802    0.325   33.495
  839.764   20.331    0.327   33.930
  840.584   20.887    0.328   34.158
  841.404   22.520    0.330   36.245
  842.224   23.077    0.330   36.679
  843.045   24.166    0.330   36.707
  843.865   25.775    0.329   37.342
  844.685   26.863    0.325   61.265
  845.505   25.364    0.323   64.999
  846.325   24.360    0.322   60.486
  847.146   22.861    0.323   44.849
  847.966   22.897    0.322   29.418
  848.786   22.438    0.318   22.029
  849.606   22.475    0.317   17.104
  850.427   22.003    0.316   18.362
  851.247   21.532    0.316   24.578
  852.067   21.060    0.315   23.971
  852.887   20.601    0.296   23.382
  853.707   25.851    0.293   24.634
  854.528   29.032    0.291   27.133
  855.348   30.108    0.291   40.550
  856.168   30.677    0.290   40.572
  856.988   30.218    0.290   40.800
  857.808   29.746    0.281   41.034
  858.629   28.767    0.213   41.669
  859.449   28.803    0.185   45.197
  860.269   28.344    0.162   49.132
  861.089   28.369    0.134   51.430
  861.909   28.417    0.129   51.658
