~VERSION INFORMATION
 VERS.                 2.0:   CWLS LOG ASCII STANDARD -VERSION 2.0
 WRAP.                  NO:   ONE LINE PER DEPTH STEP
~WELL INFORMATION BLOCK
#MNEM.UNIT           DATA                    DESCRIPTION OF MNEMONIC
#---------    -------------------            -------------------------------
# Generated from Intellog Unique Number	CX_WELLS/WELL/3794
WELL.         HUDSON BAY                     : Well_name    - WELL
LOC .         AA/06-25-086-17W4/0            : Location     - LOCATION
UWI .         AA/06-25-086-17W400            : Uwi          - UNIQUE WELL ID
ENTR.         T                              : Entered      - ENTERED BY
SRVC.         SCHLUMBERGER                   : Scn          - SERVICE COMPANY
DATE.         03/04/92                       : Date         - LOG DATE
STRT.F        330                            : top_depth    - START DEPTH
STOP.F        809.823                        : bot_depth    - STOP DEPTH
STEP.F        0.82                           : increment    - STEP LENGTH
 NULL. -999.2500:NULL Value
~CURVE INFORMATION BLOCK
#MNEM UNIT       ERCB CURVE CODE    CURVE DESCRIPTION
#-----------   ------------------   ----------------------------------
DEPT.F        00 001 00 00         : DEPTH        - DEPTH
GR  .API      00 310 00 00         : GR           - GAMMA RAY
NPHI.V/V      00 330 00 00         : PHIN         - NEUTRON POROSITY (SANDSTONE)
ILD .OHMM     00 120 00 00         : RESD         - DEEP RESISTIVITY (DIL)
~PARAMETER INFORMATION
#MNEM.UNIT           DATA             DESCRIPTION OF MNEMONIC
#---------         -----------     ------------------------------
GL  .F        1692                 : gl           - GROUND LEVEL ELEVATION
EREF.F        1692                 : kb           - ELEVATION OF DEPTH REFERENCE
DATM.F        1692                 : datum        - DATUM ELEVATION
TDD .F        814                  : tdd          - TOTAL DEPTH DRILLER
RUN .         ONE                  : Run          - RUN NUMBER
ENG .         JO                   : Engineer     - RECORDING ENGINEER
WIT .         TIM                  : Witness      - WITNESSED BY
MUD .         GEL                  : Mud_type     - MUD TYPE
MATR.         SANDSTONE            : Logunit      - NEUTRON MATRIX
TMAX.F        57                   : BHT          - MAXIMUM RECORDED TEMPERATURE
BHTD.F        814                  : BHTDEP       - MAXIMUM RECORDED TEMPERATURE
RMT .F        60                   : MDTP         - TEMPERATURE OF MUD
MUDD.LB/G     9.6                  : MWT          - MUD DENSITY
NEUT.         1                    : NEUTRON      - NEUTRON TYPE
RESI.         6.5                  : RESIST       - RESISTIVITY TYPE
RM  .OHMM     9.5                  : RM           - RESISTIVITY OF MUD
RMC .OHMM     9.5                  : RMC          - RESISTIVITY OF MUD CAKE
RMF .OHMM     9.5                  : RMF          - RESISTIVITY OF MUD FILTRATE
SUFT.F        39.2                 : SUFT         - SURFACE TEMPERATURE
~A  DEPTH       GR     PHIN     RESD
# ...
  685.971   31.321    0.386   54.978
  686.791   30.353    0.389   54.134
  687.612   29.386    0.389   53.119
  688.432   29.387    0.390   50.919
  689.252   31.328    0.390   48.042
  690.072   35.208    0.390   45.842
  690.892   38.118    0.389   41.271
  691.713   40.544    0.387   37.208
  692.533   41.030    0.385   34.670
  693.353   42.002    0.387   36.026
  694.173   44.912    0.392   37.383
  694.993   48.307    0.395   38.739
  695.814   51.702    0.399   39.758
  696.634   55.582    0.392   36.541
  697.454   60.432    0.385   31.970
  698.274   70.614    0.377   18.085
  699.094  104.065    0.372   10.973
  699.915  113.762    0.388    7.419
  700.735  110.855    0.419    6.404
  701.555  108.919    0.437    6.406
  702.375  106.981    0.453    6.916
  703.196  109.406    0.468    7.596
  704.016  112.317    0.477    7.936
  704.836  108.441    0.484    8.446
  705.656  105.534    0.473    8.448
  706.476  102.142    0.465    8.449
  707.297   98.750    0.460    8.282
  708.117  101.176    0.458    7.437
  708.937  109.419    0.450    6.762
  709.757  101.180    0.449    6.425
  710.577   97.788    0.450    7.442
  711.398   88.579    0.455    9.138
  712.218   75.977    0.460   10.494
  713.038   67.737    0.457   12.190
  713.858   58.044    0.448   14.393
  714.678   52.713    0.435   18.121
  715.499   51.261    0.418   18.292
  716.319   54.656    0.404   19.310
  717.139   57.081    0.388   20.836
  717.959   45.449    0.368   24.225
  718.780   41.572    0.349   30.493
  719.600   34.787    0.350   37.100
  720.420   29.457    0.343   47.602
  721.240   24.611    0.335   51.668
  722.060   27.037    0.328   53.364
  722.881   30.431    0.314   53.197
  723.701   41.099    0.302   53.029
  724.521   46.432    0.308   52.693
  725.341   56.130    0.316   52.694
  726.161   52.254    0.325   52.695
  726.982   49.832    0.333   52.698
  727.802   40.623    0.338   52.700
  728.622   35.292    0.332   52.194
  729.442   35.294    0.324   51.687
  730.262   36.750    0.316   50.673
  731.083   41.599    0.311   50.166
  731.903   45.964    0.311   50.337
  732.723   47.420    0.316   51.524
  733.543   50.816    0.320   52.712
  734.364   57.119    0.327   56.101
  735.184   61.969    0.329   56.441
  736.004   64.395    0.334   57.629
  736.824   66.336    0.337   59.154
  737.644   65.852    0.340   57.632
  738.465   64.885    0.342   51.876
  739.285   67.311    0.345   47.475
  740.105   71.190    0.348   43.750
  740.925   78.463    0.349   42.059
  741.745   78.950    0.350   45.617
  742.566   76.528    0.353   48.667
  743.386   73.137    0.355   49.177
  744.206   71.684    0.365   52.397
  745.026   70.716    0.373   52.906
  745.846   70.718    0.367   54.263
  746.667   70.236    0.368   55.789
  747.487   70.723    0.368   55.791
  748.307   71.693    0.367   55.793
  749.127   73.634    0.363   55.287
  749.948   75.091    0.361   51.562
  750.768   71.698    0.357   44.959
  751.588   62.490    0.351   41.065
  752.408   60.068    0.348   39.713
  753.228   56.676    0.341   42.932
  754.049   53.284    0.330   45.982
  754.869   50.863    0.325   46.661
  755.689   54.742    0.320   49.881
  756.509   60.077    0.314   53.609
  757.329   60.078    0.309   55.304
  758.150   60.565    0.305   56.831
  758.970   62.506    0.307   54.631
  759.790   64.447    0.313   51.245
  760.610   62.510    0.317   44.303
  761.430   63.481    0.319   37.870
  762.251   63.968    0.319   34.823
  763.071   65.423    0.321   31.268
  763.891   68.334    0.327   27.714
  764.711   71.729    0.332   24.498
  765.531   77.548    0.333   23.991
  766.352   77.066    0.333   20.944
  767.172   77.067    0.334   20.438
  767.992   77.069    0.337   19.932
  768.812   78.525    0.341   19.256
  769.633   81.435    0.347   18.412
  770.453   85.800    0.351   17.567
  771.273   93.558    0.353   17.229
  772.093  100.831    0.355   16.892
  772.913  107.135    0.352   17.402
  773.734  113.439    0.347   19.436
  774.554  110.047    0.356   21.640
  775.374  101.323    0.386   21.811
  776.194   89.691    0.412   21.813
  777.014   78.543    0.427   23.000
  777.835   74.666    0.417   27.913
  778.655   62.550    0.387   29.439
  779.475   62.066    0.390   35.877
  780.295   56.250    0.403   31.645
  781.115   68.371    0.399   28.259
  781.936   80.492    0.334   25.043
  782.756   87.281    0.310   24.707
  783.576   93.585    0.315   23.862
  784.396   98.919    0.329   22.847
  785.217  106.677    0.345   21.155
  786.037  120.738    0.349   20.310
  786.857  120.254    0.341   19.127
  787.677  118.317    0.334   18.451
  788.497  117.835    0.333   17.605
  789.318  117.836    0.345   16.592
  790.138  117.353    0.368   16.424
  790.958  116.385    0.377   17.272
  791.778  113.964    0.380   21.339
  792.598  111.057    0.385   28.623
  793.419  105.241    0.405   32.690
  794.239   87.792    0.408   33.369
  795.059   86.824    0.414   34.387
  795.879   83.917    0.413   33.203
  796.699   93.129    0.364   27.785
  797.520  108.643    0.350   19.827
  798.340  127.551    0.343   15.256
  799.160  127.069    0.332   13.395
  799.980  124.646    0.324   12.550
  800.801  121.255    0.374   15.939
  801.621  118.832    0.420   18.989
  802.441  115.441    0.443   22.886
  803.261  113.989    0.455   29.324
  804.081  113.022    0.467   29.665
  804.902  112.538    0.461   29.667
  805.722  112.055    0.429   30.007
  806.542  111.572    0.384   32.549
  807.362  110.120    0.369   39.156
  808.182  109.152    0.347   54.401
  809.003  108.184    0.308   54.910
  809.823  107.701    0.298   54.743
