~VERSION INFORMATION
 VERS.                 2.0:   CWLS LOG ASCII STANDARD -VERSION 2.0
 WRAP.                  NO:   ONE LINE PER DEPTH STEP
~WELL INFORMATION BLOCK
#MNEM.UNIT           DATA                    DESCRIPTION OF MNEMONIC
#---------    -------------------            -------------------------------
# Generated from Intellog Unique Number	CN_94_101/WELL/4993
WELL.         08-33-098-12W4                 : Well_name    - WELL
LOC .         AA/08-33-098-12W4/0            : Location     - LOCATION
UWI .         AA/08-33-098-12W400            : Uwi          - UNIQUE WELL ID
ENTR.         TIM                            : Entered      - ENTERED BY
SRVC.         SCHLUMBERGER                   : Scn          - SERVICE COMPANY
DATE.         08/11/92                       : Date         - LOG DATE
STRT.M        60.96                          : top_depth    - START DEPTH
STOP.M        267.71                         : bot_depth    - STOP DEPTH
STEP.M        0.25                           : increment    - STEP LENGTH
 NULL. -999.2500:NULL Value
~CURVE INFORMATION BLOCK
#MNEM UNIT       ERCB CURVE CODE    CURVE DESCRIPTION
#-----------   ------------------   ----------------------------------
DEPT.M        00 001 00 00         : DEPTH        - DEPTH
GR  .API      00 310 00 00         : GR           - GAMMA RAY
ILD .OHMM     00 120 00 00         : RESD         - DEEP RESISTIVITY (DIL)
NPHI.V/V      00 330 00 00         : PHIN         - NEUTRON POROSITY (SANDSTONE)
RHOB.KG/M3    00 350 00 00         : DENS         - BULK DENSITY
~PARAMETER INFORMATION
#MNEM.UNIT           DATA             DESCRIPTION OF MNEMONIC
#---------         -----------     ------------------------------
GL  .M        499.872              : gl           - GROUND LEVEL ELEVATION
EREF.M        502.92               : kb           - ELEVATION OF DEPTH REFERENCE
DATM.M        502.92               : datum        - DATUM ELEVATION
TDD .M        267.614              : tdd          - TOTAL DEPTH DRILLER
RUN .         ONE                  : Run          - RUN NUMBER
ENG .         JO                   : Engineer     - RECORDING ENGINEER
WIT .         TIM                  : Witness      - WITNESSED BY
MUD .         GEL                  : Mud_type     - MUD TYPE
MATR.         SANDSTONE            : Logunit      - NEUTRON MATRIX
TMAX.C        10                   : BHT          - MAXIMUM RECORDED TEMPERATURE
BHTD.M        267.614              : BHTDEP       - MAXIMUM RECORDED TEMPERATURE
RMT .C        10                   : MDTP         - TEMPERATURE OF MUD
MUDD.KG/M     1000                 : MWT          - MUD DENSITY
NEUT.         1                    : NEUTRON      - NEUTRON TYPE
RESI.         0                    : RESIST       - RESISTIVITY TYPE
RM  .OHMM     13.8                 : RM           - RESISTIVITY OF MUD
RMC .OHMM     13.8                 : RMC          - RESISTIVITY OF MUD CAKE
RMF .OHMM     13.8                 : RMF          - RESISTIVITY OF MUD FILTRATE
SUFT.C        4                    : SUFT         - SURFACE TEMPERATURE
~A  DEPTH       GR     RESD     PHIN     DENS
# ...
  104.460   62.269    7.315    0.423 2176.620
  104.710   62.273    7.734    0.425 2160.680
  104.960   62.275    7.879    0.427 2142.750
  105.210   62.277    8.178    0.427 2128.810
  105.460   62.280    8.487    0.426 2122.840
  105.710   62.283    8.489    0.424 2126.840
  105.960   62.810    8.490    0.420 2130.860
  106.210   62.812    8.492    0.418 2130.870
  106.460   63.863    8.493    0.414 2130.900
  106.710   63.864    8.339    0.412 2130.910
  106.960   64.392    8.341    0.408 2136.910
  107.210   64.395    8.342    0.408 2148.900
  107.460   64.921    8.499    0.411 2144.930
  107.710   64.924    8.500    0.413 2126.990
  107.960   65.449    8.660    0.415 2105.070
  108.210   65.452    8.989    0.417 2091.120
  108.460   65.455    9.158    0.412 2087.160
  108.710   65.458    9.160    0.409 2097.150
  108.960   64.937    8.993    0.402 2099.150
  109.210   63.892    8.830    0.406 2097.180
  109.460   63.370    8.831    0.408 2093.210
  109.710   62.325    8.670    0.413 2091.230
  109.960   61.804    8.203    0.419 2085.260
  110.210   61.807    7.480    0.423 2095.260
  110.460   70.714    6.217    0.433 2111.230
  110.710   84.335    5.168    0.445 2153.130
  110.960   91.670    4.295    0.456 2185.060
  111.210   93.246    3.774    0.469 2195.050
  111.460   92.724    3.638    0.474 2193.080
  111.710   92.727    3.138    0.475 2183.120
  111.960   92.206    2.969    0.475 2169.180
  112.210   92.208    2.915    0.474 2141.270
  112.460   91.687    2.915    0.474 2115.360
  112.710   91.690    2.970    0.473 2157.260
  112.960   92.216    3.026    0.471 2223.100
  113.210   92.743    3.141    0.471 2237.080
  113.460   92.745    3.200    0.470 2255.050
  113.710   93.795    3.200    0.469 2247.080
  113.960   96.941    3.201    0.468 2229.160
  114.210   99.039    3.143    0.467 2213.220
  114.460  101.137    3.086    0.469 2201.270
  114.710  102.711    2.974    0.471 2191.310
  114.960  102.712    2.920    0.474 2173.380
  115.210  102.715    2.814    0.480 2165.420
  115.460   98.528    2.763    0.486 2225.270
  115.710   92.245    2.663    0.494 2303.080
  115.960   88.057    2.567    0.500 2337.000
  116.210   82.298    2.474    0.511 2372.920
  116.460   77.587    2.341    0.518 2396.870
  116.710   75.495    2.298    0.528 2382.930
  116.960   75.497    2.215    0.535 2392.920
  117.210   77.595    2.175    0.534 2388.950
  117.460   80.741    2.135    0.523 2388.960
  117.710   82.838    2.097    0.523 2375.020
  117.960   85.983    2.097    0.524 2329.160
  118.210   89.653    2.097    0.524 2257.380
  118.460   90.703    2.098    0.524 2187.590
  118.710   92.277    2.098    0.524 2139.740
  118.960   92.803    2.098    0.525 2153.720
  119.210   93.855    2.138    0.525 2145.760
  119.460   93.856    2.138    0.525 2147.770
  119.710   94.384    2.139    0.524 2147.790
  119.960   94.385    2.139    0.522 2145.810
  120.210   94.388    2.100    0.519 2139.850
  120.460   94.391    2.100    0.519 2131.890
  120.710   93.346    2.101    0.516 2127.910
  120.960   92.825    2.140    0.514 2123.940
  121.210   92.827    2.141    0.513 2135.920
  121.460   92.830    2.181    0.512 2147.910
  121.710   91.262    2.222    0.510 2145.940
  121.960   88.645    2.306    0.509 2145.950
  122.210   86.552    2.350    0.506 2153.950
  122.460   84.983    2.394    0.505 2153.960
  122.710   83.416    2.394    0.507 2140.020
  122.960   84.465    2.395    0.509 2090.180
  123.210   86.039    2.395    0.509 2026.370
  123.460   86.565    2.352    0.507 2020.410
  123.710   86.044    2.352    0.507 2038.370
  123.960   83.428    2.352    0.505 2058.330
  124.210   81.336    2.353    0.504 2044.390
  124.460   80.291    2.353    0.500 2038.430
  124.710   79.769    2.442    0.498 2050.420
  124.960   79.248    2.630    0.495 2040.460
  125.210   80.298    2.833    0.494 2030.500
  125.460   80.302    3.051    0.495 2020.550
  125.710   79.780    3.166    0.493 2022.560
  125.960   78.736    3.539    0.487 2012.610
  126.210   77.167    3.475    0.481 2008.630
  126.460   76.646    3.742    0.476 2044.550
  126.710   76.649    3.956    0.469 2088.450
  126.960   76.128    4.183    0.461 2120.380
  127.210   75.606    4.184    0.452 2162.280
  127.460   73.513    3.958    0.439 2180.250
  127.710   71.944    3.815    0.427 2190.240
  127.960   70.376    3.610    0.418 2178.290
  128.210   68.807    3.610    0.411 2180.310
  128.460   66.715    3.961    0.408 2214.230
  128.710   65.147    4.111    0.406 2220.230
  128.960   64.102    4.594    0.402 2226.230
  129.210   63.057    5.040    0.399 2260.150
  129.460   63.059    5.231    0.396 2270.150
  129.710   62.537    5.531    0.395 2298.090
  129.960   62.540    5.741    0.404 2336.000
  130.210   62.020    5.849    0.413 2184.440
  130.460   62.022    5.959    0.427 2148.550
  130.710   62.025    5.960    0.438 2148.570
  130.960   62.551    5.851    0.444 2146.590
  131.210   64.650    5.745    0.449 2142.620
  131.460   65.699    5.538    0.453 2140.650
  131.710   68.320    5.337    0.455 2188.530
  131.960   70.942    4.866    0.460 2210.490
  132.210   73.564    4.355    0.464 2264.360
  132.460   75.662    3.757    0.468 2302.270
  132.710   76.712    3.555    0.475 2262.400
  132.960   76.715    3.490    0.482 2194.600
  133.210   77.242    3.490    0.489 2116.830
  133.460   77.244    3.491    0.495 2126.820
  133.710   77.770    3.492    0.499 2150.780
  133.960   79.345    3.492    0.497 2144.810
  134.210   81.968    3.304    0.486 2166.770
  134.460   83.016    3.126    0.480 2204.680
  134.710   84.590    2.958    0.481 2294.460
  134.960   87.736    2.697    0.484 2332.370
  135.210   92.975    2.552    0.484 2348.340
  135.460   94.549    2.459    0.484 2316.450
  135.710   90.887    2.370    0.484 2113.030
  135.960   89.317    2.328    0.484 2129.000
  136.210   87.225    2.371    0.484 2146.970
  136.460   85.133    2.416    0.481 2158.950
  136.710   83.564    2.507    0.481 2180.910
  136.960   81.996    2.651    0.480 2192.890
  137.210   81.474    2.751    0.480 2172.970
  137.460   80.429    2.856    0.480 2145.060
  137.710   78.860    2.964    0.480 2133.110
  137.960   77.292    3.192    0.480 2121.160
  138.210   76.247    3.252    0.480 2111.210
  138.460   76.773    3.375    0.478 2129.180
  138.710   77.299    3.314    0.473 2121.220
  138.960   76.255    3.315    0.470 2099.290
  139.210   75.210    3.315    0.466 2111.280
  139.460   74.688    3.377    0.461 2131.240
  139.710   72.072    3.638    0.453 2165.170
  139.960   67.885    3.846    0.448 2187.120
  140.210   67.364    4.220    0.441 2227.030
  140.460   69.462    4.461    0.436 2252.980
  140.710   72.082    4.986    0.435 2254.990
  140.960   77.847    5.271    0.442 2251.020
  141.210   77.849    4.806    0.451 2233.090
  141.460   77.329    4.145    0.459 2215.150
  141.710   77.331    3.850    0.467 2197.220
  141.960   77.334    3.576    0.476 2173.300
  142.210   77.860    3.447    0.490 2155.370
  142.460   78.388    3.261    0.496 2157.390
  142.710   78.389    3.202    0.492 2159.400
  142.960   78.392    3.144    0.490 2161.410
  143.210   77.872    3.144    0.479 2159.430
  143.460   77.350    3.324    0.476 2143.500
  143.710   75.781    3.387    0.480 2127.560
  143.960   74.212    3.515    0.480 2105.630
  144.210   72.644    3.648    0.479 2083.710
  144.460   72.123    3.649    0.474 2149.550
  144.710   72.126    3.583    0.473 2195.440
  144.960   72.651    3.517    0.473 2223.380
  145.210   73.702    3.453    0.473 2171.550
  145.460   74.228    3.329    0.473 2151.610
  145.710   74.755    3.329    0.475 2121.710
  145.960   75.805    3.330    0.486 2103.780
  146.210   77.381    3.269    0.488 2115.770
  146.460   77.906    3.210    0.485 2109.800
  146.710   78.431    3.152    0.478 2111.810
  146.960   80.006    3.152    0.478 2127.790
  147.210   83.151    3.211    0.478 2131.790
  147.460   86.297    3.153    0.470 2121.840
  147.710   91.538    2.929    0.460 2121.860
