~VERSION INFORMATION
 VERS.                 2.0:   CWLS LOG ASCII STANDARD -VERSION 2.0
 WRAP.                  NO:   ONE LINE PER DEPTH STEP
~WELL INFORMATION BLOCK
#MNEM.UNIT           DATA                    DESCRIPTION OF MNEMONIC
#---------    -------------------            -------------------------------
# Generated from Intellog Unique Number	CX_WELLS/WELL/1071
WELL.         07-20-088-07W4                 : Well_name    - WELL
LOC .         AA/07-20-088-07W4/0            : Location     - LOCATION
UWI .         AA/07-20-088-07W400            : Uwi          - UNIQUE WELL ID
ENTR.         DW                             : Entered      - ENTERED BY
SRVC.         SCHLUMBERGER                   : Scn          - SERVICE COMPANY
STRT.M        20                             : top_depth    - START DEPTH
STOP.M        134                            : bot_depth    - STOP DEPTH
STEP.M        0.25                           : increment    - STEP LENGTH
 NULL. -999.2500:NULL Value
~CURVE INFORMATION BLOCK
#MNEM UNIT       ERCB CURVE CODE    CURVE DESCRIPTION
#-----------   ------------------   ----------------------------------
DEPT.M        00 001 00 00         : DEPTH        - DEPTH
GR  .API      00 310 00 00         : GR           - GAMMA RAY
NPHI.V/V      00 330 00 00         : PHIN         - NEUTRON POROSITY (SANDSTONE)
DPHI.V/V      00 890 00 00         : PHID         - DENSITY POROSITY (SANDSTONE)
ILD .OHMM     00 120 00 00         : RESD         - DEEP RESISTIVITY (DIL)
~PARAMETER INFORMATION
#MNEM.UNIT           DATA             DESCRIPTION OF MNEMONIC
#---------         -----------     ------------------------------
GL  .M        377.24               : gl           - GROUND LEVEL ELEVATION
EREF.M        378.77               : kb           - ELEVATION OF DEPTH REFERENCE
DATM.M        378.77               : datum        - DATUM ELEVATION
TDD .M        132                  : tdd          - TOTAL DEPTH DRILLER
RUN .         ONE                  : Run          - RUN NUMBER
ENG .         BILL                 : Engineer     - RECORDING ENGINEER
WIT .         JIM                  : Witness      - WITNESSED BY
MUD .         GEL                  : Mud_type     - MUD TYPE
MATR.         SANDSTONE            : Logunit      - NEUTRON MATRIX
TMAX.C        25                   : BHT          - MAXIMUM RECORDED TEMPERATURE
BHTD.M        134                  : BHTDEP       - MAXIMUM RECORDED TEMPERATURE
MATR.         1                    : LOGUNIT      - NEUTRON MATRIX
RMT .C        25                   : MDTP         - TEMPERATURE OF MUD
NEUT.         1                    : NEUTRON      - NEUTRON TYPE
RESI.         0                    : RESIST       - RESISTIVITY TYPE
RMC .OHMM     0.25                 : RMC          - RESISTIVITY OF MUD CAKE
RMF .OHMM     0.25                 : RMF          - RESISTIVITY OF MUD FILTRATE
SUFT.C        15                   : SUFT         - SURFACE TEMPERATURE
~A  DEPTH       GR     PHIN     PHID     RESD
# ...
   63.500   76.931    0.531    0.276    5.446
   63.750   76.451    0.514    0.266    6.129
   64.000   74.690    0.475    0.249    7.579
   64.250   68.607    0.447    0.238    9.204
   64.500   63.147    0.416    0.243   10.966
   64.750   60.141    0.417    0.258   12.100
   65.000   57.793    0.416    0.266   13.618
   65.250   56.067    0.417    0.277   14.466
   65.500   55.587    0.421    0.268   15.065
   65.750   55.728    0.422    0.232   15.406
   66.000   58.359    0.417    0.199   14.641
   66.250   62.928    0.406    0.170   14.120
   66.500   65.595    0.410    0.184   12.885
   66.750   66.911    0.428    0.253   11.973
   67.000   69.577    0.442    0.295   10.721
   67.250   73.489    0.473    0.295    9.971
   67.500   73.630    0.478    0.284    9.451
   67.750   68.135    0.488    0.294   11.040
   68.000   62.639    0.497    0.324   14.463
   68.250   53.445    0.463    0.354   22.058
   68.500   47.327    0.430    0.380   30.593
   68.750   44.392    0.432    0.392   34.403
   69.000   47.610    0.461    0.386   33.872
   69.250   52.802    0.480    0.335   30.963
   69.500   56.091    0.502    0.313   29.886
   69.750   58.029    0.467    0.313   27.796
   70.000   63.185    0.420    0.309   24.909
   70.250   67.683    0.410    0.295   23.127
   70.500   69.763    0.408    0.273   20.336
   70.750   68.624    0.403    0.253   19.243
   71.000   65.618    0.411    0.250   16.602
   71.250   59.536    0.425    0.261   14.586
   71.500   57.810    0.406    0.239   13.565
   71.750   61.064    0.400    0.232   13.356
   72.000   64.975    0.417    0.249   13.647
   72.250   65.775    0.429    0.246   14.224
   72.500   65.916    0.431    0.234   14.005
   72.750   63.604    0.433    0.221   13.286
   73.000   63.017    0.440    0.221   13.070
   73.250   63.229    0.445    0.227   13.366
   73.500   60.258    0.431    0.231   15.044
   73.750   57.875    0.420    0.237   16.917
   74.000   57.981    0.407    0.238   17.633
   74.250   63.760    0.408    0.239   17.034
   74.500   63.901    0.425    0.240   16.160
   74.750   62.834    0.418    0.243   19.254
   75.000   61.695    0.407    0.245   22.471
   75.250   59.382    0.391    0.252   30.004
   75.500   57.657    0.373    0.258   31.900
   75.750   55.931    0.354    0.266   32.623
   76.000   57.940    0.352    0.274   30.923
   76.250   59.949    0.368    0.277   27.688
   76.500   61.993    0.388    0.262   25.245
   76.750   62.099    0.396    0.254   24.409
   77.000   62.241    0.402    0.259   24.032
   77.250   61.173    0.395    0.263   25.027
   77.500   59.376    0.387    0.266   28.683
   77.750   57.028    0.379    0.271   35.498
   78.000   53.435    0.348    0.276   42.259
   78.250   49.220    0.341    0.289   54.324
   78.500   44.382    0.351    0.287   87.704
   78.750   43.279    0.372    0.257  123.973
   79.000   44.666    0.384    0.220  189.068
   79.250   42.940    0.367    0.166  193.356
   79.500   40.556    0.345    0.151  123.007
   79.750   45.677    0.357    0.192   98.195
   80.000   48.379    0.381    0.241   80.028
   80.250   47.898    0.387    0.280   71.533
   80.500   45.550    0.376    0.296   80.511
   80.750   42.580    0.366    0.306   95.844
   81.000   41.406    0.335    0.313  190.846
   81.250   39.058    0.348    0.316  231.549
   81.500   38.577    0.394    0.314  309.177
   81.750   38.719    0.410    0.300  316.189
   82.000   42.008    0.412    0.297  305.453
   82.250   45.261    0.416    0.297  278.743
   82.500   49.173    0.419    0.295  240.283
   82.750   53.084    0.415    0.290  184.667
   83.000   53.813    0.409    0.289  110.879
   83.250   53.367    0.391    0.286   77.497
   83.500   54.789    0.380    0.281   52.191
   83.750   56.105    0.370    0.270   39.357
   84.000   60.016    0.379    0.257   30.273
   84.250   63.340    0.390    0.240   25.583
   84.500   64.656    0.388    0.248   27.176
   84.750   64.798    0.384    0.267   32.380
   85.000   62.450    0.373    0.280   37.822
   85.250   55.745    0.365    0.292   45.927
   85.500   50.907    0.369    0.304   55.722
   85.750   56.650    0.398    0.294   67.665
   86.000   57.414    0.406    0.292   76.091
   86.250   50.709    0.388    0.297   88.955
   86.500   43.346    0.376    0.301  107.927
   86.750   36.642    0.375    0.311  164.597
   87.000   33.636    0.388    0.318  260.740
   87.250   31.910    0.396    0.320  382.829
   87.500   30.842    0.406    0.319  464.875
   87.750   30.984    0.405    0.318  503.287
   88.000   32.993    0.409    0.316  555.794
   88.250   34.966    0.411    0.312  568.399
   88.500   39.500    0.414    0.310  428.621
   88.750   43.376    0.415    0.305  272.442
   89.000   49.155    0.419    0.300  107.630
   89.250   52.444    0.426    0.290   71.061
   89.500   52.585    0.446    0.282   55.708
   89.750   51.482    0.456    0.286   50.793
   90.000   50.343    0.468    0.289   45.518
   90.250   43.638    0.461    0.296   43.973
   90.500   41.326    0.452    0.305   43.332
   90.750   43.334    0.447    0.299   42.590
   91.000   44.099    0.443    0.294   43.556
   91.250   42.373    0.440    0.299   47.195
   91.500   38.780    0.431    0.305   54.090
   91.750   37.054    0.424    0.315   58.609
   92.000   37.818    0.413    0.328   56.571
   92.250   39.827    0.410    0.320   51.668
   92.500   44.361    0.407    0.310   46.263
   92.750   44.432    0.396    0.314   43.027
   93.000   44.573    0.392    0.323   43.175
   93.250   47.933    0.396    0.330   41.745
   93.500   49.249    0.401    0.326   40.259
   93.750   52.538    0.407    0.322   37.443
   94.000   53.302    0.411    0.317   34.824
   94.250   52.821    0.413    0.308   31.181
   94.500   50.508    0.419    0.299   29.555
   94.750   49.957    0.421    0.297   29.124
   95.000   50.133    0.424    0.296   28.700
   95.250   50.898    0.425    0.290   28.749
   95.500   51.697    0.428    0.286   29.401
   95.750   51.216    0.415    0.310   31.830
   96.000   49.455    0.394    0.315   35.151
   96.250   47.729    0.373    0.317   35.917
   96.500   47.213    0.377    0.307   34.728
   96.750   48.048    0.390    0.295   32.889
   97.000   48.776    0.402    0.293   27.818
   97.250   51.443    0.428    0.289   24.440
   97.500   52.207    0.439    0.302   24.083
   97.750   52.349    0.450    0.313   25.583
   98.000   51.868    0.440    0.318   27.697
   98.250   52.009    0.427    0.311   28.868
   98.500   52.151    0.421    0.301   28.422
   98.750   50.425    0.409    0.305   30.797
   99.000   42.440    0.402    0.327   35.942
   99.250   36.945    0.387    0.333   43.645
   99.500   34.010    0.371    0.340   53.968
   99.750   34.151    0.367    0.349   66.848
  100.000   34.257    0.377    0.349   61.003
  100.250   35.644    0.402    0.345   44.325
  100.500   40.178    0.431    0.334   43.566
  100.750   44.054    0.457    0.330   39.791
  101.000   49.245    0.459    0.328   28.368
  101.250   48.764    0.437    0.327   27.883
  101.500   47.074    0.418    0.320   25.444
  101.750   46.523    0.418    0.293   22.354
  102.000   46.042    0.447    0.271   19.270
  102.250   47.428    0.455    0.291   17.239
  102.500   49.472    0.450    0.296   14.873
  102.750   51.446    0.425    0.280   14.086
  103.000   56.637    0.433    0.276   12.865
  103.250   61.100    0.441    0.269   11.965
  103.500   69.991    0.438    0.253   10.714
  103.750   78.917    0.430    0.218   10.539
  104.000   85.318    0.435    0.214    9.999
  104.250   88.572    0.470    0.209    9.836
  104.500   92.448    0.496    0.220    9.510
  104.750   93.870    0.509    0.234    9.543
  105.000   92.109    0.518    0.235    9.387
  105.250   89.725    0.512    0.236    9.251
  105.500   84.888    0.504    0.237    9.282
  105.750   78.841    0.494    0.239    9.314
  106.000   78.360    0.484    0.239    9.338
  106.250   78.501    0.478    0.244    9.920
  106.500   77.398    0.477    0.248   10.749
  106.750   76.224    0.478    0.246   11.418
