~VERSION INFORMATION
 VERS.                 2.0:   CWLS LOG ASCII STANDARD -VERSION 2.0
 WRAP.                  NO:   ONE LINE PER DEPTH STEP
~WELL INFORMATION BLOCK
#MNEM.UNIT           DATA                    DESCRIPTION OF MNEMONIC
#---------    -------------------            -------------------------------
# Generated from Intellog Unique Number	CN_94_101/WELL/3220
WELL.         02-19-096-07W4                 : Well_name    - WELL
LOC .         AA/02-19-096-07W4/0            : Location     - LOCATION
UWI .         AA/02-19-096-07W400            : Uwi          - UNIQUE WELL ID
ENTR.         JOETTE                         : Entered      - ENTERED BY
SRVC.         SCHLUMBERGER                   : Scn          - SERVICE COMPANY
DATE.         07/20/92                       : Date         - LOG DATE
STRT.F        0                              : top_depth    - START DEPTH
STOP.F        400.262                        : bot_depth    - STOP DEPTH
STEP.F        0.82021                        : increment    - STEP LENGTH
 NULL. -999.2500:NULL Value
~CURVE INFORMATION BLOCK
#MNEM UNIT       ERCB CURVE CODE    CURVE DESCRIPTION
#-----------   ------------------   ----------------------------------
DEPT.F        00 001 00 00         : DEPTH        - DEPTH
ILD .OHMM     00 120 00 00         : RESD         - DEEP RESISTIVITY (DIL)
GR  .API      00 310 00 00         : GR           - GAMMA RAY
DPHI.V/V      00 890 00 00         : PHID         - DENSITY POROSITY (SANDSTONE)
~PARAMETER INFORMATION
#MNEM.UNIT           DATA             DESCRIPTION OF MNEMONIC
#---------         -----------     ------------------------------
GL  .M        335.432              : gl           - GROUND LEVEL ELEVATION
EREF.M        335.432              : kb           - ELEVATION OF DEPTH REFERENCE
DATM.M        335.432              : datum        - DATUM ELEVATION
TDD .M        124.968              : tdd          - TOTAL DEPTH DRILLER
RUN .         ONE                  : Run          - RUN NUMBER
ENG .         JO                   : Engineer     - RECORDING ENGINEER
WIT .         TIM                  : Witness      - WITNESSED BY
MUD .         GEL                  : Mud_type     - MUD TYPE
MATR.         SANDSTONE            : Logunit      - NEUTRON MATRIX
TMAX.F        55                   : BHT          - MAXIMUM RECORDED TEMPERATURE
BHTD.F        410                  : BHTDEP       - MAXIMUM RECORDED TEMPERATURE
RMT .F        55                   : MDTP         - TEMPERATURE OF MUD
MUDD.LB/G     9.2                  : MWT          - MUD DENSITY
NEUT.         1                    : NEUTRON      - NEUTRON TYPE
RESI.         0                    : RESIST       - RESISTIVITY TYPE
RM  .OHMM     1.21                 : RM           - RESISTIVITY OF MUD
RMC .OHMM     1.21                 : RMC          - RESISTIVITY OF MUD CAKE
RMF .OHMM     1.21                 : RMF          - RESISTIVITY OF MUD FILTRATE
SUFT.F        39.2                 : SUFT         - SURFACE TEMPERATURE
~A  DEPTH     RESD       GR     PHID
# ...
  177.986   40.430   46.736    0.283
  178.806   66.299   49.178    0.279
  179.626   81.175   51.201    0.276
  180.446   71.523   52.051    0.275
  181.266   87.571   46.561    0.258
  182.087  143.605   44.265    0.304
  182.907  298.591   43.525    0.318
  183.727   48.129   40.822    0.310
  184.547   29.432   38.897    0.327
  185.367  600.261   41.314    0.321
  186.188 1058.940   43.337    0.309
  187.008 2368.650   40.634    0.295
  187.828 2286.550   33.959    0.305
  188.648   46.780   28.888    0.317
  189.469   36.283   32.490    0.332
  190.289   42.043   43.617    0.329
  191.109   64.088   48.416    0.299
  191.929   97.722   50.858    0.284
  192.749   89.334   44.170    0.307
  193.570  103.483   41.863    0.320
  194.390  129.037   43.885    0.331
  195.210  163.816   42.367    0.344
  196.030  254.314   38.468    0.357
  196.850  579.337   35.358    0.358
  197.671  709.547   31.077    0.347
  198.491  807.306   28.757    0.340
  199.311  901.911   25.252    0.346
  200.131  766.413   22.167    0.359
  200.951  427.645   24.202    0.367
  201.772  398.140   25.830    0.369
  202.592  641.081   27.075    0.365
  203.412  195.802   27.519    0.365
  204.232  407.122   27.555    0.354
  205.052  446.740   28.801    0.338
  205.873  408.265   28.060    0.326
  206.693 3221.570   23.001    0.335
  207.513 3533.960   23.444    0.355
  208.333 3171.160   26.256    0.365
  209.154 3295.270   30.265    0.343
  209.974 3485.170   33.102    0.338
  210.794 3185.010   32.756    0.339
  211.614 3190.970   30.424    0.352
  212.434 3312.760   25.735    0.360
  213.255 3503.670   23.045    0.352
  214.075 3261.940   23.500    0.342
  214.895 2928.890   25.906    0.331
  215.715 2827.370   31.099    0.308
  216.535 2883.060   36.292    0.301
  217.356 3341.770   38.710    0.288
  218.176 3285.390   31.665    0.284
  218.996 2947.180   27.765    0.312
  219.816 2899.260   25.457    0.322
  220.636 3121.880   25.099    0.329
  221.457 2377.560   24.383    0.337
  222.277 1535.790   26.418    0.338
  223.097  688.310   28.034    0.332
  223.917   79.865   28.094    0.333
  224.738  123.986   19.852    0.327
  225.558  414.458   19.506    0.332
  226.378  620.346   18.778    0.343
  227.198  802.307   18.432    0.352
  228.018 1179.130   19.689    0.344
  228.839  646.232   21.700    0.321
  229.659  323.165   28.472    0.323
  230.479  457.915   30.125    0.333
  231.299 1062.370   32.542    0.345
  232.119 2092.490   36.156    0.358
  232.940  319.100   40.153    0.323
  233.760   11.503   49.701    0.264
  234.580    8.446   53.303    0.235
  235.400   11.535   60.877    0.212
  236.220   16.044   70.413    0.218
  237.041   18.260   80.344    0.221
  237.861   12.689   76.050    0.207
  238.681   19.342   72.558    0.196
  239.501   26.912   69.448    0.202
  240.322   35.436   70.681    0.214
  241.142   25.086   71.939    0.224
  241.962   21.703   70.001    0.229
  242.782   26.092   69.273    0.221
  243.602   19.865   72.097    0.216
  244.423   16.575   72.936    0.213
  245.243   21.825   69.838    0.218
  246.063   24.840   66.741    0.225
  246.883   23.119   65.605    0.225
  247.703   18.935   64.864    0.223
  248.524   15.509   65.703    0.214
  249.344   12.706   67.343    0.208
  250.164   14.195   63.839    0.208
  250.984   22.857   59.939    0.213
  251.804   30.106   57.249    0.220
  252.625   30.143   59.260    0.221
  253.445   24.257   64.847    0.206
  254.265   27.108   68.881    0.199
  255.085   29.737   67.733    0.202
  255.906   33.221   68.584    0.212
  256.726   30.920   73.765    0.223
  257.546   20.716   78.168    0.252
  258.366   21.909   73.874    0.301
  259.186   31.617   63.658    0.328
  260.007   41.645   56.996    0.386
  260.827   28.416   55.860    0.383
  261.647   22.439   61.053    0.350
  262.467   18.717   62.693    0.322
  263.287   20.166   71.440    0.313
  264.108   21.735   81.371    0.299
  264.928   14.036   84.985    0.263
  265.748    8.275   88.204    0.245
  266.568    7.988   89.449    0.250
  267.388    8.001   86.735    0.250
  268.209    7.866   84.020    0.249
  269.029    7.733   80.910    0.246
  269.849    8.184   71.101    0.233
  270.669    9.480   66.005    0.223
  271.490   13.933   49.461    0.210
  272.310   23.705   39.640    0.200
  273.130   36.800   31.793    0.204
  273.950   44.242   35.419    0.225
  274.770   47.639   36.257    0.254
  275.591   58.346   35.911    0.253
  276.411   58.401   38.736    0.253
  277.231   54.389   39.574    0.264
  278.051   51.553   38.463    0.269
  278.871   48.011   36.920    0.260
  279.692   47.172   33.810    0.253
  280.512   43.123   29.134    0.253
  281.332   49.079   29.183    0.281
  282.152   59.004   28.479    0.279
  282.972   57.990   28.108    0.286
  283.793   53.013   26.578    0.303
  284.613   49.370   22.296    0.317
  285.433   49.417   20.778    0.319
  286.253   49.494   20.814    0.319
  287.073   49.540   20.875    0.315
  287.894   51.463   19.739    0.315
  288.714   55.449   17.839    0.326
  289.534   61.947   16.703    0.321
  290.354   70.503   16.357    0.320
  291.175   74.589   16.011    0.329
  291.995   76.059   14.110    0.344
  292.815   73.468   13.369    0.336
  293.635   70.877   13.036    0.350
  294.455   68.463   14.269    0.364
  295.276   75.102   15.909    0.354
  296.096   73.835   16.735    0.354
  296.916   66.276   18.387    0.344
  297.736   63.998   19.633    0.333
  298.556   59.564   19.681    0.318
  299.377   48.785   18.546    0.319
  300.197   57.571   17.422    0.316
  301.017   80.126   18.261    0.312
  301.837   69.300   17.915    0.310
  302.657   48.172   16.384    0.312
  303.478   45.689   16.457    0.303
  304.298   44.890   16.901    0.309
  305.118   48.367   16.962    0.305
  305.938   57.096   16.628    0.294
  306.759   62.632   16.665    0.301
  307.579   62.710   15.948    0.308
  308.399   63.965   16.379    0.309
  309.219   67.652   17.242    0.311
  310.039   64.165   17.303    0.296
  310.860   59.701   17.340    0.272
  311.680   63.181   16.994    0.268
  312.500   68.032   16.660    0.333
  313.320   78.881   16.314    0.347
  314.140   62.270   17.176    0.379
  314.961   50.094   18.015    0.351
  315.781   51.112   18.471    0.330
  316.601   52.087   17.730    0.324
  317.421   57.191   16.199    0.317
  318.241   58.281   15.064    0.308
  319.062   54.260   20.652    0.307
  319.882   52.396   39.280    0.304
  320.702   56.436   45.263    0.297
  321.522  103.265   52.035    0.284
  322.343  105.299   56.044    0.272
  323.163   32.754   57.697    0.262
  323.983   34.652   56.561    0.257
  324.803   50.959   54.229    0.255
  325.623   52.887   49.552    0.264
  326.444   48.347   42.100    0.302
  327.264   31.806   34.265    0.309
  328.084   28.541   30.748    0.300
  328.904   30.195   22.901    0.299
  329.724   34.355   20.593    0.305
  330.545   42.838   20.630    0.315
  331.365   58.524   19.926    0.327
  332.185   69.064   19.555    0.327
  333.005   78.628   18.839    0.335
  333.825   81.654   18.888    0.350
  334.646   80.277   19.331    0.346
  335.466   77.494   19.799    0.346
  336.286   76.211   20.243    0.345
  337.106   77.736   21.476    0.336
  337.927   76.448   25.485    0.337
  338.747   72.463   25.941    0.337
  339.567   68.707   24.805    0.335
  340.387   67.527   23.299    0.332
  341.207   67.632   22.928    0.333
  342.028   70.279   22.619    0.334
  342.848   71.641   22.643    0.333
  343.668   73.052   22.729    0.324
  344.488   74.491   22.753    0.316
  345.308   76.006   23.209    0.303
  346.129   76.077   23.665    0.302
  346.949   77.624   23.319    0.301
  347.769   79.128   23.392    0.301
  348.589   82.225   22.663    0.301
  349.409   85.416   22.293    0.301
  350.230   87.099   20.392    0.291
  351.050   90.451   21.625    0.279
  351.870   93.962   23.265    0.285
  352.690   94.050   24.103    0.303
  353.510   97.731   24.559    0.326
  354.331   92.665   24.608    0.334
  355.151   80.170   23.879    0.327
