~VERSION INFORMATION
 VERS.                 2.0:   CWLS LOG ASCII STANDARD -VERSION 2.0
 WRAP.                  NO:   ONE LINE PER DEPTH STEP
~WELL INFORMATION BLOCK
#MNEM.UNIT           DATA                    DESCRIPTION OF MNEMONIC
#---------    -------------------            -------------------------------
# Generated from Intellog Unique Number	CN_94_101/WELL/3244
WELL.         02-03-096-10W4                 : Well_name    - WELL
LOC .         AA/02-03-096-10W4/0            : Location     - LOCATION
UWI .         AA/02-03-096-10W400            : Uwi          - UNIQUE WELL ID
ENTR.         JOETTE                         : Entered      - ENTERED BY
SRVC.         SCHLUMBERGER                   : Scn          - SERVICE COMPANY
DATE.         07/20/92                       : Date         - LOG DATE
STRT.M        0                              : top_depth    - START DEPTH
STOP.M        110.5                          : bot_depth    - STOP DEPTH
STEP.M        0.25                           : increment    - STEP LENGTH
 NULL. -999.2500:NULL Value
~CURVE INFORMATION BLOCK
#MNEM UNIT       ERCB CURVE CODE    CURVE DESCRIPTION
#-----------   ------------------   ----------------------------------
DEPT.M        00 001 00 00         : DEPTH        - DEPTH
GR  .API      00 310 00 00         : GR           - GAMMA RAY
ILD .OHMM     00 120 00 00         : RESD         - DEEP RESISTIVITY (DIL)
NPHI.V/V      00 330 00 00         : PHIN         - NEUTRON POROSITY (SANDSTONE)
DPHI.V/V      00 890 00 00         : PHID         - DENSITY POROSITY (SANDSTONE)
~PARAMETER INFORMATION
#MNEM.UNIT           DATA             DESCRIPTION OF MNEMONIC
#---------         -----------     ------------------------------
GL  .M        299.8                : gl           - GROUND LEVEL ELEVATION
EREF.M        299.8                : kb           - ELEVATION OF DEPTH REFERENCE
DATM.M        299.8                : datum        - DATUM ELEVATION
TDD .M        112.2                : tdd          - TOTAL DEPTH DRILLER
RUN .         ONE                  : Run          - RUN NUMBER
ENG .         JO                   : Engineer     - RECORDING ENGINEER
WIT .         TIM                  : Witness      - WITNESSED BY
MUD .         GEL                  : Mud_type     - MUD TYPE
MATR.         SANDSTONE            : Logunit      - NEUTRON MATRIX
TMAX.C        16                   : BHT          - MAXIMUM RECORDED TEMPERATURE
BHTD.M        112.2                : BHTDEP       - MAXIMUM RECORDED TEMPERATURE
RMT .C        16                   : MDTP         - TEMPERATURE OF MUD
MUDD.KG/M     0                    : MWT          - MUD DENSITY
NEUT.         1                    : NEUTRON      - NEUTRON TYPE
RESI.         0                    : RESIST       - RESISTIVITY TYPE
RM  .OHMM     6.5                  : RM           - RESISTIVITY OF MUD
RMC .OHMM     6.5                  : RMC          - RESISTIVITY OF MUD CAKE
RMF .OHMM     6.5                  : RMF          - RESISTIVITY OF MUD FILTRATE
SUFT.C        4                    : SUFT         - SURFACE TEMPERATURE
~A  DEPTH       GR     RESD     PHIN     PHID
# ...
   87.000   30.130   28.992    0.407    0.287
   87.250   29.425   34.952    0.388    0.282
   87.500   30.022   35.323    0.390    0.282
   87.750   40.298   35.289    0.396    0.286
   88.000   70.553   35.255    0.395    0.290
   88.250   87.918   34.396    0.390    0.291
   88.500   58.856   33.978    0.391    0.294
   88.750   46.562   34.339    0.401    0.298
   89.000   20.722   35.536    0.401    0.301
   89.250   20.030   35.079    0.390    0.296
   89.500   27.716   34.653    0.388    0.281
   89.750   31.535   33.414    0.388    0.278
   90.000   28.884   32.992    0.389    0.279
   90.250   26.903   32.568    0.393    0.296
   90.500   25.590   32.172    0.400    0.303
   90.750   24.229   31.395    0.406    0.297
   91.000   22.892   30.999    0.412    0.301
   91.250   22.844   30.962    0.400    0.304
   91.500   26.663   31.676    0.387    0.307
   91.750   29.192   33.152    0.378    0.290
   92.000   27.855   33.915    0.371    0.285
   92.250   26.518   34.283    0.361    0.273
   92.500   25.181   34.259    0.364    0.270
   92.750   25.778   32.640    0.370    0.278
   93.000   25.742   31.487    0.375    0.280
   93.250   23.760   31.450    0.376    0.281
   93.500   23.712   31.791    0.382    0.286
   93.750   26.242   31.016    0.389    0.290
   94.000   28.115   30.282    0.392    0.294
   94.250   27.423   29.899    0.390    0.299
   94.500   26.730   30.217    0.386    0.304
   94.750   26.682   30.181    0.389    0.306
   95.000   25.990   30.166    0.391    0.311
   95.250   25.309   29.786    0.388    0.309
   95.500   24.605   29.410    0.386    0.302
   95.750   25.201   28.686    0.394    0.291
   96.000   27.731   28.331    0.394    0.293
   96.250   27.683   28.304    0.385    0.299
   96.500   27.647   28.618    0.385    0.304
   96.750   26.942   28.921    0.381    0.300
   97.000   27.515   28.894    0.381    0.288
   97.250   28.780   28.873    0.384    0.275
   97.500   32.587   28.509    0.387    0.276
   97.750   29.316   28.475    0.395    0.272
   98.000   26.057   28.448    0.392    0.289
   98.250   22.787   28.427    0.380    0.293
   98.500   19.516   28.068    0.378    0.293
   98.750   33.647   27.714    0.372    0.281
   99.000   70.992   27.045    0.365    0.260
   99.250   85.779   27.332    0.359    0.196
   99.500   92.176   25.151    0.375    0.123
   99.750   41.189   21.317    0.380    0.100
  100.000   56.621   19.160    0.385    0.137
  100.250   30.136   27.228    0.387    0.173
  100.500   24.288   29.188    0.385    0.196
  100.750   27.462   28.483    0.381    0.218
  101.000   30.637   27.795    0.375    0.232
  101.250   27.354   27.111    0.372    0.243
  101.500   24.728   27.092    0.368    0.245
  101.750   24.680   26.129    0.365    0.231
  102.000   28.499   25.200    0.368    0.236
  102.250   40.708   23.741    0.371    0.240
  102.500   66.452   22.635    0.373    0.249
  102.750  105.086   19.411    0.381    0.221
  103.000  119.861   12.555    0.400    0.201
  103.250   93.377    9.349    0.447    0.174
  103.500   98.485   11.142    0.538    0.004
  103.750  104.882   14.584    0.506    0.005
  104.000  101.599   19.314    0.481    0.033
  104.250  104.786   17.983    0.465    0.052
  104.500  110.538   18.174    0.454    0.058
  104.750  104.690   19.945    0.444    0.064
  105.000  102.063   20.171    0.444    0.061
  105.250  108.448   19.218    0.447    0.065
  105.500  103.256   19.200    0.445    0.076
  105.750  103.853   18.517    0.426    0.083
  106.000   62.545   18.499    0.420    0.081
  106.250   37.349   19.604    0.410    0.080
  106.500   57.293   65.692    0.368    0.074
  106.750   69.490   86.004    0.263    0.001
  107.000   80.398   59.687    0.187    0.002
  107.250   89.373   46.052    0.220    0.007
  107.500   99.005   36.798    0.248    0.013
  107.750  110.558   28.392    0.285    0.016
  108.000  117.599   19.474    0.321    0.016
  108.250  120.129   15.934    0.359    0.016
  108.500   88.489   15.185    0.384    0.017
  108.750   73.617   15.170    0.401    0.018
  109.000   68.389   17.454    0.415    0.061
  109.250   66.419   22.054    0.389    0.040
  109.500   56.059   23.642    0.357    0.034
  109.750   15.396   21.750    0.340    0.024
  110.000   17.926   20.014    0.370    0.051
  110.250   18.522   18.421    0.386    0.068
  110.500   18.474   16.558    0.401    0.072
