~VERSION INFORMATION
 VERS.                 2.0:   CWLS LOG ASCII STANDARD -VERSION 2.0
 WRAP.                  NO:   ONE LINE PER DEPTH STEP
~WELL INFORMATION BLOCK
#MNEM.UNIT           DATA                    DESCRIPTION OF MNEMONIC
#---------    -------------------            -------------------------------
# Generated from Intellog Unique Number	CX_WELLS/WELL/3616
WELL.         AMOCO C21                      : Well_name    - WELL
LOC .         AA/08-21-085-08W4/0            : Location     - LOCATION
UWI .         AA/08-21-085-08W400            : Uwi          - UNIQUE WELL ID
ENTR.         T                              : Entered      - ENTERED BY
SRVC.         SCHLUMBERGER                   : Scn          - SERVICE COMPANY
STRT.F        600                            : top_depth    - START DEPTH
STOP.F        1360.33                        : bot_depth    - STOP DEPTH
STEP.F        0.82                           : increment    - STEP LENGTH
 NULL. -999.2500:NULL Value
~CURVE INFORMATION BLOCK
#MNEM UNIT       ERCB CURVE CODE    CURVE DESCRIPTION
#-----------   ------------------   ----------------------------------
DEPT.F        00 001 00 00         : DEPTH        - DEPTH
GR  .API      00 310 00 00         : GR           - GAMMA RAY
NPHI.V/V      00 330 00 00         : PHIN         - NEUTRON POROSITY (SANDSTONE)
ILD .OHMM     00 120 00 00         : RESD         - DEEP RESISTIVITY (OTHER)
~PARAMETER INFORMATION
#MNEM.UNIT           DATA             DESCRIPTION OF MNEMONIC
#---------         -----------     ------------------------------
GL  .F        2144.6               : gl           - GROUND LEVEL ELEVATION
EREF.F        2149                 : kb           - ELEVATION OF DEPTH REFERENCE
DATM.F        2149                 : datum        - DATUM ELEVATION
TDD .F        1373                 : tdd          - TOTAL DEPTH DRILLER
RUN .         ONE                  : Run          - RUN NUMBER
ENG .         BILL                 : Engineer     - RECORDING ENGINEER
WIT .         JIM                  : Witness      - WITNESSED BY
MUD .         GEL                  : Mud_type     - MUD TYPE
MATR.         SANDSTONE            : Logunit      - NEUTRON MATRIX
TMAX.F        80                   : BHT          - MAXIMUM RECORDED TEMPERATURE
BHTD.F        1373                 : BHTDEP       - MAXIMUM RECORDED TEMPERATURE
MATR.         1                    : LOGUNIT      - NEUTRON MATRIX
RMT .F        80                   : MDTP         - TEMPERATURE OF MUD
NEUT.         1                    : NEUTRON      - NEUTRON TYPE
RESI.         10                   : RESIST       - RESISTIVITY TYPE
RMC .OHMM     2                    : RMC          - RESISTIVITY OF MUD CAKE
RMF .OHMM     3.9                  : RMF          - RESISTIVITY OF MUD FILTRATE
SUFT.F        39.2                 : SUFT         - SURFACE TEMPERATURE
~A  DEPTH       GR     PHIN     RESD
# ...
  955.971  129.403    0.405    3.997
  956.791  127.062    0.412    3.767
  957.612  125.895    0.416    3.543
  958.432  122.958    0.404    3.547
  959.252  120.599    0.394    3.551
  960.072  117.653    0.384    3.715
  960.892  106.984    0.353    3.795
  961.713  106.396    0.340    3.880
  962.533  101.066    0.317    3.963
  963.353   92.159    0.295   27.170
  964.173   80.272    0.274   28.187
  964.993   82.690    0.232   25.157
  965.814   88.089    0.215   23.372
  966.634   92.304    0.255   20.653
  967.454   97.107    0.289   18.946
  968.274  102.506    0.316   14.590
  969.094  107.317    0.345    6.813
  969.915  106.773    0.369    6.895
  970.735  106.194    0.396    6.977
  971.555  104.457    0.407    7.529
  972.375  103.878    0.413    7.923
  973.196  103.325    0.409    8.473
  974.016  103.955    0.403    9.024
  974.836  103.998    0.402    8.641
  975.656  105.829    0.403    7.868
  976.476  106.451    0.403    7.562
  977.297  108.869    0.394    7.493
  978.117  108.307    0.382    7.417
  978.937  104.774    0.364    7.267
  979.757  101.827    0.346    7.350
  980.577  100.670    0.329    7.903
  981.398  103.684    0.314    8.296
  982.218  106.699    0.302   17.255
  983.038  108.521    0.309   15.004
  983.858  106.171    0.306   12.830
  984.678  104.417    0.300   11.900
  985.499  107.449    0.284   12.296
  986.319  108.658    0.261   21.177
  987.139  111.681    0.256   18.770
  987.959  112.320    0.251   16.827
  988.780  108.769    0.274   12.474
  989.600   98.074    0.353    9.754
  990.420   95.137    0.384    8.825
  991.240   91.586    0.342    8.130
  992.060   86.256    0.314    7.980
  992.881   79.137    0.284   10.088
  993.701   72.615    0.276   14.687
  994.521   73.245    0.250   24.736
  995.341   76.260    0.215   25.910
  996.161   81.667    0.189   23.112
  996.982   85.278    0.187   17.901
  997.802   86.513    0.249   13.003
  998.622   88.344    0.323    9.349
  999.442   89.561    0.355    8.031
 1000.260   90.796    0.374    7.413
 1001.080   91.418    0.395    6.874
 1001.900   92.653    0.410    6.881
 1002.720   93.283    0.412    7.199
 1003.540   94.510    0.412    7.283
 1004.360   96.349    0.412    7.208
 1005.180   96.963    0.410    7.214
 1006.000   97.005    0.409    7.298
 1006.820   97.040    0.406    7.226
 1007.640   97.065    0.405    7.153
 1008.460   97.713    0.405    7.003
 1009.280   98.930    0.403    6.855
 1010.100  101.358    0.403    6.704
 1010.930  103.171    0.403    6.630
 1011.750  107.991    0.402    6.325
 1012.570  111.593    0.402    6.096
 1013.390  115.809    0.402    5.634
 1014.210  117.623    0.402    5.172
 1015.030  115.877    0.402    4.556
 1015.850  115.315    0.402    4.562
 1016.670  120.118    0.396    4.491
 1017.490  126.709    0.393    4.417
 1018.310  130.328    0.398    4.190
 1019.130  133.343    0.409    3.963
 1019.950  134.578    0.418    3.810
 1020.770  134.604    0.418    3.508
 1021.590  134.042    0.411    3.511
 1022.410  134.689    0.408    3.363
 1023.230  132.927    0.411    3.369
 1024.050  129.989    0.412    3.295
 1024.870  128.831    0.415    3.299
 1025.690  128.857    0.420    3.306
 1026.510  130.688    0.421    3.311
 1027.330  131.906    0.421    3.394
 1028.150  134.341    0.421    3.557
 1028.970  134.963    0.421    3.796
 1029.790  136.198    0.422    3.801
 1030.610  136.820    0.424    3.574
 1031.430  138.063    0.427    3.424
 1032.250  139.281    0.428    3.351
 1033.070  140.508    0.428    3.200
 1033.890  143.531    0.425    3.127
 1034.710  144.153    0.423    3.058
 1035.530  144.204    0.420    2.985
 1036.350  143.633    0.420    2.911
 1037.170  143.080    0.421    2.761
 1037.990  143.719    0.424    2.612
 1038.810  144.928    0.429    2.462
 1039.630  148.565    0.438    2.311
 1040.450  148.590    0.447    2.239
 1041.270  148.020    0.456    2.090
 1042.090  144.478    0.457    2.016
 1042.910  142.128    0.457    1.944
 1043.730  139.190    0.455    1.873
 1044.550  138.024    0.450    1.800
 1045.370  134.490    0.449    1.806
 1046.190  132.736    0.447    1.734
 1047.010  131.578    0.444    1.740
 1047.830  131.612    0.441    1.745
 1048.650  132.260    0.438    1.827
 1049.480  132.277    0.437    1.992
 1050.300  132.320    0.434    2.152
 1051.120  132.950    0.431    2.313
 1051.940  134.194    0.427    2.552
 1052.760  134.815    0.427    2.791
 1053.580  136.050    0.426    3.109
 1054.400  136.672    0.426    3.346
 1055.220  138.495    0.424    3.666
 1056.040  143.893    0.423    3.824
 1056.860  145.724    0.419    3.910
 1057.680  143.383    0.419    3.839
 1058.500  142.804    0.417    3.919
 1059.320  147.624    0.407    4.237
 1060.140  148.859    0.385    4.555
 1060.960  148.876    0.384    4.794
 1061.780  150.111    0.386    4.800
 1062.600  150.750    0.387    4.726
 1063.420  150.775    0.387    4.578
 1064.240  150.214    0.402    4.581
 1065.060  149.660    0.408    4.665
 1065.880  148.502    0.404    4.594
 1066.700  147.336    0.404    4.365
 1067.520  144.995    0.404    4.060
 1068.340  142.644    0.405    3.832
 1069.160  140.303    0.411    3.605
 1069.980  139.741    0.415    3.530
 1070.800  139.775    0.419    3.926
 1071.620  139.214    0.421    4.554
 1072.440  138.056    0.417    5.185
 1073.260  136.302    0.414    4.955
 1074.080  135.748    0.405    4.805
 1074.900  135.774    0.393    4.577
 1075.720  137.000    0.387    4.427
 1076.540  139.428    0.385    4.200
 1077.360  141.846    0.385    3.816
 1078.180  144.869    0.388    3.509
 1079.000  145.500    0.392    3.358
 1079.820  144.333    0.397    2.823
 1080.640  143.780    0.399    2.593
 1081.460  145.006    0.405    2.365
 1082.280  145.040    0.409    2.450
 1083.100  144.487    0.413    2.608
 1083.920  143.329    0.415    3.082
 1084.740  141.575    0.416    3.479
 1085.560  139.225    0.417    3.483
 1086.380  135.675    0.416    3.489
 1087.200  132.132    0.413    3.493
 1088.020  126.802    0.408    3.578
 1088.850  122.068    0.402    3.817
 1089.670  117.946    0.397    3.977
 1090.490  120.356    0.395    4.138
 1091.310  124.563    0.398    4.221
 1092.130  128.770    0.403    3.761
 1092.950  134.177    0.408    3.377
 1093.770  139.576    0.414    2.993
 1094.590  143.187    0.421    2.611
 1095.410  141.433    0.426    2.615
 1096.230  140.284    0.427    2.700
 1097.050  139.134    0.421    2.861
 1097.870  138.564    0.416    3.099
 1098.690  137.406    0.405    3.416
 1099.510  134.477    0.400    3.499
 1100.330  133.310    0.399    3.584
 1101.150  132.153    0.396    3.588
 1101.970  131.020    0.395    3.672
 1102.790  129.845    0.393    3.911
 1103.610  128.100    0.389    4.152
 1104.430  126.925    0.383    4.235
 1105.250  125.171    0.371    4.318
 1106.070  123.417    0.354    4.480
 1106.890  120.479    0.335    4.640
 1107.710  117.525    0.330    5.346
 1108.530  111.607    0.318    6.987
 1109.350  111.641    0.302    5.981
 1110.170  122.422    0.283    5.598
 1110.990  123.640    0.274    5.135
 1111.810  127.259    0.307    4.440
 1112.630  130.861    0.346    3.978
 1113.450  135.672    0.381    3.674
 1114.270  137.486    0.396    3.367
 1115.090  136.941    0.399    2.905
 1115.910  135.187    0.401    2.522
 1116.730  132.829    0.401    2.294
 1117.550  130.479    0.398    2.066
 1118.370  127.533    0.401    1.838
 1119.190  123.999    0.408    1.688
 1120.010  121.061    0.419    1.537
 1120.830  119.904    0.423    1.544
 1121.650  119.325    0.422    1.629
 1122.470  121.156    0.417    1.790
 1123.290  122.391    0.410    1.873
 1124.110  122.425    0.403    2.035
 1124.930  121.863    0.399    2.038
 1125.750  121.889    0.395    2.125
 1126.570  121.353    0.395    2.128
 1127.400  121.974    0.401    2.133
 1128.220  124.393    0.403    2.061
 1129.040  128.003    0.408    2.068
 1129.860  131.018    0.412    2.073
 1130.680  131.052    0.416    2.235
 1131.500  128.711    0.418    2.473
 1132.320  127.561    0.420    2.791
 1133.140  128.175    0.413    2.873
