~VERSION INFORMATION
 VERS.                 2.0:   CWLS LOG ASCII STANDARD -VERSION 2.0
 WRAP.                  NO:   ONE LINE PER DEPTH STEP
~WELL INFORMATION BLOCK
#MNEM.UNIT           DATA                    DESCRIPTION OF MNEMONIC
#---------    -------------------            -------------------------------
# Generated from Intellog Unique Number	CN_91_93/WELL/1071
WELL.         MILL CITY                      : Well_name    - WELL
LOC .         AA/04-20-091-07W4/0            : Location     - LOCATION
UWI .         AA/04-20-091-07W400            : Uwi          - UNIQUE WELL ID
ENTR.         JOETTE                         : Entered      - ENTERED BY
SRVC.         SCHLUMBERGER                   : Scn          - SERVICE COMPANY
DATE.         01/14/92                       : Date         - LOG DATE
STRT.F        200                            : top_depth    - START DEPTH
STOP.F        750.361                        : bot_depth    - STOP DEPTH
STEP.F        0.82                           : increment    - STEP LENGTH
 NULL. -999.2500:NULL Value
~CURVE INFORMATION BLOCK
#MNEM UNIT       ERCB CURVE CODE    CURVE DESCRIPTION
#-----------   ------------------   ----------------------------------
DEPT.F        00 001 00 00         : DEPTH        - DEPTH
GR  .API      00 310 00 00         : GR           - GAMMA RAY
NPHI.V/V      00 330 00 00         : PHIN         - NEUTRON POROSITY (SANDSTONE)
ILD .OHMM     00 120 00 00         : RESD         - DEEP RESISTIVITY (DIL)
~PARAMETER INFORMATION
#MNEM.UNIT           DATA             DESCRIPTION OF MNEMONIC
#---------         -----------     ------------------------------
GL  .F        1570.5               : gl           - GROUND LEVEL ELEVATION
EREF.F        1570.5               : kb           - ELEVATION OF DEPTH REFERENCE
DATM.F        1570.5               : datum        - DATUM ELEVATION
TDD .F        757                  : tdd          - TOTAL DEPTH DRILLER
RUN .         ONE                  : Run          - RUN NUMBER
ENG .         JO                   : Engineer     - RECORDING ENGINEER
WIT .         TIM                  : Witness      - WITNESSED BY
MUD .         GEL                  : Mud_type     - MUD TYPE
MATR.         SANDSTONE            : Logunit      - NEUTRON MATRIX
TMAX.F        49                   : BHT          - MAXIMUM RECORDED TEMPERATURE
BHTD.F        757                  : BHTDEP       - MAXIMUM RECORDED TEMPERATURE
RMT .F        58                   : MDTP         - TEMPERATURE OF MUD
MUDD.LB/G     9                    : MWT          - MUD DENSITY
NEUT.         1                    : NEUTRON      - NEUTRON TYPE
RESI.         0                    : RESIST       - RESISTIVITY TYPE
RM  .OHMM     1.5                  : RM           - RESISTIVITY OF MUD
RMC .OHMM     1.8                  : RMC          - RESISTIVITY OF MUD CAKE
RMF .OHMM     1.1                  : RMF          - RESISTIVITY OF MUD FILTRATE
SUFT.F        39.2                 : SUFT         - SURFACE TEMPERATURE
~A  DEPTH       GR     PHIN     RESD
# ...
  377.986   94.928    0.453   22.030
  378.806   99.179    0.453   19.395
  379.626  101.085    0.463   19.941
  380.446   98.780    0.473   20.481
  381.266   96.475    0.471   21.034
  382.087   94.162    0.471   22.049
  382.907   92.555    0.475   24.312
  383.727   91.655    0.478   26.561
  384.547   89.814    0.471   29.305
  385.367   88.672    0.447   31.549
  386.188   89.879    0.426   33.560
  387.008   90.852    0.413   31.420
  387.828   89.713    0.422   30.013
  388.648   88.571    0.432   31.035
  389.469   87.667    0.429   32.057
  390.289   87.465    0.422   30.900
  391.109   87.740    0.410   31.684
  391.929   88.470    0.400   35.881
  392.749   89.677    0.400   39.358
  393.570   88.777    0.398   48.696
  394.390   87.401    0.394   38.490
  395.210   88.838    0.409   31.697
  396.030   89.581    0.427   28.818
  396.850   88.672    0.441   28.137
  397.671   89.641    0.421   30.399
  398.491   90.380    0.418   29.718
  399.311   90.174    0.415   28.054
  400.131   89.044    0.419   29.326
  400.951   88.370    0.426   31.345
  401.772   88.871    0.430   30.663
  402.592   89.605    0.430   31.210
  403.412   90.344    0.433   32.225
  404.232   90.611    0.433   34.732
  405.052   88.774    0.412   34.783
  405.873   88.338    0.432   33.119
  406.693   87.906    0.433   31.467
  407.513   86.061    0.427   30.053
  408.333   88.201    0.435   28.408
  409.154   89.638    0.445   27.714
  409.974   90.377    0.431   26.545
  410.794   91.350    0.436   31.487
  411.614   92.314    0.429   33.736
  412.434   91.180    0.414   37.213
  413.255   88.637    0.409   31.397
  414.075   85.856    0.405   34.636
  414.895   79.336    0.402   34.444
  415.715   76.559    0.396   35.723
  416.535   76.119    0.423   37.483
  417.356   77.326    0.417   39.482
  418.176   79.474    0.404   42.959
  418.996   81.371    0.414   37.638
  419.816   83.983    0.419   31.578
  420.636   86.825    0.418   32.118
  421.457   84.286    0.410   35.839
  422.277   79.401    0.400   51.777
  423.097   77.322    0.391  182.572
  423.917   71.267    0.373  122.021
  424.738   65.446    0.345   49.984
  425.558   59.859    0.166   50.036
  426.378   60.126    0.213   51.308
  427.198   67.655    0.317   48.673
  428.018   73.072    0.386   48.487
  428.839   77.093    0.393   53.179
  429.659   75.014    0.393   53.719
  430.479   75.514    0.380   45.223
  431.299   77.420    0.395   39.407
  432.119   85.659    0.392   35.062
  432.940   86.624    0.397   29.985
  433.760   91.343    0.406   29.793
  434.580   93.716    0.427   26.425
  435.400   94.689    0.438   26.965
  436.220   92.146    0.432   25.314
  437.041   89.833    0.443   28.540
  437.861   84.719    0.429   33.970
  438.681   83.108    0.437   33.289
  439.501   79.632    0.429   34.806
  440.322   76.153    0.436   42.190
  441.142   75.951    0.418   40.783
  441.962   79.035    0.394   34.723
  442.782   81.405    0.403   29.890
  443.602   84.008    0.415   26.034
  444.423   87.557    0.428   23.149
  445.243   90.871    0.439   21.015
  446.063   93.019    0.446   20.822
  446.883   94.214    0.460   20.867
  447.703   94.953    0.474   20.925
  448.524   94.517    0.467   20.983
  449.344   94.085    0.456   20.546
  450.164   94.117    0.456   20.591
  450.984   94.149    0.476   20.643
  451.804   94.412    0.493   20.694
  452.625   94.686    0.477   21.485
  453.445   94.489    0.476   23.259
  454.265   94.045    0.468   24.525
  455.085   93.144    0.454   28.240
  455.906   91.300    0.438   28.786
  456.726   88.292    0.450   29.326
  457.546   87.626    0.436   32.796
  458.366   86.250    0.428   38.227
  459.186   83.472    0.403   40.489
  460.007   81.636    0.404   40.046
  460.827   83.771    0.397   34.474
  461.647   87.792    0.409   29.397
  462.467   88.527    0.405   35.316
  463.287   87.853    0.421   38.060
  464.108   87.655    0.436   39.089
  464.928   88.156    0.413   38.652
  465.748   90.065    0.400   40.663
  466.568   92.209    0.408   44.622
  467.388   93.876    0.379   60.316
  468.209   95.781    0.380   60.863
  469.029   93.940    0.387   56.756
  469.849   92.342    0.362   65.362
  470.669   90.501    0.343   53.935
  471.490   86.081    0.333   47.386
  472.310   82.363    0.316   40.356
  473.130   82.165    0.321   33.074
  473.950   83.603    0.336   32.644
  474.770   85.508    0.366   35.382
  475.591   88.358    0.411   37.387
  476.411   90.029    0.418   34.752
  477.231   90.530    0.402   39.206
  478.051   88.221    0.384   42.194
  478.871   84.511    0.390   41.018
  479.692   82.202    0.398   45.716
  480.512   81.294    0.400   40.639
  481.332   80.862    0.389   34.579
  482.152   81.363    0.404   33.666
  482.972   82.327    0.400   33.474
  483.793   84.475    0.395   33.519
  484.613   86.853    0.392   33.821
  485.433   88.988    0.404   33.146
  486.253   88.552    0.426   31.733
  487.073   87.414    0.410   29.830
  487.894   90.022    0.408   31.096
  488.714   94.507    0.395   34.818
  489.534   97.821    0.401   40.242
  490.354   96.683    0.427   40.544
  491.174   94.374    0.416   35.216
  491.995   92.771    0.400   32.344
  492.815   93.970    0.408   30.191
  493.635   96.824    0.419   28.784
  494.455   98.730    0.449   26.631
  495.276   98.754    0.434   24.009
  496.096   96.445    0.443   22.094
  496.916   95.306    0.441   29.478
  497.736   96.279    0.446   34.176
  498.556   96.550    0.443   32.274
  499.377   95.177    0.430   28.662
  500.197   92.638    0.430   27.743
  501.017   92.433    0.438   31.946
  501.837   91.528    0.445   34.690
  502.657   91.326    0.445   28.630
  503.478   89.958    0.426   23.797
  504.298   88.117    0.412   20.186
  505.118   88.380    0.402   21.960
  505.938   90.531    0.419   24.697
  506.759   91.965    0.441   28.901
  507.579   93.636    0.458   28.470
  508.399   94.375    0.407   27.056
  509.219   94.169    0.395   27.596
  510.039   94.669    0.379   29.595
  510.860   93.067    0.404   35.758
  511.680   91.226    0.398   41.189
  512.500   89.620    0.390   70.321
  513.320   88.247    0.368   41.054
  514.140   85.938    0.359   34.017
  514.961   83.629    0.323   38.715
  515.781   83.197    0.317   36.575
  516.601   82.991    0.367   38.336
  517.421   79.754    0.395   36.678
  518.241   79.778    0.407   35.508
  519.062   84.497    0.404   35.560
  519.882   88.041    0.388   36.113
  520.702   91.356    0.395   35.663
  521.522   92.797    0.390   34.493
  522.343   93.298    0.398   36.511
  523.163   93.572    0.389   32.893
  523.983   93.600    0.393   25.856
  524.803   93.395    0.398   20.291
  525.623   90.852    0.403   19.616
  526.444   87.840    0.415   19.423
  527.264   83.892    0.432   18.980
  528.084   80.182    0.483   19.031
  528.904   78.338    0.489   19.578
  529.724   80.017    0.479   20.606
  530.545   82.391    0.461   20.413
  531.365   82.189    0.456   20.966
  532.185   80.578    0.461   21.988
  533.005   79.682    0.457   21.307
  533.825   82.754    0.443   24.051
  534.646   87.473    0.430   31.436
  535.466   85.632    0.437   27.342
  536.286   82.387    0.424   24.456
  537.106   84.296    0.403   21.577
  537.927   85.964    0.395   22.612
  538.747   86.472    0.419   30.234
  539.567   84.163    0.436   35.915
  540.387   82.084    0.419   33.281
  541.207   81.184    0.399   36.745
  542.028   81.927    0.411   37.779
  542.848   82.888    0.419   33.184
  543.668   84.563    0.408   27.131
  544.488   86.469    0.394   21.321
  545.308   84.624    0.413   21.379
  546.129   86.767    0.440   23.134
  546.949   90.312    0.433   21.238
  547.769   89.412    0.440   23.005
  548.589   88.043    0.424   22.806
  549.409   88.782    0.440   21.148
  550.230   89.985    0.439   20.473
  551.050   91.660    0.445   22.234
  551.870   92.621    0.429   21.797
  552.690   94.999    0.443   21.123
  553.510   94.801    0.456   21.663
  554.331   92.726    0.446   25.384
  555.151   90.183    0.435   29.098
