~VERSION INFORMATION
 VERS.                 2.0:   CWLS LOG ASCII STANDARD -VERSION 2.0
 WRAP.                  NO:   ONE LINE PER DEPTH STEP
~WELL INFORMATION BLOCK
#MNEM.UNIT           DATA                    DESCRIPTION OF MNEMONIC
#---------    -------------------            -------------------------------
# Generated from Intellog Unique Number	CN_94_101/WELL/3332
WELL.         08-01-095-09W4                 : Well_name    - WELL
LOC .         AA/08-01-095-09W4/0            : Location     - LOCATION
UWI .         AA/08-01-095-09W400            : Uwi          - UNIQUE WELL ID
ENTR.         T                              : Entered      - ENTERED BY
SRVC.         SCHLUMBERGER                   : Scn          - SERVICE COMPANY
DATE.         07/08/92                       : Date         - LOG DATE
STRT.M        15                             : top_depth    - START DEPTH
STOP.M        140                            : bot_depth    - STOP DEPTH
STEP.M        0.25                           : increment    - STEP LENGTH
 NULL. -999.2500:NULL Value
~CURVE INFORMATION BLOCK
#MNEM UNIT       ERCB CURVE CODE    CURVE DESCRIPTION
#-----------   ------------------   ----------------------------------
DEPT.M        00 001 00 00         : DEPTH        - DEPTH
GR  .API      00 310 00 00         : GR           - GAMMA RAY
NPHI.V/V      00 330 00 00         : PHIN         - NEUTRON POROSITY (SANDSTONE)
RHOB.KG/M3    00 350 00 00         : DENS         - BULK DENSITY
ILD .OHMM     00 120 00 00         : RESD         - DEEP RESISTIVITY (DIL)
~PARAMETER INFORMATION
#MNEM.UNIT           DATA             DESCRIPTION OF MNEMONIC
#---------         -----------     ------------------------------
GL  .M        325.7                : gl           - GROUND LEVEL ELEVATION
EREF.M        325.7                : kb           - ELEVATION OF DEPTH REFERENCE
DATM.M        325.7                : datum        - DATUM ELEVATION
TDD .M        147                  : tdd          - TOTAL DEPTH DRILLER
RUN .         ONE                  : Run          - RUN NUMBER
ENG .         JO                   : Engineer     - RECORDING ENGINEER
WIT .         TIM                  : Witness      - WITNESSED BY
MUD .         GEL                  : Mud_type     - MUD TYPE
MATR.         SANDSTONE            : Logunit      - NEUTRON MATRIX
TMAX.C        7                    : BHT          - MAXIMUM RECORDED TEMPERATURE
BHTD.M        147                  : BHTDEP       - MAXIMUM RECORDED TEMPERATURE
RMT .C        6                    : MDTP         - TEMPERATURE OF MUD
MUDD.KG/M     1060                 : MWT          - MUD DENSITY
NEUT.         1                    : NEUTRON      - NEUTRON TYPE
RESI.         0                    : RESIST       - RESISTIVITY TYPE
RM  .OHMM     9.8                  : RM           - RESISTIVITY OF MUD
RMC .OHMM     9.3                  : RMC          - RESISTIVITY OF MUD CAKE
RMF .OHMM     6.8                  : RMF          - RESISTIVITY OF MUD FILTRATE
SUFT.C        4                    : SUFT         - SURFACE TEMPERATURE
~A  DEPTH       GR     PHIN     DENS     RESD
   15.000   89.110    0.450 2351.880   39.581
   15.250   89.133    0.479 2251.490   28.464
   15.500   89.180    0.471 2197.370   20.850
   15.750   94.842    0.438 2159.370   37.689
   16.000  104.229    0.445 2151.440   36.391
   16.250  114.862    0.468 2147.580   33.852
   16.500  127.997    0.482 2155.780   26.692
   16.750  139.875    0.494 2165.990   22.232
   17.000  149.274    0.503 2178.210   18.188
   17.250  139.345    0.446 2190.470   16.017
   17.500  125.702    0.428 2202.730   14.906
   17.750  120.766    0.414 2210.890   15.210
   18.000  100.239    0.397 2213.060   17.025
   18.250   92.812    0.398 2209.200   19.763
   18.500   83.516    0.406 2199.310   25.621
   18.750   78.581    0.410 2187.400   36.452
   19.000   74.267    0.419 2169.510   39.291
   19.250   76.182    0.429 2157.650   49.140
   19.500   82.455    0.439 2149.720   64.862
   19.750   91.231    0.436 2141.840   79.570
   20.000   89.409    0.421 2146.020   66.304
   20.250   73.875    0.424 2150.240   50.390
   20.500   64.580    0.435 2150.320   53.372
   20.750   72.733    0.435 2144.520   64.279
   21.000   78.384    0.426 2142.590   71.949
   21.250   69.712    0.438 2134.750   69.471
   21.500   72.872    0.437 2134.910   67.079
   21.750   82.259    0.427 2145.120   63.615
   22.000   91.658    0.433 2155.330   60.277
   22.250   96.063    0.434 2167.550   56.071
   22.500   99.846    0.414 2181.780   45.034
   22.750   97.401    0.412 2196.010   37.526
   23.000   76.262    0.409 2214.300   38.292
   23.250   63.853    0.404 2222.500   43.639
   23.500   68.881    0.405 2208.590   59.815
   23.750   82.016    0.418 2170.510   81.950
   24.000   87.667    0.431 2148.560  132.578
   24.250   89.581    0.435 2150.720   72.296
   24.500   90.250    0.429 2156.950   53.942
   24.750   92.188    0.406 2161.130   51.134
   25.000   92.234    0.390 2165.350   47.608
   25.250   77.945    0.381 2165.510   44.306
   25.500   75.489    0.393 2165.630   44.386
   25.750   71.175    0.411 2157.750   44.465
   26.000   64.994    0.429 2149.860   44.565
   26.250   61.315    0.446 2148.010   45.454
   26.500   63.230    0.440 2142.180   48.122
   26.750   65.767    0.399 2132.290   53.840
   27.000   68.927    0.408 2120.340   54.939
   27.250   76.445    0.419 2112.500   46.652
   27.500   87.701    0.412 2124.720   44.203
   27.750   82.765    0.394 2136.900   44.282
   28.000   76.584    0.395 2159.210   53.356
   28.250   82.234    0.401 2173.480   54.445
   28.500   72.317    0.407 2169.620   48.836
   28.750   63.022    0.404 2165.720   55.655
   29.000   62.445    0.388 2151.840   67.029
   29.250   79.939    0.398 2147.980   75.061
   29.500   75.626    0.409 2144.160   79.431
   29.750   70.690    0.417 2140.220   99.253
   30.000   63.898    0.424 2132.380  136.044
   30.250   62.076    0.430 2126.460  232.591
   30.500   63.356    0.430 2114.560  193.729
   30.750   65.270    0.430 2102.700  155.594
   31.000   67.819    0.433 2110.860   77.384
   31.250   70.356    0.431 2147.240   48.919
   31.500   74.127    0.422 2183.580   42.312
   31.750   82.903    0.414 2201.880   37.953
   32.000   91.667    0.418 2204.040   35.305
   32.250   87.354    0.434 2196.200   33.467
   32.500   78.682    0.430 2182.250   34.785
   32.750   74.991    0.422 2168.290   36.827
   33.000   91.240    0.413 2166.440   36.219
   33.250   98.759    0.412 2164.670   32.488
   33.500  101.919    0.436 2146.700   32.547
   33.750   97.606    0.480 2118.670   42.213
   34.000   93.939    0.474 2102.750   54.726
   34.250   95.853    0.444 2145.160   54.849
   34.500   97.744    0.410 2163.410   45.684
   34.750  103.395    0.398 2185.680   38.068
   35.000  107.189    0.397 2199.990   33.524
   35.250   92.289    0.401 2188.010   25.013
   35.500   84.851    0.410 2160.030   31.255
   35.750   73.688    0.417 2158.210   43.636
   36.000   76.847    0.412 2184.510   40.610
   36.250   86.235    0.406 2208.790   29.204
   36.500  106.843    0.406 2227.040   25.260
   36.750  120.589    0.409 2243.280   25.294
   37.000  132.491    0.419 2229.370   23.539
   37.250  118.225    0.426 2215.450   20.369
   37.500  116.380    0.439 2195.510   19.668
   37.750  104.594    0.450 2167.520   21.985
   38.000  100.892    0.458 2149.590   27.471
   38.250   86.615    0.443 2131.690   46.967
   38.500   72.960    0.422 2131.810   48.817
   38.750   73.641    0.422 2138.000   48.033
   39.000   75.555    0.443 2148.250   45.533
   39.250   78.081    0.435 2158.460   41.583
   39.500   86.223    0.441 2166.660   37.993
   39.750   96.244    0.458 2176.910   34.079
   40.000  100.050    0.461 2187.120   31.715
   40.250  101.318    0.438 2197.330   29.516
   40.500  104.490    0.420 2213.530   27.979
   40.750  104.536    0.402 2243.890   30.747
   41.000  104.582    0.391 2286.260   33.156
   41.250  111.478    0.434 2348.780   24.738
   41.500  112.781    0.457 2282.560   21.378
   41.750  111.582    0.450 2266.670   20.274
   42.000  112.873    0.428 2248.700   20.688
   42.250  118.513    0.411 2224.730   21.922
   42.500  117.325    0.401 2202.780   22.359
   42.750  115.491    0.396 2190.920   22.816
   43.000  111.189    0.412 2193.120   22.449
   43.250  113.115    0.436 2195.210   22.470
   43.500  115.030    0.460 2197.380   21.696
   43.750  115.687    0.475 2199.550   20.948
   44.000  113.876    0.483 2203.770   20.622
   44.250  112.043    0.473 2214.060   20.668
   44.500  112.711    0.462 2220.210   21.070
   44.750  112.757    0.468 2226.360   22.307
   45.000  112.815    0.450 2218.520   24.969
   45.250  115.963    0.442 2206.650   25.003
   45.500  118.512    0.434 2200.700   24.601
   45.750  112.942    0.428 2192.860   24.196
   46.000  107.383    0.440 2194.990   24.689
   46.250  109.297    0.445 2205.200   26.150
   46.500  108.721    0.433 2217.420   28.200
   46.750  103.785    0.430 2211.540   29.855
   47.000   98.849    0.439 2201.690   32.778
   47.250   92.056    0.427 2197.830   39.494
   47.500   92.714    0.437 2197.990   35.426
   47.750   97.753    0.451 2200.200   31.225
   48.000  101.547    0.469 2208.400   31.253
   48.250  104.696    0.452 2218.570   31.891
   48.500  112.215    0.408 2232.800   33.146
   48.750  117.266    0.416 2222.940   33.823
   49.000  114.798    0.420 2211.000   35.170
   49.250  107.371    0.417 2199.100   37.927
   49.500  101.190    0.404 2187.230   41.678
   49.750  102.481    0.393 2181.360   41.752
   50.000  108.766    0.382 2185.540   41.827
   50.250  110.692    0.388 2191.690   39.650
   50.500  107.636    0.400 2198.000   37.586
   50.750  105.802    0.418 2198.080   34.963
   51.000  106.483    0.428 2194.260   32.538
   51.250  107.140    0.435 2190.350   31.432
   51.500  107.186    0.449 2188.500   31.488
   51.750  105.375    0.458 2188.660   32.130
   52.000  102.919    0.447 2194.850   32.786
   52.250  101.097    0.439 2201.120   33.455
   52.500  104.257    0.437 2203.210   31.135
   52.750  107.416    0.428 2203.410   30.063
   53.000  111.833    0.415 2199.580   30.690
   53.250  108.131    0.410 2199.660   31.898
   53.500  100.704    0.414 2205.930   31.956
   53.750   99.517    0.416 2216.100   31.415
   54.000  101.431    0.424 2214.250   30.346
   54.250  103.956    0.441 2206.410   30.414
   54.500  106.493    0.453 2204.560   31.035
   54.750   99.067    0.457 2204.750   31.654
   55.000   97.256    0.449 2206.840   32.300
   55.250   99.781    0.435 2209.010   32.358
   55.500  103.576    0.424 2205.150   32.416
   55.750   97.383    0.438 2199.360   31.895
   56.000   89.967    0.451 2197.470   32.546
   56.250   86.888    0.467 2197.660   34.456
   56.500   84.443    0.478 2199.790   35.829
   56.750   82.633    0.467 2202.000   35.893
   57.000   82.679    0.459 2202.160   34.025
   57.250   82.713    0.464 2190.220   36.675
   57.500   85.250    0.466 2172.280   39.549
   57.750   90.913    0.449 2156.360   39.655
   58.000   97.186    0.431 2152.540   36.889
   58.250  104.094    0.432 2162.710   33.704
