~VERSION INFORMATION
 VERS.                 2.0:   CWLS LOG ASCII STANDARD -VERSION 2.0
 WRAP.                  NO:   ONE LINE PER DEPTH STEP
~WELL INFORMATION BLOCK
#MNEM.UNIT           DATA                    DESCRIPTION OF MNEMONIC
#---------    -------------------            -------------------------------
# Generated from Intellog Unique Number	CC_80_83/WELL/2325
NULL.         -999.25                        : NULL_VALUE
WELL.         ARCO ACI McMURRAY              : Well_name    - WELL              
LOC .         09-29-083-12W4                 : Location     - LOCATION          
UWI .         AA/09-29-083-12W400            : Uwi          - UNIQUE WELL ID    
ENTR.         RJA                            : Entered      - ENTERED BY        
SRVC.         SCHLUMBERGER                   : Scn          - SERVICE COMPANY   
DATE.         15 FEB 74                      : Date         - LOG DATE
STRT.M        85.344                         : top_depth    - START DEPTH       
STOP.M        329.184                        : bot_depth    - STOP DEPTH        
STEP.M        0.3048                         : increment    - STEP LENGTH       
~CURVE INFORMATION BLOCK
#MNEM UNIT       ERCB CURVE CODE    CURVE DESCRIPTION
#-----------   ------------------   ----------------------------------
DEPT.M        00 001 00 00         : DEPTH        - DEPTH                       
DPHI.V/V      00 890 00 00         : PHID         - DENSITY POROSITY (LIMESTONE)
GR  .API      00 310 00 00         : GR           - GAMMA RAY                   
NPHI.V/V      00 330 00 00         : PHIN         - NEUTRON POROSITY (LIMESTONE)
ILD .OHMM     00 120 00 00         : RESD         - DEEP RESISTIVITY (DIL)      
~PARAMETER INFORMATION       
#MNEM.UNIT           DATA             DESCRIPTION OF MNEMONIC
#---------         -----------     ------------------------------
GL  .M        566.227              : gl           - GROUND LEVEL ELEVATION      
EREF.M        567.903              : kb           - ELEVATION OF DEPTH REFERENCE
DATM.M        567.903              : datum        - DATUM ELEVATION             
TDD .M        332.232              : tdd          - TOTAL DEPTH DRILLER         
RUN .         ONE                  : Run          - RUN NUMBER                  
ENG .         BILL                 : Engineer     - RECORDING ENGINEER          
WIT .         JIM                  : Witness      - WITNESSED BY                
MUD .         GEL                  : Mud_type     - MUD TYPE                    
MATR.         LIMESTONE            : Logunit      - NEUTRON MATRIX              
TMAX.C        18.3333              : BHT          - MAXIMUM RECORDED TEMPERATURE
BHTD.M        332.232              : BHTDEP       - MAXIMUM RECORDED TEMPERATURE
MATR.         1                    : LOGUNIT      - NEUTRON MATRIX              
RMT .C        25                   : MDTP         - TEMPERATURE OF MUD          
NEUT.         1                    : NEUTRON      - NEUTRON TYPE                
RESI.         0                    : RESIST       - RESISTIVITY TYPE            
RMC .OHMM     0.25                 : RMC          - RESISTIVITY OF MUD CAKE     
RMF .OHMM     0.25                 : RMF          - RESISTIVITY OF MUD FILTRATE 
SUFT.C        4                    : SUFT         - SURFACE TEMPERATURE         
~A  DEPTH     PHID       GR     PHIN     RESD
# ...
  244.448    0.287   92.052    0.471    7.155
  244.752    0.255   90.793    0.439    6.765
  245.057    0.269   91.373    0.426    5.825
  245.362    0.259   91.342    0.456    5.110
  245.667    0.245   95.556    0.456    5.015
  245.972    0.254  103.411    0.439    5.304
  246.276    0.267  107.631    0.433    6.158
  246.581    0.263  103.347    0.410    6.635
  246.886    0.253   95.415    0.360    7.150
  247.191    0.232   89.920    0.344    7.562
  247.496    0.217   86.853    0.350    8.301
  247.800    0.229   85.607    0.343    9.113
  248.105    0.243   87.391    0.353    9.459
  248.410    0.248   90.391    0.369    9.818
  248.715    0.226   88.534    0.354    9.817
  249.020    0.205   93.959    0.348    9.635
  249.324    0.219   91.494    0.347    9.456
  249.629    0.236   90.257    0.360    8.940
  249.934    0.234   96.291    0.375    8.295
  250.239    0.236   96.251    0.401    7.555
  250.544    0.247   94.400    0.383    7.010
  250.848    0.231   88.905    0.369    6.752
  251.153    0.231   82.794    0.354    6.879
  251.458    0.268   79.123    0.364    7.412
  251.763    0.283   86.974    0.380    7.987
  252.068    0.277   91.181    0.407    8.768
  252.372    0.264   91.773    0.399    9.447
  252.677    0.275   83.841    0.391    9.806
  252.982    0.274   75.302    0.384    9.445
  253.287    0.289   77.690    0.373    9.098
  253.592    0.283   81.299    0.388    8.286
  253.896    0.264   82.480    0.391    7.981
  254.201    0.267   81.845    0.373    7.981
  254.506    0.267   75.741    0.365    7.832
  254.811    0.237   74.498    0.362    7.832
  255.115    0.208   79.322    0.313    8.129
  255.420    0.197   85.354    0.301    8.282
  255.725    0.228   88.354    0.337    8.596
  256.030    0.243   88.325    0.363    9.091
  256.335    0.240   85.856    0.358    9.261
  256.639    0.247   88.845    0.362    9.261
  256.944    0.255   90.642    0.380    8.920
  257.249    0.266   92.434    0.379    8.754
  257.554    0.262   92.400    0.375    8.432
  257.859    0.243   86.295    0.383    8.275
  258.164    0.255   81.405    0.379    8.275
  258.468    0.290   78.939    0.411    8.121
  258.773    0.282   80.728    0.363    8.120
  259.078    0.289   78.876    0.350    8.273
  259.383    0.290   81.874    0.374    8.272
  259.688    0.281   75.765    0.371    8.271
  259.992    0.269   76.342    0.385    8.117
  260.297    0.264   81.161    0.401    7.674
  260.602    0.270   79.294    0.401    7.392
  260.907    0.279   78.669    0.402    7.255
  261.212    0.285   82.272    0.397    6.859
  261.516    0.295   84.675    0.406    6.246
  261.821    0.298   89.496    0.421    5.379
  262.126    0.289   90.678    0.439    4.808
  262.431    0.273   94.282    0.457    4.063
  262.736    0.255   95.465    0.449    3.701
  263.040    0.237   89.963    0.424    3.371
  263.345    0.229   83.248    0.404    3.700
  263.650    0.246   80.792    0.389    4.377
  263.955    0.257   82.571    0.365    5.477
  264.260    0.254   81.324    0.377    6.479
  264.565    0.261   83.110    0.378    7.809
  264.869    0.244   84.902    0.363    8.899
  265.174    0.259   84.258    0.342    9.066
  265.479    0.266   82.408    0.339    9.065
  265.784    0.255   86.003    0.361    8.897
  266.089    0.240   87.805    0.361    8.411
  266.393    0.228   90.192    0.365    8.410
  266.698    0.235   85.913    0.382    8.254
  267.003    0.234   85.872    0.389    8.253
  267.308    0.236   87.666    0.389    8.100
  267.613    0.223   82.767    0.385    7.949
  267.917    0.202   81.525    0.382    7.948
  268.222    0.203   87.565    0.416    7.948
  268.527    0.206   85.103    0.407    7.947
  268.832    0.209   88.094    0.376    7.799
  269.137    0.219   90.491    0.355    7.513
  269.441    0.237   91.676    0.358    6.971
  269.746    0.249   90.428    0.376    6.231
  270.051    0.267   78.852    0.446    4.708
  270.356    0.310   73.963    0.432    3.557
  270.661    0.303   64.213    0.406    3.491
  270.966    0.286   58.715    0.389    3.624
  271.270    0.271   64.141    0.377    4.287
  271.575    0.260   65.938    0.376    5.167
  271.880    0.256   64.684    0.364    6.586
  272.185    0.274   68.892    0.374    7.367
  272.490    0.285   74.938    0.397    8.087
  272.794    0.281   81.588    0.421    6.964
  273.099    0.273   84.590    0.430    5.777
  273.404    0.260   84.555    0.408    4.703
  273.709    0.248   86.335    0.395    4.126
  274.014    0.227   79.625    0.372    4.364
  274.318    0.225   78.597    0.413    5.187
  274.623    0.265   81.710    0.393    4.303
  274.928    0.269   82.377    0.416    3.704
  275.233    0.283   84.284    0.410    3.436
  275.538    0.276   80.120    0.417    3.247
  275.842    0.252   90.478    0.423    3.431
  276.147    0.264   93.585    0.426    3.832
  276.452    0.266   93.086    0.396    3.829
  276.757    0.250   94.965    0.400    3.687
  277.062    0.253   90.809    0.436    3.683
  277.367    0.238   86.055    0.437    3.892
  277.671    0.238   93.985    0.469    3.677
  277.976    0.255  100.131    0.416    3.607
  278.281    0.287  100.794    0.410    3.344
  278.586    0.268   96.048    0.421    3.342
  278.891    0.248   82.215    0.417    3.949
  279.195    0.226   70.207    0.382    4.933
  279.500    0.222   63.641    0.347    6.638
  279.805    0.244   66.760    0.329    8.447
  280.110    0.245   68.064    0.363   10.551
  280.415    0.239   69.319    0.367    8.752
  280.719    0.267   76.653    0.408    6.994
  281.024    0.279   68.275    0.389    6.861
  281.329    0.277   51.430    0.405    9.062
  281.634    0.295   48.488    0.366   11.319
  281.939    0.309   59.456    0.334   13.878
  282.243    0.276   64.971    0.362   15.797
  282.548    0.291   62.024    0.341   17.323
  282.853    0.283   56.664    0.329   14.100
  283.158    0.281   58.569    0.328   13.326
  283.463    0.262   59.248    0.321   12.832
  283.768    0.235   50.889    0.310   12.580
  284.072    0.241   50.950    0.305   12.575
  284.377    0.256   70.370    0.349   11.238
  284.682    0.255   86.168    0.431    8.817
  284.987    0.262   92.897    0.394    7.313
  285.292    0.274   92.982    0.353    6.783
  285.596    0.236   78.567    0.332    6.777
  285.901    0.241   71.990    0.309    8.006
  286.206    0.257   65.440    0.313    9.817
  286.511    0.270   62.482    0.311   12.034
  286.816    0.281   64.365    0.310   13.196
  287.120    0.262   65.655    0.305   13.690
  287.425    0.256   56.066    0.296   15.871
  287.730    0.289   53.124    0.331   17.733
  288.035    0.302   59.851    0.331   19.808
  288.340    0.308   72.025    0.341   21.322
  288.645    0.340   76.942    0.347   19.409
  288.949    0.471   69.771    0.380   17.350
  289.254    0.277   76.517    0.332   14.390
  289.559    0.239   81.412    0.330   12.861
  289.864    0.248   79.084    0.352   11.493
  290.169    0.246   80.375    0.338   10.658
  290.473    0.251   78.036    0.333   10.264
  290.778    0.268   71.459    0.330   11.252
  291.083    0.283   61.872    0.330   13.293
  291.388    0.277   54.099    0.344   15.416
  291.693    0.288   46.321    0.345   20.361
  291.997    0.321   39.137    0.336   27.911
  292.302    0.327   37.412    0.346   36.870
  292.607    0.329   42.950    0.354   51.493
  292.912    0.324   46.651    0.338   69.279
  293.217    0.319   53.971    0.329   61.921
  293.521    0.287   61.912    0.345   34.753
  293.826    0.274   42.648    0.356   25.311
  294.131    0.315   36.093    0.383   25.285
  294.436    0.338   38.597    0.395   32.181
  294.741    0.345   44.708    0.354   52.148
  295.046    0.336   53.248    0.328   67.622
  295.350    0.313   54.541    0.335   59.318
  295.655    0.301   54.623    0.330   48.301
  295.960    0.285   60.736    0.340   38.600
  296.265    0.266   68.074    0.344   32.024
  296.570    0.229   79.641    0.308   25.121
  296.874    0.182   78.526    0.325   18.991
  297.179    0.222   77.997    0.336   14.355
