~VERSION INFORMATION
 VERS.                 2.0:   CWLS LOG ASCII STANDARD -VERSION 2.0
 WRAP.                  NO:   ONE LINE PER DEPTH STEP
~WELL INFORMATION BLOCK
#MNEM.UNIT           DATA                    DESCRIPTION OF MNEMONIC
#---------    -------------------            -------------------------------
# Generated from Intellog Unique Number	CN_91_93/WELL/3624
WELL.         02-21-093-07W4                 : Well_name    - WELL
LOC .         AA/02-21-093-07W4/0            : Location     - LOCATION
UWI .         AA/02-21-093-07W400            : Uwi          - UNIQUE WELL ID
ENTR.         JOETTE                         : Entered      - ENTERED BY
SRVC.         WESTERN ATLAS                  : Scn          - SERVICE COMPANY
DATE.         03/18/92                       : Date         - LOG DATE
STRT.F        50                             : top_depth    - START DEPTH
STOP.F        820.177                        : bot_depth    - STOP DEPTH
STEP.F        0.8202                         : increment    - STEP LENGTH
 NULL. -999.2500:NULL Value
~CURVE INFORMATION BLOCK
#MNEM UNIT       ERCB CURVE CODE    CURVE DESCRIPTION
#-----------   ------------------   ----------------------------------
DEPT.F        00 001 00 00         : DEPTH        - DEPTH
ILD .OHMM     00 120 00 00         : RESD         - DEEP RESISTIVITY (DIL)
CALI.IN       00 280 01 00         : CAL          - CALIPER
GR  .API      00 310 00 00         : GR           - GAMMA RAY
NPHI.V/V      00 330 00 00         : PHIN         - NEUTRON POROSITY (SANDSTONE)
~PARAMETER INFORMATION
#MNEM.UNIT           DATA             DESCRIPTION OF MNEMONIC
#---------         -----------     ------------------------------
GL  .M        506.578              : gl           - GROUND LEVEL ELEVATION
EREF.M        508.102              : kb           - ELEVATION OF DEPTH REFERENCE
DATM.M        508.102              : datum        - DATUM ELEVATION
TDD .M        508.102              : tdd          - TOTAL DEPTH DRILLER
RUN .         ONE                  : Run          - RUN NUMBER
ENG .         JO                   : Engineer     - RECORDING ENGINEER
WIT .         TIM                  : Witness      - WITNESSED BY
MUD .         GEL                  : Mud_type     - MUD TYPE
MATR.         SANDSTONE            : Logunit      - NEUTRON MATRIX
TMAX.F        47                   : BHT          - MAXIMUM RECORDED TEMPERATURE
BHTD.F        832                  : BHTDEP       - MAXIMUM RECORDED TEMPERATURE
RMT .F        40                   : MDTP         - TEMPERATURE OF MUD
MUDD.LB/G     0.541666             : MWT          - MUD DENSITY
NEUT.         1                    : NEUTRON      - NEUTRON TYPE
RESI.         0                    : RESIST       - RESISTIVITY TYPE
RM  .OHMM     9                    : RM           - RESISTIVITY OF MUD
RMC .OHMM     9                    : RMC          - RESISTIVITY OF MUD CAKE
RMF .OHMM     9                    : RMF          - RESISTIVITY OF MUD FILTRATE
SUFT.F        39.2                 : SUFT         - SURFACE TEMPERATURE
~A  DEPTH     RESD      CAL       GR     PHIN
# ...
  478.150   11.804    6.381   79.118    0.407
  478.970   12.030    6.383   79.164    0.409
  479.790   12.052    6.385   79.192    0.411
  480.610   12.066    6.388   79.248    0.412
  481.430   12.076    6.350   79.863    0.412
  482.251   11.661    6.314   80.505    0.412
  483.071   11.260    6.277   81.725    0.413
  483.891   10.677    6.280   83.559    0.413
  484.711   10.316    6.282   84.192    0.414
  485.531   10.137    6.284   84.248    0.415
  486.352   10.526    6.286   84.267    0.416
  487.172   11.133    6.289   83.122    0.416
  487.992   11.347    6.332   81.958    0.417
  488.812   11.571    6.334   81.995    0.417
  489.633   11.581    6.338   82.032    0.417
  490.453   11.384    6.301   83.261    0.418
  491.273   10.995    6.302   85.701    0.418
  492.093   10.808    6.305   88.131    0.418
  492.913    9.884    6.307   88.746    0.420
  493.734    8.877    6.429   90.580    0.430
  494.554    7.832    6.749   92.405    0.444
  495.374    7.701    6.752   93.634    0.447
  496.194    7.710    6.636   93.076    0.446
  497.014    8.150    6.599   90.739    0.444
  497.835    8.615    6.601   88.998    0.440
  498.655    8.943    6.563   88.420    0.439
  499.475    8.957    6.566   88.476    0.442
  500.295    8.648    6.528   89.100    0.446
  501.115    7.491    6.532   90.320    0.449
  501.936    6.146    6.494   92.154    0.455
  502.756    5.227    6.458   94.584    0.459
  503.576    4.368    6.460   96.400    0.463
  504.396    3.996    6.462   98.234    0.469
  505.217    3.590    6.545   98.290    0.473
  506.037    3.342    6.668   97.722    0.477
  506.857    3.170    6.749   97.154    0.479
  507.677    3.172    6.791   96.018    0.479
  508.497    3.235    6.794   95.451    0.478
  509.318    3.298    6.796   93.104    0.476
  510.138    3.486    6.838   91.363    0.470
  510.958    3.685    6.841   90.786    0.463
  511.778    4.343    6.843   88.439    0.458
  512.598    5.026    6.846   88.486    0.450
  513.419    6.029    6.849   88.514    0.444
  514.239    8.363    6.851   89.166    0.433
  515.059    9.007    6.853   89.194    0.423
  515.879    9.012    6.856   89.240    0.416
  516.699    9.193    6.858   89.874    0.405
  517.520    9.199    6.861   89.315    0.394
  518.340   10.648    6.863   87.565    0.359
  519.160   12.325    6.827   84.017    0.352
  519.980   13.504    6.830   79.297    0.338
  520.801   14.023    6.792   78.133    0.325
  521.621   13.784    6.795   77.574    0.316
  522.441   12.610    6.718   79.418    0.332
  523.261   11.325    6.680   82.425    0.357
  524.081   10.357    6.643   86.047    0.377
  524.902    9.825    6.606   86.671    0.405
  525.722    9.836    6.570   84.325    0.408
  526.542   10.587    6.573   81.988    0.403
  527.362   11.812    6.574   81.420    0.396
  528.182   12.958    6.577   80.861    0.384
  529.003   12.733    6.580   76.727    0.373
  529.823   11.858    6.581   73.785    0.317
  530.643   10.650    6.624   74.427    0.302
  531.463    9.568    6.666   79.232    0.333
  532.283    8.440    6.709   85.843    0.374
  533.104    8.001    6.712   88.254    0.393
  533.924    7.589    6.714   90.684    0.424
  534.744    7.598    6.757   91.904    0.421
  535.564    7.468    6.759   93.729    0.419
  536.385    7.484    6.761   95.573    0.418
  537.205    7.490    6.764   96.793    0.417
  538.025    7.499    6.727   98.022    0.417
  538.845    7.506    6.729   99.847    0.413
  539.665    7.380    6.692  102.863    0.413
  540.486    7.389    6.694  103.497    0.418
  541.306    6.883    6.698  102.370    0.427
  542.126    6.295    6.660  101.206    0.434
  542.946    5.552    6.662  100.638    0.441
  543.766    5.172    6.666  100.070    0.444
  544.587    5.084    6.668   99.521    0.448
  545.407    5.183    6.671  100.154    0.449
  546.227    5.382    6.673  101.383    0.448
  547.047    5.589    6.676  102.017    0.445
  547.867    5.694    6.678  101.458    0.445
  548.688    5.911    6.680   99.707    0.447
  549.508    6.030    6.683   96.188    0.445
  550.328    6.033    6.685   95.620    0.442
  551.148    5.620    6.689   95.648    0.437
  551.969    5.051    6.691   99.866    0.430
  552.789    4.874    6.693  101.104    0.436
  553.609    4.623    6.696   98.758    0.438
  554.429    4.887    6.739   97.594    0.437
  555.249    5.260    6.741   98.842    0.429
  556.070    5.765    6.784   99.457    0.420
  556.890    6.319    6.786  101.887    0.410
  557.710    6.803    6.828  102.529    0.402
  558.530    7.323    6.830   99.578    0.397
  559.350    7.880    6.833   93.665    0.396
  560.171    8.482    6.833   91.319    0.391
  560.991    9.132    6.640   90.760    0.386
  561.811    9.829    6.842   90.202    0.383
  562.631   10.390    6.844   90.248    0.376
  563.451   10.592    6.846   90.267    0.368
  564.272   10.415    6.849   91.496    0.363
  565.092   10.062    6.851   93.926    0.367
  565.912   10.068    6.853   95.155    0.373
  566.732    9.725    6.896   94.597    0.382
  567.552    9.567    6.899   93.451    0.389
  568.373    9.579    6.941   92.884    0.392
  569.193    9.584    6.944   92.921    0.393
  570.013    9.599    6.987   92.958    0.396
  570.833    8.936    6.988   92.996    0.404
  571.654    7.071    6.991   91.860    0.431
  572.474    4.264    6.955   90.100    0.450
  573.294    3.254    6.956   85.966    0.458
  574.114    3.032    6.959   81.841    0.478
  574.934    3.090    6.922   79.495    0.478
  575.755    3.208    6.924   78.927    0.477
  576.575    3.453    6.887   81.953    0.473
  577.395    3.717    6.890   83.769    0.462
  578.215    4.381    6.853   88.601    0.446
  579.035    4.977    6.855   89.811    0.424
  579.856    5.555    6.858   92.838    0.422
  580.676    5.981    6.860   94.663    0.417
  581.496    6.099    6.863   95.287    0.414
  582.316    6.106    6.865   94.737    0.410
  583.136    6.223    6.909   94.169    0.407
  583.957    6.582    6.910   90.650    0.403
  584.777    6.707    6.953   88.294    0.401
  585.597    7.487    6.955   85.352    0.398
  586.417    8.061    6.997   82.419    0.395
  587.238    7.924    7.001   83.657    0.390
  588.058    7.516    7.004   86.069    0.383
  588.878    6.872    7.005   89.086    0.384
  589.698    5.741    7.009   91.507    0.388
  590.518    4.884    7.010   93.341    0.402
  591.339    4.387    7.013   93.965    0.419
  592.159    4.314    7.015   94.617    0.436
  592.979    4.319    7.018   94.645    0.447
  593.799    4.324    7.020   94.691    0.451
  594.619    4.328    7.024   94.123    0.450
  595.440    4.415    7.066   93.565    0.449
  596.260    4.499    7.068   93.611    0.448
  597.080    4.425    7.031   93.648    0.448
  597.900    4.351    7.033   93.686    0.447
  598.720    4.277    6.996   93.723    0.445
  599.541    4.130    6.960   93.751    0.442
  600.361    3.917    6.961   93.798    0.438
  601.181    3.782    7.005   93.835    0.433
  602.001    3.928    7.005   93.882    0.427
  602.822    4.306    6.852   93.332    0.421
  603.642    4.549    6.932   92.755    0.415
  604.462    4.987    6.895   91.600    0.409
  605.282    5.566    6.937   88.668    0.402
  606.102    6.327    6.939   87.513    0.395
  606.923    6.810    6.982   86.349    0.391
  607.743    7.199    6.985   85.213    0.384
  608.563    7.749    7.067   85.232    0.377
  609.383    7.758    7.069   85.269    0.370
  610.203    8.061    7.112   85.316    0.364
  611.024    8.365    7.114   84.161    0.367
  611.844    8.523    7.078   81.815    0.371
  612.664    8.850    7.040   80.065    0.365
  613.484    9.188    7.002   75.940    0.361
  614.304   10.441    6.966   74.180    0.359
  615.125   13.231    6.889   71.843    0.359
  615.945   14.762    6.851   70.093    0.359
  616.765   16.776    6.814   69.534    0.359
  617.585   19.773    6.777   68.370    0.360
  618.406   21.283    6.741   68.408    0.361
  619.226   21.697    6.702   67.868    0.361
  620.046   21.340    6.665   67.896    0.361
