~VERSION INFORMATION
 VERS.                 2.0:   CWLS LOG ASCII STANDARD -VERSION 2.0
 WRAP.                  NO:   ONE LINE PER DEPTH STEP
~WELL INFORMATION BLOCK
#MNEM.UNIT           DATA                    DESCRIPTION OF MNEMONIC
#---------    -------------------            -------------------------------
# Generated from Intellog Unique Number	CW_79_81/WELL/637
WELL.         07-33-079-25W4                 : Well_name    - WELL
LOC .         AA/07-33-079-25W4/0            : Location     - LOCATION
UWI .         AA/07-33-079-25W4/0            : Uwi          - UNIQUE WELL ID
ENTR.         MAX                            : Entered      - ENTERED BY
SRVC.         SCHLUMBERGER                   : Scn          - SERVICE COMPANY
STRT.M        200                            : top_depth    - START DEPTH
STOP.M        475                            : bot_depth    - STOP DEPTH
STEP.M        0.25                           : increment    - STEP LENGTH
 NULL. -999.2500:NULL Value
~CURVE INFORMATION BLOCK
#MNEM UNIT       ERCB CURVE CODE    CURVE DESCRIPTION
#-----------   ------------------   ----------------------------------
DEPT.M        00 001 00 00         : DEPTH        - DEPTH
ILD .OHMM     00 120 00 00         : RESD         - DEEP RESISTIVITY (DIL)
NPHI.V/V      00 330 00 00         : PHIN         - NEUTRON POROSITY (SANDSTONE)
DPHI.V/V      00 890 00 00         : PHID         - DENSITY POROSITY (SANDSTONE)
CALI.MM       00 280 01 00         : CAL          - CALIPER
GR  .API      00 310 00 00         : GR           - GAMMA RAY
~PARAMETER INFORMATION
#MNEM.UNIT           DATA             DESCRIPTION OF MNEMONIC
#---------         -----------     ------------------------------
GL  .M        557.85               : gl           - GROUND LEVEL ELEVATION
EREF.M        562.3                : kb           - ELEVATION OF DEPTH REFERENCE
DATM.M        557.85               : datum        - DATUM ELEVATION
TDD .M        485.5                : tdd          - TOTAL DEPTH DRILLER
RUN .         ONE                  : Run          - RUN NUMBER
ENG .         BILL                 : Engineer     - RECORDING ENGINEER
WIT .         JIM                  : Witness      - WITNESSED BY
MUD .         GEL                  : Mud_type     - MUD TYPE
MATR.         SANDSTONE            : Logunit      - NEUTRON MATRIX
TMAX.C        17.7                 : BHT          - MAXIMUM RECORDED TEMPERATURE
BHTD.M        485                  : BHTDEP       - MAXIMUM RECORDED TEMPERATURE
RMT .C        20                   : MDTP         - TEMPERATURE OF MUD
MUDD.KG/M     1110                 : MWT          - MUD DENSITY
NEUT.         1                    : NEUTRON      - NEUTRON TYPE
RESI.         0                    : RESIST       - RESISTIVITY TYPE
RM  .OHMM     11.3                 : RM           - RESISTIVITY OF MUD
RMC .OHMM     0.25                 : RMC          - RESISTIVITY OF MUD CAKE
RMF .OHMM     4.93                 : RMF          - RESISTIVITY OF MUD FILTRATE
SUFT.C        -15                  : SUFT         - SURFACE TEMPERATURE
~A  DEPTH     RESD     PHIN     PHID      CAL       GR
# ...
  455.500    7.837    0.341    0.209  252.836   77.897
  455.750    8.280    0.326    0.169  252.351   75.213
  456.000    8.669    0.314    0.092  251.862   86.588
  456.250    8.751    0.350    0.147  251.379   94.975
  456.500    8.675    0.349    0.211  251.392   95.880
  456.750    8.521    0.337    0.220  251.403  103.365
  457.000    8.294    0.349    0.259  251.418  116.238
  457.250    8.147    0.487    0.290  251.429  136.290
  457.500    8.150    0.461    0.268  251.444  144.076
  457.750    8.379    0.439    0.230  251.455  142.289
  458.000    8.615    0.416    0.212  251.467  130.031
  458.250    8.776    0.389    0.203  251.980  118.671
  458.500    8.941    0.363    0.193  251.991  112.394
  458.750    9.025    0.352    0.185  252.005  103.128
  459.000    8.785    0.344    0.179  252.019   91.168
  459.250    8.551    0.322    0.156  252.029   78.013
  459.500    8.324    0.287    0.103  252.044   71.440
  459.750    8.402    0.313    0.087  252.055   72.643
  460.000    8.638    0.341    0.145  252.070   87.609
  460.250    8.721    0.377    0.172  252.081   97.191
  460.500    8.724    0.404    0.186  252.095   99.593
  460.750    8.887    0.420    0.203  252.106  102.294
  461.000    9.054    0.426    0.210  252.121  102.898
  461.250    9.140    0.412    0.213  252.132   98.119
  461.500    8.978    0.395    0.212  252.645   91.546
  461.750    8.738    0.394    0.205  252.659   95.143
  462.000    8.053    0.420    0.203  252.670   97.843
  462.250    7.354    0.486    0.203  252.681   99.348
  462.500    6.655    0.473    0.189  252.695   99.654
  462.750    6.537    0.447    0.173  252.710   97.866
  463.000    6.599    0.422    0.137  252.722   88.898
  463.250    6.973    0.403    0.107  252.735   76.341
  463.500    7.367    0.401    0.103  252.735   73.059
  463.750    7.505    0.404    0.116  252.761   74.263
  464.000    7.508    0.410    0.145  252.274   81.453
  464.250    7.374    0.425    0.167  251.789   83.552
  464.500    7.113    0.472    0.171  251.800   92.834
  464.750    6.676    0.458    0.166  251.813   96.132
  465.000    6.439    0.434    0.071  252.324   88.960
  465.250    6.441    0.435    0.086  252.337   89.867
  465.500    6.443    0.453    0.184  252.851   94.660
  465.750    6.387    0.453    0.194  252.864   96.763
  466.000    6.274    0.412    0.171  253.375   99.163
  466.250    5.997    0.396    0.154  253.886  101.564
  466.500    5.997    0.429    0.169  254.399  104.265
  466.750    5.839    0.505    0.185  254.408  105.769
  467.000    5.332    0.565    0.201  254.422  106.673
  467.250    4.695    0.592    0.210  254.935  106.681
  467.500    3.808    0.578    0.196  255.445  105.193
  467.750    3.089    0.605    0.174  255.459  100.114
  468.000    2.770    0.563    0.010  254.474   66.913
  468.250    3.035    0.366   -0.003  253.987   52.261
  468.500    4.065    0.287   -0.008  253.002   36.712
  468.750    4.374    0.210   -0.009  252.517   16.077
  469.000    6.243    0.098   -0.009  252.035   14.590
  469.250   12.485    0.078   -0.008  252.044   14.896
  469.500   18.315    0.072   -0.003  251.558   14.605
  469.750   24.085    0.088    0.019  248.582   14.313
  470.000   29.712    0.090    0.036  247.594   14.021
  470.250   31.393    0.076    0.032  247.110   14.031
  470.500   35.034    0.057    0.013  247.124   12.541
  470.750   39.453    0.054    0.007  246.636   11.650
  471.000   50.941    0.073    0.001  245.653   11.359
  471.250   64.589    0.092   -0.002  245.666   12.865
  471.500   69.501    0.123    0.015  245.677   13.769
  471.750   72.109    0.131    0.026  245.691   14.076
  472.000   72.134    0.130    0.009  246.701   14.681
  472.250   72.153    0.127    0.002  247.213   14.688
  472.500   71.525    0.127    0.008  246.726   14.099
  472.750   71.553    0.134    0.024  246.241   13.808
  473.000   72.233    0.146    0.021  245.257   13.515
  473.250   73.583    0.146    0.016  244.771   12.626
  473.500   75.656    0.128    0.008  244.285   12.633
  473.750   76.371    0.114    0.014  243.798   13.240
  474.000   77.806    0.113    0.020  243.813   13.846
  474.250   77.123    0.116    0.022  243.824   13.854
  474.500   73.715    0.119    0.020  243.836   13.562
  474.750   67.930    0.119    0.021  243.853   13.270
  475.000   52.169    0.119    0.025  243.866   12.978
