~Version : LASO    vs 4.00 
VERS.                2.00:   CWLS Log ASCII Standard -VERSION 2.0
WRAP.                  NO:
~Well Information Block
#MNEM.UNIT       Data                        Description of Mnemonic
#----.----      -------------------------- : -----------------------------
STRT.M            15.0000:
STOP.M           207.0000:
STEP.M             0.2000:
NULL.           -999.2500:
COMP.  MOBIL OIL CANADA                   :COMPANY
WELL.  MOBIL CLARKE OV 1-2                :WELL
FLD.                                      :FIELD
LOC.   01-02-090-08W4                     :LOCATION
CTRY.  CANADA                             :COUNTRY
PROV.  ALBERTA                            :PROVINCE
SRVC.  SCHLUMBERGER                       :SERVICE COMPANY
DATE.  05-MAR-81                          :LOG DATE
UWI.   AA/01-02-090-08W400                :UNIQUE WELL ID
~Parameter Information Block
#MNEM.UNIT       Data                        Description of Mnemonic
#----.----      -------------------------- : -----------------------------
RUN .                   1                 : Run Number
GL  .M           444.4000                 : Ground Level Elevation
DREF.                  KB                 : Depth Reference
EREF.M           444.4000                 : Elevation of Depth Reference
TDL .M           207.0000                 : Total Depth Logger
TDD .M           206.0000                 : Total Depth Driller
CSGL.M            27.0000                 : Casing Bottom Logger
CSGD.M            26.4000                 : Casing Bottom Driller
CSGS.MM          219.0000                 : Casing Size
CSGW.KG/M          0.0000                 : Casing Weight
BS  .MM          159.0000                 : Bit Size
DFD .           9999.0000                 : Mud Weight (Density)
~Curve Information Block
#MNEM.UNIT        API CODE    Curve Description
#---------    ------------    -------------------------------------------
DEPT.M                    :   DEPTH
CALI.MM       42 280  1  1:   3 DENSITY CALIPER
DPHI.V/V                  :   DPHI
DT  .US/M     60 520  0  1:   2 SONIC INTERVAL TRANSIT TIME (COMPENSATED)
GR  .GAPI     42 310  1  1:   4 GAMMA RAY
ILD .OHMM      5 120 46  1:   7 DEEP INDUCTION
ILM .OHMM      5 120 44  1:   8 MEDIUM INDUCTION
NPHI.V/V      42 890  3  1:   5 NEUTRON POROSITY (SANDSTONE)
RHOB.K/M3     42 350  1  1:   6 BULK DENSITY
SFLU.OHMM      5 220  1  1:   9 FOCUSSED RESISTIVITY
SP  .MV        5  10  1  1:   10 SPONTANEOUS POTENTIAL
~A  Depth           CALI        DPHI          DT          GR         ILD         ILM        NPHI        RHOB        SFLU          SP
# ...
149.2000        158.1250      0.1906    413.1200     59.9850     14.1850     13.0686      0.3700   2344.0000     10.5640    106.7550
149.4000        156.8500      0.1830    411.9600     58.9800     14.0550     13.1895      0.3768   2369.0000     10.3712    106.3050
149.6000        155.5750      0.1858    416.0800     55.7850     14.0550     13.4348      0.3812   2351.0000     11.6904    105.7050
149.8000        154.3250      0.2050    416.5600     53.7900     14.1850     13.9389      0.3696   2306.0000     15.9893     96.8550
150.0000        155.5750      0.2049    413.7600     51.6900     14.5824     13.9389      0.3570   2304.0000     17.0541     95.8650
150.2000        154.3250      0.2015    411.1600     52.0800     14.8535     14.0679      0.3326   2342.0000     16.7429     92.1600
150.4000        154.3250      0.1864    410.4800     53.8800     15.2697     14.8672      0.3260   2327.0000     14.9910     90.3150
150.6000        154.3250      0.1899    412.8000     55.5900     15.1297     15.2838      0.3244   2340.0000     16.5894     91.3650
150.8000        155.5750      0.1881    411.8000     57.5850     14.9910     15.1436      0.3352   2353.8999     17.3712     93.6600
151.0000        153.0500      0.1945    404.6000     62.2800     15.4110     14.4621      0.3400   2331.0000     15.2697    102.4050
151.2000        155.5750      0.1957    407.8800     65.2950     15.6975     14.7309      0.3470   2339.0000     13.1774    101.8650
151.4000        155.5750      0.1896    411.1600     68.8950     15.9893     15.2838      0.3572   2362.0000     12.5843    101.8050
151.6000        155.5750      0.1810    419.3600     70.3950     16.4373     16.1521      0.3576   2325.0000     18.1899     98.1150
151.8000        155.5750      0.1846    420.3200     66.6900     16.5894     16.3016      0.3516   2327.0000     20.6933     88.3500
152.0000        155.5750      0.1946    417.8800     62.8800     17.0541     16.6047      0.3518   2337.0000     19.5808     92.2650
152.2000        155.5750      0.1945    422.8000     61.7850     17.5319     17.2278      0.3598   2334.0000     20.5036     95.7600
152.4000        155.5750      0.1935    425.9200     61.6800     17.3712     17.2278      0.3650   2326.0000     21.6686     92.9100
152.6000        154.3250      0.1995    426.0800     61.5900     17.2119     17.2278      0.3590   2313.0000     20.1294     97.3050
152.8000        155.5750      0.1993    422.9600     58.8900     16.7429     17.0699      0.3614   2338.0000     18.6995     94.4100
153.0000        155.5750      0.1936    420.8400     57.3900     15.9893     16.1521      0.3644   2336.0000     22.2756     97.6650
153.2000        158.1250      0.1907    420.3200     56.5800     15.8427     15.2838      0.3662   2340.8999     20.3156     99.7650
153.4000        159.4000      0.1915    424.7600     56.2800     15.4110     15.0048      0.3710   2338.0000     14.5824    102.9600
153.6000        155.5750      0.1946    424.4400     55.4850     14.0550     15.0048      0.3780   2333.0000     14.3163    110.7600
153.8000        155.5750      0.1983    427.5600     55.5900     13.4224     13.8112      0.3894   2332.0000     18.3582    110.0550
154.0000        156.8500      0.2076    431.6400     57.0900     13.2993     12.5959      0.4104   2325.0000     17.2119    110.0100
154.2000        159.4000      0.2226    432.6400     59.5800     13.2993     12.3660      0.4052   2272.8999      9.9044    115.3200
154.4000        158.1250      0.2080    432.6400     58.3800     13.0566     12.7125      0.4002   2295.0000     10.5640    116.5650
154.6000        156.8500      0.1907    431.3200     56.5800     12.9369     12.7125      0.4212   2336.0000     13.9261    113.6100
154.8000        156.8500      0.1875    434.9200     54.1800     13.7984     12.9488      0.4336   2337.0000     15.8427    116.9100
155.0000        156.8500      0.1926    435.9200     53.2800     14.7174     13.4348      0.4254   2325.0000     14.4487    116.6700
155.2000        155.5750      0.1926    432.3200     51.7800     15.5536     14.1981      0.3930   2349.0000     15.1297    114.1050
155.4000        154.3250      0.2001    424.9200     48.1800     17.3712     16.1521      0.3952   2324.0000     17.6942    108.8550
155.6000        153.0500      0.2067    427.8800     46.9800     17.8579     17.8743      0.4004   2298.0000     17.6942    109.1100
155.8000        151.7750      0.2169    439.5200     45.0750     17.6942     19.5988      0.4084   2310.0000     21.8691    106.6050
156.0000        151.7750      0.2287    444.4400     45.2850     17.2119     19.9632      0.4052   2242.0000     37.6556    104.3100
156.2000        153.0500      0.2436    469.3600     48.5850     16.1373     16.4524      0.3968   2223.0000     27.0290     95.3550
156.4000        155.5750      0.2594    481.1600     52.6800     15.4110     15.1436      0.3952   2220.0000     13.6719    101.7600
156.6000        155.5750      0.2764    495.2800     54.2850     14.7174     13.9389      0.3932   2180.0000     11.4770    109.7100
156.8000        155.5750      0.2824    474.8000     53.9850     12.9369     12.9488      0.3926   2205.0000      9.5462    109.3650
157.0000        153.0500      0.2720    452.9600     51.9900     12.5843     12.7125      0.3986   2282.0000     13.4224    106.7100
157.2000        151.7750      0.2270    430.8400     49.2750     12.4690     12.5959      0.4106   2325.0000     18.3582    104.1600
157.4000        153.0500      0.2076    414.9200     47.4750     12.7008     12.5959      0.4096   2317.0000     17.0541     99.0600
157.6000        153.0500      0.2029    412.1200     47.0850     12.7008     12.7125      0.3966   2300.0000     15.1297    100.0050
157.8000        151.7750      0.2113    406.2400     45.7800     12.5843     12.7125      0.3868   2270.0000     13.6719    101.9550
158.0000        149.2500      0.2226    402.9600     46.1850     12.4690     12.2526      0.3940   2268.0000     16.7429    101.1150
158.2000        149.2500      0.2343    407.5200     46.6800     12.7008     11.9187      0.4022   2274.0000     16.5894     98.4150
158.4000        151.7750      0.2281    414.9200     46.7850     12.9369     12.0290      0.4036   2282.0000     12.0179     97.0650
158.6000        153.0500      0.2303    418.6800     44.3850     13.4224     13.5591      0.4002   2250.8999     10.3712    109.2150
158.8000        151.7750      0.2380    420.4800     44.7750     13.5466     14.3295      0.4064   2240.0000     17.8579    104.5650
159.0000        150.5000      0.2392    417.0400     47.3850     13.5466     14.5959      0.4302   2269.0000     26.7812    106.6050
159.2000        153.0500      0.2328    415.7200     53.6850     13.6719     14.4621      0.4154   2272.0000     26.0513    105.4050
159.4000        154.3250      0.2230    410.4800     55.2900     13.4224     13.4348      0.3838   2294.0000     12.9369    110.3550
159.6000        149.2500      0.2095    382.7600     55.4850     13.2993     13.0686      0.3518   2336.0000     14.4487    106.7100
159.8000        153.0500      0.1727    361.1200     54.0900     13.2993     13.0686      0.3532   2412.0000     14.4487    106.7100
160.0000        153.6750      0.1386    352.1200     51.8850     12.4690     12.4804      0.3624   2560.0000     10.5640     97.6650
160.2000        154.3000      0.0967    376.8800     51.6900     12.3546     12.3660      0.3710   2412.0000     10.2761    104.8050
160.4000        154.9250      0.1672    403.1200     51.3900     12.2414     12.3660      0.3812   2329.0000     12.7008    101.6550
160.6000        155.5750      0.1931    405.0800     51.9900     12.3546     12.2526      0.3744   2324.0000     16.1373     97.5600
160.8000        151.7750      0.1969    397.8800     51.8850     12.4690     12.2526      0.3686   2314.0000     14.8535     97.7550
161.0000        150.5000      0.2054    391.6400     52.3800     12.4690     12.3660      0.3614   2311.0000     12.9369    100.6650
161.2000        150.5000      0.2070    394.6000     54.4800     12.4690     12.2526      0.3590   2338.0000     14.5824    101.5650
