~VERSION INFORMATION
 VERS.                 2.0:   CWLS LOG ASCII STANDARD -VERSION 2.0
 WRAP.                  NO:   ONE LINE PER DEPTH STEP
~WELL INFORMATION BLOCK
#MNEM.UNIT           DATA                    DESCRIPTION OF MNEMONIC
#---------    -------------------            -------------------------------
# Generated from Intellog Unique Number	CW_82_90/WELL/3056
WELL.         06-34-085-19W4                 : Well_name    - WELL
LOC .         AA/06-34-085-19W4/0            : Location     - LOCATION
UWI .         AA/06-34-085-19W4/0            : Uwi          - UNIQUE WELL ID
ENTR.         JJ                             : Entered      - ENTERED BY
SRVC.         SCHLUMBERGER                   : Scn          - SERVICE COMPANY
DATE.         22 JAN 81                      : Date         - LOG DATE
STRT.M        200                            : top_depth    - START DEPTH
STOP.M        322                            : bot_depth    - STOP DEPTH
STEP.M        0.25                           : increment    - STEP LENGTH
 NULL. -999.2500:NULL Value
~CURVE INFORMATION BLOCK
#MNEM UNIT       ERCB CURVE CODE    CURVE DESCRIPTION
#-----------   ------------------   ----------------------------------
DEPT.M        00 001 00 00         : DEPTH        - DEPTH
ILD .OHMM     00 120 00 00         : RESD         - DEEP RESISTIVITY (DIL)
CALI.MM       00 280 01 00         : CAL          - CALIPER
GR  .API      00 310 00 00         : GR           - GAMMA RAY
NPHI.V/V      00 330 00 00         : PHIN         - NEUTRON POROSITY (SANDSTONE)
DPHI.V/V      00 890 00 00         : PHID         - DENSITY POROSITY (SANDSTONE)
~PARAMETER INFORMATION
#MNEM.UNIT           DATA             DESCRIPTION OF MNEMONIC
#---------         -----------     ------------------------------
GL  .M        588.9                : gl           - GROUND LEVEL ELEVATION
EREF.M        592                  : kb           - ELEVATION OF DEPTH REFERENCE
DATM.M        592                  : datum        - DATUM ELEVATION
TDD .M        322                  : tdd          - TOTAL DEPTH DRILLER
RUN .         ONE                  : Run          - RUN NUMBER
ENG .         BRANDSTROM           : Engineer     - RECORDING ENGINEER
WIT .         SHALLLCROSS          : Witness      - WITNESSED BY
BASE.         EDM                  : Branch       - HOME BASE OF LOGGING UNIT
MUD .         GEL CHEM             : Mud_type     - MUD TYPE
MATR.         SANDSTONE            : Logunit      - NEUTRON MATRIX
TMAX.C        26                   : BHT          - MAXIMUM RECORDED TEMPERATURE
BHTD.M        323                  : BHTDEP       - MAXIMUM RECORDED TEMPERATURE
RMT .C        13                   : MDTP         - TEMPERATURE OF MUD
MUDD.KG/M     1100                 : MWT          - MUD DENSITY
NEUT.         1                    : NEUTRON      - NEUTRON TYPE
RESI.         0                    : RESIST       - RESISTIVITY TYPE
RM  .OHMM     2.45                 : RM           - RESISTIVITY OF MUD
RMC .OHMM     0                    : RMC          - RESISTIVITY OF MUD CAKE
RMF .OHMM     2.03                 : RMF          - RESISTIVITY OF MUD FILTRATE
SUFT.C        5                    : SUFT         - SURFACE TEMPERATURE
~A  DEPTH     RESD      CAL       GR     PHIN     PHID
  200.000   10.166  227.534   70.081    0.514    0.260
  200.250    9.883  229.240   71.847    0.504    0.245
  200.500    9.554  230.019   72.005    0.503    0.283
  200.750    8.811  228.721   70.357    0.482    0.327
  201.000    7.916  225.983   64.065    0.454    0.342
  201.250    6.901  224.281   64.161    0.463    0.313
  201.500    5.517  223.814   65.993    0.491    0.290
  201.750    4.589  223.558   67.937    0.487    0.267
  202.000    4.693  224.650   72.063    0.479    0.243
  202.250    5.434  225.525   76.251    0.475    0.266
  202.500    6.198  226.705   79.812    0.504    0.288
  202.750    7.382  228.211   70.796    0.527    0.259
  203.000    7.869  228.984   65.676    0.530    0.237
  203.250    7.109  227.997   51.378    0.474    0.283
  203.500    5.652  226.187   50.426    0.463    0.320
  203.750    4.295  224.996   49.890    0.458    0.306
  204.000    3.716  223.304   45.459    0.452    0.284
  204.250    3.917  222.525   45.367    0.459    0.320
  204.500    4.691  222.057   48.747    0.460    0.341
  204.750    6.506  221.688   51.628    0.447    0.341
  205.000    9.439  221.234   49.240    0.463    0.335
  205.250   12.188  221.189   49.892    0.478    0.331
  205.500   14.434  221.226   52.960    0.462    0.340
  205.750   15.531  221.377   60.744    0.461    0.335
  206.000   16.217  221.755   66.913    0.485    0.329
  206.250   16.555  222.309   63.471    0.510    0.316
  206.500   16.648  224.234   63.503    0.518    0.301
  206.750   16.184  225.925   65.701    0.499    0.304
  207.000   15.011  226.392   68.155    0.480    0.297
  207.250   13.062  222.720   68.746    0.517    0.286
  207.500   10.742  220.397   70.694    0.496    0.307
  207.750    8.589  221.284   73.518    0.482    0.306
  208.000    7.130  222.265   72.432    0.487    0.288
  208.250    6.701  223.142   70.537    0.488    0.292
  208.500    6.613  223.404   69.954    0.483    0.306
  208.750    6.526  223.863   74.199    0.487    0.315
  209.000    6.453  224.951   75.103    0.525    0.295
  209.250    6.099  226.239   76.680    0.520    0.287
  209.500    6.191  228.041   80.930    0.503    0.289
  209.750    6.488  228.304   84.430    0.490    0.278
  210.000    6.865  224.839   78.880    0.533    0.260
  210.250    7.428  222.095   70.908    0.509    0.291
  210.500    7.888  221.849   69.886    0.493    0.306
  210.750    7.712  221.900   74.259    0.481    0.290
  211.000    6.774  221.857   74.723    0.495    0.286
  211.250    6.366  221.892   73.454    0.481    0.297
  211.500    6.402  222.365   71.373    0.480    0.299
  211.750    6.722  222.927   69.668    0.493    0.274
  212.000    7.058  223.920   64.119    0.476    0.269
  212.250    7.165  224.486   55.282    0.450    0.271
  212.500    6.849  224.730   51.283    0.409    0.284
  212.750    6.364  225.094   52.118    0.453    0.302
  213.000    6.083  225.457   51.658    0.445    0.320
  213.250    6.293  224.884   49.952    0.426    0.286
  213.500    7.177  222.870   49.550    0.396    0.253
  213.750    8.645  220.758   49.826    0.368    0.198
  214.000   10.670  218.945   50.786    0.333    0.185
  214.250   13.194  217.654   52.743    0.407    0.299
  214.500   14.964  216.988   54.881    0.464    0.330
  214.750   17.261  217.130   56.216    0.488    0.334
  215.000   18.714  218.015   56.618    0.473    0.326
  215.250   19.248  220.448   57.083    0.468    0.315
  215.500   18.747  223.179   59.154    0.488    0.311
  215.750   17.886  225.298   62.223    0.477    0.319
  216.000   16.684  223.692   59.900    0.466    0.303
  216.250   15.887  223.023   57.886    0.469    0.297
  216.500   15.129  222.254   57.732    0.458    0.293
  216.750   14.598  221.988   57.697    0.441    0.288
  217.000   14.218  222.144   58.102    0.408    0.278
  217.250   14.031  222.919   58.688    0.396    0.263
  217.500   14.031  223.697   60.025    0.423    0.287
  217.750   14.136  223.956   60.052    0.447    0.282
  218.000   14.189  223.587   58.227    0.445    0.275
  218.250   14.055  222.509   57.763    0.437    0.278
  218.500   13.767  221.417   58.532    0.434    0.292
  218.750   13.334  220.639   61.480    0.447    0.296
  219.000   12.721  221.423   65.481    0.453    0.291
  219.250   12.228  223.433   65.948    0.468    0.278
  219.500   11.470  225.345   65.228    0.467    0.274
  219.750   10.882  226.744   66.006    0.462    0.275
  220.000   10.304  227.515   67.092    0.474    0.275
  220.250   10.036  228.084   68.734    0.465    0.274
  220.500    9.757  227.620   71.058    0.467    0.270
  220.750    9.629  227.155   66.566    0.486    0.258
  221.000    9.538  227.412   62.438    0.478    0.265
  221.250    9.431  227.571   60.921    0.467    0.271
  221.500    9.360  227.616   60.272    0.457    0.271
  221.750    9.307  227.460   60.173    0.435    0.284
  222.000    9.307  227.006   60.768    0.422    0.280
  222.250    9.341  226.741   61.606    0.420    0.275
  222.500    9.465  226.580   64.548    0.424    0.277
  222.750    9.589  226.321   68.482    0.424    0.277
  223.000    9.863  226.588   68.267    0.436    0.275
  223.250   10.088  227.154   66.006    0.449    0.263
  223.500   10.435  227.407   66.594    0.459    0.256
  223.750   10.356  227.663   68.488    0.456    0.259
  224.000    9.955  227.819   68.885    0.445    0.264
  224.250    9.551  227.870   68.983    0.458    0.260
  224.500    9.095  228.024   68.331    0.473    0.254
  224.750    8.726  228.283   67.430    0.487    0.253
  225.000    8.483  228.748   67.830    0.473    0.250
  225.250    8.309  229.216   70.341    0.441    0.251
  225.500    8.309  230.205   72.852    0.429    0.261
  225.750    8.419  230.349   71.585    0.438    0.266
  226.000    8.725  228.965   71.182    0.444    0.272
  226.250    8.991  228.602   72.638    0.445    0.260
  226.500    9.144  229.080   76.329    0.448    0.247
  226.750    9.075  229.945   81.755    0.440    0.236
  227.000    8.625  231.021   85.752    0.435    0.233
  227.250    8.198  232.323   89.445    0.450    0.230
  227.500    8.136  233.509   90.407    0.465    0.225
  227.750    8.259  234.902   91.181    0.485    0.206
  228.000    8.575  236.808   91.332    0.477    0.214
  228.250    8.495  239.444   89.694    0.489    0.224
  228.500    7.588  242.186   88.976    0.499    0.209
  228.750    6.933  246.161   88.633    0.491    0.190
  229.000    6.383  253.755   88.296    0.473    0.205
  229.250    6.205  242.956   87.584    0.464    0.210
  229.500    6.066  235.264   85.440    0.461    0.205
  229.750    6.055  230.872   81.190    0.457    0.185
  230.000    5.919  227.923   75.517    0.449    0.193
  230.250    5.864  225.282   68.787    0.405    0.214
  230.500    5.809  223.062   59.956    0.380    0.140
  230.750    5.765  224.563   58.063    0.325    0.060
  231.000    5.852  228.226   62.495    0.288    0.042
  231.250    6.076  225.281   68.355    0.289    0.064
  231.500    7.088  221.613   73.779    0.386    0.127
  231.750    8.881  221.144   77.038    0.428    0.184
  232.000   13.556  222.849   77.879    0.450    0.218
  232.250   18.554  226.625   78.091    0.454    0.210
  232.500   20.847  230.290   77.129    0.458    0.172
  232.750   19.703  226.309   76.913    0.465    0.192
  233.000   16.113  223.055   77.998    0.482    0.199
  233.250   12.955  226.723   80.942    0.499    0.192
  233.500   10.515  230.081   83.518    0.511    0.176
  233.750    8.632  227.758   83.919    0.510    0.178
  234.000    7.610  223.993   77.877    0.449    0.193
  234.250    6.609  224.039   72.696    0.433    0.224
  234.500    5.446  224.397   66.957    0.421    0.228
  234.750    4.650  224.553   63.144    0.394    0.196
  235.000    5.284  224.085   64.046    0.376    0.167
  235.250    7.495  224.767   65.747    0.407    0.245
  235.500   10.611  225.020   66.211    0.433    0.275
  235.750   14.633  225.191   66.863    0.441    0.275
  236.000   18.163  225.331   68.265    0.449    0.272
  236.250   19.803  225.901   68.724    0.450    0.280
