~VERSION INFORMATION
 VERS.                 2.0:   CWLS LOG ASCII STANDARD -VERSION 2.0
 WRAP.                  NO:   ONE LINE PER DEPTH STEP
~WELL INFORMATION BLOCK
#MNEM.UNIT           DATA                    DESCRIPTION OF MNEMONIC
#---------    -------------------            -------------------------------
# Generated from Intellog Unique Number	CN_94_101/WELL/1064
WELL.         CHEVRON CANADA RESOURCES       : Well_name    - WELL
LOC .         AA/04-23-094-07W4/0            : Location     - LOCATION
UWI .         AA/04-23-094-07W400            : Uwi          - UNIQUE WELL ID
ENTR.         JOETTE                         : Entered      - ENTERED BY
SRVC.         SCHLUMBERGER                   : Scn          - SERVICE COMPANY
DATE.         04/12/92                       : Date         - LOG DATE
STRT.M        100                            : top_depth    - START DEPTH
STOP.M        270                            : bot_depth    - STOP DEPTH
STEP.M        0.25                           : increment    - STEP LENGTH
 NULL. -999.2500:NULL Value
~CURVE INFORMATION BLOCK
#MNEM UNIT       ERCB CURVE CODE    CURVE DESCRIPTION
#-----------   ------------------   ----------------------------------
DEPT.M        00 001 00 00         : DEPTH        - DEPTH
GR  .API      00 310 00 00         : GR           - GAMMA RAY
ILD .OHMM     00 120 00 00         : RESD         - DEEP RESISTIVITY (DIL)
NPHI.V/V      00 330 00 00         : PHIN         - NEUTRON POROSITY (SANDSTONE)
DPHI.V/V      00 890 00 00         : PHID         - DENSITY POROSITY (SANDSTONE)
~PARAMETER INFORMATION
#MNEM.UNIT           DATA             DESCRIPTION OF MNEMONIC
#---------         -----------     ------------------------------
GL  .M        529.3                : gl           - GROUND LEVEL ELEVATION
EREF.M        529.3                : kb           - ELEVATION OF DEPTH REFERENCE
DATM.M        529.3                : datum        - DATUM ELEVATION
TDD .M        261.6                : tdd          - TOTAL DEPTH DRILLER
RUN .         ONE                  : Run          - RUN NUMBER
ENG .         JO                   : Engineer     - RECORDING ENGINEER
WIT .         TIM                  : Witness      - WITNESSED BY
MUD .         GEL                  : Mud_type     - MUD TYPE
MATR.         SANDSTONE            : Logunit      - NEUTRON MATRIX
TMAX.C        112                  : BHT          - MAXIMUM RECORDED TEMPERATURE
BHTD.M        261.6                : BHTDEP       - MAXIMUM RECORDED TEMPERATURE
RMT .C        10                   : MDTP         - TEMPERATURE OF MUD
MUDD.KG/M     1010                 : MWT          - MUD DENSITY
NEUT.         1                    : NEUTRON      - NEUTRON TYPE
RESI.         0                    : RESIST       - RESISTIVITY TYPE
RM  .OHMM     4.5                  : RM           - RESISTIVITY OF MUD
RMC .OHMM     4                    : RMC          - RESISTIVITY OF MUD CAKE
RMF .OHMM     3.59                 : RMF          - RESISTIVITY OF MUD FILTRATE
SUFT.C        4                    : SUFT         - SURFACE TEMPERATURE
~A  DEPTH       GR     RESD     PHIN     PHID
# ...
  187.000   97.144    6.672    0.560    0.308
  187.250   94.186    6.547    0.580    0.314
  187.500   86.498    6.547    0.557    0.291
  187.750   82.949    7.319    0.530    0.256
  188.000   87.084    8.183    0.494    0.254
  188.250   95.357    6.792    0.499    0.291
  188.500   95.353    5.851    0.567    0.294
  188.750  100.080    5.532    0.586    0.304
  189.000  113.673    5.531    0.605    0.311
  189.250  111.306    5.634    0.673    0.324
  189.500  106.574    6.068    0.685    0.330
  189.750  100.660    6.537    0.628    0.302
  190.000   98.293    7.445    0.526    0.272
  190.250   95.925    7.727    0.498    0.251
  190.500   88.237    7.725    0.486    0.244
  190.750   89.417    7.869    0.480    0.245
  191.000   95.917    8.167    0.486    0.256
  191.250  100.643    8.475    0.501    0.264
  191.500   97.684    8.474    0.507    0.262
  191.750   95.317    7.719    0.495    0.234
  192.000   82.310    7.436    0.443    0.124
  192.250   76.395    9.124    0.386    0.155
  192.500   79.349   16.553    0.394    0.196
  192.750   83.484   13.739    0.447    0.222
  193.000   75.796    8.951    0.455    0.279
  193.250   58.060   11.615    0.437    0.275
  193.500   61.604   15.072    0.412    0.267
  193.750   65.739   13.228    0.395    0.261
  194.000   65.736   13.986    0.414    0.267
  194.250   53.910   22.691    0.305    0.286
  194.500   45.631   64.356    0.270    0.317
  194.750   43.264  143.295    0.264    0.329
  195.000   45.626  280.052    0.293    0.325
  195.250   51.534  219.820    0.339    0.315
  195.500   62.763   65.523    0.353    0.293
  195.750   73.400   58.587    0.346    0.288
  196.000   84.038   48.627    0.340    0.280
  196.250   96.448   36.772    0.348    0.261
  196.500  109.450   26.296    0.365    0.245
  196.750  110.630   22.654    0.395    0.238
  197.000  107.080   18.454    0.412    0.232
  197.250  105.304   18.452    0.425    0.229
  197.500  106.484   19.149    0.438    0.229
  197.750  110.028   18.793    0.451    0.231
  198.000  112.389   17.119    0.461    0.233
  198.250  112.978   15.888    0.465    0.235
  198.500  114.157   15.023    0.456    0.234
  198.750  118.883   14.204    0.442    0.231
  199.000  120.654   13.683    0.460    0.226
  199.250  115.331   13.681    0.499    0.218
  199.500  106.461   13.935    0.531    0.197
  199.750   97.591   15.580    0.537    0.184
  200.000   98.180   15.290    0.507    0.199
  200.250  105.271   15.288    0.471    0.223
  200.500   95.810   16.776    0.430    0.226
  200.750   85.166   19.834    0.431    0.239
  201.000   90.484   20.583    0.390    0.245
  201.250   99.939   20.579    0.371    0.242
  201.500  107.030   19.824    0.382    0.238
  201.750  111.755   18.744    0.409    0.228
  202.000  112.344   18.741    0.431    0.226
  202.250  110.568   19.449    0.422    0.227
  202.500  102.290   20.948    0.395    0.233
  202.750   95.784   22.565    0.395    0.245
  203.000   88.688   23.417    0.430    0.257
  203.250   82.774   24.302    0.431    0.260
  203.500   82.771   27.680    0.422    0.260
  203.750   85.133   29.815    0.427    0.260
  204.000   85.720   26.660    0.433    0.258
  204.250   84.536   29.256    0.430    0.253
  204.500   86.306   29.251    0.412    0.247
  204.750   92.215   25.673    0.394    0.241
  205.000   91.029   23.386    0.400    0.231
  205.250   88.071   23.382    0.416    0.231
  205.500   89.842   22.947    0.422    0.227
  205.750   93.977   22.520    0.416    0.219
  206.000   89.836   22.517    0.418    0.217
  206.250   83.922   24.252    0.427    0.228
  206.500   75.644   26.123    0.437    0.240
  206.750   70.912   29.207    0.449    0.254
  207.000   74.456   38.612    0.428    0.269
  207.250   83.911   29.197    0.399    0.257
  207.500   88.637   22.917    0.395    0.234
  207.750   93.363   21.268    0.380    0.221
  208.000   93.360   20.872    0.369    0.212
  208.250   85.081   24.221    0.389    0.221
  208.500   85.670   25.135    0.395    0.224
  208.750   86.850   23.766    0.375    0.223
  209.000   86.847   23.762    0.373    0.223
  209.250   82.115   24.660    0.381    0.231
  209.500   80.339   26.563    0.398    0.242
  209.750   78.563   29.698    0.403    0.247
  210.000   82.698   33.201    0.392    0.242
  210.250   88.606   26.060    0.377    0.230
  210.500   86.239   23.739    0.366    0.231
  210.750   81.507   25.571    0.355    0.228
  211.000   83.278   24.177    0.365    0.220
  211.250   95.688   25.563    0.390    0.232
  211.500  102.779   21.615    0.405    0.237
  211.750   89.180   20.822    0.421    0.238
  212.000   82.084   24.162    0.433    0.246
  212.250   86.810   30.205    0.415    0.259
  212.500   92.718   27.516    0.385    0.258
  212.750   96.854   27.004    0.382    0.249
  213.000  104.536   25.534    0.381    0.238
  213.250  109.261   24.142    0.403    0.224
  213.500  107.486   18.949    0.421    0.214
  213.750  101.571   20.410    0.416    0.210
  214.000  105.706   21.579    0.400    0.218
  214.250  106.885   19.295    0.385    0.216
  214.500  101.563   18.588    0.398    0.216
  214.750   89.146   18.585    0.420    0.226
  215.000   74.956   22.805    0.446    0.265
  215.250   69.041   29.591    0.439    0.316
  215.500   64.901   37.688    0.408    0.327
  215.750   63.125   44.556    0.397    0.320
  216.000   66.078   51.704    0.398    0.302
  216.250   76.716   29.572    0.403    0.274
  216.500   84.397   22.361    0.408    0.273
  216.750   89.715   26.438    0.398    0.274
  217.000   96.214   24.997    0.388    0.269
  217.250  102.714   24.532    0.379    0.261
  217.500  108.622   21.134    0.385    0.238
  217.750  106.255   19.613    0.416    0.244
  218.000   99.159   20.736    0.454    0.249
  218.250   96.791   20.351    0.448    0.249
  218.500   93.242   18.888    0.437    0.248
  218.750   97.968   20.726    0.412    0.251
  219.000  105.059   19.597    0.425    0.257
  219.250  112.741   19.232    0.442    0.253
  219.500  116.285   18.185    0.421    0.243
  219.750  115.690   16.565    0.418    0.242
  220.000  112.141   15.663    0.466    0.233
  220.250  103.863   16.255    0.483    0.231
  220.500  106.815   18.173    0.470    0.254
  220.750  114.497   19.575    0.442    0.242
  221.000  115.677   16.247    0.443    0.232
  221.250  115.674   15.361    0.442    0.226
  221.500  114.489   15.941    0.440    0.223
  221.750  113.304   16.543    0.424    0.224
  222.000   98.523   17.819    0.427    0.245
  222.250   93.200   19.923    0.436    0.254
  222.500   94.379   22.693    0.441    0.257
  222.750   97.331   16.532    0.439    0.262
  223.000   50.039   17.157    0.429    0.270
  223.250   38.213   26.324    0.411    0.285
  223.500   19.886   41.148    0.358    0.303
  223.750   13.972   50.492    0.341    0.308
  224.000   15.151   58.593    0.327    0.306
  224.250   16.922   66.738    0.320    0.305
  224.500   16.918   80.383    0.318    0.306
  224.750   17.507  128.009    0.321    0.306
  225.000   19.868  130.388    0.317    0.304
  225.250   22.230  290.323    0.308    0.297
  225.500   25.183  254.805    0.285    0.269
  225.750   25.771  211.484    0.270    0.274
  226.000   24.586  390.881    0.290    0.293
  226.250   23.992  546.412    0.322    0.309
  226.500   22.807  658.126    0.332    0.315
  226.750   22.213  778.058    0.323    0.317
  227.000   23.984  682.844    0.327    0.315
  227.250   23.981  777.804    0.318    0.299
  227.500   25.160  657.697    0.305    0.273
  227.750   28.114  669.948    0.293    0.267
  228.000   31.658  954.121    0.302    0.272
  228.250   36.383 1192.790    0.297    0.281
  228.500   35.790 1066.540    0.291    0.287
  228.750   35.786  707.971    0.294    0.282
  229.000   35.784  587.604    0.318    0.289
  229.250   34.008  868.598    0.340    0.306
  229.500   28.094  720.922    0.352    0.323
  229.750   28.091  535.109    0.370    0.328
  230.000   28.679  576.388    0.383    0.333
  230.250   29.858  805.733    0.381    0.333
