~VERSION INFORMATION
 VERS.                 2.0:   CWLS LOG ASCII STANDARD -VERSION 2.0
 WRAP.                  NO:   ONE LINE PER DEPTH STEP
~WELL INFORMATION BLOCK
#MNEM.UNIT           DATA                    DESCRIPTION OF MNEMONIC
#---------    -------------------            -------------------------------
# Generated from Intellog Unique Number	CC_88_90/WELL/3679
WELL.         07-18-089-12W4                 : Well_name    - WELL
LOC .         AA/07-18-089-12W4/0            : Location     - LOCATION
UWI .         AA/07-18-089-12W400            : Uwi          - UNIQUE WELL ID
ENTR.         TIM                            : Entered      - ENTERED BY
SRVC.         SCHLUMBERGER                   : Scn          - SERVICE COMPANY
DATE.         01-04-92                       : Date         - LOG DATE
STRT.F        100                            : top_depth    - START DEPTH
STOP.F        689.731                        : bot_depth    - STOP DEPTH
STEP.F        0.82                           : increment    - STEP LENGTH
 NULL. -999.2500:NULL Value
~CURVE INFORMATION BLOCK
#MNEM UNIT       ERCB CURVE CODE    CURVE DESCRIPTION
#-----------   ------------------   ----------------------------------
DEPT.F        00 001 00 00         : DEPTH        - DEPTH
GR  .API      00 310 00 00         : GR           - GAMMA RAY
NPHI.V/V      00 330 00 00         : PHIN         - NEUTRON POROSITY (SANDSTONE)
ILD .OHMM     00 120 00 00         : RESD         - DEEP RESISTIVITY (DIL)
~PARAMETER INFORMATION
#MNEM.UNIT           DATA             DESCRIPTION OF MNEMONIC
#---------         -----------     ------------------------------
GL  .F        1673                 : gl           - GROUND LEVEL ELEVATION
EREF.F        1673                 : kb           - ELEVATION OF DEPTH REFERENCE
DATM.F        1673                 : datum        - DATUM ELEVATION
TDD .F        691                  : tdd          - TOTAL DEPTH DRILLER
RUN .         ONE                  : Run          - RUN NUMBER
ENG .         BILL                 : Engineer     - RECORDING ENGINEER
WIT .         JIM                  : Witness      - WITNESSED BY
MUD .         GEL                  : Mud_type     - MUD TYPE
MATR.         SANDSTONE            : Logunit      - NEUTRON MATRIX
TMAX.F        44                   : BHT          - MAXIMUM RECORDED TEMPERATURE
BHTD.F        691                  : BHTDEP       - MAXIMUM RECORDED TEMPERATURE
MATR.         1                    : LOGUNIT      - NEUTRON MATRIX
RMT .F        62                   : MDTP         - TEMPERATURE OF MUD
NEUT.         1                    : NEUTRON      - NEUTRON TYPE
RESI.         0                    : RESIST       - RESISTIVITY TYPE
RMC .OHMM     6.1                  : RMC          - RESISTIVITY OF MUD CAKE
RMF .OHMM     8.6                  : RMF          - RESISTIVITY OF MUD FILTRATE
SUFT.F        40                   : SUFT         - SURFACE TEMPERATURE
~A  DEPTH       GR     PHIN     RESD
# ...
  455.971   79.088    0.472   12.540
  456.791   76.017    0.472   14.447
  457.612   75.148    0.476   15.988
  458.432   80.456    0.476   18.629
  459.252   85.323    0.463   19.069
  460.072   81.375    0.447   19.435
  460.892   76.100    0.447   18.699
  461.713   74.353    0.446   17.009
  462.533   74.814    0.435   14.657
  463.353   74.827    0.430   14.583
  464.173   75.284    0.449   14.949
  464.993   75.301    0.467   15.682
  465.814   75.322    0.465   16.635
  466.634   74.015    0.462   17.955
  467.454   70.508    0.455   19.129
  468.274   70.525    0.450   20.302
  469.094   70.982    0.440   20.741
  469.915   70.113    0.428   20.666
  470.735   66.602    0.427   20.297
  471.555   63.544    0.435   20.002
  472.375   62.671    0.437   20.075
  473.196   60.923    0.431   20.294
  474.016   58.294    0.425   20.513
  474.836   59.634    0.435   20.364
  475.656   60.099    0.445   19.555
  476.476   57.911    0.448   17.057
  477.297   56.160    0.445   13.972
  478.117   54.413    0.438   12.355
  478.937   55.752    0.425   11.766
  479.757   60.619    0.377   13.527
  480.577   63.726    0.322   14.700
  481.398   60.215    0.288   17.489
  482.218   57.145    0.330   18.002
  483.038   54.516    0.407   18.808
  483.858   59.383    0.433   19.468
  484.678   66.454    0.431   19.760
  485.499   72.207    0.428   20.052
  486.319   71.783    0.421   19.904
  487.139   70.477    0.417   19.829
  487.959   67.407    0.417   19.608
  488.780   63.018    0.417   19.533
  489.600   59.062    0.422   19.752
  490.420   61.724    0.434   19.824
  491.240   64.831    0.440   18.794
  492.060   64.848    0.438   14.314
  492.881   63.542    0.434   13.064
  493.701   61.353    0.438   11.227
  494.521   60.047    0.447   11.079
  495.341   64.477    0.454   11.298
  496.161   66.698    0.436   11.517
  496.982   68.042    0.404   12.029
  497.802   66.732    0.288   12.836
  498.622   62.339    0.269   13.128
  499.442   54.859    0.362   13.127
  500.262   45.175    0.445   13.125
  501.083   52.246    0.462   12.830
  501.903   63.291    0.460   12.682
  502.723   70.803    0.450   12.387
  503.543   74.352    0.444   12.165
  504.364   73.486    0.450   11.943
  505.184   70.416    0.452   11.795
  506.004   69.992    0.457   11.794
  506.824   74.418    0.462   12.012
  507.644   77.962    0.467   12.085
  508.465   81.510    0.472   12.230
  509.285   81.086    0.473   12.890
  510.105   84.630    0.468   13.549
  510.925   85.528    0.461   13.400
  511.745   82.458    0.452   13.326
  512.566   77.624    0.445   13.325
  513.386   74.558    0.449   13.617
  514.206   74.134    0.443   14.130
  515.026   72.387    0.436   14.936
  515.846   70.640    0.440   15.522
  516.667   66.688    0.442   15.741
  517.487   68.468    0.427   16.253
  518.307   69.807    0.429   16.913
  519.127   72.474    0.434   17.425
  519.948   74.254    0.439   17.571
  520.768   76.920    0.444   17.569
  521.588   78.701    0.447   17.861
  522.408   78.280    0.443   18.008
  523.228   76.978    0.435   18.079
  524.049   76.105    0.435   17.931
  524.869   74.357    0.444   17.489
  525.689   72.610    0.453   16.753
  526.509   72.194    0.451   15.431
  527.329   72.643    0.450   13.447
  528.150   73.546    0.451   13.371
  528.970   75.330    0.452   13.811
  529.790   76.665    0.451   14.397
  530.610   78.446    0.451   14.836
  531.430   80.671    0.452   15.201
  532.251   82.451    0.455   15.127
  533.071   84.232    0.455   13.217
  533.891   85.134    0.458   11.600
  534.711   83.387    0.461   10.424
  535.531   81.199    0.462    9.761
  536.352   81.211    0.468    9.319
  537.172   83.000    0.473    8.951
  537.992   83.457    0.478    8.802
  538.812   84.356    0.475    8.581
  539.633   85.254    0.473   10.782
  540.453   85.712    0.482   10.560
  541.273   86.169    0.479   10.265
  542.093   86.627    0.474    9.970
  542.913   84.879    0.474    9.748
  543.734   83.136    0.477    9.821
  544.554   81.385    0.477    9.966
  545.374   78.315    0.477   10.258
  546.194   81.418    0.484   10.404
  547.014   88.053    0.490   10.696
  547.835   87.629    0.481   12.164
  548.655   87.204    0.478   13.410
  549.475   87.662    0.470   12.822
  550.295   85.478    0.461   11.572
  551.115   83.289    0.459   10.909
  551.936   78.897    0.463   11.716
  552.756   71.858    0.468   12.596
  553.576   89.512    0.472   13.475
  554.396   90.411    0.468   14.208
  555.217   92.199    0.459   13.913
  556.037   91.775    0.457   13.544
  556.857   90.910    0.451   13.543
  557.677   87.398    0.444   14.276
  558.497   84.765    0.443   15.156
  559.318   81.695    0.443   15.668
  560.138   81.271    0.447   13.978
  560.958   85.260    0.448   12.655
  561.778   85.726    0.442   11.993
  562.598   85.293    0.438   11.992
  563.419   83.550    0.447   12.284
  564.239   82.240    0.476   12.944
  565.059   80.055    0.475   15.585
  565.879   83.163    0.462   16.906
  566.699   84.502    0.458   15.215
  567.520   87.601    0.449   14.847
  568.340   89.822    0.443   14.845
  569.160   87.197    0.440   15.285
  569.980   82.800    0.439   15.503
  570.801   83.262    0.436   15.355
  571.621   83.287    0.430   14.399
  572.441   81.972    0.428   13.957
  573.261   78.902    0.437   13.662
  574.081   75.832    0.437   13.588
  574.902   79.376    0.434   13.659
  575.722   79.838    0.438   13.878
  576.542   79.854    0.443   14.097
  577.362   82.516    0.447   14.389
  578.182   83.860    0.448   14.462
  579.003   84.313    0.454   13.139
  579.823   83.448    0.450   11.008
  580.643   80.386    0.448    9.391
  581.463   80.844    0.457    7.848
  582.283   81.301    0.461    7.259
  583.104   79.558    0.465    6.817
  583.924   78.684    0.459    6.522
  584.744   78.260    0.467    6.521
  585.564   79.608    0.478    6.739
  586.385   80.506    0.474    7.032
  587.205   80.082    0.474    7.838
  588.025   79.657    0.472    9.011
  588.845   79.674    0.472   10.846
  589.665   80.127    0.479   11.725
  590.486   81.471    0.486   12.165
  591.306   83.696    0.478   13.411
  592.126   85.913    0.467   13.630
  592.946   89.016    0.466   13.923
  593.766   88.151    0.464   14.729
  594.587   85.971    0.457   18.693
  595.407   83.779    0.451   23.684
  596.227   82.032    0.441   24.050
  597.047   78.084    0.425   20.744
  597.867   75.451    0.402   16.337
  598.688   72.380    0.397    6.130
  599.508   68.428    0.467    6.716
  600.328   64.477    0.503    7.595
  601.148   64.501    0.519    8.842
  601.969   64.518    0.513    9.942
  602.789   65.861    0.514   11.042
  603.609   66.756    0.507   11.775
  604.429   65.886    0.490   11.554
  605.249   63.257    0.471   10.818
  606.070   59.309    0.455    9.642
  606.890   55.802    0.447    8.025
  607.710   54.492    0.443    7.509
  608.530   58.036    0.446    7.508
  609.350   61.580    0.450    7.580
  610.171   66.447    0.456    7.431
  610.991   73.082    0.466    7.357
  611.811   77.949    0.476    7.355
  612.631   81.934    0.489    7.354
  613.451   81.510    0.497    7.353
  614.272   80.648    0.484    7.571
  615.092   80.224    0.487    8.378
  615.912   80.686    0.491    7.862
  616.732   81.584    0.486    7.421
  617.552   81.600    0.496    7.125
  618.373   81.176    0.483    7.271
  619.193   80.752    0.464    7.637
  620.013   81.213    0.459    8.663
  620.833   82.116    0.475   10.057
  621.654   83.006    0.484   14.021
  622.474   84.786    0.479   14.827
  623.294   87.457    0.470   14.605
  624.114   86.150    0.465   13.943
  624.934   83.076    0.459   12.620
  625.755   79.565    0.447   11.957
  626.575   73.850    0.443   12.617
  627.395   69.897    0.435   13.424
  628.215   67.268    0.422   14.156
  629.035   64.639    0.403   13.494
  629.856   56.719    0.348   10.996
  630.676   48.357    0.164   13.785
  631.496   41.760    0.045   15.106
  632.316   35.603    0.017   37.867
  633.136   37.388    0.010   39.995
