~VERSION INFORMATION
 VERS.                 2.0:   CWLS LOG ASCII STANDARD -VERSION 2.0
 WRAP.                  NO:   ONE LINE PER DEPTH STEP
~WELL INFORMATION BLOCK
#MNEM.UNIT           DATA                    DESCRIPTION OF MNEMONIC
#---------    -------------------            -------------------------------
# Generated from Intellog Unique Number	CX_WELLS/WELL/3969
WELL.         CANSTAR                        : Well_name    - WELL
LOC .         AA/07-24-098-12W4/0            : Location     - LOCATION
UWI .         AA/07-24-098-12W400            : Uwi          - UNIQUE WELL ID
ENTR.         T                              : Entered      - ENTERED BY
SRVC.         SCHLUMBERGER                   : Scn          - SERVICE COMPANY
STRT.F        0                              : top_depth    - START DEPTH
STOP.F        419.948                        : bot_depth    - STOP DEPTH
STEP.F        0.82021                        : increment    - STEP LENGTH
 NULL. -999.2500:NULL Value
~CURVE INFORMATION BLOCK
#MNEM UNIT       ERCB CURVE CODE    CURVE DESCRIPTION
#-----------   ------------------   ----------------------------------
DEPT.F        00 001 00 00         : DEPTH        - DEPTH
GR  .API      00 310 00 00         : GR           - GAMMA RAY
NPHI.V/V      00 330 00 00         : PHIN         - NEUTRON POROSITY (SANDSTONE)
DPHI.V/V      00 890 00 00         : PHID         - DENSITY POROSITY (SANDSTONE)
ILD .OHMM     00 120 00 00         : RESD         - DEEP RESISTIVITY (DIL)
~PARAMETER INFORMATION
#MNEM.UNIT           DATA             DESCRIPTION OF MNEMONIC
#---------         -----------     ------------------------------
GL  .F        1163.7               : gl           - GROUND LEVEL ELEVATION
EREF.F        1163.7               : kb           - ELEVATION OF DEPTH REFERENCE
DATM.F        1163.7               : datum        - DATUM ELEVATION
TDD .F        426                  : tdd          - TOTAL DEPTH DRILLER
RUN .         ONE                  : Run          - RUN NUMBER
ENG .         BILL                 : Engineer     - RECORDING ENGINEER
WIT .         JIM                  : Witness      - WITNESSED BY
MUD .         GEL                  : Mud_type     - MUD TYPE
MATR.         SANDSTONE            : Logunit      - NEUTRON MATRIX
TMAX.F        66.2                 : BHT          - MAXIMUM RECORDED TEMPERATURE
BHTD.F        426                  : BHTDEP       - MAXIMUM RECORDED TEMPERATURE
MATR.         1                    : LOGUNIT      - NEUTRON MATRIX
RMT .F        62.6                 : MDTP         - TEMPERATURE OF MUD
NEUT.         1                    : NEUTRON      - NEUTRON TYPE
RESI.         4                    : RESIST       - RESISTIVITY TYPE
RMC .OHMM     6.36                 : RMC          - RESISTIVITY OF MUD CAKE
RMF .OHMM     6.36                 : RMF          - RESISTIVITY OF MUD FILTRATE
SUFT.F        39.2                 : SUFT         - SURFACE TEMPERATURE
~A  DEPTH       GR     PHIN     PHID     RESD
# ...
  285.433   64.812    0.364    0.308   55.698
  286.253   59.105    0.367    0.321   65.536
  287.073   69.515    0.371    0.321   81.944
  287.894   66.931    0.371    0.318  100.420
  288.714   63.300    0.371    0.311  111.189
  289.534   58.114    0.372    0.300  102.575
  290.354   60.205    0.373    0.281   89.072
  291.175   66.456    0.373    0.246   80.524
  291.995   77.909    0.371    0.237   67.137
  292.815   81.037    0.371    0.197   49.568
  293.635   88.328    0.375    0.143   29.285
  294.455   94.062    0.379    0.130   23.930
  295.276   74.315    0.374    0.207   27.588
  296.096   68.608    0.371    0.243   38.961
  296.916   68.620    0.370    0.253   41.420
  297.736   73.311    0.368    0.259   44.040
  298.556   74.883    0.367    0.281   48.777
  299.377   76.975    0.365    0.295   51.848
  300.197   81.149    0.366    0.264   58.583
  301.017   85.323    0.366    0.271   73.251
  301.837   87.932    0.366    0.286   74.792
  302.657   92.103    0.366    0.258   69.008
  303.478  102.513    0.371    0.243   59.915
  304.298   99.926    0.380    0.236   41.627
  305.118   96.299    0.386    0.220   30.734
  305.938   91.112    0.388    0.229   29.534
  306.759   84.365    0.387    0.249   30.768
  307.579   79.178    0.385    0.253   34.765
  308.399   76.077    0.383    0.255   39.281
  309.219   75.564    0.381    0.262   46.219
  310.039   73.496    0.380    0.268   56.648
  310.860   69.349    0.380    0.274   60.240
  311.680   66.248    0.379    0.279   60.257
  312.500   66.254    0.374    0.283   56.735
  313.320   65.232    0.372    0.294   57.936
  314.140   64.721    0.371    0.307   60.366
  314.961   64.214    0.371    0.309   60.399
  315.781   63.703    0.371    0.303   59.212
  316.601   63.195    0.369    0.288   58.057
  317.421   64.247    0.368    0.279   58.089
  318.241   66.339    0.370    0.270   59.311
  319.062   64.794    0.372    0.263   63.072
  319.882   62.207    0.375    0.267   64.399
  320.702   61.696    0.373    0.274   65.753
  321.522   61.708    0.371    0.282   71.344
  322.343   62.243    0.367    0.287   77.400
  323.163   62.775    0.367    0.292   82.296
  323.983   62.787    0.368    0.285   68.615
  324.803   60.720    0.368    0.289   67.276
  325.623   48.254    0.367    0.310   67.314
  326.444   44.107    0.366    0.318   82.479
  327.264   41.003    0.365    0.321  142.622
  328.084   41.015    0.365    0.311  209.744
  328.904   52.465    0.366    0.286  139.917
  329.724   63.915    0.368    0.284  123.968
  330.545   69.123    0.369    0.287   93.401
  331.365   67.055    0.369    0.292   82.777
  332.185   62.908    0.368    0.295   86.237
  333.005   60.321    0.367    0.300   91.680
  333.825   61.373    0.366    0.311  101.511
  334.646   59.305    0.366    0.319  114.698
  335.466   55.161    0.366    0.330  146.392
  336.286   53.094    0.366    0.322  172.274
  337.106   49.984    0.367    0.311  186.896
  337.927   47.916    0.371    0.309  194.706
  338.747   47.928    0.369    0.306  202.872
  339.567   52.099    0.364    0.300  162.428
  340.387   55.751    0.361    0.294  122.378
  341.207   53.163    0.360    0.300  122.446
  342.028   49.536    0.364    0.305  135.595
  342.848   45.909    0.364    0.307  156.324
  343.668   41.762    0.363    0.309  203.548
  344.488   33.976    0.364    0.309  259.722
  345.308   31.909    0.368    0.304  299.509
  346.129   28.804    0.368    0.298  270.764
  346.949   26.734    0.364    0.306  180.647
  347.769   27.266    0.361    0.318  144.634
  348.589   36.119    0.365    0.326  120.590
  349.409   41.330    0.368    0.323  106.845
  350.230   40.822    0.372    0.322  100.599
  351.050   40.834    0.372    0.317   90.969
  351.870   46.048    0.367    0.308   87.393
  352.690   50.217    0.364    0.307   83.969
  353.510   50.748    0.368    0.310   91.108
  354.331   38.286    0.370    0.311  107.201
  355.151   28.937    0.365    0.310  139.585
  355.971   24.270    0.361    0.307  174.535
  356.791   20.643    0.356    0.305  218.234
  357.612   20.139    0.353    0.305  256.817
  358.432   20.148    0.352    0.306  256.960
  359.252   20.160    0.352    0.305  246.857
  360.072   22.252    0.357    0.296  145.843
  360.892   37.860    0.368    0.237   67.566
  361.713   53.469    0.379    0.216   25.048
  362.533  103.396    0.386    0.218   18.493
  363.353   99.766    0.392    0.220   16.720
  364.173   96.659    0.394    0.215   15.743
  364.993  103.950    0.395    0.208   14.823
  365.814  109.164    0.396    0.198   13.958
  366.634  113.332    0.399    0.193   12.620
  367.454  117.503    0.401    0.194   11.883
  368.274  115.436    0.402    0.194   11.417
  369.094  113.368    0.401    0.196   11.422
  369.915  112.863    0.397    0.197   11.428
  370.735  113.921    0.396    0.197   11.436
  371.555  114.447    0.398    0.197   11.442
  372.375  117.062    0.399    0.197   11.681
  373.196  119.150    0.399    0.197   12.173
  374.016  121.245    0.399    0.199   12.941
  374.836  118.655    0.399    0.203   14.624
  375.656   99.431    0.400    0.209   16.191
  376.476   78.648    0.399    0.233   20.244
  377.297   68.779    0.388    0.308   32.281
  378.117   56.833    0.375    0.320   56.962
  378.937   33.970    0.369    0.325   94.599
  379.757   22.028    0.364    0.325  111.340
  380.577   24.640    0.366    0.323  111.371
  381.398   26.211    0.367    0.319  113.713
  382.218   25.184    0.370    0.312  113.776
  383.038   27.272    0.368    0.307  107.140
  383.858   30.927    0.369    0.298   96.858
  384.678   34.578    0.372    0.305   77.549
  385.499   36.147    0.375    0.310   64.675
  386.319   32.520    0.371    0.309   66.035
  387.139   29.413    0.366    0.309   66.054
  387.959   28.905    0.368    0.308   67.443
  388.780   40.360    0.368    0.304   63.501
  389.600   44.009    0.369    0.294   51.882
  390.420   49.220    0.371    0.274   38.305
  391.240   55.990    0.377    0.266   22.628
  392.060   60.681    0.379    0.267   15.097
  392.881   58.614    0.375    0.276   12.587
  393.701   49.788    0.367    0.291   10.496
  394.521   45.121    0.370    0.299    9.298
  395.341   51.372    0.376    0.298    8.074
  396.161   48.785    0.376    0.295    7.450
  396.982   38.399    0.362    0.297    7.158
  397.802   32.692    0.356    0.297    7.308
  398.622   28.545    0.354    0.297    7.312
  399.442   26.998    0.346    0.139    7.934
  400.262   30.649    0.341    0.093    8.100
  401.083   42.618    0.326    0.087    7.942
  401.903   62.909    0.313    0.087    7.328
  402.723   80.598    0.317    0.088   12.932
  403.543   79.050    0.326    0.088   16.170
  404.364   78.542    0.332    0.087   16.510
  405.184   81.154    0.335    0.087   17.207
  406.004   82.726    0.334    0.092   17.565
  406.824   81.178    0.328    0.097   18.676
  407.644   80.150    0.267    0.104   21.537
  408.465   78.603    0.206    0.105   24.829
  409.285   65.618    0.230    0.107   30.423
  410.105   56.792    0.247    0.107   29.829
  410.925   58.883    0.319    0.103   25.380
  411.745   70.853    0.351    0.096   21.163
  412.566   85.422    0.354    0.086   19.524
  413.386   97.920    0.356    0.089   17.652
  414.206   98.446    0.356    0.091   16.623
  415.026  100.538    0.355    0.091   16.296
  415.846  103.149    0.353    0.087   15.983
  416.667  107.321    0.349    0.086   15.671
  417.487  109.412    0.338    0.083   15.363
  418.307  109.947    0.325    0.083   15.061
  419.127  110.479    0.303    0.083   14.769
  419.948  111.011    0.277    0.084   14.479
