~VERSION INFORMATION
 VERS.                 2.0:   CWLS LOG ASCII STANDARD -VERSION 2.0
 WRAP.                  NO:   ONE LINE PER DEPTH STEP
~WELL INFORMATION BLOCK
#MNEM.UNIT           DATA                    DESCRIPTION OF MNEMONIC
#---------    -------------------            -------------------------------
# Generated from Intellog Unique Number	CS_77_79/WELL/925
WELL.         PEX PCEJ ALGAR OV              : Well_name    - WELL
LOC .         AA/09-11-079-15W4/0            : Location     - LOCATION
UWI .         AA/09-11-079-15W4/0            : Uwi          - UNIQUE WELL ID
ENTR.         JHS                            : Entered      - ENTERED BY
SRVC.         SCHLUMBERGER                   : Scn          - SERVICE COMPANY
STRT.M        225                            : top_depth    - START DEPTH
STOP.M        455                            : bot_depth    - STOP DEPTH
STEP.M        0.25                           : increment    - STEP LENGTH
 NULL. -999.2500:NULL Value
~CURVE INFORMATION BLOCK
#MNEM UNIT       ERCB CURVE CODE    CURVE DESCRIPTION
#-----------   ------------------   ----------------------------------
DEPT.M        00 001 00 00         : DEPTH        - DEPTH
DPHI.V/V      00 890 00 00         : PHID         - DENSITY POROSITY (LIMESTONE)
NPHI.V/V      00 330 00 00         : PHIN         - NEUTRON POROSITY (LIMESTONE)
GR  .API      00 310 00 00         : GR           - GAMMA RAY
ILD .OHMM     00 120 00 00         : RESD         - DEEP RESISTIVITY (DIL)
RHOB.KG/M3    00 350 00 00         : DENS         - BULK DENSITY
~PARAMETER INFORMATION
#MNEM.UNIT           DATA             DESCRIPTION OF MNEMONIC
#---------         -----------     ------------------------------
GL  .M        633.71               : gl           - GROUND LEVEL ELEVATION
EREF.M        637.08               : kb           - ELEVATION OF DEPTH REFERENCE
DATM.M        637.08               : datum        - DATUM ELEVATION
TDD .M        454                  : tdd          - TOTAL DEPTH DRILLER
RUN .         ONE                  : Run          - RUN NUMBER
ENG .         BILL                 : Engineer     - RECORDING ENGINEER
WIT .         JIM                  : Witness      - WITNESSED BY
MUD .         GEL                  : Mud_type     - MUD TYPE
MATR.         LIMESTONE            : Logunit      - NEUTRON MATRIX
TMAX.C        20                   : BHT          - MAXIMUM RECORDED TEMPERATURE
BHTD.M        454                  : BHTDEP       - MAXIMUM RECORDED TEMPERATURE
MATR.         1                    : LOGUNIT      - NEUTRON MATRIX
RMT .C        25                   : MDTP         - TEMPERATURE OF MUD
NEUT.         1                    : NEUTRON      - NEUTRON TYPE
RESI.         0                    : RESIST       - RESISTIVITY TYPE
RMC .OHMM     0.25                 : RMC          - RESISTIVITY OF MUD CAKE
RMF .OHMM     0.25                 : RMF          - RESISTIVITY OF MUD FILTRATE
SUFT.C        15                   : SUFT         - SURFACE TEMPERATURE
~A  DEPTH     PHID     PHIN       GR     RESD     DENS
# ...
  261.500    0.123    0.473  112.964    4.966    0.000
  261.750    0.128    0.476  118.581    4.521    0.000
  262.000    0.175    0.496  123.576    4.355    0.000
  262.250    0.225    0.493  119.232    4.195    0.000
  262.500    0.239    0.480  127.338    4.613    0.000
  262.750    0.247    0.473  131.087    5.167    0.000
  263.000    0.245    0.456  134.836    6.483    0.000
  263.250    0.239    0.425  125.518    7.832    0.000
  263.500    0.239    0.407  119.930   10.015    0.000
  263.750    0.231    0.407  114.342   11.651    0.000
  264.000    0.227    0.423  105.024   12.570    0.000
  264.250    0.241    0.416  105.040   12.339    0.000
  264.500    0.232    0.404  108.163   11.665    0.000
  264.750    0.232    0.408  101.334   10.820    0.000
  265.000    0.241    0.431   95.125   10.037    0.000
  265.250    0.252    0.424  107.586    8.967    0.000
  265.500    0.219    0.419  110.091    8.318    0.000
  265.750    0.193    0.438  109.484    8.480    0.000
  266.000    0.170    0.427  115.724    8.808    0.000
  266.250    0.185    0.425  118.227   10.443    0.000
  266.500    0.216    0.436  126.332   11.700    0.000
  266.750    0.237    0.448  106.431   12.622    0.000
  267.000    0.253    0.444   99.601   13.364    0.000
  267.250    0.258    0.436  101.486   13.621    0.000
  267.500    0.242    0.434   99.629   13.888    0.000
  267.750    0.246    0.438   99.648   13.634    0.000
  268.000    0.254    0.441   97.169   13.133    0.000
  268.250    0.249    0.426   95.319   12.891    0.000
  268.500    0.243    0.406   97.200   12.420    0.000
  268.750    0.255    0.413  109.664   12.424    0.000
  269.000    0.266    0.402  119.637   12.428    0.000
  269.250    0.250    0.384  120.272   12.432    0.000
  269.500    0.248    0.379  112.196   12.676    0.000
  269.750    0.250    0.387  105.367   12.442    0.000
  270.000    0.228    0.385  107.871   11.987    0.000
  270.250    0.206    0.398  103.528   11.766    0.000
  270.500    0.208    0.398   94.831   11.336    0.000
  270.750    0.222    0.406   92.977   11.126    0.000
  271.000    0.209    0.413   91.126   10.720    0.000
  271.250    0.214    0.392   91.764   10.522    0.000
  271.500    0.235    0.387   94.266   10.330    0.000
  271.750    0.249    0.411   86.192   10.140    0.000
  272.000    0.256    0.412   91.185    9.954    0.000
  272.250    0.241    0.427   93.690    9.959    0.000
  272.500    0.247    0.422   88.727    9.962    0.000
  272.750    0.256    0.409   83.760    9.966    0.000
  273.000    0.260    0.404   85.020   10.161    0.000
  273.250    0.246    0.392   83.791   10.357    0.000
  273.500    0.250    0.395   79.448   10.560    0.000
  273.750    0.246    0.394   86.933   10.763    0.000
  274.000    0.258    0.386   86.948   10.975    0.000
  274.250    0.266    0.382   70.782   10.771    0.000
  274.500    0.269    0.394   68.928   10.378    0.000
  274.750    0.240    0.393   69.566   10.187    0.000
  275.000    0.210    0.393   75.805   10.190    0.000
  275.250    0.213    0.419   81.419   10.193    0.000
  275.500    0.243    0.425   82.683   10.393    0.000
  275.750    0.277    0.406   80.205   10.797    0.000
  276.000    0.253    0.400   82.088   11.216    0.000
  276.250    0.237    0.409   81.481   11.872    0.000
  276.500    0.246    0.426   71.537   13.302    0.000
  276.750    0.278    0.407   65.949   14.902    0.000
  277.000    0.300    0.409   58.498   17.336    0.000
  277.250    0.310    0.426   51.665   22.588    0.000
  277.500    0.332    0.448   53.551   26.781    0.000
  277.750    0.327    0.457   52.322   30.006    0.000
  278.000    0.321    0.442   51.088   30.585    0.000
  278.250    0.318    0.436   52.971   27.841    0.000
  278.500    0.320    0.425   56.096   22.209    0.000
  278.750    0.310    0.411   61.712   16.739    0.000
  279.000    0.290    0.410   70.442   11.699    0.000
  279.250    0.261    0.421   81.658   10.255    0.000
  279.500    0.252    0.419   91.632    9.513    0.000
  279.750    0.260    0.406   76.710    9.883    0.000
  280.000    0.275    0.397   73.612   11.283    0.000
  280.250    0.290    0.405   70.517   13.378    0.000
  280.500    0.287    0.381   64.308   14.431    0.000
  280.750    0.274    0.371   57.477   15.866    0.000
  281.000    0.243    0.369   64.960   14.997    0.000
  281.250    0.232    0.381   75.554   12.191    0.000
  281.500    0.264    0.413   83.660   10.889    0.000
  281.750    0.271    0.420   83.057    9.192    0.000
  282.000    0.254    0.430   91.784    8.367    0.000
  282.250    0.235    0.438   98.644    7.474    0.000
  282.500    0.246    0.448  101.146    7.338    0.000
  282.750    0.249    0.443   93.695    7.768    0.000
  283.000    0.235    0.430   86.865    8.380    0.000
  283.250    0.251    0.415   79.409   10.125    0.000
  283.500    0.282    0.405   69.465   12.003    0.000
  283.750    0.308    0.398   56.409   15.060    0.000
  284.000    0.318    0.414   45.844   17.854    0.000
  284.250    0.331    0.428   47.730   20.773    0.000
  284.500    0.344    0.430   52.097   21.991    0.000
  284.750    0.341    0.450   49.001   23.726    0.000
  285.000    0.350    0.473   49.639   24.186    0.000
  285.250    0.355    0.443   52.768   24.197    0.000
  285.500    0.356    0.416   47.181   24.670    0.000
  285.750    0.355    0.413   45.948   25.146    0.000
  286.000    0.340    0.426   45.342   25.633    0.000
  286.250    0.329    0.437   46.601   28.182    0.000
  286.500    0.325    0.436   46.615   31.570    0.000
  286.750    0.335    0.433   49.743   36.043    0.000
  287.000    0.335    0.435   43.535   39.624    0.000
  287.250    0.343    0.426   50.396   45.241    0.000
  287.500    0.348    0.436   54.144   48.806    0.000
  287.750    0.331    0.425   55.405   48.825    0.000
  288.000    0.322    0.435   50.440   47.035    0.000
  288.250    0.334    0.427   54.191   42.013    0.000
  288.500    0.339    0.423   53.580   36.828    0.000
  288.750    0.339    0.417   49.241   31.678    0.000
  289.000    0.350    0.417   51.125   25.271    0.000
  289.250    0.354    0.422   48.649   23.884    0.000
  289.500    0.353    0.413   46.172   20.547    0.000
  289.750    0.353    0.433   46.188   18.704    0.000
  290.000    0.339    0.426   47.446   18.017    0.000
  290.250    0.342    0.405   53.065   17.356    0.000
  290.500    0.340    0.402   54.949   17.039    0.000
  290.750    0.343    0.408   52.472   17.044    0.000
  291.000    0.335    0.406   53.108   16.734    0.000
  291.250    0.337    0.401   56.861   16.738    0.000
  291.500    0.334    0.408   55.008   16.126    0.000
  291.750    0.323    0.408   48.797   15.828    0.000
  292.000    0.327    0.399   48.190   15.248    0.000
  292.250    0.340    0.414   50.074   14.970    0.000
  292.500    0.351    0.423   48.843   15.553    0.000
  292.750    0.348    0.402   48.855   15.853    0.000
  293.000    0.297    0.382   50.737   16.782    0.000
  293.250    0.250    0.372   43.284   17.767    0.000
  293.500    0.268    0.415   50.152   18.811    0.000
  293.750    0.304    0.421   48.300   18.465    0.000
  294.000    0.267    0.431   47.063   17.455    0.000
  294.250    0.287    0.435   51.438   16.501    0.000
  294.500    0.308    0.426   55.189   15.597    0.000
  294.750    0.305    0.416   55.821   15.025    0.000
  295.000    0.330    0.407   54.593   14.205    0.000
  295.250    0.326    0.419   47.138   13.944    0.000
  295.500    0.321    0.435   45.908   13.688    0.000
  295.750    0.339    0.442   39.077   13.695    0.000
  296.000    0.337    0.441   42.825   13.700    0.000
  296.250    0.319    0.425   49.065   13.703    0.000
  296.500    0.309    0.411   49.704   13.972    0.000
  296.750    0.299    0.429   43.492   13.975    0.000
  297.000    0.317    0.430   48.488   13.979    0.000
  297.250    0.326    0.435   50.373   13.987    0.000
  297.500    0.340    0.433   46.649   13.730    0.000
  297.750    0.326    0.447   39.195   13.735    0.000
