~VERSION INFORMATION
 VERS.                 2.0:   CWLS LOG ASCII STANDARD -VERSION 2.0
 WRAP.                  NO:   ONE LINE PER DEPTH STEP
~WELL INFORMATION BLOCK
#MNEM.UNIT           DATA                    DESCRIPTION OF MNEMONIC
#---------    -------------------            -------------------------------
# Generated from Intellog Unique Number	CC_84_87/WELL/1059
NULL.         -999.25                        : NULL_VALUE
WELL.         PCI PCEJ HANGST OV             : Well_name    - WELL              
LOC .         05-13-084-11W4                 : Location     - LOCATION          
UWI .         AA/05-13-084-11W400            : Uwi          - UNIQUE WELL ID    
ENTR.         DW                             : Entered      - ENTERED BY        
SRVC.         SCHLUMBERGER                   : Scn          - SERVICE COMPANY   
DATE.         30 JAN 84                      : Date         - LOG DATE
STRT.M        135                            : top_depth    - START DEPTH       
STOP.M        379.796                        : bot_depth    - STOP DEPTH        
STEP.M        0.3                            : increment    - STEP LENGTH       
~CURVE INFORMATION BLOCK
#MNEM UNIT       ERCB CURVE CODE    CURVE DESCRIPTION
#-----------   ------------------   ----------------------------------
DEPT.M        00 001 00 00         : DEPTH        - DEPTH                       
DPHI.V/V      00 890 00 00         : PHID         - DENSITY POROSITY (LIMESTONE)
NPHI.V/V      00 330 00 00         : PHIN         - NEUTRON POROSITY (LIMESTONE)
GR  .API      00 310 00 00         : GR           - GAMMA RAY                   
ILD .OHMM     00 120 00 00         : RESD         - DEEP RESISTIVITY (DIL)      
~PARAMETER INFORMATION       
#MNEM.UNIT           DATA             DESCRIPTION OF MNEMONIC
#---------         -----------     ------------------------------
GL  .M        615.3                : gl           - GROUND LEVEL ELEVATION      
EREF.M        618.5                : kb           - ELEVATION OF DEPTH REFERENCE
DATM.M        618.5                : datum        - DATUM ELEVATION             
TDD .M        388                  : tdd          - TOTAL DEPTH DRILLER         
RUN .         ONE                  : Run          - RUN NUMBER                  
ENG .         BILL                 : Engineer     - RECORDING ENGINEER          
WIT .         JIM                  : Witness      - WITNESSED BY                
MUD .         GEL                  : Mud_type     - MUD TYPE                    
MATR.         LIMESTONE            : Logunit      - NEUTRON MATRIX              
TMAX.C        19.4                 : BHT          - MAXIMUM RECORDED TEMPERATURE
BHTD.M        388                  : BHTDEP       - MAXIMUM RECORDED TEMPERATURE
MATR.         1                    : LOGUNIT      - NEUTRON MATRIX              
RMT .C        25                   : MDTP         - TEMPERATURE OF MUD          
NEUT.         1                    : NEUTRON      - NEUTRON TYPE                
RESI.         0                    : RESIST       - RESISTIVITY TYPE            
RMC .OHMM     0.25                 : RMC          - RESISTIVITY OF MUD CAKE     
RMF .OHMM     0.25                 : RMF          - RESISTIVITY OF MUD FILTRATE 
SUFT.C        4                    : SUFT         - SURFACE TEMPERATURE         
~A  DEPTH     PHID     PHIN       GR     RESD
# ...
  239.401    0.285    0.414   80.331    7.068
  239.701    0.291    0.522   78.489    6.557
  240.001    0.269    0.459   84.530    6.083
  240.301    0.252    0.455   84.507    5.859
  240.601    0.246    0.484   97.217    5.858
  240.901    0.247    0.516   95.374    6.196
  241.201    0.285    0.524   85.043    7.332
  241.501    0.308    0.488   81.380    8.515
  241.801    0.309    0.395   78.322    9.526
  242.101    0.335    0.397   75.876    9.705
  242.401    0.344    0.411   74.027    7.466
  242.701    0.285    0.460   73.401    5.134
  243.001    0.178    0.475   75.802    4.024
  243.301    0.193    0.504   84.272    3.529
  243.601    0.268    0.507   95.159    3.463
  243.901    0.280    0.515   98.171    3.463
  244.201    0.282    0.523   99.966    3.273
  244.501    0.274    0.484   95.694    3.037
  244.801    0.269    0.487   98.707    2.980
  245.101    0.283    0.530  106.567    2.980
  245.401    0.298    0.567   96.837    3.211
  245.701    0.288    0.582   89.538    3.460
  246.001    0.285    0.596   80.417    3.871
  246.301    0.307    0.445   76.759    4.667
  246.601    0.301    0.435   76.127    6.065
  246.901    0.235    0.454   82.167    6.296
  247.201    0.238    0.469   86.996    5.951
  247.501    0.270    0.492   80.906    5.731
  247.801    0.314    0.516   76.641    5.949
  248.101    0.285    0.467   76.011    8.026
  248.401    0.295    0.344   80.838    8.488
  248.701    0.330    0.350   80.814    8.811
  249.001    0.349    0.361   68.057   10.624
  249.301    0.355    0.366   55.904   14.603
  249.601    0.256    0.354   52.242   51.184
  249.901    0.068    0.151   44.943   69.049
  250.201    0.094    0.169   46.128   70.344
  250.501    0.224    0.232   52.172   55.141
  250.801    0.261    0.250   58.818   42.420
  251.101    0.370    0.275   61.825   38.625
  251.401    0.418    0.279   61.802   36.509
  251.701    0.408    0.287   59.959   34.512
  252.001    0.412    0.297   60.540   31.424
  252.301    0.401    0.314   62.340   28.081
  252.601    0.379    0.336   63.529   25.569
  252.901    0.369    0.359   61.079   23.280
  253.201    0.259    0.369   48.321   22.422
  253.501    0.043    0.144   40.413   21.194
  253.801    0.106    0.221   40.995   18.244
  254.101    0.170    0.255   50.676   14.571
  254.401    0.282    0.346   59.140   11.858
  254.701    0.301    0.423   56.694   10.796
  255.001    0.311    0.451   59.698   10.015
  255.301    0.323    0.434   63.314   10.014
  255.601    0.313    0.424   61.471   10.203
  255.901    0.313    0.421   60.836   10.393
  256.201    0.321    0.427   61.422   10.393
  256.501    0.316    0.438   62.612   10.787
  256.801    0.313    0.459   60.769   10.586
  257.101    0.311    0.475   58.929   10.006
  257.401    0.332    0.469   56.481   10.005
  257.701    0.331    0.434   52.816   10.004
  258.001    0.321    0.409   54.614   10.191
  258.301    0.325    0.403   58.834   10.382
  258.601    0.323    0.414   60.630   10.577
  258.901    0.323    0.449   59.997   10.576
  259.201    0.334    0.455   59.970   10.978
  259.501    0.339    0.443   58.740   11.830
  259.801    0.239    0.470   58.112   13.485
  260.101    0.022    0.419   52.025   17.854
  260.401    0.028    0.186   47.150   22.771
  260.701    0.131    0.228   51.973   24.538
  261.001    0.203    0.353   58.624   21.521
  261.301    0.233    0.415   57.994   16.870
  261.601    0.320    0.434   54.937   12.270
  261.901    0.323    0.436   58.554   10.964
  262.201    0.307    0.412   60.956   10.963
  262.501    0.293    0.379   61.539   12.036
  262.801    0.302    0.380   60.907   12.494
  263.101    0.305    0.413   61.485   12.969
  263.401    0.303    0.428   62.072   12.727
  263.701    0.305    0.422   64.475   12.258
  264.001    0.306    0.431   68.091   11.372
  264.301    0.295    0.450   67.459   10.550
  264.601    0.266    0.448   65.008    9.972
  264.901    0.277    0.447   65.596    9.971
  265.201    0.285    0.444   69.815    9.250
  265.501    0.284    0.438   75.248    8.582
  265.801    0.268    0.436   75.831    6.854
  266.101    0.279    0.468   77.628    6.125
  266.401    0.311    0.437   75.178    6.124
  266.701    0.283    0.411   74.549    6.477
  267.001    0.257    0.435   83.622    7.809
  267.301    0.265    0.460   74.501    8.737
  267.601    0.264    0.431   70.841    8.901
  267.901    0.188    0.418   76.275    8.572
  268.201    0.203    0.429   79.281    8.103
  268.501    0.266    0.456   82.291    7.378
  268.801    0.314    0.470   90.151    6.974
  269.101    0.337    0.419   82.244    7.105
  269.401    0.269    0.422   80.400    7.104
  269.701    0.285    0.436   89.474    6.842
  270.001    0.271    0.483   87.627    5.780
  270.301    0.269    0.504   87.001    5.362
  270.601    0.251    0.471   88.189    5.262
  270.901    0.256    0.487   91.199    5.361
  271.201    0.270    0.477   88.144    5.565
  271.501    0.276    0.452   83.267    5.885
  271.801    0.280    0.454   79.603    6.109
  272.101    0.251    0.437   77.156    6.341
  272.401    0.247    0.433   74.709    6.707
  272.701    0.247    0.458   65.589    7.364
  273.001    0.047    0.440   52.831    8.085
  273.301    0.130    0.218   46.135    9.568
  273.601    0.181    0.312   50.964   14.715
  273.901    0.278    0.387   58.218   14.991
  274.201    0.263    0.428   80.629   12.430
  274.500    0.251    0.453   85.458    9.563
  274.800    0.251    0.452   79.974    8.707
  275.100    0.255    0.399   78.133    8.230
  275.400    0.244    0.405   81.138    8.077
  275.700    0.221    0.430   83.543    8.075
  276.000    0.214    0.436   84.126    8.382
  276.300    0.269    0.413   88.347    8.073
  276.600    0.259    0.413   95.603    7.351
  276.900    0.247    0.448   96.182    6.447
  277.200    0.258    0.452   91.307    5.981
  277.500    0.254    0.495   90.075    5.654
  277.800    0.253    0.513   90.656    5.148
  278.100    0.254    0.489   93.662    4.687
  278.400    0.263    0.504  100.311    4.035
  278.700    0.264    0.502  106.352    3.473
  279.000    0.269    0.493  105.115    3.046
  279.300    0.272    0.503  100.240    3.045
  279.600    0.253    0.539   93.547    3.161
  279.900    0.190    0.555   82.608    3.957
  280.200    0.191    0.448   92.893    4.683
  280.500    0.222    0.459   95.899    4.952
  280.800    0.241    0.469  101.940    4.681
  281.100    0.250    0.472  103.132    4.681
  281.400    0.224    0.504   97.044    5.044
  281.700    0.234    0.480   95.201    5.435
  282.000    0.224    0.465   99.423    6.313
  282.300    0.196    0.479  101.824    7.470
  282.600    0.233    0.475   99.376    8.050
  282.900    0.248    0.400   96.927    8.675
  283.200    0.222    0.416   87.807    9.525
  283.500    0.187    0.421   82.932   10.655
  283.800    0.122    0.343   84.121   11.700
  284.100    0.150    0.360  101.075   12.374
  284.400    0.221    0.379  102.267   12.606
  284.700    0.237    0.370  101.631   12.370
  285.000    0.200    0.398   99.188   11.914
  285.300    0.215    0.415   92.493   10.646
  285.600    0.203    0.414   87.617   10.254
  285.900    0.197    0.386   86.989    9.513
  286.200    0.203    0.389  105.762    8.825
  286.500    0.198    0.432  103.312    8.187
  286.800    0.185    0.456   97.828    6.789
  287.100    0.196    0.455   94.168    6.916
  287.400    0.248    0.397   89.902    7.315
  287.700    0.255    0.385   94.121    9.329
  288.000    0.244    0.390   97.737   11.248
  288.300    0.244    0.401   94.077   12.121
  288.600    0.240    0.389   88.596   12.581
  288.900    0.219    0.383   90.998   12.580
  289.200    0.302    0.469   89.762   10.829
  289.500    0.312    0.458   80.034    9.497
  289.800    0.222    0.443   75.763    8.487
  290.100    0.229    0.422   80.590    8.646
  290.400    0.246    0.402   84.209    9.145
  290.700    0.239    0.422   86.004   10.230
  291.000    0.255    0.432   83.554   10.422
  291.300    0.250    0.399   84.137   10.421
