~VERSION INFORMATION
 VERS.                 2.0:   CWLS LOG ASCII STANDARD -VERSION 2.0
 WRAP.                  NO:   ONE LINE PER DEPTH STEP
~WELL INFORMATION BLOCK
#MNEM.UNIT           DATA                    DESCRIPTION OF MNEMONIC
#---------    -------------------            -------------------------------
# Generated from Intellog Unique Number	CC_80_83/WELL/2483
WELL.         PEX PCEJ HANGST                : Well_name    - WELL
LOC .         AA/09-31-083-11W4/0            : Location     - LOCATION
UWI .         AA/09-31-083-11W400            : Uwi          - UNIQUE WELL ID
ENTR.         DW                             : Entered      - ENTERED BY
SRVC.         SCHLUMBERGER                   : Scn          - SERVICE COMPANY
STRT.M        150                            : top_depth    - START DEPTH
STOP.M        379.75                         : bot_depth    - STOP DEPTH
STEP.M        0.25                           : increment    - STEP LENGTH
 NULL. -999.2500:NULL Value
~CURVE INFORMATION BLOCK
#MNEM UNIT       ERCB CURVE CODE    CURVE DESCRIPTION
#-----------   ------------------   ----------------------------------
DEPT.M        00 001 00 00         : DEPTH        - DEPTH
DPHI.V/V      00 890 00 00         : PHID         - DENSITY POROSITY (SANDSTONE)
GR  .API      00 310 00 00         : GR           - GAMMA RAY
ILD .OHMM     00 120 00 00         : RESD         - DEEP RESISTIVITY (DIL)
NPHI.V/V      00 330 00 00         : PHIN         - NEUTRON POROSITY (SANDSTONE)
~PARAMETER INFORMATION
#MNEM.UNIT           DATA             DESCRIPTION OF MNEMONIC
#---------         -----------     ------------------------------
GL  .M        615.5                : gl           - GROUND LEVEL ELEVATION
EREF.M        619.15               : kb           - ELEVATION OF DEPTH REFERENCE
DATM.M        619.15               : datum        - DATUM ELEVATION
TDD .M        382                  : tdd          - TOTAL DEPTH DRILLER
RUN .         ONE                  : Run          - RUN NUMBER
ENG .         BILL                 : Engineer     - RECORDING ENGINEER
WIT .         JIM                  : Witness      - WITNESSED BY
MUD .         GEL                  : Mud_type     - MUD TYPE
MATR.         SANDSTONE            : Logunit      - NEUTRON MATRIX
TMAX.C        16                   : BHT          - MAXIMUM RECORDED TEMPERATURE
BHTD.M        382                  : BHTDEP       - MAXIMUM RECORDED TEMPERATURE
MATR.         1                    : LOGUNIT      - NEUTRON MATRIX
RMT .C        25                   : MDTP         - TEMPERATURE OF MUD
NEUT.         1                    : NEUTRON      - NEUTRON TYPE
RESI.         0                    : RESIST       - RESISTIVITY TYPE
RMC .OHMM     0.25                 : RMC          - RESISTIVITY OF MUD CAKE
RMF .OHMM     0.25                 : RMF          - RESISTIVITY OF MUD FILTRATE
SUFT.C        15                   : SUFT         - SURFACE TEMPERATURE
~A  DEPTH     PHID       GR     RESD     PHIN
  150.000    0.191  105.679    3.664    0.389
  150.250    0.183  102.611    3.837    0.387
  150.500    0.179  103.809    4.036    0.384
  150.750    0.171  107.163    4.177    0.406
  151.000    0.163  104.260    4.338    0.411
  151.250    0.119   92.795    4.540    0.379
  151.500    0.034   79.148    4.680    0.362
  151.750    0.057   67.882    4.841    0.351
  152.000    0.178   94.454    4.859    0.354
  152.250    0.219  109.179    4.904    0.384
  152.500    0.192  107.248    4.954    0.419
  152.750    0.192  111.233    4.963    0.416
  153.000    0.188  107.622    5.045    0.382
  153.250    0.191  110.326    4.976    0.378
  153.500    0.195  103.795    4.840    0.392
  153.750    0.196  100.722    4.632    0.385
  154.000    0.198  104.837    4.451    0.378
  154.250    0.199  105.527    4.429    0.387
  154.500    0.198  102.722    4.505    0.380
  154.750    0.193  102.210    4.625    0.374
  155.000    0.191  106.720    4.997    0.369
  155.250    0.190  111.285    5.236    0.364
  155.500    0.195  113.085    5.218    0.372
  155.750    0.206  111.183    5.109    0.386
  156.000    0.213  105.857    4.949    0.379
  156.250    0.212  103.317    4.870    0.375
  156.500    0.206   99.860    4.792    0.388
  156.750    0.201  100.136    4.753    0.392
  157.000    0.203  106.283    4.785    0.395
  157.250    0.210  109.199    4.883    0.411
  157.500    0.212  104.049    5.043    0.421
  157.750    0.211  104.465    5.203    0.412
  158.000    0.214  103.391    5.374    0.392
  158.250    0.223   97.915    5.508    0.375
  158.500    0.225   92.436    5.536    0.364
  158.750    0.222   96.282    5.558    0.357
  159.000    0.227  104.710    5.973    0.352
  159.250    0.231   88.577    7.181    0.347
  159.500    0.232   71.187    9.336    0.305
  159.750    0.249   60.877   16.064    0.263
  160.000    0.275   58.955   22.463    0.253
  160.250    0.275   63.612   23.662    0.266
  160.500    0.253   67.063   23.595    0.285
  160.750    0.252   69.648   22.946    0.299
  161.000    0.252   66.264   21.586    0.302
  161.250    0.252   61.554   20.596    0.303
  161.500    0.253   64.981   20.077    0.305
  161.750    0.252   76.162   19.392    0.313
  162.000    0.250   85.025   18.471    0.335
  162.250    0.248   88.113   17.328    0.354
  162.500    0.246   86.820   16.609    0.329
  162.750    0.244   83.826   16.554    0.307
  163.000    0.245   82.298   17.901    0.313
  163.250    0.249   78.639   19.799    0.326
  163.500    0.256   68.385   21.069    0.336
  163.750    0.262   64.356   24.334    0.344
  164.000    0.269   73.221   26.514    0.360
  164.250    0.276   71.402   27.216    0.340
  164.500    0.283   66.920   26.193    0.312
  164.750    0.270   77.114   22.724    0.313
  165.000    0.232   88.823   18.817    0.317
  165.250    0.218   93.652   17.701    0.333
  165.500    0.220   87.179   15.500    0.342
  165.750    0.234   83.891   13.477    0.342
  166.000    0.246   83.976   13.245    0.335
  166.250    0.250   82.925   14.599    0.327
  166.500    0.261   85.160   17.450    0.330
  166.750    0.274   80.428   20.578    0.341
  167.000    0.285   68.958   22.177    0.348
  167.250    0.287   68.987   21.913    0.349
  167.500    0.281   73.206   19.276    0.355
  167.750    0.275   75.698   15.562    0.369
  168.000    0.273   83.352   13.406    0.385
  168.250    0.289   72.862   11.764    0.410
  168.500    0.393   75.907   11.148    0.439
  168.750    0.451   76.078   12.091    0.412
  169.000    0.374   60.843   15.256    0.349
  169.250    0.285   45.200   21.990    0.328
  169.500    0.302   43.845   30.110    0.349
  169.750    0.306   61.405   31.903    0.349
  170.000    0.299   84.840   31.332    0.337
  170.250    0.298  103.665   26.481    0.335
  170.500    0.305  112.943   21.200    0.344
  170.750    0.314  105.306   19.038    0.351
  171.000    0.318   79.114   17.117    0.351
  171.250    0.320   55.211   19.679    0.337
  171.500    0.311   44.289   25.068    0.317
  171.750    0.280   39.007   28.474    0.294
  172.000    0.259   42.023   30.453    0.295
  172.250    0.263   53.329   31.877    0.321
  172.500    0.263   58.152   30.674    0.330
  172.750    0.261   57.524   29.074    0.332
  173.000    0.251   65.239   24.619    0.341
  173.250    0.247   73.469   20.706    0.359
  173.500    0.252   80.892   17.973    0.351
  173.750    0.257   88.921   15.089    0.328
  174.000    0.258   91.564   13.398    0.339
  174.250    0.256   96.299   12.356    0.331
  174.500    0.241  103.864   11.685    0.345
  174.750    0.226  103.262   11.399    0.350
  175.000    0.220   99.721   11.220    0.338
  175.250    0.221  103.117   11.111    0.335
  175.500    0.236  106.441   11.524    0.345
  175.750    0.261  100.596   12.446    0.349
  176.000    0.240   88.248   13.517    0.335
  176.250    0.224   79.218   14.437    0.335
  176.500    0.219   83.695   15.435    0.339
  176.750    0.198   91.121   16.258    0.327
  177.000    0.188   87.947   16.169    0.324
  177.250    0.197   97.270   15.681    0.342
  177.500    0.214  100.636   15.157    0.333
  177.750    0.222   95.610   14.831    0.338
  178.000    0.227   89.360   14.636    0.342
  178.250    0.235   89.757   14.382    0.321
  178.500    0.239   97.261   14.171    0.324
  178.750    0.237   94.500   14.359    0.333
  179.000    0.231   92.060   14.819    0.331
  179.250    0.227   93.438   15.174    0.329
  179.500    0.226   95.511   15.327    0.330
  179.750    0.231   91.944   15.691    0.325
  180.000    0.244   83.093   16.471    0.320
  180.250    0.257   86.875   16.998    0.317
  180.500    0.245   95.271   17.580    0.324
  180.750    0.242   94.923   17.837    0.341
  181.000    0.247   85.962   17.665    0.336
  181.250    0.247   81.569   17.356    0.318
  181.500    0.243   90.554   16.782    0.332
  181.750    0.222  100.743   15.735    0.337
  182.000    0.232   95.675   15.169    0.340
  182.250    0.234   93.885   14.572    0.342
  182.500    0.226   99.001   14.013    0.342
  182.750    0.235   96.671   13.883    0.345
  183.000    0.244   91.834   13.900    0.352
  183.250    0.245  102.310   14.323    0.360
  183.500    0.242  105.837   14.842    0.366
  183.750    0.244  105.952   15.075    0.350
  184.000    0.251  101.671   14.817    0.331
  184.250    0.251   95.498   13.927    0.332
  184.500    0.229  103.003   12.650    0.346
  184.750    0.183  112.000   11.727    0.372
  185.000    0.161  113.599   10.429    0.380
  185.250    0.161  120.235    9.320    0.371
  185.500    0.163  130.549    8.510    0.378
  185.750    0.157  132.146    7.796    0.393
  186.000    0.145  124.679    7.609    0.381
  186.250    0.150  115.495    7.841    0.367
  186.500    0.133  112.115    8.059    0.371
  186.750    0.167  116.494    7.891    0.383
  187.000    0.203  128.350    7.389    0.393
  187.250    0.188  133.703    6.810    0.400
  187.500    0.187  122.871    6.303    0.404
  187.750    0.187  124.600    5.865    0.412
  188.000    0.214  130.539    5.057    0.420
  188.250    0.239  130.720    4.498    0.420
  188.500    0.253  125.240    4.383    0.413
  188.750    0.268  116.601    4.435    0.400
  189.000    0.282  106.846    4.842    0.385
  189.250    0.289  100.571    6.188    0.365
  189.500    0.289   94.264    9.337    0.350
  189.750    0.268   87.132   13.230    0.349
  190.000    0.246   81.503   18.612    0.346
  190.250    0.239   79.715   23.048    0.340
  190.500    0.231   83.409   22.238    0.346
  190.750    0.228   91.922   21.225    0.338
  191.000    0.252   95.970   19.942    0.334
  191.250    0.280   97.044   19.230    0.330
  191.500    0.287   97.935   19.898    0.332
  191.750    0.273   98.353   20.027    0.344
  192.000    0.241  101.995   17.409    0.356
  192.250    0.211  114.813   14.161    0.369
  192.500    0.205  125.264   12.038    0.383
  192.750    0.209  130.484    9.966    0.367
  193.000    0.220  121.993    8.463    0.343
  193.250    0.239  101.181    8.645    0.337
