~VERSION INFORMATION
 VERS.                 2.0:   CWLS LOG ASCII STANDARD -VERSION 2.0
 WRAP.                  NO:   ONE LINE PER DEPTH STEP
~WELL INFORMATION BLOCK
#MNEM.UNIT           DATA                    DESCRIPTION OF MNEMONIC
#---------    -------------------            -------------------------------
# Generated from Intellog Unique Number	CN_94_101/WELL/1066
WELL.         09-10-094-07W4                 : Well_name    - WELL
LOC .         AA/09-10-094-07W4/0            : Location     - LOCATION
UWI .         AA/09-10-094-07W400            : Uwi          - UNIQUE WELL ID
ENTR.         JOETTE                         : Entered      - ENTERED BY
SRVC.         WESTERN ATLAS                  : Scn          - SERVICE COMPANY
DATE.         04/12/92                       : Date         - LOG DATE
STRT.M        30.48                          : top_depth    - START DEPTH
STOP.M        246.98                         : bot_depth    - STOP DEPTH
STEP.M        0.25                           : increment    - STEP LENGTH
 NULL. -999.2500:NULL Value
~CURVE INFORMATION BLOCK
#MNEM UNIT       ERCB CURVE CODE    CURVE DESCRIPTION
#-----------   ------------------   ----------------------------------
DEPT.M        00 001 00 00         : DEPTH        - DEPTH
DPHI.V/V      00 890 00 00         : PHID         - DENSITY POROSITY (SANDSTONE)
ILD .OHMM     00 120 00 00         : RESD         - DEEP RESISTIVITY (DIL)
GR  .API      00 310 00 00         : GR           - GAMMA RAY
CALI.MM       00 280 01 00         : CAL          - CALIPER
~PARAMETER INFORMATION
#MNEM.UNIT           DATA             DESCRIPTION OF MNEMONIC
#---------         -----------     ------------------------------
GL  .M        524.134              : gl           - GROUND LEVEL ELEVATION
EREF.M        525.658              : kb           - ELEVATION OF DEPTH REFERENCE
DATM.M        525.658              : datum        - DATUM ELEVATION
TDD .M        249.326              : tdd          - TOTAL DEPTH DRILLER
RUN .         ONE                  : Run          - RUN NUMBER
ENG .         BILL                 : Engineer     - RECORDING ENGINEER
WIT .         JIM                  : Witness      - WITNESSED BY
MUD .         GEL                  : Mud_type     - MUD TYPE
MATR.         SANDSTONE            : Logunit      - NEUTRON MATRIX
TMAX.C        7.77778              : BHT          - MAXIMUM RECORDED TEMPERATURE
BHTD.M        249.326              : BHTDEP       - MAXIMUM RECORDED TEMPERATURE
RMT .C        5.55556              : MDTP         - TEMPERATURE OF MUD
MUDD.KG/M     1100                 : MWT          - MUD DENSITY
NEUT.         1                    : NEUTRON      - NEUTRON TYPE
RESI.         0                    : RESIST       - RESISTIVITY TYPE
RM  .OHMM     9                    : RM           - RESISTIVITY OF MUD
RMC .OHMM     9                    : RMC          - RESISTIVITY OF MUD CAKE
RMF .OHMM     9                    : RMF          - RESISTIVITY OF MUD FILTRATE
SUFT.C        -15                  : SUFT         - SURFACE TEMPERATURE
~A  DEPTH     PHID     RESD       GR      CAL
# ...
   73.980    0.258   15.134   69.980  180.983
   74.230    0.263   14.901   72.327  177.900
   74.480    0.263   14.903   73.496  175.837
   74.730    0.262   14.907   75.248  173.762
   74.980    0.250   14.909   74.632  172.707
   75.230    0.240   14.912   71.018  171.663
   75.480    0.228   14.914   69.218  171.616
   75.730    0.221   15.153   65.604  171.569
   75.980    0.218   15.156   64.393  171.510
   76.230    0.218   15.158   64.960  172.471
   76.480    0.218   15.161   66.123  173.409
   76.730    0.218   15.164   67.286  173.385
   76.980    0.211   15.167   67.258  173.338
   77.230    0.207   15.168   64.240  174.299
   77.480    0.206   15.412   63.028  174.252
   77.730    0.206   15.660   61.803  174.169
   77.980    0.206   15.661   64.752  174.134
   78.230    0.205   15.664   65.326  174.099
   78.480    0.204   15.667   65.894  174.040
   78.730    0.204   15.917   65.852  174.004
   78.980    0.204   15.920   67.008  173.945
   79.230    0.204   16.175   67.582  173.875
   79.480    0.207   16.180   68.150  173.839
   79.730    0.209   15.929   66.931  173.792
   79.980    0.210   15.440   65.720  173.757
   80.230    0.215   15.441   63.906  173.710
   80.480    0.217   15.203   63.864  173.663
   80.730    0.217   14.970   65.615  173.592
   80.980    0.218   14.972   66.792  174.541
   81.230    0.218   14.741   69.138  174.506
   81.480    0.218   14.515   70.897  173.451
   81.730    0.223   14.517   72.655  173.415
   81.980    0.226   14.519   75.008  172.348
   82.230    0.225   14.522   76.766  171.305
   82.480    0.226   14.525   77.327  170.238
   82.730    0.245   13.858   77.894  168.163
   82.980    0.288   12.224   78.469  167.120
   83.230    0.305   11.481   80.213  165.033
   83.480    0.303   10.450   80.199  164.997
   83.730    0.303    9.513   81.957  164.950
   83.980    0.303    9.220   83.113  165.911
   84.230    0.304    8.936   84.262  165.864
   84.480    0.304    8.662   84.843  165.805
   84.730    0.304    8.663   85.404  165.758
   84.980    0.299    8.530   86.567  165.723
   85.230    0.298    8.531   87.730  165.676
   85.480    0.298    8.400   87.106  166.613
   85.730    0.298    8.401   85.888  166.566
   85.980    0.297    8.272   83.472  166.531
   86.230    0.297    8.273   81.070  166.472
   86.480    0.297    8.146   80.447  166.413
   86.730    0.295    8.147   81.609  166.366
   86.980    0.295    8.148   83.368  166.330
   87.230    0.294    8.150   82.135  166.283
   87.480    0.294    8.152   79.733  166.224
   87.730    0.298    8.281   76.722  166.177
   87.980    0.305    8.548   74.312  165.122
   88.230    0.306    8.962   70.713  165.087
   88.480    0.305    9.849   67.113  165.040
   88.730    0.312   10.995   62.918  163.973
   88.980    0.322   12.667   60.502  163.925
   89.230    0.329   14.142   61.665  163.867
   89.480    0.329   16.813   61.042  162.811
   89.730    0.329   19.988   59.228  162.776
   89.980    0.332   21.625   58.009  162.729
   90.230    0.337   19.376   57.386  162.646
   90.480    0.339   18.487   57.947  162.611
   90.730    0.337   19.383   59.110  163.560
   90.980    0.338   20.322   60.265  163.525
   91.230    0.338   20.010   60.252  164.462
   91.480    0.338   19.701   60.210  165.447
   91.730    0.342   20.017   59.594  166.396
   91.980    0.350   21.655   57.780  167.369
   92.230    0.351   24.948   55.364  168.330
   92.480    0.352   28.294   54.748  168.271
   92.730    0.352   28.748   55.301  169.244
   92.980    0.351   28.752   57.059  169.196
   93.230    0.350   27.870   58.817  169.137
   93.480    0.345   27.010   59.392  169.079
   93.730    0.337   26.595   59.952  169.031
   93.980    0.322   27.448   59.931  168.996
   94.230    0.249   30.644   59.308  168.937
   94.480    0.117   37.007   56.892  168.902
   94.730    0.078   44.691   56.269  168.855
   94.980    0.059   51.487   56.837  167.776
   95.230    0.062   51.496   57.992  163.685
   95.480    0.077   47.614   58.560  162.653
   95.730    0.113   40.067   59.134  162.594
   95.980    0.155   35.341   59.107  163.555
   96.230    0.363   30.209   57.286  163.496
   96.480    0.370   28.374   55.472  164.457
   96.730    0.398   27.501   54.849  164.422
   96.980    0.391   27.941   54.226  166.391
   97.230    0.360   29.296   53.589  167.340
   97.480    0.356   31.698   52.952  168.313
   97.730    0.353   33.758   52.931  167.246
   97.980    0.308   35.391   52.315  165.183
   98.230    0.300   38.895   52.294  163.096
   98.480    0.280   42.749   51.075  162.064
   98.730    0.221   45.529   48.666  160.997
   98.980    0.139   48.492   44.464  160.962
   99.230    0.124   48.498   42.651  160.903
   99.480    0.162   46.273   44.997  160.844
   99.730    0.216   40.819   46.762  160.809
   99.980    0.312   38.945   49.115  160.738
  100.230    0.349   36.011   50.874  160.703
  100.480    0.346   34.900   51.434  160.656
  100.730    0.342   34.909   52.002  160.620
  100.980    0.339   36.029   52.569  161.569
  101.230    0.339   37.184   54.327  161.522
  101.480    0.339   38.985   53.704  162.472
  101.730    0.339   40.238   51.890  163.444
  101.980    0.339   40.882   49.481  163.374
  102.230    0.337   40.889   50.637  163.350
  102.480    0.335   42.203   52.395  163.303
  102.730    0.335   41.552   54.153  163.244
  102.980    0.335   40.272   54.707  163.185
  103.230    0.335   36.659   55.281  164.146
  103.480    0.335   36.093   55.842  164.099
  103.730    0.335   35.535   57.012  164.052
  103.980    0.337   36.106   58.174  164.016
  104.230    0.339   36.111   56.361  164.966
  104.480    0.346   36.117   53.952  164.918
  104.730    0.356   36.695   52.138  164.860
  104.980    0.367   35.568   50.324  164.812
  105.230    0.363   35.018   49.694  164.777
  105.480    0.362   32.894   49.071  164.730
  105.730    0.361   31.881   49.043  164.683
  105.980    0.361   29.945   49.610  164.636
  106.230    0.361   29.484   50.171  164.565
  106.480    0.361   30.912   50.143  163.498
  106.730    0.361   33.971   49.520  163.475
  106.980    0.362   38.530   48.897  163.416
  107.230    0.362   40.394   48.869  163.369
  107.480    0.360   40.403   51.811  166.346
  107.730    0.359   38.550   53.569  171.339
  107.980    0.357   35.645   54.732  176.320
  108.230    0.359   34.007   54.704  177.293
  108.480    0.361   31.942   54.676  176.238
  108.730    0.356   32.454   54.053  171.150
  108.980    0.347   32.974   53.423  167.071
  109.230    0.344   32.979   53.402  163.988
  109.480    0.346   31.965   53.374  163.929
  109.730    0.347   30.501   54.530  163.882
  109.980    0.339   29.560   56.281  163.847
  110.230    0.337   29.105   56.863  163.788
  110.480    0.337   28.657   56.814  163.788
  110.730    0.337   29.119   56.198  170.715
  110.980    0.337   29.583   55.575  165.662
  111.230    0.339   30.534   55.547  165.604
  111.480    0.349   31.020   56.114  165.568
  111.730    0.351   31.519   56.682  165.509
  111.980    0.353   32.022   58.440  165.462
  112.230    0.354   33.050   60.793  166.423
  112.480    0.357   33.055   63.147  166.376
  112.730    0.330   31.542   66.691  168.333
  112.980    0.294   31.544   71.425  168.298
  113.230    0.269   30.098   79.137  170.243
  113.480    0.259   26.968   91.015  171.204
  113.730    0.254   17.649   94.552  172.189
  113.980    0.255   13.947   97.494  173.138
  114.230    0.257   11.021   99.259  174.087
  114.480    0.236    9.876  101.613  174.040
  114.730    0.210    9.724  103.966  174.005
  114.980    0.225    9.425  105.129  174.966
  115.230    0.256    9.426  105.101  175.915
  115.480    0.254    9.281  103.883  175.879
  115.730    0.250    9.138  103.260  176.829
  115.980    0.254    9.140  103.225  177.778
  116.230    0.251    8.999  104.381  179.747
  116.480    0.242    9.000  104.962  180.696
  116.730    0.240    9.001  108.492  180.672
  116.980    0.244    8.863  110.846  181.622
  117.230    0.244    8.864  109.627  181.586
