~VERSION INFORMATION
 VERS.                 2.0:   CWLS LOG ASCII STANDARD -VERSION 2.0
 WRAP.                  NO:   ONE LINE PER DEPTH STEP
~WELL INFORMATION BLOCK
#MNEM.UNIT           DATA                    DESCRIPTION OF MNEMONIC
#---------    -------------------            -------------------------------
# Generated from Intellog Unique Number	CX_WELLS/WELL/3816
LOC .         AA/01-02-086-11W4/0            : Location     - LOCATION
UWI .         AA/01-02-086-11W4/0            : Uwi          - UNIQUE WELL ID
ENTR.         T                              : Entered      - ENTERED BY
SRVC.         SCHLUMBERGER                   : Scn          - SERVICE COMPANY
STRT.F        200                            : top_depth    - START DEPTH
STOP.F        796.293                        : bot_depth    - STOP DEPTH
STEP.F        0.82                           : increment    - STEP LENGTH
 NULL. -999.2500:NULL Value
~CURVE INFORMATION BLOCK
#MNEM UNIT       ERCB CURVE CODE    CURVE DESCRIPTION
#-----------   ------------------   ----------------------------------
DEPT.F        00 001 00 00         : DEPTH        - DEPTH
GR  .API      00 310 00 00         : GR           - GAMMA RAY
NPHI.V/V      00 330 00 00         : PHIN         - NEUTRON POROSITY (SANDSTONE)
ILD .OHMM     00 120 00 00         : RESD         - DEEP RESISTIVITY (DIL)
~PARAMETER INFORMATION
#MNEM.UNIT           DATA             DESCRIPTION OF MNEMONIC
#---------         -----------     ------------------------------
GL  .F        1679                 : gl           - GROUND LEVEL ELEVATION
EREF.F        1687                 : kb           - ELEVATION OF DEPTH REFERENCE
DATM.F        1687                 : datum        - DATUM ELEVATION
TDD .F        806                  : tdd          - TOTAL DEPTH DRILLER
RUN .         ONE                  : Run          - RUN NUMBER
ENG .         BILL                 : Engineer     - RECORDING ENGINEER
WIT .         JIM                  : Witness      - WITNESSED BY
MUD .         GEL                  : Mud_type     - MUD TYPE
MATR.         SANDSTONE            : Logunit      - NEUTRON MATRIX
TMAX.F        57                   : BHT          - MAXIMUM RECORDED TEMPERATURE
BHTD.F        806                  : BHTDEP       - MAXIMUM RECORDED TEMPERATURE
MATR.         1                    : LOGUNIT      - NEUTRON MATRIX
RMT .F        68                   : MDTP         - TEMPERATURE OF MUD
NEUT.         1                    : NEUTRON      - NEUTRON TYPE
RESI.         3.5                  : RESIST       - RESISTIVITY TYPE
RMC .OHMM     2.3                  : RMC          - RESISTIVITY OF MUD CAKE
RMF .OHMM     4.5                  : RMF          - RESISTIVITY OF MUD FILTRATE
SUFT.F        39.2                 : SUFT         - SURFACE TEMPERATURE
~A  DEPTH       GR     PHIN     RESD
  200.000   61.526    0.439   26.181
  200.820   63.653    0.441   23.198
  201.640   66.195    0.429   21.051
  202.461   70.396    0.416   22.779
  203.281   77.099    0.407   23.820
  204.101   77.995    0.398   24.871
  204.921   75.962    0.392   25.233
  205.741   72.283    0.390   25.772
  206.562   71.494    0.390   25.317
  207.382   71.160    0.388   24.526
  208.202   72.029    0.387   24.201
  209.022   75.401    0.386   23.904
  209.843   78.358    0.384   22.602
  210.663   80.485    0.383   21.125
  211.483   83.027    0.383   18.829
  212.303   88.485    0.382   18.522
  213.123   90.612    0.382   17.713
  213.944   88.178    0.382   15.576
  214.764   84.914    0.384   15.780
  215.584   83.710    0.408   14.804
  216.404   89.168    0.406   10.148
  217.224   97.516    0.409    8.503
  218.045  104.219    0.421    8.540
  218.865  112.995    0.429    8.084
  219.685  115.123    0.429    7.118
  220.505  106.454    0.424    6.653
  221.325  104.019    0.426    6.504
  222.146  104.073    0.431    6.207
  222.966  108.688    0.438    6.076
  223.786  117.879    0.448    5.946
  224.606  122.080    0.458    5.816
  225.427  125.050    0.462    6.197
  226.247  125.104    0.459   10.770
  227.067  110.201    0.435   14.989
  227.887   96.555    0.428   25.770
  228.707   87.485    0.402   27.815
  229.528   78.816    0.389   30.203
  230.348   72.648    0.378   30.575
  231.168   69.371    0.364   26.086
  231.988   82.709    0.357   21.922
  232.808   84.007    0.363   21.467
  233.629   82.830    0.368   21.160
  234.449   80.796    0.370   19.524
  235.269   75.459    0.371   20.565
  236.089   71.352    0.373   23.121
  236.909   71.820    0.374   24.831
  237.730   73.974    0.374   27.219
  238.550   71.927    0.377   26.755
  239.370   67.419    0.375   25.277
  240.190   65.412    0.371   21.791
  241.010   66.282    0.360   15.964
  241.831   70.068    0.359   12.311
  242.651   75.941    0.367   10.833
  243.471   83.045    0.394   13.213
  244.291  107.180    0.404   17.794
  245.112  110.966    0.417   21.196
  245.932   99.421    0.384   21.884
  246.752   97.789    0.372   23.454
  247.572   92.036    0.372   23.993
  248.392   87.528    0.382   24.523
  249.213   89.655    0.380   23.547
  250.033  107.997    0.377   20.731
  250.853  109.696    0.378   19.774
  251.673  108.091    0.373   18.965
  252.493  106.057    0.371   17.989
  253.314   97.817    0.373   16.520
  254.134   97.027    0.375   14.875
  254.954   95.837    0.376   13.751
  255.774   92.987    0.376   12.765
  256.594   91.382    0.377   12.970
  257.415   88.948    0.375   16.028
  258.235   87.329    0.374   19.420
  259.055   84.493    0.374   20.312
  259.875   82.459    0.371   19.494
  260.696   80.439    0.364   13.323
  261.516   77.590    0.359   12.533
  262.336   74.326    0.363   13.397
  263.156   71.062    0.369   16.622
  263.976   67.784    0.386   23.546
  264.797   63.691    0.377   26.604
  265.617   61.242    0.366   26.817
  266.437   58.808    0.360   25.665
  267.257   59.276    0.365   19.828
  268.077   62.233    0.374   10.803
  268.898   71.009    0.380   10.339
  269.718   76.896    0.389   10.376
  270.538   75.705    0.401    9.920
  271.358   74.929    0.411    9.298
  272.178   74.956    0.418    8.981
  272.999   77.512    0.425    9.019
  273.819   80.468    0.426    9.892
  274.639   83.439    0.415   12.615
  275.459   84.308    0.407   18.359
  276.280   83.974    0.401   19.567
  277.100   82.355    0.396   13.061
  277.920   79.493    0.387   16.621
  278.740   75.426    0.382   14.985
  279.560   77.540    0.375   13.507
  280.381   77.593    0.359   12.373
  281.201   75.546    0.336   12.578
  282.021   69.794    0.292   10.932
  282.841   67.774    0.322    9.139
  283.661   69.901    0.372    9.176
  284.482   74.931    0.400    9.705
  285.302   83.293    0.413   10.579
  286.122   87.909    0.412   10.793
  286.942   94.611    0.409   10.003
  287.762   95.936    0.408    9.863
  288.583   95.548    0.419    9.566
  289.403   98.090    0.436    9.277
  290.223  101.876    0.440    9.129
  291.043  104.846    0.439    8.673
  291.864  108.231    0.439    8.524
  292.684  109.930    0.439    9.073
  293.504  111.643    0.443    9.946
  294.324  113.797    0.446   11.498
  295.144  114.667    0.439   13.208
  295.965  115.550    0.431   13.599
  296.785  116.032    0.422   12.948
  297.605  115.229    0.408   11.647
  298.425  113.209    0.390   11.005
  299.245  110.774    0.393   10.373
  300.066  107.095    0.414   10.252
  300.886  106.333    0.413   10.122
  301.706  110.520    0.412   10.159
  302.526  115.136    0.406   10.531
  303.346  115.217    0.396   10.736
  304.167  113.170    0.395   10.940
  304.987  108.247    0.401   11.144
  305.807  101.237    0.401   11.358
  306.627   96.728    0.403   11.395
  307.448   95.136    0.403   11.590
  308.268   96.849    0.401   11.971
  309.088   97.331    0.411   12.343
  309.908   97.358    0.409   12.213
  310.728   98.268    0.405   11.729
  311.549   98.709    0.401   10.930
  312.369  100.007    0.403   10.809
  313.189  102.134    0.405   11.515
  314.009  100.529    0.411   12.891
  314.829   93.532    0.414   14.099
  315.650   91.111    0.414   13.802
  316.470   89.894    0.405   13.002
  317.290   85.800    0.392   12.361
  318.110   69.251    0.386   11.571
  318.930   66.402    0.391   15.809
  319.751   67.713    0.391   17.175
  320.571   68.181    0.385   19.731
  321.391   64.904    0.370   20.279
  322.211   57.064    0.362   20.474
  323.031   55.459    0.352   20.344
  323.852   51.780    0.340   19.712
  324.672   49.332    0.331   18.401
  325.492   42.336    0.328   18.615
  326.312   38.643    0.326   20.000
  327.133   39.112    0.325   20.372
  327.953   44.570    0.322   19.396
  328.773   48.784    0.321   18.596
  329.593   51.313    0.324   18.466
  330.413   55.112    0.335   18.327
  331.234   56.839    0.336   17.862
  332.054   54.805    0.334   17.564
  332.874   52.370    0.333   16.263
  333.694   50.337    0.334   14.618
  334.514   48.732    0.336   13.493
  335.335   50.043    0.339   15.529
  336.155   52.986    0.341   19.599
  336.975   55.127    0.343   18.633
  337.795   55.609    0.347   17.499
  338.615   54.432    0.356   17.025
  339.436   53.629    0.356   15.882
  340.256   52.425    0.359   14.589
  341.076   50.405    0.364   15.956
  341.896   50.044    0.365   20.203
  342.717   54.258    0.363   20.073
  343.537   55.570    0.360   19.450
  344.357   53.964    0.350   19.134
  345.177   53.590    0.339   18.837
  345.997   53.229    0.334   18.548
  346.818   50.781    0.330   18.567
  347.638   46.286    0.329   18.948
  348.458   47.169    0.334   18.650
  349.278   47.637    0.345   18.344
  350.098   46.875    0.354   17.730
  350.919   46.487    0.359   17.414
  351.739   48.226    0.364   16.447
  352.559   47.838    0.369   14.970
  353.379   49.150    0.377   12.163
  354.199   52.508    0.383   11.689
  355.020   58.796    0.385   10.722
  355.840   68.829    0.388    9.746
  356.660   71.358    0.395    9.281
  357.480   78.462    0.400    8.984
  358.301   79.760    0.406    8.863
  359.121   81.900    0.413    8.900
  359.941   85.285    0.417    8.937
  360.761   87.827    0.423    9.485
  361.581   91.185    0.434    9.671
  362.402   98.717    0.447   10.210
  363.222  104.163    0.456   10.768
  364.042  101.755    0.458   10.628
  364.862  100.136    0.447   10.322
  365.682   98.103    0.436    9.690
  366.503   95.681    0.430    8.388
  367.323   94.477    0.436    7.245
  368.143   98.678    0.443    7.617
  368.963  112.846    0.453    8.007
  369.783  118.706    0.461    8.053
  370.604  124.164    0.475    8.239
  371.424  123.388    0.476    8.276
  372.244  119.723    0.471    8.146
  373.064  121.435    0.468    8.025
  373.885  121.890    0.465    8.053
  374.705  120.700    0.463    7.923
  375.525  118.667    0.463    7.969
  376.345  115.402    0.463    8.016
  377.165  114.212    0.463    8.043
