~Version : LASO    vs 4.00
VERS.                2.00:   CWLS Log ASCII Standard -VERSION 2.0
WRAP.                  NO:
~Well Information Block
#MNEM.UNIT       Data                        Description of Mnemonic
#----.----      -------------------------- : -----------------------------
COMP.                                     : COMPANY
FLD .    WILDCAT                          : FIELD NAME
LOC .    02-32-090-08W4                   : WELL LOCATION
UWI .    AA/02-32-090-08W400              : UNIQUE WELL ID
STRT.M             0.0000:
STOP.M           201.3750:
STEP.M             0.1250:
NULL.           -999.2500:
COMP.  :COMPANY
WELL.  MOBIL CLARKE OV 2-32:WELL
FLD.   :FIELD
LOC.   :LOCATION
CTRY.  :COUNTRY
PROV.  ALBERTA:PROVINCE
SRVC.  DRESSER ATLAS:SERVICE COMPANY
DATE.  17-FEB-81:LOG DATE
UWI.   :UNIQUE WELL ID
~Parameter Information Block
#MNEM.UNIT       Data                        Description of Mnemonic
#----.----      -------------------------- : -----------------------------
RUN .                   1                 : Run Number
GL  .M           431.8000                 : Ground Level Elevation
DREF.                  KB                 : Depth Reference
EREF.M           431.8000                 : Elevation of Depth Reference
TDL .M           202.0000                 : Total Depth Logger
TDD .M           201.6000                 : Total Depth Driller
BHT .DEGC         20.0000                 : Bottom Hole Temperature
BS  .MM          159.0000                 : Bit Size
DFD .             10.3000                 : Mud Weight (Density)
DFV .             85.0000                 : Mud Viscosity
DFPH.             10.0000                 : Mud pH
RM  .OHMM          4.9000                 : Mud Resistivity
RMT .DEGC         20.0000                 : Mud Resistivity Temperature
RMF .OHMM          4.7000                 : Mud Filtrate Resistivity
RMFT.DEGC         10.0000                 : RMF Temperature
RMC .OHMM          9.5000                 : Mud Cake Resistivity
RMCT.DEGC         10.0000                 : RMC Temperature
~Curve Information Block
#MNEM.UNIT        API CODE    Curve Description
#---------    ------------    -------------------------------------------
DEPT.M                    :   DEPTH
CALI.MM       42 280  1  1:   3 DENSITY CALIPER
DPHI.V/V                  :   DPHI
DT  .US/M     60 520 42  1:   2 SONIC INTERVAL TRANSIT TIME (COMPENSATED)
GR  .GAPI     42 310  1  1:   4 GAMMA RAY
IL  .OHMM      5 120 45  1:   7 INDUCTION
NPHI.V/V      42 890  3  1:   5 NEUTRON POROSITY (SANDSTONE)
RHOB.K/M3     42 350  1  1:   6 BULK DENSITY
SFL .OHMM      5 220  6  1:   8 FOCUSSED RESISTIVITY
SP  .MV        5  10  1  1:   9 SPONTANEOUS POTENTIAL
~A  Depth           CALI        DPHI          DT          GR          IL        NPHI        RHOB         SFL          SP
# ...
184.2500        165.8000      0.2553    444.4000     96.0150      8.7750      0.3570   2233.6001     10.1400    -33.5500
184.3750        164.2000      0.2554    431.1600     89.6850      9.2650      0.3595   2231.8000      9.3450    -34.4200
184.5000        161.0000      0.2622    421.3200     81.4800      9.7600      0.3503   2226.7000     10.8750    -38.1600
184.6250        161.7250      0.2665    404.8800     72.1350     10.1850      0.3197   2224.8999     15.6550    -46.7600
184.7500        162.7250      0.2713    397.7600     62.8050     10.6150      0.2922   2233.0000     21.4750    -55.1000
184.8750        163.0750      0.2781    393.3600     53.4600     11.0450      0.2765   2245.8000     26.0750    -61.7000
185.0000        161.7250      0.2854    393.6000     41.2200     11.5350      0.2683   2249.7000     24.2950    -63.0700
185.1250        161.0250      0.2907    394.6000     37.5600     11.9650      0.2693   2211.6001     18.4150    -60.4600
185.2500        160.1500      0.3019    396.3200     35.4750     12.2100      0.2755   2199.8999     18.3500    -58.9600
185.3750        158.5000      0.3089    405.6400     30.9000     12.3950      0.2789   2185.7000     20.0700    -63.2000
185.5000        158.3750      0.3173    410.2800     30.2700     12.5200      0.2818   2171.0000     19.7600    -66.8100
185.6250        159.7000      0.3217    415.6800     28.9200     12.8250      0.2978   2156.3000     16.8800    -68.0600
185.7500        159.2250      0.3234    421.6000     27.1800     13.2550      0.3119   2145.2000     16.2100    -70.5500
185.8750        158.4500      0.3207    422.3200     26.3850     13.8700      0.3146   2138.8999     18.3500    -76.9000
186.0000        157.1750      0.3173    424.0400     24.4050     14.7250      0.3134   2129.3999     22.7650    -79.3900
186.1250        156.6750      0.3146    431.6400     22.1400     16.0150      0.3245   2126.2000     33.9150    -78.0200
186.2500        156.6750      0.3104    462.8000     21.1650     18.1000      0.3285   2124.5000     60.0500    -73.7800
186.3750        157.5000      0.3084    526.1200     22.9950     21.5350      0.3257   2129.8000    103.0500    -68.9300
186.5000        159.3750      0.3096    454.9600     23.7900     26.5700      0.3200   2135.2000    160.0500    -65.8100
186.6250        161.0250      0.3111    405.1200     21.1800     31.4150      0.3148   2139.5000    171.1000    -64.3200
186.7500        162.0500      0.3130    403.4400     19.6800     37.3050      0.3112   2142.2000    182.1000    -63.0700
186.8750        162.6250      0.3170    400.9600     17.8950     43.5600      0.3151   2142.2000    278.3000    -62.7000
187.0000        162.6000      0.3198    400.0000     17.1600     48.4700      0.3160   2137.1001    570.4999    -62.9500
187.1250        162.6000      0.3224    397.2800     17.1600     51.3500      0.3141   2133.7000    969.4999    -64.3200
187.2500        162.2500      0.3248    399.0000     17.7600     52.7000      0.3223   2129.3999    783.9999    -65.0700
187.3750        161.5500      0.3255    423.0400     17.3100     53.4000      0.3269   2116.2000    599.9999    -65.4400
187.5000        160.8500      0.3257    409.5600     16.5450     53.9000      0.3288   2103.3000    507.5000    -65.6900
187.6250        160.5750      0.3234    398.7600     16.5450     54.3000      0.3303   2100.0000    455.9999    -65.8100
187.7500        160.5500      0.3210    379.6000     17.3100     53.1500      0.3272   2096.6001    457.8500    -66.0600
187.8750        160.2250      0.3163    396.3200     18.5250     49.4500      0.3280   2094.7000    498.9000    -66.6800
188.0000        159.7000      0.3095    453.0000     18.9300     44.3600      0.3238   2097.3000    501.9500    -67.9300
188.1250        159.5250      0.3025    532.7600     18.5850     37.2400      0.3280   2102.8000    480.5000    -68.9300
188.2500        159.5250      0.2955    483.6800     19.9650     28.9600      0.3157   2134.5000    368.4000    -69.4300
188.3750        159.0000      0.2894    428.9600     21.9600     23.1300      0.3087   2142.3999    212.1500    -70.0500
188.5000        158.5000      0.2773    440.0000     23.9400     18.5300      0.3040   2152.5000     83.7500    -71.0400
188.6250        158.2750      0.2423    444.1600     26.8800     15.0950      0.3040   2154.8999     41.4550    -71.9200
188.7500        157.5750      0.2176    444.1600     30.9450     12.8250      0.3081   2189.5000     24.1100    -73.9100
188.8750        156.6000      0.2018    480.2400     34.7850     11.1700      0.3106   2247.3999     20.8650    -76.5200
189.0000        156.4750      0.1794    459.8800     37.9500     10.3100      0.2962   2305.2000     20.4350    -78.3900
189.1250        155.5250      0.1590    414.7200     40.6950      9.7600      0.2923   2363.1001     18.9650    -76.0300
189.2500        154.4750      0.1336    367.6000     45.0750      9.3300      0.2975   2420.8999     12.0400    -68.5500
189.3750        153.1250      0.1184    398.0400     49.9200      9.2050      0.3049   2469.1001     10.2650    -60.0800
189.5000        152.9500      0.1074    376.2000     56.5950      9.1450      0.3008   2475.5000     11.1200    -53.4800
189.6250        153.4250      0.0925    369.5600     60.8700      9.3300      0.2972   2540.1001     14.3700    -50.7400
189.7500        154.0000      0.0811    361.4400     61.4550      9.6950      0.2908   2564.3999     16.2700    -48.5000
189.8750        154.6250      0.0673    348.4400     61.3650     10.4350      0.2729   2568.0000     18.5950    -46.8800
190.0000        156.0250      0.0536    345.7600     56.8800     11.3550      0.2602   2569.6001     19.7000    -45.1400
190.1250        158.4000      0.0535    343.5600     54.3150     12.2100      0.2486   2556.3000     20.1900    -43.5200
190.2500        157.2500      0.0558    340.3600     55.1100     12.8850      0.2460   2552.6001     19.7600    -42.1500
190.3750        156.5750      0.0513    325.8800     56.8500     13.3750      0.2460   2559.8000     19.7000    -41.0300
190.5000        156.3750      0.0511    314.6000     58.0650     13.5000      0.2440   2560.2000     20.3150    -40.0300
190.6250        155.5750      0.0521    301.8400     58.4100     13.3750      0.2380   2547.1001     21.6600    -39.4100
190.7500        154.8250      0.0554    345.2800     58.4100     13.2550      0.2319   2540.3000     25.3400    -39.1600
190.8750        154.3250      0.0590    356.5600     58.3950     13.1300      0.2258   2526.1001     24.2350    -39.1600
191.0000        154.3250      0.0626    353.3600     58.7850     12.8850      0.2357   2529.5000     18.1700    -38.7800
191.1250        153.8750      0.0620    364.1600     60.0000     12.5200      0.2618   2535.2000     14.3100    -38.5300
191.2500        153.3500      0.0598    365.1200     65.1150     12.3350      0.2633   2540.0000     16.0250    -38.5300
191.3750        152.6750      0.0574    362.4400     70.1250     12.0300      0.2592   2540.8000     17.7400    -38.7800
191.5000        152.3000      0.0564    367.1200     70.9800     11.6000      0.2592   2541.6001     17.9250    -38.7800
191.6250        152.2750      0.0548    369.0800     73.1700     11.3550      0.2662   2560.7000     16.9450    -38.9100
191.7500        152.2750      0.0517    369.8000     77.4300     11.2300      0.2645   2574.5000     17.8600    -39.2800
191.8750        152.2750      0.0537    369.5600     79.9500     11.1100      0.2615   2556.8000     18.6600    -38.9100
192.0000        152.2500      0.0560    375.2000     79.3200     10.8600      0.2631   2539.6001     18.1050    -39.0300
192.1250        152.2500      0.0594    379.8800     78.0900     10.7400      0.2716   2540.7000     17.0650    -39.6600
192.2500        152.2500      0.0629    386.2400     76.4400     10.7400      0.2754   2550.3000     17.0650    -39.0300
192.3750        152.2250      0.0635    404.1600     77.6700     10.6150      0.2740   2555.2000     17.7400    -36.5400
192.5000        151.8750      0.0621    369.5600     78.6450     10.4350      0.2691   2544.8999     17.1900    -35.7900
