~Version : LASO    vs 4.00 
VERS.                2.00:   CWLS Log ASCII Standard -VERSION 2.0
WRAP.                  NO:
~Well Information Block
#MNEM.UNIT       Data                        Description of Mnemonic
#----.----      -------------------------- : -----------------------------
STRT.M            15.0000:
STOP.M           207.0000:
STEP.M             0.2000:
NULL.           -999.2500:
COMP.  MOBIL OIL CANADA                   :COMPANY
WELL.  MOBIL CLARKE OV 1-2                :WELL
FLD.                                      :FIELD
LOC.   01-02-090-08W4                     :LOCATION
CTRY.  CANADA                             :COUNTRY
PROV.  ALBERTA                            :PROVINCE
SRVC.  SCHLUMBERGER                       :SERVICE COMPANY
DATE.  05-MAR-81                          :LOG DATE
UWI.   AA/01-02-090-08W400                :UNIQUE WELL ID
~Parameter Information Block
#MNEM.UNIT       Data                        Description of Mnemonic
#----.----      -------------------------- : -----------------------------
RUN .                   1                 : Run Number
GL  .M           444.4000                 : Ground Level Elevation
DREF.                  KB                 : Depth Reference
EREF.M           444.4000                 : Elevation of Depth Reference
TDL .M           207.0000                 : Total Depth Logger
TDD .M           206.0000                 : Total Depth Driller
CSGL.M            27.0000                 : Casing Bottom Logger
CSGD.M            26.4000                 : Casing Bottom Driller
CSGS.MM          219.0000                 : Casing Size
CSGW.KG/M          0.0000                 : Casing Weight
BS  .MM          159.0000                 : Bit Size
DFD .           9999.0000                 : Mud Weight (Density)
~Curve Information Block
#MNEM.UNIT        API CODE    Curve Description
#---------    ------------    -------------------------------------------
DEPT.M                    :   DEPTH
CALI.MM       42 280  1  1:   3 DENSITY CALIPER
DPHI.V/V                  :   DPHI
DT  .US/M     60 520  0  1:   2 SONIC INTERVAL TRANSIT TIME (COMPENSATED)
GR  .GAPI     42 310  1  1:   4 GAMMA RAY
ILD .OHMM      5 120 46  1:   7 DEEP INDUCTION
ILM .OHMM      5 120 44  1:   8 MEDIUM INDUCTION
NPHI.V/V      42 890  3  1:   5 NEUTRON POROSITY (SANDSTONE)
RHOB.K/M3     42 350  1  1:   6 BULK DENSITY
SFLU.OHMM      5 220  1  1:   9 FOCUSSED RESISTIVITY
SP  .MV        5  10  1  1:   10 SPONTANEOUS POTENTIAL
~A  Depth           CALI        DPHI          DT          GR         ILD         ILM        NPHI        RHOB        SFLU          SP
# ...
27.2000         236.8750      0.2967    418.8400     25.1700      1.6152   3622.6792      0.4340   2219.0000     34.0275    101.5050
27.4000         257.1750      0.2929    455.7600     25.8750      8.3220      7.5202      0.3790   2166.0000     66.0435     85.5600
27.6000         261.0000      0.2878     54.6000     26.0700    132.9933     61.9199      0.3658   2171.0000     80.1364     80.0550
27.8000         261.0000      0.2830     40.6400     26.1750   7168.5264   3155.2217      0.3690   2195.0000    134.2239     74.8500
28.0000         268.6250      0.3050     25.0800     27.9750  90163.3125   1766.1594      0.3810   2146.0000    121.2914     65.7000
28.2000         277.5000      0.3176     18.5200     29.7750   4399.7690   3935.7715      0.3954   2110.0000    185.2806     62.8050
28.4000         254.6500      0.3271     21.9600     30.8700    197.6196  14949.6104      0.3950   2026.0000    373.1040     59.7000
28.6000         236.8750      0.3363    107.0800     32.1750     55.4409     71.0935      0.3872   2008.0000     71.7513     55.8000
28.8000         254.6500      0.3500    391.1200     32.1750     80.1364     51.9792      0.4046   1994.0000     73.7615     55.0050
29.0000         285.1250      0.3419    653.5600     32.4750     70.4417   2877.5964      0.4198   1946.0000     89.5014     54.7050
29.2000         266.0750      0.3242    643.2000     32.5800     59.6802  28749.4707      0.3950   1945.0000    369.6834     55.0500
29.4000         236.8750      0.2971    558.6000     35.2800    228.9971     53.4355      0.2928   2296.8999     63.0710     56.1450
29.6000         236.8750      0.2778    511.6800     36.3750   2011.0825     47.4056      0.2876   2390.0000     52.4602     55.8450
29.8000         239.4000      0.2590    469.5200     37.2750    167.4287     48.2870      0.3052   2393.0000     45.2720     54.6450
30.0000         241.9500      0.2343    465.9200     39.1800     37.6556     40.9100      0.3526   2301.0000     40.9100     54.1950
30.2000         238.1250      0.2097    478.4000     38.3850     32.4960     36.3270      0.3564   2249.0000     38.3557     54.4050
30.4000         234.3250      0.1890    474.1200     37.5750     26.2924     35.0131      0.3456   2290.0000     34.3423     55.5450
30.6000         236.8750      0.1710    461.8400     37.3800     34.6601     34.0588      0.3206   2397.0000     29.9109     56.2500
30.8000         236.8750      0.1566    451.6400     37.5750     34.6601     34.3740      0.3088   2423.0000     31.3206     55.7550
31.0000         238.1250      0.1459    440.0000     38.5800     34.6601     34.6920      0.3006   2390.0000     32.4960     55.0050
31.2000         239.4000      0.1600    418.3600     39.5850     34.6601     34.6920      0.3084   2395.0000     33.1001     53.7000
31.4000         238.1250      0.1699    430.0000     38.3850     34.6601     33.7466      0.3182   2334.0000     33.1001     52.7550
31.6000         231.7750      0.1928    458.8800     36.3750     34.3423     33.4372      0.3156   2299.0000     31.6104     52.6950
31.8000         233.0500      0.2133    455.6000     33.6750     33.1001     32.5259      0.2928   2325.0000     28.8290     52.8000
32.0000         233.0500      0.2236    427.7200     32.1750     32.4960     32.2277      0.2946   2436.0000     28.8290     52.8000
32.2000         227.9750      0.1853    455.9200     30.9750     32.4960     31.9323      0.3004   2426.0000     28.8290     52.2000
32.4000         226.7000      0.1459    508.7200     30.9750     32.7967     31.0620      0.3108   2402.0000     28.5647     50.5500
32.6000         236.8750      0.1611    431.8000     36.7800     32.4960     31.9323      0.3462   2336.0000     29.0958     47.2950
32.8000         244.5000      0.1946    447.8800     39.1800     32.1981     34.6920      0.3796   2296.8999     33.1001     45.8550
33.0000         271.1500      0.2194    479.7200     40.2750     31.9029     34.6920      0.3934   2242.0000     37.3104     45.0450
33.2000         247.0250      0.2292    532.0000     40.1850     31.3206     31.3495      0.3526   2186.0000     29.9109     47.5500
33.4000         249.5750      0.2124    533.3200     40.8750     31.6104     30.7773      0.3266   2283.0000     25.8125     50.2050
33.6000         226.7000      0.1870    504.8000     41.5800     31.6104     30.7773      0.3088   2397.8999     26.2924     52.6050
33.8000         221.6250      0.1591    439.6800     43.1850     32.1981     31.3495      0.2848   2487.0000     27.5315     53.8500
34.0000         221.6250      0.1255    423.1200     43.7850     32.4960     32.2277      0.2870   2495.0000     27.2791     53.9550
34.2000         212.7500      0.1025    420.1600     43.4850     32.4960     32.8269      0.2936   2492.0000     29.0958     53.9999
34.4000         214.0000      0.1009    374.4000     39.5850     32.4960     33.4372      0.2958   2503.0000     34.3423     53.7000
34.6000         206.3750      0.0971    287.0000     38.7750     32.7967     32.8269      0.2902   2468.0000     34.9808     53.5500
34.8000         203.8500      0.1031    387.2000     38.3850     33.1001     32.2277      0.2868   2458.0000     33.4064     53.4450
35.0000         203.8500      0.1169    349.0000     38.5800     33.4064     32.2277      0.2952   2457.0000     30.1877     51.9450
35.2000         201.3000      0.1123    378.6800     38.7750     33.1001     32.8269      0.3012   2474.0000     30.7489     50.9550
35.4000         202.5750      0.1066    425.6000     38.2800     33.1001     33.1306      0.3060   2485.0000     31.0334     49.8450
35.6000         210.2000      0.1009    422.9600     37.9800     33.1001     33.7466      0.3116   2491.0000     31.0334     48.6000
35.8000         206.3750      0.1110    416.4000     39.4800     33.1001     33.1306      0.3088   2425.0000     30.7489     46.8450
36.0000         206.3750      0.1234    427.0400     41.1750     33.4064     32.8269      0.3086   2394.0000     30.1877     46.7550
36.2000         217.8250      0.1430    437.7200     43.7850     33.4064     32.8269      0.3166   2426.0000     29.9109     46.8450
36.4000         217.8250      0.1433    435.2400     49.6800     33.7155     32.8269      0.3204   2443.0000     31.0334     47.2050
36.6000         208.9250      0.1341    423.9600     50.6850     34.0275     32.5259      0.3136   2469.0000     31.0334     47.4450
36.8000         206.3750      0.1205    417.7200     48.2850     34.0275     32.5259      0.3058   2442.0000     30.1877     47.8950
37.0000         217.8250      0.1182    415.4000     39.2850     34.6601     34.3740      0.2982   2455.0000     31.9029     49.0050
37.2000         243.2250      0.1175    374.9200     37.3800     34.6601     34.3740      0.2976   2437.0000     32.1981     49.3950
37.4000         214.0000      0.1234    256.4800     37.2750     34.3423     35.3370      0.2936   2422.0000     32.4960     49.6500
37.6000         203.8500      0.1298    349.8000     38.6850     34.9808     34.6920      0.2822   2397.8999     33.4064     49.2450
37.8000         205.1250      0.1362    360.4800     39.0750     34.9808     34.3740      0.2814   2388.0000     33.4064     49.6950
38.0000         197.5000      0.1451    397.2000     39.1800     34.9808     34.6920      0.2894   2379.0000     32.4960     50.2500
38.2000         188.6000      0.1529    426.4000     39.9750     34.9808     35.0131      0.3036   2429.0000     31.3206     50.9999
38.4000         196.2250      0.1439    421.6400     40.3800     34.6601     35.3370      0.3000   2438.0000     33.1001     51.1050
38.6000         193.6750      0.1340    415.9200     40.7850     34.6601     35.3370      0.2958   2413.0000     34.3423     51.3000
38.8000         198.7750      0.1341    417.7200     41.0850     34.3423     35.0131      0.2940   2421.0000     35.6312     51.7500
39.0000         197.5000      0.1418    405.7200     41.2800     34.6601     34.6920      0.2886   2448.0000     34.0275     52.8000
39.2000         200.0250      0.1346    411.0000     40.5750     34.6601     34.6920      0.2868   2462.0000     33.1001     53.7450
