~VERSION INFORMATION
 VERS.                 2.0:   CWLS LOG ASCII STANDARD -VERSION 2.0
 WRAP.                  NO:   ONE LINE PER DEPTH STEP
~WELL INFORMATION BLOCK
#MNEM.UNIT           DATA                    DESCRIPTION OF MNEMONIC
#---------    -------------------            -------------------------------
# Generated from Intellog Unique Number	CN_91_93/WELL/3647
WELL.         01-32-093-11W4                 : Well_name    - WELL
LOC .         AA/01-32-093-11W4/0            : Location     - LOCATION
UWI .         AA/01-32-093-11W400            : Uwi          - UNIQUE WELL ID
ENTR.         JOETTE                         : Entered      - ENTERED BY
SRVC.         SCHLUMBERGER                   : Scn          - SERVICE COMPANY
DATE.         03/20/92                       : Date         - LOG DATE
STRT.M        0                              : top_depth    - START DEPTH
STOP.M        106                            : bot_depth    - STOP DEPTH
STEP.M        0.25                           : increment    - STEP LENGTH
 NULL. -999.2500:NULL Value
~CURVE INFORMATION BLOCK
#MNEM UNIT       ERCB CURVE CODE    CURVE DESCRIPTION
#-----------   ------------------   ----------------------------------
DEPT.M        00 001 00 00         : DEPTH        - DEPTH
GR  .API      00 310 00 00         : GR           - GAMMA RAY
NPHI.V/V      00 330 00 00         : PHIN         - NEUTRON POROSITY (SANDSTONE)
DPHI.V/V      00 890 00 00         : PHID         - DENSITY POROSITY (SANDSTONE)
ILD .OHMM     00 120 00 00         : RESD         - DEEP RESISTIVITY (DIL)
~PARAMETER INFORMATION
#MNEM.UNIT           DATA             DESCRIPTION OF MNEMONIC
#---------         -----------     ------------------------------
GL  .M        328.8                : gl           - GROUND LEVEL ELEVATION
EREF.M        328.8                : kb           - ELEVATION OF DEPTH REFERENCE
DATM.M        328.8                : datum        - DATUM ELEVATION
TDD .M        107.9                : tdd          - TOTAL DEPTH DRILLER
RUN .         ONE                  : Run          - RUN NUMBER
ENG .         JO                   : Engineer     - RECORDING ENGINEER
WIT .         TIM                  : Witness      - WITNESSED BY
MUD .         GEL                  : Mud_type     - MUD TYPE
MATR.         SANDSTONE            : Logunit      - NEUTRON MATRIX
TMAX.C        6                    : BHT          - MAXIMUM RECORDED TEMPERATURE
BHTD.M        107.9                : BHTDEP       - MAXIMUM RECORDED TEMPERATURE
RMT .C        7                    : MDTP         - TEMPERATURE OF MUD
MUDD.KG/M     1000                 : MWT          - MUD DENSITY
NEUT.         1                    : NEUTRON      - NEUTRON TYPE
RESI.         0                    : RESIST       - RESISTIVITY TYPE
RM  .OHMM     5.5                  : RM           - RESISTIVITY OF MUD
RMC .OHMM     5.5                  : RMC          - RESISTIVITY OF MUD CAKE
RMF .OHMM     5.5                  : RMF          - RESISTIVITY OF MUD FILTRATE
SUFT.C        4                    : SUFT         - SURFACE TEMPERATURE
~A  DEPTH       GR     PHIN     PHID     RESD
# ...
   43.500   47.023    0.188    0.383   27.726
   43.750   54.533    0.194    0.376   20.725
   44.000   49.678    0.195    0.373   21.904
   44.250   46.935    0.155    0.343   16.148
   44.500   36.955    0.123    0.328   43.779
   44.750   22.453    0.095    0.337  202.320
   45.000   19.703    0.102    0.373  108.458
   45.250   20.884    0.082    0.364   68.182
   45.500   24.773    0.081    0.331   64.949
   45.750   28.060    0.111    0.351   71.062
   46.000   29.841    0.142    0.369   76.151
   46.250   30.113    0.173    0.374   49.218
   46.500   37.321    0.194    0.373   42.257
   46.750   51.763    0.214    0.345   31.807
   47.000   43.595    0.243    0.335   33.154
   47.250   46.881    0.259    0.334   36.526
   47.500   45.642    0.259    0.334   36.522
   47.750   38.677    0.263    0.333   38.600
   48.000   49.507    0.312    0.332   28.457
   48.250   45.859    0.322    0.326   33.600
   48.500   42.210    0.326    0.324   27.105
   48.750   45.198    0.364    0.324   28.647
   49.000   41.851    0.363    0.321   26.177
   49.250   46.039    0.360    0.317   23.267
   49.500   49.331    0.376    0.318   29.038
   49.750   44.175    0.397    0.312   26.720
   50.000   36.306    0.397    0.304   29.437
   50.250   39.894    0.404    0.293   28.829
   50.500   44.687    0.409    0.304   31.762
   50.750   33.803    0.411    0.308   33.337
   51.000   46.137    0.418    0.312   28.034
   51.250   40.378    0.414    0.294   32.646
   51.500   35.524    0.409    0.297   21.843
   51.750   31.876    0.471    0.306   38.810
   52.000   32.150    0.431    0.311   32.411
   52.250   38.753    0.442    0.309   45.821
   52.500   37.516    0.425    0.320   28.805
   52.750   47.137    0.439    0.313   26.690
   53.000   42.584    0.407    0.285   32.624
   53.250   50.091    0.420    0.303   30.019
   53.500   48.255    0.407    0.307   44.548
   53.750   49.126    0.404    0.316   22.129
   54.000   42.466    0.442    0.309   36.687
   54.250   37.611    0.522    0.304   50.449
   54.500   38.184    0.399    0.302   44.841
   54.750   41.172    0.389    0.294   36.677
   55.000   41.443    0.360    0.276   75.372
   55.250   40.508    0.374    0.264   37.700
   55.500   52.843    0.395    0.276   37.437
   55.750   64.875    0.422    0.278   23.698
   56.000   64.242    0.418    0.275   30.831
   56.250   70.838    0.469    0.280   12.270
   56.500   60.262    0.436    0.297   20.915
   56.750   57.216    0.451    0.258   25.565
   57.000   46.031    0.330    0.261   45.110
   57.250   48.415    0.352    0.253   38.731
   57.500   59.541    0.395    0.252   13.607
   57.750   60.113    0.416    0.286   24.857
   58.000   51.339    0.449    0.291   12.871
   58.250   63.372    0.438    0.282   12.261
   58.500   58.216    0.436    0.300   14.679
   58.750   57.881    0.445    0.299   18.835
   59.000   57.556    0.430    0.301   15.513
   59.250   64.761    0.459    0.269    7.392
   59.500   50.862    0.337    0.227   90.719
   59.750   35.757    0.301    0.287   29.946
   60.000   50.801    0.440    0.284    9.352
   60.250   62.834    0.449    0.269   11.672
   60.500   67.025    0.428    0.274   10.161
   60.750   66.997    0.434    0.288    9.350
   61.000   71.188    0.486    0.276   12.248
   61.250   75.985    0.451    0.277    9.745
   61.500   72.337    0.408    0.265   18.301
   61.750   63.261    0.411    0.270    8.904
   62.000  100.620    0.478    0.274   11.425
   62.250   96.369    0.453    0.267   12.074
   62.500   86.084    0.426    0.264   21.904
   62.750   81.534    0.442    0.265   32.058
   63.000   79.397    0.441    0.285   44.389
   63.250   80.572    0.423    0.296   25.503
   63.500   76.321    0.402    0.282   45.946
   63.750   77.192    0.407    0.294   82.775
   64.000   82.293    0.427    0.302   44.373
   64.250   92.816    0.396    0.293   23.137
   64.500  126.861    0.415    0.225   11.025
   64.750  116.881    0.389    0.231   17.174
   65.000   93.632    0.354    0.269   18.151
   65.250   95.408    0.343    0.281   17.410
   65.500   91.766    0.371    0.277   17.774
   65.750   79.974    0.394    0.277   19.994
   66.000   80.851    0.411    0.287   18.525
   66.250   85.041    0.412    0.278   20.983
   66.500   91.346    0.388    0.278   22.642
   66.750   81.058    0.389    0.281   36.010
   67.000   84.351    0.405    0.287   34.066
   67.250   98.192    0.403    0.272   20.830
   67.500   93.037    0.408    0.266   17.038
   67.750  110.795    0.410    0.267   17.274
   68.000  103.833    0.371    0.244   20.396
   68.250   89.930    0.376    0.255   19.030
   68.500   83.267    0.347    0.242   16.002
   68.750   77.207    0.377    0.250   29.435
   69.000   66.624    0.360    0.274   37.248
   69.250   54.534    0.371    0.272   46.809
   69.500   48.775    0.391    0.275   44.282
   69.750   58.392    0.356    0.275   38.550
   70.000   54.747    0.384    0.273   23.409
   70.250   52.305    0.392    0.264   31.311
   70.500   49.257    0.390    0.270   37.227
   70.750   46.211    0.376    0.297   38.535
   71.000   49.202    0.360    0.291   41.010
   71.250   44.046    0.383    0.296   37.475
   71.500   45.222    0.409    0.292   43.640
   71.750   42.779    0.397    0.300   96.781
   72.000   33.704    0.384    0.310   28.596
   72.250   43.023    0.388    0.305   50.110
   72.500   45.402    0.384    0.294   49.760
   72.750   48.993    0.407    0.303   54.822
   73.000   45.043    0.428    0.295   36.935
   73.250   45.016    0.427    0.291   38.233
   73.500   43.478    0.432    0.295   95.386
   73.750   39.223    0.429    0.310   56.732
   74.000   46.131    0.441    0.317   56.335
   74.250   43.691    0.379    0.288   42.699
   74.500   46.374    0.446    0.282   23.532
   74.750   39.108    0.431    0.306   40.670
   75.000   39.078    0.398    0.303   82.427
   75.250   34.827    0.423    0.308   33.494
   75.500   36.005    0.438    0.308   58.693
   75.750   39.590    0.405    0.316   36.138
   76.000   43.787    0.409    0.293   90.160
   76.250   44.359    0.399    0.310  156.903
   76.500   37.696    0.389    0.310   70.737
   76.750   39.475    0.437    0.310   48.659
   77.000   42.764    0.429    0.314   70.723
   77.250   34.590    0.405    0.306   93.941
   77.500   38.178    0.427    0.304   37.130
   77.750   42.977    0.442    0.294   48.979
   78.000   41.440    0.415    0.324   82.907
   78.250   44.726    0.414    0.311  126.488
   78.500   34.746    0.430    0.323  113.208
   78.750   33.510    0.429    0.321   57.020
   79.000   30.467    0.381    0.314   70.671
   79.250   33.753    0.408    0.312   68.258
   79.500   42.162    0.440    0.321   97.171
   79.750   37.009    0.454    0.334   49.970
   80.000   34.269    0.438    0.325   54.673
   80.250   34.540    0.436    0.317   51.009
   80.500   39.933    0.415    0.325  130.835
   80.750   40.814    0.420    0.301   66.356
   81.000   54.351    0.399    0.302   85.732
   81.250   56.732    0.443    0.318   48.915
   81.500   51.878    0.419    0.305   90.598
   81.750   53.355    0.425    0.313   96.418
   82.000   50.310    0.450    0.319  128.073
   82.250   52.095    0.448    0.315   91.838
   82.500   54.175    0.453    0.309   41.404
   82.750   40.577    0.459    0.331   79.391
   83.000   41.147    0.418    0.327   59.757
   83.250   43.227    0.408    0.323  110.684
   83.500   43.501    0.426    0.312  100.445
   83.750   39.856    0.464    0.321   65.824
   84.000   40.428    0.484    0.328  157.536
   84.250   34.067    0.465    0.338   72.012
   84.500   32.526    0.456    0.338   80.445
   84.750   33.105    0.461    0.340  139.030
   85.000   28.247    0.449    0.335  257.512
   85.250   33.345    0.431    0.334  371.694
   85.500   34.219    0.437    0.331  270.256
   85.750   28.461    0.416    0.333  384.725
   86.000   25.415    0.418    0.327  330.315
   86.250   24.782    0.434    0.325  319.040
   86.500   23.549    0.426    0.327  346.662
   86.750   30.754    0.425    0.324  376.667
