~VERSION INFORMATION
 VERS.                 2.0:   CWLS LOG ASCII STANDARD -VERSION 2.0
 WRAP.                  NO:   ONE LINE PER DEPTH STEP
~WELL INFORMATION BLOCK
#MNEM.UNIT           DATA                    DESCRIPTION OF MNEMONIC
#---------    -------------------            -------------------------------
# Generated from Intellog Unique Number	CN_94_101/WELL/3362
WELL.         06-09-095-10W4                 : Well_name    - WELL
LOC .         AA/06-09-095-10W4/0            : Location     - LOCATION
UWI .         AA/06-09-095-10W400            : Uwi          - UNIQUE WELL ID
ENTR.         JOETTE                         : Entered      - ENTERED BY
SRVC.         SCHLUMBERGER                   : Scn          - SERVICE COMPANY
DATE.         07/24/92                       : Date         - LOG DATE
STRT.M        2.5                            : top_depth    - START DEPTH
STOP.M        90                             : bot_depth    - STOP DEPTH
STEP.M        0.25                           : increment    - STEP LENGTH
 NULL. -999.2500:NULL Value
~CURVE INFORMATION BLOCK
#MNEM UNIT       ERCB CURVE CODE    CURVE DESCRIPTION
#-----------   ------------------   ----------------------------------
DEPT.M        00 001 00 00         : DEPTH        - DEPTH
GR  .API      00 310 00 00         : GR           - GAMMA RAY
NPHI.V/V      00 330 00 00         : PHIN         - NEUTRON POROSITY (SANDSTONE)
ILD .OHMM     00 120 00 00         : RESD         - DEEP RESISTIVITY (DIL)
~PARAMETER INFORMATION
#MNEM.UNIT           DATA             DESCRIPTION OF MNEMONIC
#---------         -----------     ------------------------------
GL  .M        0                    : gl           - GROUND LEVEL ELEVATION
EREF.M        0                    : kb           - ELEVATION OF DEPTH REFERENCE
DATM.M        0                    : datum        - DATUM ELEVATION
TDD .M        91.7                 : tdd          - TOTAL DEPTH DRILLER
RUN .         ONE                  : Run          - RUN NUMBER
ENG .         JO                   : Engineer     - RECORDING ENGINEER
WIT .         TIM                  : Witness      - WITNESSED BY
MUD .         GEL                  : Mud_type     - MUD TYPE
MATR.         SANDSTONE            : Logunit      - NEUTRON MATRIX
TMAX.C        18                   : BHT          - MAXIMUM RECORDED TEMPERATURE
BHTD.M        91.7                 : BHTDEP       - MAXIMUM RECORDED TEMPERATURE
RMT .C        18                   : MDTP         - TEMPERATURE OF MUD
MUDD.KG/M     1010                 : MWT          - MUD DENSITY
NEUT.         1                    : NEUTRON      - NEUTRON TYPE
RESI.         0                    : RESIST       - RESISTIVITY TYPE
RM  .OHMM     6.5                  : RM           - RESISTIVITY OF MUD
RMC .OHMM     6.5                  : RMC          - RESISTIVITY OF MUD CAKE
RMF .OHMM     6.5                  : RMF          - RESISTIVITY OF MUD FILTRATE
SUFT.C        4                    : SUFT         - SURFACE TEMPERATURE
~A  DEPTH       GR     PHIN     RESD
# ...
   56.750   55.428    0.392   17.332
   57.000   53.456    0.387   29.273
   57.250   35.188    0.370   15.902
   57.500   41.611    0.387   16.120
   57.750   48.527    0.404   16.575
   58.000   45.073    0.387   16.803
   58.250   48.038    0.391   19.906
   58.500   63.843    0.389   18.801
   58.750   75.203    0.396   18.526
   59.000   66.811    0.383   15.615
   59.250   53.975    0.367   17.240
   59.500   43.608    0.373   21.314
   59.750   35.711    0.379   21.604
   60.000   28.306    0.380   24.535
   60.250   22.384    0.385   26.324
   60.500   18.930    0.373   27.063
   60.750   15.477    0.378   24.846
   61.000   13.998    0.389   28.213
   61.250   13.507    0.398   28.600
   61.500   12.522    0.400   17.901
   61.750   12.031    0.395   11.048
   62.000   17.959    0.378   11.359
   62.250   29.813    0.359    9.049
   62.500   33.767    0.345   11.187
   62.750   19.943    0.354   10.125
   63.000   15.502    0.376    8.181
   63.250   32.294    0.399    7.095
   63.500   46.124    0.422    6.068
   63.750   59.953    0.435    6.418
   64.000   82.670    0.433    7.084
   64.250   67.366    0.415    6.882
   64.500   67.368    0.407    6.879
   64.750   57.001    0.400    7.700
   65.000   59.967    0.436    7.272
   65.250   70.339    0.466    6.675
   65.500   62.441    0.479    6.484
   65.750   54.544    0.503    5.869
   66.000   52.571    0.495    5.783
   66.250   61.956    0.486    5.863
   66.500   66.898    0.482    5.859
   66.750   65.419    0.473    5.774
   67.000   66.903    0.470    5.453
   67.250   73.819    0.466    5.149
   67.500   81.722    0.465    5.146
   67.750   78.763    0.463    5.071
   68.000   81.235    0.458    5.213
   68.250   71.361    0.453    5.361
   68.500   63.957    0.457    5.834
   68.750   74.329    0.443    5.999
   69.000   77.789    0.425    5.911
   69.250   80.261    0.423    7.004
   69.500   69.400    0.402    8.067
   69.750   70.390    0.423    7.727
   70.000   86.195    0.424    6.607
   70.250   93.111    0.421    5.649
   70.500  102.989    0.431    5.568
   70.750  106.449    0.444    5.332
   71.000  108.427    0.454    5.107
   71.250  104.479    0.470    4.892
   71.500  107.939    0.483    4.753
   71.750  107.942    0.479    4.683
   72.000  103.006    0.482    4.816
   72.250  115.848    0.491    4.951
   72.500  108.444    0.499    4.949
   72.750  100.547    0.499    4.543
   73.000  101.536    0.495    4.053
   73.250  100.058    0.485    4.109
   73.500   91.172    0.444    5.081
   73.750   76.855    0.416    5.935
   74.000   46.242    0.392    9.883
   74.250   26.493    0.410   11.709
   74.500   31.928    0.436    8.447
   74.750   49.214    0.432   16.913
   75.000   42.303    0.411   15.972
   75.250   20.579    0.414   10.432
   75.500   18.607    0.406    7.010
   75.750   35.398    0.407    4.450
   76.000   60.585    0.437    5.660
   76.250   82.316    0.455    5.578
   76.500   66.516    0.446    4.636
   76.750   85.778    0.451    4.568
   77.000  105.039    0.488    4.832
   77.250  103.561    0.485    4.968
   77.500  110.970    0.475    4.759
   77.750  125.787    0.472    4.558
   78.000  108.507    0.464    4.961
   78.250   92.214    0.443    5.475
   78.500   82.341    0.433    5.630
   78.750   82.838    0.429    5.872
   79.000   86.792    0.410    6.124
   79.250   72.474    0.406    6.664
   79.500   63.094    0.407    7.251
   79.750   54.209    0.419    7.455
   80.000   43.348    0.429    6.844
   80.250   38.413    0.424    7.555
   80.500   38.910    0.424    7.991
   80.750   37.925    0.435    7.029
   81.000   30.521    0.433    6.829
   81.250   30.030    0.430    6.825
   81.500   38.921    0.433    6.919
   81.750   37.936    0.429    6.916
   82.000   32.507    0.427    6.531
   82.250   26.584    0.424    6.168
   82.500   30.044    0.427    6.342
   82.750   39.429    0.437    7.514
   83.000   47.826    0.414    9.290
   83.250   38.941    0.334   11.324
   83.500   34.993    0.270   14.607
   83.750   34.996    0.234   16.123
   84.000   26.605    0.135   17.300
   84.250   22.163    0.113   20.210
   84.500   17.228    0.116   20.780
   84.750   16.737    0.157   19.348
   85.000   29.578    0.181   16.781
   85.250   35.507    0.226   14.762
   85.500   38.966    0.218   13.939
   85.750   38.969    0.207   13.934
   86.000   36.009    0.194   14.327
   86.250   35.025    0.210   14.319
   86.500   39.965    0.236   11.902
   86.750   40.957    0.254   11.562
   87.000   40.465    0.278   11.393
   87.250   46.393    0.280   10.609
   87.500   59.234    0.281    9.072
   87.750   60.225    0.298    8.095
   88.000   76.524    0.324    7.019
   88.250   81.958    0.358    6.723
   88.500   84.430    0.402    6.532
   88.750   82.457    0.415    6.346
   89.000   77.523    0.406    6.165
   89.250   72.587    0.407    5.822
   89.500   78.515    0.415    5.499
   89.750   94.814    0.423    5.266
   90.000   82.471    0.425    5.415
