~VERSION INFORMATION
 VERS.                 2.0:   CWLS LOG ASCII STANDARD -VERSION 2.0
 WRAP.                  NO:   ONE LINE PER DEPTH STEP
~WELL INFORMATION BLOCK
#MNEM.UNIT           DATA                    DESCRIPTION OF MNEMONIC
#---------    -------------------            -------------------------------
# Generated from Intellog Unique Number	CN_94_101/WELL/2375
WELL.         02-01-098-11W4                 : Well_name    - WELL
LOC .         AA/02-01-098-11W4/0            : Location     - LOCATION
UWI .         AA/02-01-098-11W400            : Uwi          - UNIQUE WELL ID
ENTR.         TIM                            : Entered      - ENTERED BY
SRVC.         SCHLUMBERGER                   : Scn          - SERVICE COMPANY
DATE.         08/11/92                       : Date         - LOG DATE
STRT.M        0                              : top_depth    - START DEPTH
STOP.M        70                             : bot_depth    - STOP DEPTH
STEP.M        0.25                           : increment    - STEP LENGTH
 NULL. -999.2500:NULL Value
~CURVE INFORMATION BLOCK
#MNEM UNIT       ERCB CURVE CODE    CURVE DESCRIPTION
#-----------   ------------------   ----------------------------------
DEPT.M        00 001 00 00         : DEPTH        - DEPTH
NPHI.V/V      00 330 00 00         : PHIN         - NEUTRON POROSITY (SANDSTONE)
DPHI.V/V      00 890 00 00         : PHID         - DENSITY POROSITY (SANDSTONE)
ILD .OHMM     00 120 00 00         : RESD         - DEEP RESISTIVITY (DIL)
GR  .API      00 310 00 00         : GR           - GAMMA RAY
~PARAMETER INFORMATION
#MNEM.UNIT           DATA             DESCRIPTION OF MNEMONIC
#---------         -----------     ------------------------------
GL  .M        276.5                : gl           - GROUND LEVEL ELEVATION
EREF.M        276.5                : kb           - ELEVATION OF DEPTH REFERENCE
DATM.M        276.5                : datum        - DATUM ELEVATION
TDD .M        71.3                 : tdd          - TOTAL DEPTH DRILLER
RUN .         ONE                  : Run          - RUN NUMBER
ENG .         JO                   : Engineer     - RECORDING ENGINEER
WIT .         TIM                  : Witness      - WITNESSED BY
MUD .         GEL                  : Mud_type     - MUD TYPE
MATR.         SANDSTONE            : Logunit      - NEUTRON MATRIX
TMAX.C        10                   : BHT          - MAXIMUM RECORDED TEMPERATURE
BHTD.M        71.3                 : BHTDEP       - MAXIMUM RECORDED TEMPERATURE
RMT .C        10                   : MDTP         - TEMPERATURE OF MUD
MUDD.KG/M     1000                 : MWT          - MUD DENSITY
NEUT.         1                    : NEUTRON      - NEUTRON TYPE
RESI.         0                    : RESIST       - RESISTIVITY TYPE
RM  .OHMM     13.8                 : RM           - RESISTIVITY OF MUD
RMC .OHMM     13.8                 : RMC          - RESISTIVITY OF MUD CAKE
RMF .OHMM     13.8                 : RMF          - RESISTIVITY OF MUD FILTRATE
SUFT.C        4                    : SUFT         - SURFACE TEMPERATURE
~A  DEPTH     PHIN     PHID     RESD       GR
    0.000    0.565    0.490   44.814   10.500
    0.250    0.532    0.491   46.857    9.331
    0.500    0.503    0.493   47.642    9.356
    0.750    0.501    0.493   47.060   13.104
    1.000    0.531    0.479   47.105   27.338
    1.250    0.555    0.452   47.218   31.715
    1.500    0.565    0.348   48.009   31.136
    1.750    0.579    0.311   48.767   29.955
    2.000    0.535    0.311   48.860   28.786
    2.250    0.491    0.311   48.263   28.824
    2.500    0.482    0.305   47.022   28.271
    2.750    0.447    0.257   46.403   29.541
    3.000    0.441    0.237   46.492   32.673
    3.250    0.458    0.214   46.581   31.491
    3.500    0.509    0.163   46.012   31.542
    3.750    0.631    0.123   44.196   37.151
    4.000    0.721    0.094   43.019   35.969
    4.250    0.703    0.161   41.913   34.788
    4.500    0.722    0.196   44.451   38.535
    4.750    0.760    0.218   47.818   35.505
    5.000    0.757    0.240   50.714   26.314
    5.250    0.735    0.262   53.051   22.655
    5.500    0.734    0.245   53.153   22.706
    5.750    0.731    0.207   53.229   22.140
    6.000    0.718    0.159   51.104   23.436
    6.250    0.701    0.144   49.088   24.103
    6.500    0.712    0.129   48.464   24.153
    6.750    0.722    0.134   47.196   24.820
    7.000    0.668    0.113   45.334   24.884
    7.250    0.649    0.092   44.758   24.934
    7.500    0.674    0.072   42.992   24.356
    7.750    0.678    0.076   41.867   22.558
    8.000    0.666    0.083   41.355   22.609
    8.250    0.570    0.118   41.434   22.672
    8.500    0.518    0.273   43.323   23.956
    8.750    0.507    0.368   48.635   28.306
    9.000    0.521    0.403   57.794   33.299
    9.250    0.534    0.411   73.775   33.350
    9.500    0.548    0.410   94.128   40.178
    9.750    0.563    0.401  108.823   45.786
   10.000    0.563    0.375   91.841   53.834
   10.250    0.571    0.350   57.528   63.140
   10.500    0.600    0.354   42.176   76.129
   10.750    0.623    0.357   41.680   74.948
   11.000    0.631    0.359   42.317   73.150
   11.250    0.627    0.366   44.880   69.504
   11.500    0.621    0.373   47.598   63.393
   11.750    0.601    0.387   48.395   48.657
   12.000    0.574    0.399   48.488   50.568
   12.250    0.564    0.408   48.558   50.003
   12.500    0.572    0.419   48.675   46.357
   12.750    0.576    0.426   48.791   43.930
   13.000    0.589    0.433   48.195   42.749
   13.250    0.596    0.444   47.583   46.496
   13.500    0.591    0.457   46.360   58.254
   13.750    0.604    0.465   43.860   65.723
   14.000    0.620    0.461   44.594   60.832
   14.250    0.616    0.401   47.340   54.709
   14.500    0.582    0.394   48.776   44.285
   14.750    0.611    0.422   50.255   59.765
   15.000    0.634    0.447   53.324   60.431
   15.250    0.643    0.459   54.140   60.482
   15.500    0.632    0.468   55.862   61.765
   15.750    0.590    0.477   57.584   59.968
   16.000    0.601    0.454   57.666   59.389
   16.250    0.596    0.430   59.444   58.837
   16.500    0.587    0.436   59.558   58.887
   16.750    0.611    0.421   58.858   60.170
   17.000    0.617    0.410   58.971   60.221
   17.250    0.611    0.432   58.278   57.794
   17.500    0.598    0.445   57.510   51.684
   17.750    0.600    0.449   56.005   42.492
   18.000    0.593    0.448   53.010   37.011
   18.250    0.580    0.462   50.894   38.294
   18.500    0.583    0.472   49.586   41.412
   18.750    0.589    0.457   47.606   47.624
   19.000    0.592    0.447   45.082   53.836
   19.250    0.592    0.440   43.860   59.445
   19.500    0.593    0.427   41.515   60.728
   19.750    0.601    0.410   39.295   62.627
   20.000    0.633    0.386   37.726   67.607
   20.250    0.649    0.391   36.721   68.274
   20.500    0.658    0.390   35.777   69.557
   20.750    0.608    0.386   35.340   72.688
   21.000    0.638    0.390   36.968   70.890
   21.250    0.559    0.393   39.749   66.628
   21.500    0.564    0.388   44.624   62.366
   21.750    0.571    0.352   55.365   61.813
   22.000    0.575    0.353   69.642   61.248
   22.250    0.559    0.379  128.724   60.066
   22.500    0.556    0.357  159.632   59.501
   22.750    0.555    0.375  234.905   57.690
   23.000    0.555    0.395  317.405   55.893
   23.250    0.559    0.405  322.723   54.724
   23.500    0.560    0.409  318.778   53.542
   23.750    0.564    0.408  301.731   54.209
   24.000    0.569    0.411  285.459   55.492
   24.250    0.576    0.413  244.596   57.404
   24.500    0.583    0.419  171.669   62.987
   24.750    0.580    0.420  142.971   68.583
   25.000    0.569    0.418   97.530   77.876
   25.250    0.562    0.410   65.593   89.029
   25.500    0.565    0.395   52.321   94.625
   25.750    0.575    0.381   48.135  103.302
   26.000    0.582    0.355   44.917   98.424
   26.250    0.586    0.327   45.004   87.384
   26.500    0.550    0.334   45.090   88.667
   26.750    0.556    0.360   43.931   89.359
   27.000    0.565    0.346   43.394   88.152
   27.250    0.586    0.329   44.100   87.587
   27.500    0.554    0.331   48.166   88.870
   27.750    0.536    0.335   48.235   86.456
   28.000    0.562    0.328   48.305   84.658
   28.250    0.579    0.308   49.090   85.941
   28.500    0.594    0.308   49.913   84.143
   28.750    0.580    0.339   52.213   87.904
   29.000    0.565    0.356   53.797   88.596
   29.250    0.535    0.348   56.249   87.389
   29.500    0.550    0.347   57.983   89.917
   29.750    0.626    0.315   57.274   88.106
   30.000    0.672    0.352   58.205   83.844
   30.250    0.707    0.332   59.999   78.966
   30.500    0.646    0.295   66.438   76.565
   30.750    0.562    0.318   73.531   73.535
   31.000    0.563    0.368   84.930   79.118
   31.250    0.559    0.384  103.835   90.888
   31.500    0.550    0.378  127.011   79.219
   31.750    0.549    0.379  155.284   75.586
   32.000    0.551    0.384  184.616   70.695
   32.250    0.530    0.399  207.255   65.200
   32.500    0.533    0.411  210.728   60.938
   32.750    0.542    0.392  193.774   57.292
   33.000    0.544    0.393  170.906   61.039
   33.250    0.538    0.383  154.937   64.171
   33.500    0.548    0.378  146.652   59.908
   33.750    0.553    0.385  144.929   68.585
   34.000    0.563    0.400  145.207   68.636
   34.250    0.564    0.404  151.826   61.306
   34.500    0.547    0.397  158.747   63.192
   34.750    0.551    0.383  145.975   74.949
   35.000    0.558    0.387  126.809   73.768
   35.250    0.557    0.383  105.610   70.134
   35.500    0.564    0.374   89.214   77.591
   35.750    0.569    0.363   78.686   73.933
   36.000    0.549    0.358   82.233   68.425
   36.250    0.554    0.372   93.639   66.011
   36.500    0.555    0.372  119.531   77.781
   36.750    0.555    0.376  163.745   72.287
   37.000    0.546    0.376  234.314   61.234
   37.250    0.539    0.359  228.181   51.427
   37.500    0.536    0.385  203.940   62.581
   37.750    0.528    0.394  149.445   66.328
   38.000    0.531    0.398  120.914   63.914
   38.250    0.538    0.374  128.298   60.268
   38.500    0.542    0.365  159.104   55.390
   38.750    0.547    0.349  194.521   50.499
   39.000    0.549    0.379  221.608   53.027
   39.250    0.550    0.400  203.778   52.461
   39.500    0.555    0.411  174.608   48.199
   39.750    0.558    0.411  141.341   47.018
   40.000    0.559    0.410  137.708   52.614
   40.250    0.561    0.407  137.972   49.596
   40.500    0.566    0.396  144.330   51.495
   40.750    0.571    0.403  146.538   54.011
   41.000    0.577    0.399  125.561   54.061
   41.250    0.553    0.397  110.637   54.715
   41.500    0.554    0.391  110.903   56.627
   41.750    0.550    0.389  112.707   54.201
   42.000    0.543    0.388  114.540   54.264
   42.250    0.555    0.391  121.477   54.931
   42.500    0.570    0.393  140.307   56.214
   42.750    0.592    0.384  138.591   58.113
   43.000    0.582    0.382  123.927   52.631
   43.250    0.571    0.389  141.116   50.192
