~VERSION INFORMATION
 VERS.                 2.0:   CWLS LOG ASCII STANDARD -VERSION 2.0
 WRAP.                  NO:   ONE LINE PER DEPTH STEP
~WELL INFORMATION BLOCK
#MNEM.UNIT           DATA                    DESCRIPTION OF MNEMONIC
#---------    -------------------            -------------------------------
# Generated from Intellog Unique Number	utf_inj/WELL/927
WELL.         AO-77                          : Well_name    - WELL              
LOC .         AA/07-29-093-13W4/0            : Location     - LOCATION          
UWI .         AA/07-29-093-13W400            : Uwi          - UNIQUE WELL ID    
ENTR.         JHS                            : Entered      - ENTERED BY        
SRVC.         Century                        : Scn          - SERVICE COMPANY   
STRT.M        20                             : top_depth    - START DEPTH       
STOP.M        103                            : bot_depth    - STOP DEPTH        
STEP.M        0.25                           : increment    - STEP LENGTH       
NULL.         -999.250                       : null         - NULL VALUE       
~CURVE INFORMATION BLOCK
#MNEM UNIT       ERCB CURVE CODE    CURVE DESCRIPTION
#-----------   ------------------   ----------------------------------
DEPT.M        00 001 00 00         : DEPTH        - DEPTH                       
GR  .API      00 310 00 00         : GR           - GAMMA RAY                   
DPHI.V/V      00 890 00 00         : PHID         - DENSITY POROSITY (SANDSTONE)
NPHI.V/V      00 330 00 00         : PHIN         - NEUTRON POROSITY (SANDSTONE)
ILD .OHMM     00 120 00 00         : RESD         - DEEP RESISTIVITY (DIL)      
SP  .MV       00 010 00 00         : SP           - SPONTANEOUS POTENTIAL       
CALI.MM       00 280 01 00         : CAL          - CALIPER                     
~PARAMETER INFORMATION       
#MNEM.UNIT           DATA             DESCRIPTION OF MNEMONIC
#---------         -----------     ------------------------------
GL  .M        372.69               : gl           - GROUND LEVEL ELEVATION      
EREF.M        372.69               : kb           - ELEVATION OF DEPTH REFERENCE
DATM.M        372.69               : datum        - DATUM ELEVATION             
TDD .M        107                  : tdd          - TOTAL DEPTH DRILLER         
RUN .         ONE                  : Run          - RUN NUMBER                  
ENG .         BILL                 : Engineer     - RECORDING ENGINEER          
WIT .         JIM                  : Witness      - WITNESSED BY                
MUD .         GEL                  : Mud_type     - MUD TYPE                    
MATR.         SANDSTONE            : Logunit      - NEUTRON MATRIX              
TMAX.C        6.5                  : BHT          - MAXIMUM RECORDED TEMPERATURE
BHTD.M        151.49               : BHTDEP       - MAXIMUM RECORDED TEMPERATURE
MATR.         1                    : LOGUNIT      - NEUTRON MATRIX              
RMT .C        25                   : MDTP         - TEMPERATURE OF MUD          
NEUT.         1                    : NEUTRON      - NEUTRON TYPE                
RESI.         0                    : RESIST       - RESISTIVITY TYPE            
RMC .OHMM     0.25                 : RMC          - RESISTIVITY OF MUD CAKE     
RMF .OHMM     0.25                 : RMF          - RESISTIVITY OF MUD FILTRATE 
SUFT.C        15                   : SUFT         - SURFACE TEMPERATURE         
~A  DEPTH       GR     PHID     PHIN     RESD       SP      CAL
   20.000   87.791    0.000    0.000   66.550    0.000  165.183
   20.250   85.475    0.000    0.000   50.782    0.000  161.983
   20.500   91.962    0.000    0.000   42.033    0.000  163.189
   20.750   83.771    0.000    0.000   43.997    0.000  161.750
   21.000   82.332    0.000    0.000   56.689    0.000  165.892
   21.250   87.649    0.000    0.000   67.947    0.000  167.389
   21.500   85.622    0.000    0.000   76.455    0.000  161.843
   21.750   78.899    0.000    0.000   69.889    0.000  161.285
   22.000   70.121    0.000    0.000   74.493    0.000  161.901
   22.250   92.471    0.000    0.000   77.268    0.000  161.049
   22.500   86.038    0.000    0.000   51.027    0.000  160.207
   22.750   87.534    0.000    0.000   37.560    0.000  160.522
   23.000   83.453    0.000    0.000   39.315    0.000  160.261
   23.250   86.421    0.000    0.000   40.413    0.000  162.345
   23.500   94.670    0.000    0.000   41.927    0.000  165.309
   23.750  100.867    0.000    0.000   42.326    0.000  160.934
   24.000   87.689    0.000    0.000   43.511    0.000  162.728
   24.250   83.310    0.000    0.000   47.223    0.000  169.802
   24.500   80.403    0.000    0.000   53.137    0.000  163.376
   24.750   92.178    0.000    0.000   58.189    0.000  162.818
   25.000  108.947    0.262    0.722   55.652    0.000  163.140
   25.250  100.459    0.251    0.576   51.796    0.000  166.992
   25.500  102.840    0.271    0.528   49.096    0.000  166.137
   25.750   99.346    0.249    0.645   48.242    0.000  169.688
   26.000   95.264    0.238    0.639   48.267    0.000  166.198
   26.250   83.257    0.223    0.577   53.819    0.000  160.065
   26.500   83.286    0.224    0.591   63.356    0.000  163.910
   26.750   88.015    0.249    0.598   61.695    0.000  168.049
   27.000   81.585    0.291    0.627   54.889    0.000  171.013
   27.250  107.158    0.301    0.630   55.419    0.000  179.852
   27.500   85.172    0.286    0.648   58.016    0.000  166.971
   27.750   95.766    0.290    0.619   55.483    0.000  169.341
   28.000  105.486    0.264    0.580   54.021    0.000  168.203
   28.250  116.087    0.278    0.551   53.570    0.000  166.173
   28.500  104.666    0.271    0.545   54.080    0.000  165.031
   28.750   90.017    0.255    0.629   54.115    0.000  167.412
   29.000   87.110    0.257    0.572   54.634    0.000  167.734
   29.250   91.542    0.188    0.529   51.310    0.000  163.062
   29.500   82.176    0.203    0.549   64.344    0.000  162.214
   29.750   94.832    0.257    0.573   67.351    0.000  164.007
   30.000  101.910    0.256    0.517   62.125    0.000  163.445
   30.250   96.067    0.253    0.562   53.318    0.000  166.413
   30.500   82.005    0.258    0.707   51.456    0.000  162.039
   30.750   80.859    0.246    0.614   51.016    0.000  164.416
   31.000   88.524    0.267    0.565   51.973    0.000  164.745
   31.250   80.627    0.280    0.622   54.405    0.000  160.367
   31.500   69.793    0.303    0.577   57.981    0.000  160.395
   31.750   81.565    0.314    0.645   62.362    0.000  163.367
   32.000   88.643    0.290    0.628   56.501    0.000  166.034
   32.250   85.148    0.264    0.594   55.514    0.000  165.479
   32.500   83.423    0.245    0.613   55.514    0.000  161.402
   32.750   79.925    0.262    0.651   57.102    0.000  161.133
   33.000   83.774    0.267    0.649   58.704    0.000  159.404
   33.250   95.545    0.260    0.614   55.132    0.000  164.423
   33.500   80.312    0.328    0.618   50.398    0.000  160.342
   33.750   77.989    0.406    0.636   46.909    0.000  164.484
   34.000   70.091    0.472    0.606   51.372    0.000  163.045
   34.250   81.279    0.336    0.573   50.943    0.000  160.432
   34.500   74.262    0.305    0.567   50.051    0.000  160.464
   34.750   67.245    0.173    0.535   53.832    0.000  160.493
   35.000   76.671    0.112    0.368   86.154    0.000  160.228
   35.250   72.003    0.154    0.317  106.091    0.000  161.728
   35.500   68.509    0.211    0.289   77.380    0.000  158.238
   35.750   72.945    0.293    0.399  124.955    0.000  159.444
   36.000   61.818    0.431    0.482   89.507    0.000  162.992
   36.250   54.801    0.260    0.606   58.052    0.000  160.085
   36.500   59.233    0.176    0.544   63.004    0.000  160.998
   36.750   73.063    0.143    0.500   83.403    0.000  162.495
   37.000   74.857    0.217    0.481   66.581    0.000  161.646
   37.250   59.323    0.269    0.553   53.634    0.000  161.678
   37.500   55.535    0.272    0.571   53.186    0.000  161.997
   37.750   68.484    0.273    0.521   53.693    0.000  162.323
   38.000   80.847    0.258    0.499   50.887    0.000  162.645
   38.250   80.292    0.256    0.513   45.276    0.000  162.674
   38.500   83.256    0.275    0.565   45.710    0.000  162.409
   38.750   70.661    0.296    0.592   50.511    0.000  162.441
   39.000   63.938    0.306    0.590   51.931    0.000  163.644
   39.250   75.419    0.309    0.490   55.847    0.000  165.728
   39.500   84.842    0.289    0.491   58.999    0.000  161.357
   39.750   71.367    0.269    0.497   57.444    0.000  158.156
   40.000   83.142    0.261    0.557   57.477    0.000  163.176
   40.250   72.015    0.276    0.625   64.094    0.000  164.386
   40.500   77.625    0.267    0.650   54.996    0.000  167.053
   40.750   84.996    0.251    0.590   50.732    0.000  164.439
   41.000   88.254    0.215    0.539   45.964    0.000  166.237
   41.250   83.880    0.178    0.540   45.982    0.000  163.326
   41.500   76.569    0.202    0.522   52.206    0.000  160.419
   41.750   90.399    0.223    0.507   60.905    0.000  163.974
   42.000   99.826    0.247    0.521   49.507    0.000  159.306
   42.250  104.845    0.273    0.586   46.920    0.000  158.164
   42.500   90.195    0.270    0.626   45.692    0.000  167.293
   42.750   95.508    0.262    0.685   46.971    0.000  170.258
   43.000   89.669    0.259    0.661   48.289    0.000  163.241
   43.250  102.321    0.277    0.570   47.029    0.000  160.047
   43.500   94.717    0.281    0.525   44.170    0.000  160.072
   43.750   93.575    0.268    0.527   42.622    0.000  158.046
   44.000   88.320    0.255    0.599   43.037    0.000  161.018
   44.250   99.507    0.264    0.613   46.282    0.000  164.866
   44.500   90.729    0.270    0.585   48.012    0.000  162.543
   44.750   95.748    0.262    0.570   48.034    0.000  165.507
   45.000   93.139    0.243    0.604   46.357    0.000  165.242
   45.250  103.442    0.239    0.622   44.333    0.000  173.788
   45.500  103.181    0.239    0.661   48.988    0.000  160.023
   45.750  103.797    0.227    0.635   55.620    0.000  160.932
   46.000   95.018    0.233    0.649   51.773    0.000  161.849
   46.250  107.968    0.249    0.689   48.192    0.000  162.171
   46.500  101.538    0.256    0.622   46.091    0.000  163.367
   46.750  112.139    0.256    0.632   45.700    0.000  161.050
   47.000   93.669    0.246    0.718   47.839    0.000  164.903
   47.250   61.989    0.205    0.655   54.311    0.000  163.750
   47.500   81.694    0.159    0.559   58.410    0.000  160.267
   47.750  101.982    0.237    0.460   50.123    0.000  164.402
   48.000   92.029    0.247    0.425   44.193    0.000  165.605
   48.250   99.104    0.228    0.589   45.845    0.000  162.995
   48.500  117.631    0.218    0.662   46.707    0.000  159.203
   48.750  107.388    0.219    0.633   46.731    0.000  156.296
   49.000  110.353    0.227    0.611   46.758    0.000  157.213
   49.250  104.216    0.219    0.659   45.948    0.000  159.587
   49.500   80.169    0.229    0.683   42.767    0.000  161.094
   49.750   94.879    0.273    0.588   41.271    0.000  161.116
   50.000  102.251    0.269    0.547   41.665    0.000  160.267
   50.250  103.160    0.276    0.624   38.788    0.000  158.832
   50.500  116.110    0.273    0.680   36.756    0.000  159.150
   50.750  107.919    0.280    0.709   39.178    0.000  156.830
   51.000  104.718    0.294    0.702   44.481    0.000  155.978
