~VERSION INFORMATION
 VERS.                 2.0:   CWLS LOG ASCII STANDARD -VERSION 2.0
 WRAP.                  NO:   ONE LINE PER DEPTH STEP
~WELL INFORMATION BLOCK
#MNEM.UNIT           DATA                    DESCRIPTION OF MNEMONIC
#---------    -------------------            -------------------------------
# Generated from Intellog Unique Number	CN_91_93/WELL/3656
WELL.         03-36-093-09W4                 : Well_name    - WELL
LOC .         AA/03-36-093-09W4/0            : Location     - LOCATION
UWI .         AA/03-36-093-09W400            : Uwi          - UNIQUE WELL ID
ENTR.         JOETTE                         : Entered      - ENTERED BY
SRVC.         SCHLUMBERGER                   : Scn          - SERVICE COMPANY
DATE.         03/20/92                       : Date         - LOG DATE
STRT.M        0                              : top_depth    - START DEPTH
STOP.M        150                            : bot_depth    - STOP DEPTH
STEP.M        0.25                           : increment    - STEP LENGTH
 NULL. -999.2500:NULL Value
~CURVE INFORMATION BLOCK
#MNEM UNIT       ERCB CURVE CODE    CURVE DESCRIPTION
#-----------   ------------------   ----------------------------------
DEPT.M        00 001 00 00         : DEPTH        - DEPTH
CALI.MM       00 280 01 00         : CAL          - CALIPER
GR  .API      00 310 00 00         : GR           - GAMMA RAY
ILD .OHMM     00 120 00 00         : RESD         - DEEP RESISTIVITY (DIL)
NPHI.V/V      00 330 00 00         : PHIN         - NEUTRON POROSITY (SANDSTONE)
DPHI.V/V      00 890 00 00         : PHID         - DENSITY POROSITY (SANDSTONE)
~PARAMETER INFORMATION
#MNEM.UNIT           DATA             DESCRIPTION OF MNEMONIC
#---------         -----------     ------------------------------
GL  .M        355.36               : gl           - GROUND LEVEL ELEVATION
EREF.M        355.36               : kb           - ELEVATION OF DEPTH REFERENCE
DATM.M        355.36               : datum        - DATUM ELEVATION
TDD .M        152.7                : tdd          - TOTAL DEPTH DRILLER
RUN .         ONE                  : Run          - RUN NUMBER
ENG .         JO                   : Engineer     - RECORDING ENGINEER
WIT .         TIM                  : Witness      - WITNESSED BY
MUD .         GEL                  : Mud_type     - MUD TYPE
MATR.         SANDSTONE            : Logunit      - NEUTRON MATRIX
TMAX.C        7                    : BHT          - MAXIMUM RECORDED TEMPERATURE
BHTD.M        152.7                : BHTDEP       - MAXIMUM RECORDED TEMPERATURE
RMT .C        4.3                  : MDTP         - TEMPERATURE OF MUD
MUDD.KG/M     1000                 : MWT          - MUD DENSITY
NEUT.         1                    : NEUTRON      - NEUTRON TYPE
RESI.         0                    : RESIST       - RESISTIVITY TYPE
RM  .OHMM     25.2                 : RM           - RESISTIVITY OF MUD
RMC .OHMM     25.2                 : RMC          - RESISTIVITY OF MUD CAKE
RMF .OHMM     25.2                 : RMF          - RESISTIVITY OF MUD FILTRATE
SUFT.C        4                    : SUFT         - SURFACE TEMPERATURE
~A  DEPTH      CAL       GR     RESD     PHIN     PHID
# ...
   73.000  106.257  105.809   12.060    0.444    0.197
   73.250  104.286   95.123   12.513    0.416    0.191
   73.500  103.500   76.711   15.974    0.409    0.223
   73.750  101.925   68.997   15.083    0.384    0.239
   74.000  101.537   85.055   25.075    0.396    0.213
   74.250  102.337   77.344   27.530    0.414    0.249
   74.500  101.949   70.221   16.846    0.416    0.257
   74.750  100.768   68.450   30.192    0.416    0.257
   75.000  100.774   67.274   19.189    0.405    0.257
   75.250  100.386   64.911   27.952    0.414    0.239
   75.500  101.186   56.603   20.656    0.435    0.269
   75.750  100.800   49.483   21.431    0.442    0.294
   76.000   99.622   50.684   70.231    0.359    0.307
   76.250   99.229   53.667   38.379    0.389    0.299
   76.500   98.845   45.956   40.577    0.419    0.286
   76.750   98.851   50.125   79.914    0.380    0.296
   77.000   99.257   52.515   39.000    0.365    0.316
   77.250  100.056   57.281   61.272    0.399    0.314
   77.500  101.651   65.020   68.551    0.417    0.310
   77.750  101.659   75.135   45.241    0.414    0.305
   78.000  100.082   87.037   21.666    0.473    0.267
   78.250  101.277   95.370   34.680    0.399    0.239
   78.500  102.079   87.061   28.697    0.397    0.226
   78.750  100.898   73.998   21.611    0.430    0.242
   79.000   99.322   62.718   23.283    0.414    0.279
   79.250   98.931   47.871   30.865    0.431    0.299
   79.500   98.151   37.780   42.489    0.434    0.317
   79.750   98.157   36.603  104.942    0.446    0.321
   80.000   98.167   42.558  161.760    0.385    0.319
   80.250   98.173   50.891   69.184    0.400    0.306
   80.500   97.787   58.035  133.711    0.431    0.317
   80.750   97.793   50.321   52.055    0.418    0.329
   81.000   97.801   38.446  119.207    0.412    0.333
   81.250   97.811   31.921  311.560    0.456    0.327
   81.500   97.817   40.847  180.162    0.447    0.314
   81.750   97.827   43.831  110.265    0.441    0.305
   82.000   97.437   31.957   55.879    0.448    0.325
   82.250   97.447   25.431  148.826    0.440    0.336
   82.500   97.455   31.386  316.061    0.421    0.339
   82.750   97.465   38.536  208.589    0.397    0.335
   83.000   97.471   37.951  204.519    0.379    0.319
   83.250   97.479   42.126  140.161    0.407    0.311
   83.500   97.883   40.352  113.791    0.403    0.316
   83.750   98.683   33.232  185.644    0.407    0.306
   84.000   98.692   24.332  107.350    0.454    0.313
   84.250   98.701   28.502   43.398    0.461    0.327
   84.500   98.707   33.863  344.924    0.447    0.344
   84.750   97.925   39.224  338.193    0.455    0.336
   85.000   98.329   43.990  144.643    0.409    0.327
   85.250   98.335   48.166   61.863    0.387    0.318
   85.500  101.119   52.338   41.605    0.348    0.286
   85.750  103.502   66.020   80.391    0.363    0.222
   86.000  103.906   77.324   51.103    0.354    0.216
   86.250  102.730   92.789   35.022    0.419    0.221
   86.500  102.342   98.744   25.392    0.389    0.219
   86.750  101.163   88.058   26.841    0.403    0.236
   87.000   99.584   69.646   31.190    0.410    0.282
   87.250   98.798   56.586   49.934    0.399    0.297
   87.500   98.412   60.161  106.046    0.409    0.299
   87.750   98.021   63.742   94.624    0.427    0.297
   88.000   98.029   66.128   91.045    0.439    0.302
   88.250   98.041   55.442  101.838    0.417    0.300
   88.500   98.444   59.617  118.312    0.390    0.294
   88.750   98.452   48.337   79.568    0.392    0.297
   89.000   98.854   38.840  122.673    0.392    0.302
   89.250   98.866   35.883  150.810    0.399    0.306
   89.500   98.872   42.430  156.470    0.388    0.311
   89.750   98.882   45.414  168.543    0.437    0.323
   90.000   98.892   39.482  211.190    0.387    0.330
   90.250   98.898   35.334  199.364    0.364    0.325
   90.500   98.904   32.969  174.569    0.357    0.322
   90.750   98.914   31.201  147.202    0.400    0.324
   91.000   98.924   33.587  115.111    0.390    0.329
   91.250   98.930   35.382  149.746    0.394    0.346
   91.500   98.540   35.394 1103.730    0.383    0.345
   91.750   98.550   33.623 1435.830    0.407    0.331
   92.000   98.558   31.261  755.759    0.360    0.297
   92.250   98.964   62.178   96.691    0.384    0.238
   92.500   99.364   87.152   94.804    0.346    0.181
   92.750  100.961   81.221   83.031    0.215    0.130
   93.000  102.554  105.006   74.088    0.289    0.145
   93.250  105.336  151.973  137.891    0.342    0.154
   93.500  106.532  151.985   36.813    0.367    0.165
   93.750  107.331  133.573   25.703    0.403    0.160
   94.000  108.131  107.435   27.176    0.426    0.159
   94.250  107.347  118.739   26.645    0.428    0.158
   94.500  106.562  130.043   21.642    0.484    0.190
   94.750  108.155  122.329   16.294    0.483    0.204
   95.000  106.975  107.483   13.736    0.496    0.223
   95.250  104.607  102.146   13.466    0.577    0.225
   95.500  103.031  119.393   12.962    0.585    0.216
   95.750  102.640  124.160   12.472    0.573    0.218
   96.000  101.464  125.361   12.000    0.557    0.220
   96.250  101.075  139.045   11.763    0.501    0.207
   96.500  101.081  125.388   12.207    0.519    0.199
   96.750  100.695   98.058   15.293    0.473    0.192
   97.000  100.701   75.485   17.109    0.474    0.221
   97.250  100.317   65.988   16.155    0.424    0.265
   97.500   99.925   54.113   23.532    0.399    0.292
   97.750   98.746   49.968   51.895    0.384    0.293
   98.000   97.962   48.194   89.570    0.410    0.300
   98.250   97.972   45.832   61.384    0.413    0.295
   98.500   97.976   53.570  102.029    0.405    0.301
   98.750   97.988   55.365  127.818    0.384    0.311
   99.000   98.390   44.679  292.768    0.400    0.306
   99.250   98.400   45.285  208.304    0.396    0.302
   99.500   98.406   48.269  156.831    0.415    0.302
   99.750   98.418   53.630  113.758    0.366    0.297
  100.000   98.424   52.453   82.496    0.401    0.278
  100.250   98.430   67.918   76.423    0.427    0.303
  100.500   98.440   49.506  302.391    0.417    0.319
  100.750   98.446   32.282  761.088    0.394    0.305
  101.000   98.456   34.672  210.997    0.373    0.278
  101.250   99.257   60.243  106.928    0.361    0.234
  101.500   99.659   80.462   86.829    0.374    0.221
  101.750  101.252  163.092   47.459    0.435    0.183
  102.000  100.467  156.564   16.189    0.455    0.164
  102.250   99.685  150.632   14.445    0.488    0.202
  102.500   99.299  138.758   13.899    0.520    0.216
  102.750  100.494  132.830   13.370    0.548    0.232
  103.000  102.086  134.622   12.624    0.580    0.242
  103.250  103.283  128.690   11.479    0.563    0.230
  103.500  103.291  122.168   10.242    0.549    0.237
  103.750  101.718  127.526    8.801    0.568    0.262
  104.000  100.534   96.632    8.310    0.575    0.272
  104.250  100.544   94.862    7.700    0.611    0.245
  104.500  101.342   55.648    6.616    0.500    0.234
  104.750  102.543   39.015   11.859    0.323    0.220
  105.000  102.945   58.049   43.515    0.320    0.209
  105.250  103.349   77.674   24.693    0.434    0.222
  105.500  102.565   93.139   27.110    0.522    0.222
  105.750  100.988   86.022   17.230    0.473    0.194
  106.000   99.413   84.842   11.585    0.395    0.199
  106.250   99.421   83.665   16.879    0.325    0.203
  106.500  100.222  101.510   20.359    0.370    0.196
  106.750  101.812   99.739   15.623    0.425    0.190
  107.000  101.028   69.438   13.940    0.380    0.199
  107.250  100.246   51.025   21.086    0.347    0.220
  107.500  100.650   39.151   28.479    0.358    0.231
  107.750  102.241   36.191   35.026    0.374    0.240
  108.000  103.834   53.442   74.369    0.352    0.234
  108.250  104.634   65.935   71.556    0.280    0.193
  108.500  103.455   58.220   61.499    0.282    0.163
  108.750  101.879   43.374   22.199    0.299    0.201
  109.000  104.662   46.952   29.427    0.323    0.208
  109.250  106.649   37.455   49.843    0.334    0.236
