~VERSION INFORMATION
 VERS.                 2.0:   CWLS LOG ASCII STANDARD -VERSION 2.0
 WRAP.                  NO:   ONE LINE PER DEPTH STEP
~WELL INFORMATION BLOCK
#MNEM.UNIT           DATA                    DESCRIPTION OF MNEMONIC
#---------    -------------------            -------------------------------
# Generated from Intellog Unique Number	CC_80_83/WELL/2303
NULL.         -999.25                        : NULL_VALUE
WELL.         ARCO ACI MCMURRAY OV           : Well_name    - WELL
LOC .         07-26-080-11W4                 : Location     - LOCATION          
UWI .         AA/07-26-080-11W400            : Uwi          - UNIQUE WELL ID    
ENTR.         DW                             : Entered      - ENTERED BY        
SRVC.         SCHLUMBERGER                   : Scn          - SERVICE COMPANY   
DATE.         19 JAN 76                      : Date         - LOG DATE
STRT.M        256.032                        : top_depth    - START DEPTH       
STOP.M        481.591                        : bot_depth    - STOP DEPTH        
STEP.M        0.305                          : increment    - STEP LENGTH       
~CURVE INFORMATION BLOCK
#MNEM UNIT       ERCB CURVE CODE    CURVE DESCRIPTION
#-----------   ------------------   ----------------------------------
DEPT.M        00 001 00 00         : DEPTH        - DEPTH                       
NPHI.V/V      00 330 00 00         : PHIN         - NEUTRON POROSITY (LIMESTONE)
GR  .API      00 310 00 00         : GR           - GAMMA RAY                   
RHOB.KG/M3    00 350 00 00         : DENS         - BULK DENSITY                
ILD .OHMM     00 120 00 00         : RESD         - DEEP RESISTIVITY (DIL)      
~PARAMETER INFORMATION       
#MNEM.UNIT           DATA             DESCRIPTION OF MNEMONIC
#---------         -----------     ------------------------------
GL  .M        685.678              : gl           - GROUND LEVEL ELEVATION      
EREF.M        688.726              : kb           - ELEVATION OF DEPTH REFERENCE
DATM.M        688.726              : datum        - DATUM ELEVATION             
TDD .M        481.584              : tdd          - TOTAL DEPTH DRILLER         
RUN .         ONE                  : Run          - RUN NUMBER                  
ENG .         BILL                 : Engineer     - RECORDING ENGINEER          
WIT .         JIM                  : Witness      - WITNESSED BY                
MUD .         GEL                  : Mud_type     - MUD TYPE                    
MATR.         LIMESTONE            : Logunit      - NEUTRON MATRIX              
TMAX.C        22.7778              : BHT          - MAXIMUM RECORDED TEMPERATURE
BHTD.M        481.584              : BHTDEP       - MAXIMUM RECORDED TEMPERATURE
MATR.         1                    : LOGUNIT      - NEUTRON MATRIX              
RMT .C        25                   : MDTP         - TEMPERATURE OF MUD          
NEUT.         1                    : NEUTRON      - NEUTRON TYPE                
RESI.         0                    : RESIST       - RESISTIVITY TYPE            
RMC .OHMM     0.25                 : RMC          - RESISTIVITY OF MUD CAKE     
RMF .OHMM     0.25                 : RMF          - RESISTIVITY OF MUD FILTRATE 
SUFT.C        15                   : SUFT         - SURFACE TEMPERATURE         
~A  DEPTH     PHIN       GR     DENS     RESD
# ...
  309.069    0.408   58.517 2020.800   28.706
  309.374    0.413   58.521 2066.940   29.238
  309.678    0.411   61.503 2113.090   29.781
  309.983    0.407   62.697 2149.180   29.775
  310.288    0.404   63.297 2159.170   28.153
  310.593    0.402   59.134 2141.000   27.631
  310.898    0.413   53.186 2104.750   27.119
  311.203    0.415   52.597 2100.650   27.620
  311.507    0.409   52.600 2100.540   29.190
  311.812    0.407   52.603 2102.490   29.731
  312.117    0.415   51.419 2110.460   29.728
  312.422    0.417   50.827 2120.430   30.279
  312.727    0.409   50.833 2118.350   30.271
  313.031    0.404   50.836 2086.120   30.264
  313.336    0.405   49.649 2061.920   30.825
  313.641    0.407   49.061 2057.800   30.248
  313.946    0.404   48.468 2055.720   30.241
  314.251    0.405   48.471 2065.710   30.236
  314.555    0.413   49.073 2085.730   30.231
  314.860    0.423   49.076 2101.730   31.363
  315.165    0.423   51.464 2099.620   31.358
  315.470    0.421   51.467 2091.510   31.352
  315.775    0.422   52.067 2091.420   31.343
  316.079    0.428   52.666 2095.400   31.339
  316.384    0.437   52.670 2113.400   31.329
  316.689    0.432   53.270 2131.380   31.324
  316.994    0.427   53.869 2137.370   30.741
  317.299    0.426   53.281 2149.340   30.169
  317.604    0.423   52.689 2149.290   29.605
  317.908    0.419   53.289 2131.120   29.058
  318.213    0.411   55.080 2106.900   28.515
  318.518    0.406   55.680 2102.810   27.985
  318.823    0.402   56.279 2094.710   26.956
  319.128    0.388   57.474 2084.580   26.952
  319.432    0.384   55.692 2084.490   26.449
  319.737    0.386   53.315 2094.450   25.958
  320.042    0.397   55.105 2100.430   25.950
  320.347    0.394   54.515 2106.370   25.943
  320.652    0.388   52.138 2110.310   26.424
  320.956    0.388   49.760 2110.250   26.914
  321.261    0.386   52.742 2104.140   26.909
  321.566    0.382   56.319 2092.010   27.408
  321.871    0.393   58.109 2083.890   26.897
  322.176    0.393   57.519 2067.740   26.398
  322.480    0.403   55.737 2129.960   25.905
  322.785    0.400   52.766 2143.960   25.424
  323.090    0.382   50.984 2139.830   25.416
  323.395    0.375   49.796 2145.790   25.888
  323.700    0.388   46.229 2137.680   27.362
  324.005    0.399   43.257 2123.540   28.392
  324.309    0.402   40.284 2109.380   28.918
  324.614    0.399   39.098 2103.290   29.455
  324.919    0.399   39.700 2101.200   29.997
  325.224    0.408   39.703 2103.130   30.555
  325.529    0.408   38.518 2105.070   29.983
  325.833    0.377   37.925 2098.970   29.425
  326.138    0.376   36.741 2066.730   29.421
  326.443    0.386   37.342 2084.760   28.870
  326.748    0.386   38.536 2094.720   29.406
  327.053    0.381   39.135 2094.630   29.402
  327.357    0.394   40.927 2090.550   29.943
  327.662    0.393   41.525 2090.450   29.938
  327.967    0.385   43.318 2088.370   29.933
  328.272    0.373   43.916 2072.220   29.921
  328.577    0.370   44.514 2086.200   29.916
  328.882    0.379   44.522 2098.180   29.910
  329.186    0.393   44.524 2096.090   29.905
  329.491    0.397   42.744 2090.010   29.895
  329.796    0.398   42.151 2083.900   29.890
  330.101    0.398   43.943 2079.810   29.881
  330.406    0.405   45.137 2079.720   29.328
  330.710    0.411   46.929 2091.720   29.870
  331.015    0.411   48.123 2121.770   29.862
  331.320    0.400   49.319 2129.740   30.418
  331.625    0.398   49.919 2113.590   30.408
  331.930    0.405   49.923 2079.350   30.404
  332.234    0.411   49.332 2095.350   29.837
  332.539    0.412   48.145 2113.350   29.279
  332.844    0.410   46.959 2107.250   29.274
  333.149    0.403   46.965 2099.130   29.269
  333.454    0.392   47.564 2101.060   29.807
  333.758    0.379   48.760 2092.940   29.802
  334.063    0.380   49.358 2114.990   29.797
  334.368    0.387   46.386 2147.070   29.239
  334.673    0.397   43.414 2142.950   29.235
  334.978    0.404   44.015 2136.860   29.229
  335.283    0.405   44.613 2124.730   29.220
  335.587    0.404   47.596 2116.600   29.215
  335.892    0.405   48.194 2134.610   28.672
  336.197    0.410   50.581 2142.580   28.137
  336.502    0.403   51.182 2130.440   27.615
  336.807    0.394   52.376 2102.240   27.607
  337.111    0.389   55.358 2104.170   27.095
  337.416    0.387   57.148 2122.160   26.099
  337.721    0.389   58.937 2122.070   25.615
  338.026    0.385   61.919 2118.000   25.137
  338.331    0.373   63.114 2125.950   24.218
  338.635    0.365   61.927 2129.910   23.327
  338.940    0.353   60.147 2135.850   22.895
  339.245    0.345   60.150 2131.760   22.891
  339.550    0.215   58.965 2115.600   24.195
  339.855    0.132   56.587 2113.530   27.546
  340.159    0.189   47.661 2113.450   29.118
  340.464    0.274   47.667 2231.960   29.655
  340.769    0.382   56.006 2561.490   28.568
  341.074    0.404   58.392 2499.110   25.551
  341.379    0.413   58.991 2271.920   24.164
  341.684    0.422   58.400 2119.090   22.428
  341.988    0.429   58.406 2098.930   22.008
  342.293    0.419   57.816 2104.870   21.599
  342.598    0.415   59.606 2122.850   21.595
  342.903    0.413   59.611 2120.780   21.995
  343.208    0.412   59.614 2114.700   22.404
  343.512    0.391   60.811 2128.690   22.397
  343.817    0.387   62.004 2128.610   22.394
  344.122    0.383   62.009 2126.510   21.571
  344.427    0.388   63.205 2146.540   21.172
  344.732    0.404   63.209 2202.750   20.394
  345.036    0.435   64.403 2180.550   19.647
  345.341    0.458   70.361 2158.350   17.902
  345.646    0.452   76.914 2144.190   15.717
  345.951    0.431   79.301 2140.120   11.251
  346.256    0.407   76.924 2152.110    5.985
  346.560    0.398   73.356 2194.230    5.659
  346.865    0.400   73.360 2220.290    6.811
  347.170    0.460   76.936 2224.210    7.200
  347.475    0.481   78.132 2218.110    7.334
  347.780    0.468   73.374 2185.890    7.197
  348.085    0.436   65.639 2203.890    7.063
  348.389    0.429   61.478 2201.820    7.193
  348.694    0.429   61.481 2175.600    7.891
  348.999    0.428   62.677 2143.370    9.324
  349.304    0.425   62.682 2121.190   11.648
  349.609    0.422   62.684 2099.010   15.383
  349.913    0.416   63.286 2086.880   17.190
  350.218    0.413   64.479 2108.900   17.188
  350.523    0.401   68.056 2122.900   16.868
  350.828    0.404   72.229 2138.900   15.657
  351.133    0.407   75.210 2126.760   13.245
  351.437    0.405   77.001 2116.640   11.000
  351.742    0.395   75.218 2124.600    7.729
  352.047    0.370   66.293 2154.660    6.538
  352.352    0.410   67.488 2174.680    6.537
  352.657    0.454   72.851 2194.720    6.536
  352.961    0.451   75.832 2341.360    7.441
  353.266    0.428   77.027 2254.850    9.827
  353.571    0.423   76.436 2120.120   10.196
  353.876    0.429   79.417 2114.010    8.626
  354.181    0.507   85.971 2119.970    5.841
  354.486    0.536   91.332 2154.060    3.107
  354.790    0.534   96.101 2266.530    2.486
  355.095    0.528   98.486 2238.310    2.307
  355.400    0.527   99.682 2248.290    2.223
  355.705    0.527  102.662 2278.330    2.264
  356.010    0.529  104.453 2278.260    2.349
  356.314    0.535  100.885 2288.250    2.392
  356.619    0.534   98.508 2306.260    2.482
  356.924    0.534   99.108 2302.170    2.576
  357.229    0.536   99.112 2286.020    2.623
  357.534    0.519   96.735 2257.800    2.722
  357.838    0.502   89.001 2235.620    2.877
  358.143    0.486   84.837 2229.510    3.215
  358.448    0.475   88.416 2205.310    4.168
  358.753    0.429   88.418 2207.220    4.835
  359.058    0.419   86.041 2203.140    5.403
  359.362    0.411   90.213 2170.920    5.818
  359.667    0.404   89.028 2160.790    6.382
  359.972    0.404   81.888 2212.970    6.622
  360.277    0.466   84.868 2263.140    6.744
  360.582    0.489   87.256 2269.080    6.743
  360.887    0.502   86.069 2248.900    6.376
  361.191    0.534   87.859 2218.680    5.919
  361.496    0.538   92.030 2208.570    5.101
  361.801    0.518   96.203 2196.420    4.315
