~VERSION INFORMATION
 VERS.                 2.0:   CWLS LOG ASCII STANDARD -VERSION 2.0
 WRAP.                  NO:   ONE LINE PER DEPTH STEP
~WELL INFORMATION BLOCK
#MNEM.UNIT           DATA                    DESCRIPTION OF MNEMONIC
#---------    -------------------            -------------------------------
# Generated from Intellog Unique Number	CN_91_93/WELL/1070
WELL.         04-19-091-11W4                 : Well_name    - WELL
LOC .         AA/04-19-091-11W4/0            : Location     - LOCATION
UWI .         AA/04-19-091-11W400            : Uwi          - UNIQUE WELL ID
ENTR.         JOETTE                         : Entered      - ENTERED BY
SRVC.         WESTERN ATLAS                  : Scn          - SERVICE COMPANY
DATE.         01/22/92                       : Date         - LOG DATE
STRT.F        50                             : top_depth    - START DEPTH
STOP.F        550.328                        : bot_depth    - STOP DEPTH
STEP.F        0.8202                         : increment    - STEP LENGTH
 NULL. -999.2500:NULL Value
~CURVE INFORMATION BLOCK
#MNEM UNIT       ERCB CURVE CODE    CURVE DESCRIPTION
#-----------   ------------------   ----------------------------------
DEPT.F        00 001 00 00         : DEPTH        - DEPTH
GR  .API      00 310 00 00         : GR           - GAMMA RAY
CALI.IN       00 280 01 00         : CAL          - CALIPER
DPHI.V/V      00 890 00 00         : PHID         - DENSITY POROSITY (SANDSTONE)
ILD .OHMM     00 120 00 00         : RESD         - DEEP RESISTIVITY (DIL)
~PARAMETER INFORMATION
#MNEM.UNIT           DATA             DESCRIPTION OF MNEMONIC
#---------         -----------     ------------------------------
GL  .M        432.542              : gl           - GROUND LEVEL ELEVATION
EREF.M        432.542              : kb           - ELEVATION OF DEPTH REFERENCE
DATM.M        432.542              : datum        - DATUM ELEVATION
TDD .M        168.554              : tdd          - TOTAL DEPTH DRILLER
RUN .         ONE                  : Run          - RUN NUMBER
ENG .         JO                   : Engineer     - RECORDING ENGINEER
WIT .         TIM                  : Witness      - WITNESSED BY
MUD .         GEL                  : Mud_type     - MUD TYPE
MATR.         SANDSTONE            : Logunit      - NEUTRON MATRIX
TMAX.F        53.6                 : BHT          - MAXIMUM RECORDED TEMPERATURE
BHTD.F        553                  : BHTDEP       - MAXIMUM RECORDED TEMPERATURE
RMT .F        53.6                 : MDTP         - TEMPERATURE OF MUD
MUDD.LB/G     9                    : MWT          - MUD DENSITY
NEUT.         1                    : NEUTRON      - NEUTRON TYPE
RESI.         0                    : RESIST       - RESISTIVITY TYPE
RM  .OHMM     1.5                  : RM           - RESISTIVITY OF MUD
RMC .OHMM     1.8                  : RMC          - RESISTIVITY OF MUD CAKE
RMF .OHMM     1.1                  : RMF          - RESISTIVITY OF MUD FILTRATE
SUFT.F        39.2                 : SUFT         - SURFACE TEMPERATURE
~A  DEPTH       GR      CAL     PHID     RESD
# ...
  192.717   84.586    7.111    0.237   16.470
  193.537   83.628    7.071    0.233   14.905
  194.357   83.148    7.070    0.229   13.862
  195.177   82.666    7.070    0.234   13.747
  195.997   82.186    7.069    0.223   13.140
  196.818   81.943    7.029    0.221   14.403
  197.638   82.415    6.989    0.234   14.810
  198.458   84.313    7.029    0.234   15.231
  199.278   85.975    7.147    0.237   17.798
  200.098   86.922    7.166    0.233   18.811
  200.919   88.821    7.186    0.232   16.413
  201.739   90.957    7.225    0.232   14.586
  202.559   91.190    7.324    0.228   15.276
  203.379   92.138    7.482    0.223   14.206
  204.199   92.609    7.620    0.223   12.624
  205.020   91.176    7.739    0.226   10.816
  205.840   89.505    7.818    0.228    9.969
  206.660   88.548    7.877    0.230    9.974
  207.480   88.068    7.897    0.230   10.934
  208.301   87.348    7.817    0.235   11.770
  209.121   86.629    7.737    0.232   11.458
  209.941   86.149    7.598    0.227   10.853
  210.761   85.192    7.459    0.220   12.916
  211.581   84.236    7.339    0.245   21.547
  212.402   82.565    7.200    0.233   16.547
  213.222   81.369    7.120    0.207   21.571
  214.042   80.651    7.140    0.214   16.413
  214.862   79.932    7.159    0.245   14.190
  215.682   80.403    7.179    0.239   10.315
  216.503   84.920    7.158    0.238   11.412
  217.323   86.343    7.198    0.234   12.283
  218.143   85.862    7.435    0.238   11.849
  218.963   88.238    7.494    0.239   11.857
  219.783   88.708    7.395    0.251   12.998
  220.604   88.228    7.216    0.257   11.445
  221.424   89.888    7.136    0.256   11.769
  222.244   89.170    7.096    0.251    9.459
  223.064   87.498    7.115    0.246   10.464
  223.885   86.542    7.155    0.242   12.116
  224.705   85.109    7.134    0.244   15.093
  225.525   84.153    7.035    0.233   20.040
  226.345   84.622    7.015    0.206   31.651
  227.165   85.570    7.054    0.213   33.451
  227.986   86.994    7.153    0.278   26.159
  228.806   91.035    7.331    0.275   12.960
  229.626   93.172    7.469    0.278    8.678
  230.446   93.879    7.568    0.273    6.912
  231.266   94.114    7.607    0.267    6.546
  232.087   94.585    7.627    0.260    6.550
  232.907   94.342    7.686    0.261    6.798
  233.727   93.384    7.804    0.224    7.317
  234.547   93.856    7.923    0.210    8.629
  235.367   96.469    7.942    0.193   11.776
  236.188   97.178    7.902    0.199   11.675
  237.008   94.317    7.803    0.211   11.682
  237.828   92.408    7.683    0.206   12.014
  238.648   91.689    7.584    0.193   12.815
  239.468   90.733    7.524    0.189   14.176
  240.289   90.013    7.444    0.188   16.413
  241.109   89.295    7.285    0.192   16.725
  241.929   88.577    7.185    0.202   26.176
  242.749   88.095    7.125    0.189   18.854
  243.570   88.805    7.125    0.190   15.861
  244.390   88.085    7.125    0.204   15.871
  245.210   87.605    7.085    0.196   16.172
  246.030   87.124    7.005    0.194   16.630
  246.850   86.882    7.004    0.198   14.777
  247.671   86.876    7.024    0.205   13.622
  248.491   86.871    7.043    0.210   13.259
  249.311   83.773    7.043    0.205   13.511
  250.131   83.292    7.003    0.199   19.125
  250.951   83.287    6.943    0.217   22.350
  251.772   81.853    6.883    0.210   22.566
  252.592   79.232    6.863    0.212   18.812
  253.412   75.181    6.862    0.203   18.651
  254.232   77.080    6.882    0.189   23.445
  255.052   73.742    6.901    0.216   18.002
  255.873   72.549    6.940    0.221   16.443
  256.693   71.115    6.960    0.220   15.293
  257.513   70.635    6.979    0.202   16.163
  258.333   70.153    7.019    0.195   16.025
  259.154   69.673    7.117    0.216   15.181
  259.974   68.716    7.216    0.240   15.898
  260.794   68.235    7.216    0.239   16.200
  261.614   67.993    7.136    0.240   16.509
  262.434   69.892    7.076    0.248   17.447
  263.255   71.077    7.056    0.238   20.953
  264.075   71.309    7.016    0.223   31.328
  264.895   71.304    6.976    0.187   64.475
  265.715   71.775    6.936    0.190   24.737
  266.535   73.437    6.935    0.210   17.338
  267.356   77.954    6.955    0.214   15.547
  268.176   81.281    6.974    0.211   14.331
  268.996   80.561    7.013    0.206    8.838
  269.816   79.367    7.072    0.201    8.763
  270.636   76.029    7.131    0.199   11.530
  271.457   75.074    7.171    0.194   12.639
  272.277   73.641    7.012    0.188   13.358
  273.097   71.493    6.952    0.177   19.792
  273.917   70.061    6.951    0.170   60.864
  274.738   68.628    6.792    0.188   76.509
  275.558   68.862    6.832    0.223   20.375
  276.378   74.568    6.970    0.235   14.947
  277.198   78.847    7.009    0.244   14.290
  278.018   80.031    6.969    0.244   13.412
  278.839   80.264    6.889    0.247   13.057
  279.659   80.260    6.849    0.242   14.315
  280.479   80.256    6.829    0.235   16.423
  281.299   80.251    6.809    0.224   16.135
  282.119   80.483    6.789    0.209   16.899
  282.940   81.430    6.808    0.206   16.302
  283.760   82.378    6.867    0.202   11.117
  284.580   83.325    6.966    0.212   12.075
  285.400   84.748    7.084    0.216   12.193
  286.220   88.789    7.203    0.212    9.623
  287.041   90.449    7.441    0.207    9.283
  287.861   89.730    7.579    0.202    9.812
  288.681   90.202    7.579    0.197   11.053
  289.501   90.911    7.578    0.193   11.060
  290.322   90.191    7.578    0.194   10.193
  291.142   89.711    7.518    0.201    9.226
  291.962   88.755    7.399    0.212    8.980
  292.782   87.798    7.279    0.211    9.236
  293.602   86.603    7.160    0.205    9.672
  294.423   85.408    7.080    0.198   11.616
  295.243   84.213    7.020    0.201   11.623
  296.063   84.209    6.980    0.213   12.975
  296.883   85.154    6.960    0.210   13.343
  297.703   85.388    6.939    0.217   12.187
  298.524   85.622    6.919    0.214   11.335
  299.344   86.806    6.879    0.203   12.539
  300.164   87.991    6.859    0.208   12.320
  300.984   88.938    6.859    0.211   13.879
  301.804   89.172    6.878    0.202   14.535
  302.625   89.167    6.937    0.189   13.643
  303.445   89.162    6.976    0.177   13.043
  304.265   89.156    7.016    0.173   11.590
  305.085   88.438    6.975    0.165   12.249
  305.906   87.243    6.916    0.162   13.675
  306.726   86.524    6.876    0.159   19.893
  307.546   88.186    6.895    0.205   19.723
  308.366   91.512    7.113    0.213   13.823
  309.186   94.602    7.330    0.219   13.337
  310.007   97.214    7.330    0.223   10.055
  310.827   96.971    7.389    0.226    9.611
  311.647   96.014    7.448    0.233   10.066
  312.467   95.534    7.467    0.240    9.623
  313.287   97.433    7.507    0.246    8.708
  314.108   96.714    7.566    0.258    7.668
  314.928   95.280    7.585    0.226    7.885
  315.748   95.276    7.585    0.222    7.136
  316.568   96.223    7.585    0.224    6.947
  317.388   95.505    7.584    0.220    6.952
  318.209   95.024    7.564    0.214    6.584
  319.029   95.018    7.564    0.213    6.180
  319.849   94.776    7.563    0.211    7.156
  320.669   93.344    7.543    0.195   10.798
  321.490   91.911    7.543    0.183   10.609
  322.310   91.668    7.542    0.190    9.689
  323.130   92.376    7.502    0.197    8.688
  323.950   93.323    7.502    0.213    8.934
  324.770   94.747    7.481    0.214    9.357
  325.591   95.931    7.481    0.210    9.623
  326.411   95.689    7.461    0.207   11.244
  327.231   96.160    7.460    0.204   13.260
  328.051   96.868    7.460    0.196   12.675
  328.871   96.625    7.459    0.188   11.789
  329.692   98.763    7.459    0.179   10.866
  330.512   98.282    7.498    0.168   10.293
  331.332   97.088    7.518    0.167   11.386
  332.152   98.510    7.517    0.171   12.829
  332.972   99.933    7.517    0.168   12.604
  333.793   99.929    7.517    0.167   12.496
  334.613   98.020    7.496    0.153   12.850
