~Version : LASO    vs 4.00 
VERS.                2.00:   CWLS Log ASCII Standard -VERSION 2.0
WRAP.                  NO:
~Well Information Block
#MNEM.UNIT       Data                        Description of Mnemonic
#----.----      -------------------------- : -----------------------------
STRT.M            15.0000:
STOP.M           207.0000:
STEP.M             0.2000:
NULL.           -999.2500:
COMP.  MOBIL OIL CANADA                   :COMPANY
WELL.  MOBIL CLARKE OV 1-2                :WELL
FLD.                                      :FIELD
LOC.   01-02-090-08W4                     :LOCATION
CTRY.  CANADA                             :COUNTRY
PROV.  ALBERTA                            :PROVINCE
SRVC.  SCHLUMBERGER                       :SERVICE COMPANY
DATE.  05-MAR-81                          :LOG DATE
UWI.   AA/01-02-090-08W400                :UNIQUE WELL ID
~Parameter Information Block
#MNEM.UNIT       Data                        Description of Mnemonic
#----.----      -------------------------- : -----------------------------
RUN .                   1                 : Run Number
GL  .M           444.4000                 : Ground Level Elevation
DREF.                  KB                 : Depth Reference
EREF.M           444.4000                 : Elevation of Depth Reference
TDL .M           207.0000                 : Total Depth Logger
TDD .M           206.0000                 : Total Depth Driller
CSGL.M            27.0000                 : Casing Bottom Logger
CSGD.M            26.4000                 : Casing Bottom Driller
CSGS.MM          219.0000                 : Casing Size
CSGW.KG/M          0.0000                 : Casing Weight
BS  .MM          159.0000                 : Bit Size
DFD .           9999.0000                 : Mud Weight (Density)
~Curve Information Block
#MNEM.UNIT        API CODE    Curve Description
#---------    ------------    -------------------------------------------
DEPT.M                    :   DEPTH
CALI.MM       42 280  1  1:   3 DENSITY CALIPER
DPHI.V/V                  :   DPHI
DT  .US/M     60 520  0  1:   2 SONIC INTERVAL TRANSIT TIME (COMPENSATED)
GR  .GAPI     42 310  1  1:   4 GAMMA RAY
ILD .OHMM      5 120 46  1:   7 DEEP INDUCTION
ILM .OHMM      5 120 44  1:   8 MEDIUM INDUCTION
NPHI.V/V      42 890  3  1:   5 NEUTRON POROSITY (SANDSTONE)
RHOB.K/M3     42 350  1  1:   6 BULK DENSITY
SFLU.OHMM      5 220  1  1:   9 FOCUSSED RESISTIVITY
SP  .MV        5  10  1  1:   10 SPONTANEOUS POTENTIAL
~A  Depth           CALI        DPHI          DT          GR         ILD         ILM        NPHI        RHOB        SFLU          SP
# ...
76.0000         181.0000      0.2598    529.5600     66.2850      2.8329      2.7079      0.5524   2209.0000      2.1669    109.2600
76.2000         181.0000      0.2638    538.2400     66.2850      2.7304      2.6341      0.5544   2206.0000      2.2071    106.8600
76.4000         179.7250      0.2645    540.8800     64.9950      2.7304      2.6099      0.5494   2211.0000      2.2900    107.1600
76.6000         179.7250      0.2635    540.2400     64.0800      2.7557      2.6099      0.5470   2221.0000      2.4201    111.3600
76.8000         179.7250      0.2599    537.1200     63.9900      2.9664      2.6585      0.5398   2176.0000      2.3759    113.2650
77.0000         179.7250      0.2706    535.3200     64.2900      3.0495      2.7329      0.5406   2200.0000      2.2690    104.0550
77.2000         181.0000      0.2754    534.0000     63.1800      3.1932      2.9149      0.5404   2224.0000      2.3979     99.6600
77.4000         183.5250      0.2645    531.5200     61.0800      3.5664      3.2556      0.5420   2194.0000      3.5304    101.8650
77.6000         182.2500      0.2623    529.4000     60.6900      3.9105      3.4724      0.5368   2202.0000      3.8004    104.7150
77.8000         181.0000      0.2717    527.1200     60.7800      4.2484      3.8426      0.5188   2229.0000      3.5961     93.8550
78.0000         183.5250      0.2682    521.3600     62.1900      5.0145      4.9275      0.5164   2237.0000      4.8287    107.5650
78.2000         178.4500      0.2620    517.7600     63.2850      5.2994      5.3043      0.5110   2223.0000      6.8522    105.6150
78.4000         178.4500      0.2521    512.3600     63.3900      5.6005      5.5034      0.5048   2218.0000      7.1094    101.2050
78.6000         188.6000      0.2557    505.6000     61.9800      6.0288      5.7628      0.5036   2218.0000      5.6994     94.5600
78.8000         189.8750      0.2585    505.7600     60.2850      6.0846      5.7099      0.5032   2217.0000      5.8591     99.8100
79.0000         188.6000      0.2569    507.6000     60.1800      6.0846      5.5543      0.5028   2228.0000      5.5954     96.1650
79.2000         188.6000      0.2577    506.7600     59.7900      6.0288      5.6576      0.4948   2222.0000      4.6114     99.6600
79.4000         188.6000      0.2612    503.2800     59.8800      6.0288      5.7628      0.4886   2208.0000      4.9640     96.2550
79.6000         188.6000      0.2662    500.1600     59.8800      6.0288      5.9242      0.4980   2208.0000      5.8591    109.3650
79.8000         186.0750      0.2691    498.0800     59.1900      6.0288      5.9242      0.5008   2198.8999      6.7271    110.6550
80.0000         181.0000      0.2562    490.5200     57.3900      6.3713      5.9242      0.5008   2231.0000      5.8591    105.3150
80.2000         183.5250      0.2360    487.5600     56.1900      6.5498      6.0343      0.4998   2269.0000      5.3930    100.9650
80.4000         182.2500      0.2355    485.6000     54.3900      6.6716      6.2034      0.4836   2267.0000      5.4933    102.6150
80.6000         175.9000      0.2397    476.7600     55.1850      6.6104      6.6777      0.4722   2278.0000      5.4429    104.1150
80.8000         174.6250      0.2261    471.5200     58.1850      6.4303      6.9220      0.4738   2285.8999      6.5438     89.6100
81.0000         173.3750      0.2256    470.3600     62.0850      6.1977      6.6777      0.4758   2234.0000     10.0886     80.8500
81.2000         174.6250      0.2521    474.4400     67.5900      5.9735      5.5543      0.4616   2191.0000      7.3762     93.2550
81.4000         174.6250      0.2705    476.0800     67.2900      5.8645      5.3534      0.4626   2187.8999      4.0535    106.6650
81.6000         175.9000      0.2759    480.0400     65.1900      5.6524      5.2557      0.4668   2218.0000      3.4660    111.0600
81.8000         181.0000      0.2607    490.2000     63.5850      5.3485      5.2557      0.4868   2305.0000      4.4038     90.4650
82.0000         178.4500      0.2393    494.1200     62.7900      5.3485      5.2075      0.4880   2318.0000      5.1503     92.4600
82.2000         175.9000      0.2110    493.9600     60.4800      5.4479      5.1598      0.4854   2318.8999      5.3436    106.3650
82.4000         175.9000      0.2061    489.0400     61.9800      5.5492      5.3534      0.4774   2293.0000      4.6114    110.1150
82.6000         174.6250      0.2114    489.0400     63.9900      5.4983      5.5034      0.4774   2284.0000      5.5954    100.6050
82.8000         173.3750      0.2162    488.0800     65.2950      5.4983      5.3534      0.4790   2215.0000      6.6655    102.5100
83.0000         173.3750      0.2366    488.5600     65.7900      5.4479      5.1598      0.4782   2214.0000      5.9133    105.4050
83.2000         177.1750      0.2601    486.7600     64.5900      5.5492      5.1598      0.4812   2270.0000      4.2056     95.5650
83.4000         178.4500      0.2504    490.3600     63.9900      5.5492      5.2557      0.4840   2267.0000      4.6114     99.2100
83.6000         178.4500      0.2358    490.3600     63.3900      5.5492      5.4029      0.4728   2274.0000      5.0563    105.3600
83.8000         182.2500      0.2269    491.6800     64.3950      5.7047      5.6576      0.4686   2311.0000      5.8591     99.2550
84.0000         179.7250      0.2211    489.3600     63.9900      5.7047      5.6576      0.4802   2314.0000      6.2493    103.0650
84.2000         179.7250      0.2135    482.3200     64.1850      5.6524      5.6576      0.4952   2289.0000      6.3071    110.1600
84.4000         181.0000      0.2097    474.4400     67.6950      5.3980      5.3534      0.4960   2285.0000      5.9680     98.1600
84.6000         181.0000      0.2160    471.3200     67.5900      5.2027      5.1598      0.4948   2290.0000      5.3930     88.4550
84.8000         179.7250      0.2203    472.8000     67.1850      5.0609      4.8824      0.4988   2269.0000      4.6971     90.0600
85.0000         179.7250      0.2242    480.6800     64.5900      4.7888      4.5775      0.5196   2256.0000      3.8711    102.9150
85.2000         181.0000      0.2354    486.4400     63.2850      4.7449      4.4528      0.5132   2252.0000      3.8711    110.9550
85.4000         182.2500      0.2481    492.1600     60.9900      4.8331      4.4119      0.5030   2215.0000      3.9430    111.9150
85.6000         188.6000      0.2601    496.2800     56.8800      5.1550      4.7493      0.5072   2242.0000      3.2496     96.4650
85.8000         188.6000      0.2525    498.0800     55.7850      5.3485      5.2557      0.5024   2222.0000      3.6629    100.9050
86.0000         179.7250      0.2581    500.1600     56.3850      5.4983      5.6057      0.5000   2223.0000      5.9680    109.2600
86.2000         175.9000      0.2656    499.2400     57.1800      5.6524      5.7628      0.4998   2218.0000      8.0136    111.8100
86.4000         174.6250      0.2602    489.7200     58.8900      6.0846      5.7628      0.4780   2249.0000      6.5438    103.0650
86.6000         174.6250      0.2484    476.9200     59.1900      6.0846      5.7628      0.4646   2223.0000      6.5438    103.0650
86.8000         174.6250      0.2535    468.0400     59.5800      6.1977      5.7628      0.4666   2216.0000      5.6472    101.5050
87.0000         191.1500      0.2608    459.5200     59.0850      6.1977      5.9790      0.4792   2282.0000      4.6971     96.1050
87.2000         182.2500      0.2501    465.2800     59.8800      6.1977      6.0902      0.4792   2248.0000      5.2460     97.3050
87.4000         175.9000      0.2388    472.0000     58.9800      6.1409      6.2034      0.4744   2244.0000      6.5438    112.1550
87.6000         177.1750      0.2409    470.0400     54.4800      6.1977      6.2034      0.4596   2229.0000      7.0442    113.1600
87.8000         174.6250      0.2522    458.8800     51.7800      6.2550      6.1465      0.4632   2250.8999      6.5438    112.4100
88.0000         177.1750      0.2472    447.0800     48.1800      6.3713      6.0343      0.4678   2266.0000      5.9680    113.2050
