~VERSION INFORMATION
 VERS.                 2.0:   CWLS LOG ASCII STANDARD -VERSION 2.0
 WRAP.                  NO:   ONE LINE PER DEPTH STEP
~WELL INFORMATION BLOCK
#MNEM.UNIT           DATA                    DESCRIPTION OF MNEMONIC
#---------    -------------------            -------------------------------
# Generated from Intellog Unique Number	CN_94_101/WELL/4994
WELL.         09-05-098-13W4                 : Well_name    - WELL
LOC .         00/09-05-098-13W4/0            : Location     - LOCATION
UWI .         00/09-05-098-13W400            : Uwi          - UNIQUE WELL ID
ENTR.         JOETTE                         : Entered      - ENTERED BY
SRVC.         WESTERN ATLAS                  : Scn          - SERVICE COMPANY
DATE.         08/28/92                       : Date         - LOG DATE
STRT.M        275                            : top_depth    - START DEPTH
STOP.M        480                            : bot_depth    - STOP DEPTH
STEP.M        0.25                           : increment    - STEP LENGTH
 NULL. -999.2500:NULL Value
~CURVE INFORMATION BLOCK
#MNEM UNIT       ERCB CURVE CODE    CURVE DESCRIPTION
#-----------   ------------------   ----------------------------------
DEPT.M        00 001 00 00         : DEPTH        - DEPTH
ILD .OHMM     00 120 00 00         : RESD         - DEEP RESISTIVITY (DIL)
GR  .API      00 310 00 00         : GR           - GAMMA RAY
NPHI.V/V      00 330 00 00         : PHIN         - NEUTRON POROSITY (SANDSTONE)
DPHI.V/V      00 890 00 00         : PHID         - DENSITY POROSITY (SANDSTONE)
~PARAMETER INFORMATION
#MNEM.UNIT           DATA             DESCRIPTION OF MNEMONIC
#---------         -----------     ------------------------------
GL  .M        723.4                : gl           - GROUND LEVEL ELEVATION
EREF.M        726.65               : kb           - ELEVATION OF DEPTH REFERENCE
DATM.M        726.65               : datum        - DATUM ELEVATION
TDD .M        491                  : tdd          - TOTAL DEPTH DRILLER
RUN .         ONE                  : Run          - RUN NUMBER
ENG .         JO                   : Engineer     - RECORDING ENGINEER
WIT .         TIM                  : Witness      - WITNESSED BY
MUD .         GEL                  : Mud_type     - MUD TYPE
MATR.         SANDSTONE            : Logunit      - NEUTRON MATRIX
TMAX.C        20                   : BHT          - MAXIMUM RECORDED TEMPERATURE
BHTD.M        491                  : BHTDEP       - MAXIMUM RECORDED TEMPERATURE
RMT .C        15                   : MDTP         - TEMPERATURE OF MUD
MUDD.KG/M     1150                 : MWT          - MUD DENSITY
NEUT.         1                    : NEUTRON      - NEUTRON TYPE
RESI.         0                    : RESIST       - RESISTIVITY TYPE
RM  .OHMM     6.17                 : RM           - RESISTIVITY OF MUD
RMC .OHMM     5.2                  : RMC          - RESISTIVITY OF MUD CAKE
RMF .OHMM     5.01                 : RMF          - RESISTIVITY OF MUD FILTRATE
SUFT.C        4                    : SUFT         - SURFACE TEMPERATURE
~A  DEPTH     RESD       GR     PHIN     PHID
# ...
  318.500 2671.160   58.119    0.393    0.282
  318.750 3056.590   55.776    0.387    0.277
  319.000 3182.190   51.533    0.380    0.279
  319.250 3188.720   49.671    0.370    0.282
  319.500 3138.000   50.250    0.365    0.282
  319.750 2976.370   50.329    0.364    0.279
  320.000 2872.620   50.408    0.364    0.278
  320.250 2675.830   51.428    0.368    0.277
  320.500 2580.780   55.849    0.375    0.274
  320.750 2310.680   61.212    0.386    0.268
  321.000 1748.530   64.212    0.408    0.261
  321.250  361.693   64.291    0.432    0.254
  321.500  231.006   66.272    0.445    0.248
  321.750  101.298   73.555    0.458    0.241
  322.000   17.698   79.418    0.447    0.240
  322.250   29.475   80.958    0.429    0.248
  322.500   13.188   82.478    0.419    0.258
  322.750   11.800   84.939    0.419    0.261
  323.000   10.197   85.537    0.420    0.267
  323.250   14.323   84.616    0.433    0.263
  323.500   14.635   86.636    0.447    0.259
  323.750   11.938   90.078    0.468    0.253
  324.000    9.033   93.999    0.477    0.243
  324.250    7.938   97.960    0.481    0.237
  324.500   12.742   99.941    0.488    0.232
  324.750   12.531  103.902    0.493    0.228
  325.000   10.408  104.441    0.494    0.235
  325.250    8.332  105.481    0.491    0.236
  325.500    6.675  107.001    0.492    0.238
  325.750    6.200  109.521    0.498    0.238
  326.000    5.154  111.001    0.509    0.237
  326.250    4.981  113.482    0.507    0.233
  326.500    4.898  116.002    0.505    0.223
  326.750    4.820  116.522    0.501    0.215
  327.000    4.833  115.180    0.499    0.196
  327.250    4.938  112.357    0.503    0.187
  327.500    5.338  108.113    0.495    0.165
  327.750    5.663  104.350    0.484    0.147
  328.000    6.364  104.929    0.484    0.144
  328.250    7.004  106.929    0.484    0.151
  328.500   10.236  109.871    0.487    0.153
  328.750   11.919  114.753    0.495    0.156
  329.000   12.178  121.115    0.506    0.170
  329.250    7.638  123.096    0.524    0.204
  329.500    6.844  123.195    0.525    0.217
  329.750    5.792  122.333    0.526    0.216
  330.000    5.186  122.372    0.527    0.214
  330.250    4.649  121.971    0.532    0.213
  330.500    4.493  122.050    0.537    0.210
  330.750    4.416  121.649    0.538    0.212
  331.000    4.428  121.248    0.536    0.215
  331.250    4.446  119.886    0.536    0.215
  331.500    4.537  119.965    0.536    0.210
  331.750    4.468  119.583    0.537    0.209
  332.000    4.237  118.682    0.538    0.204
  332.250    4.014  116.379    0.539    0.207
  332.500    3.802  114.517    0.545    0.213
  332.750    3.478  114.616    0.547    0.220
  333.000    3.415  115.155    0.553    0.223
  333.250    3.240  117.656    0.558    0.225
  333.500    3.131  120.597    0.564    0.226
  333.750    3.077  123.558    0.568    0.226
  334.000    3.028  127.019    0.566    0.222
  334.250    2.982  127.578    0.561    0.220
  334.500    2.992  128.137    0.559    0.215
  334.750    2.942  129.657    0.558    0.213
  335.000    2.787  129.256    0.556    0.214
  335.250    2.594  127.894    0.555    0.218
  335.500    2.502  125.572    0.551    0.225
  335.750    2.708  122.789    0.542    0.226
  336.000    2.818  121.387    0.541    0.229
  336.250    3.048  119.565    0.542    0.230
  336.500    3.235  120.624    0.537    0.233
  336.750    3.301  121.684    0.530    0.237
  337.000    3.249  122.684    0.527    0.239
  337.250    3.079  124.224    0.525    0.237
  337.500    3.030  125.744    0.530    0.237
  337.750    3.155  126.803    0.533    0.243
  338.000    3.349  126.862    0.533    0.245
  338.250    3.349  127.422    0.532    0.246
  338.500    3.128  127.040    0.533    0.244
  338.750    3.194  126.599    0.537    0.242
  339.000    3.200  125.718    0.543    0.247
  339.250    3.268  124.836    0.548    0.249
  339.500    3.279  126.376    0.548    0.250
  339.750    3.286  127.916    0.544    0.255
  340.000    3.295  128.916    0.544    0.255
  340.250    3.306  129.475    0.541    0.254
  340.500    3.315  129.574    0.536    0.247
  340.750    3.324  127.732    0.533    0.239
  341.000    3.273  126.850    0.536    0.238
  341.250    3.219  126.929    0.540    0.235
  341.500    2.997  127.028    0.546    0.231
  341.750    2.890  127.067    0.556    0.234
  342.000    2.593  127.146    0.560    0.241
  342.250    2.454  127.245    0.569    0.261
  342.500    2.285  127.344    0.571    0.264
  342.750    2.164  127.864    0.572    0.266
  343.000    2.091  127.982    0.571    0.266
  343.250    2.138  127.561    0.576    0.272
  343.500    2.267  126.680    0.582    0.269
  343.750    2.406  124.838    0.580    0.265
  344.000    2.410  122.495    0.581    0.258
  344.250    2.462  119.692    0.581    0.254
  344.500    2.469  121.713    0.580    0.245
  344.750    2.476  124.173    0.581    0.237
  345.000    2.476  126.674    0.580    0.232
  345.250    2.311  128.213    0.571    0.236
  345.500    2.499  128.773    0.549    0.240
  345.750    2.550  128.371    0.548    0.245
  346.000    2.559  127.970    0.547    0.251
  346.250    2.564  127.529    0.552    0.247
  346.500    2.575  126.648    0.556    0.244
  346.750    2.580  124.325    0.558    0.241
  347.000    2.587  120.082    0.555    0.245
  347.250    2.798  115.357    0.548    0.244
  347.500    3.025  112.055    0.543    0.232
  347.750    3.090  107.831    0.536    0.219
  348.000    3.099  105.508    0.531    0.221
  348.250    2.993  104.146    0.530    0.224
  348.500    2.943  104.205    0.530    0.225
  348.750    2.843  105.245    0.524    0.226
  349.000    2.961  107.245    0.517    0.260
  349.250    3.324  107.805    0.513    0.263
  349.500    3.727  105.482    0.507    0.262
  349.750    5.250  102.699    0.500    0.261
  350.000    5.566  102.278    0.500    0.261
  350.250    6.364  102.897    0.500    0.261
  350.500    7.014  103.917    0.495    0.261
  350.750    6.898  104.937    0.491    0.259
  351.000    6.306  106.457    0.496    0.263
  351.250    5.973  107.016    0.500    0.266
  351.500    5.870  107.095    0.499    0.269
  351.750    5.363  106.233    0.490    0.272
  352.000    5.083  104.832    0.483    0.269
  352.250    5.602  102.509    0.472    0.261
  352.500    6.051   99.687    0.458    0.252
  352.750    7.051   95.923    0.448    0.244
  353.000    8.377   92.640    0.432    0.222
  353.250    9.220   87.436    0.414    0.199
  353.500   11.807   83.652    0.400    0.207
  353.750   14.555   80.869    0.407    0.228
  354.000   20.093   80.488    0.413    0.237
  354.250   30.467   81.008    0.422    0.247
  354.500   31.151   82.528    0.433    0.260
  354.750   27.372   84.548    0.444    0.273
  355.000   23.604   85.087    0.451    0.284
  355.250   17.204   86.127    0.472    0.275
  355.500   16.615   89.608    0.482    0.270
  355.750   14.887   91.588    0.483    0.261
  356.000   13.347   95.990    0.484    0.255
  356.250   12.399  107.636    0.489    0.249
  356.500   11.109  109.156    0.497    0.246
  356.750    9.061  111.176    0.505    0.244
  357.000    7.526  112.216    0.513    0.237
  357.250    6.618  112.755    0.515    0.233
  357.500    5.500  111.893    0.515    0.245
  357.750    4.837  110.532    0.515    0.249
  358.000    4.496  108.689    0.515    0.247
  358.250    3.953  107.768    0.516    0.245
  358.500    3.750  105.485    0.521    0.252
  358.750    3.757  105.544    0.525    0.250
  359.000    3.914  105.604    0.531    0.245
  359.250    3.997  106.643    0.534    0.248
  359.500    4.240  109.164    0.541    0.247
  359.750    4.501  112.124    0.536    0.241
  360.000    4.513  114.605    0.532    0.237
  360.250    3.966  117.105    0.531    0.235
  360.500    3.422  118.106    0.535    0.229
  360.750    3.011  118.704    0.540    0.224
  361.000    2.906  118.303    0.547    0.225
  361.250    2.809  117.882    0.551    0.231
  361.500    2.713  116.040    0.556    0.237
  361.750    2.720  115.139    0.564    0.244
