~VERSION INFORMATION
 VERS.                 2.0:   CWLS LOG ASCII STANDARD -VERSION 2.0
 WRAP.                  NO:   ONE LINE PER DEPTH STEP
~WELL INFORMATION BLOCK
#MNEM.UNIT           DATA                    DESCRIPTION OF MNEMONIC
#---------    -------------------            -------------------------------
# Generated from Intellog Unique Number	CN_94_101/WELL/3629
WELL.         03-28-096-15W4                 : Well_name    - WELL
LOC .         AA/03-28-096-15W4/0            : Location     - LOCATION
UWI .         AA/03-28-096-15W400            : Uwi          - UNIQUE WELL ID
ENTR.         J                              : Entered      - ENTERED BY
SRVC.         SCHLUMBERGER                   : Scn          - SERVICE COMPANY
DATE.         08/05/92                       : Date         - LOG DATE
STRT.M        175                            : top_depth    - START DEPTH
STOP.M        370                            : bot_depth    - STOP DEPTH
STEP.M        0.25                           : increment    - STEP LENGTH
 NULL. -999.2500:NULL Value
~CURVE INFORMATION BLOCK
#MNEM UNIT       ERCB CURVE CODE    CURVE DESCRIPTION
#-----------   ------------------   ----------------------------------
DEPT.M        00 001 00 00         : DEPTH        - DEPTH
ILD .OHMM     00 120 00 00         : RESD         - DEEP RESISTIVITY (DIL)
GR  .API      00 310 00 00         : GR           - GAMMA RAY
NPHI.V/V      00 330 00 00         : PHIN         - NEUTRON POROSITY (SANDSTONE)
DPHI.V/V      00 890 00 00         : PHID         - DENSITY POROSITY (SANDSTONE)
~PARAMETER INFORMATION
#MNEM.UNIT           DATA             DESCRIPTION OF MNEMONIC
#---------         -----------     ------------------------------
GL  .M        625.64               : gl           - GROUND LEVEL ELEVATION
EREF.M        628.99               : kb           - ELEVATION OF DEPTH REFERENCE
DATM.M        628.99               : datum        - DATUM ELEVATION
TDD .M        381                  : tdd          - TOTAL DEPTH DRILLER
RUN .         ONE                  : Run          - RUN NUMBER
ENG .         JO                   : Engineer     - RECORDING ENGINEER
WIT .         TIM                  : Witness      - WITNESSED BY
MUD .         GEL                  : Mud_type     - MUD TYPE
MATR.         SANDSTONE            : Logunit      - NEUTRON MATRIX
TMAX.C        19                   : BHT          - MAXIMUM RECORDED TEMPERATURE
BHTD.M        381                  : BHTDEP       - MAXIMUM RECORDED TEMPERATURE
RMT .C        15                   : MDTP         - TEMPERATURE OF MUD
MUDD.KG/M     1090                 : MWT          - MUD DENSITY
NEUT.         1                    : NEUTRON      - NEUTRON TYPE
RESI.         0                    : RESIST       - RESISTIVITY TYPE
RM  .OHMM     0.366                : RM           - RESISTIVITY OF MUD
RMC .OHMM     0.366                : RMC          - RESISTIVITY OF MUD CAKE
RMF .OHMM     0.488                : RMF          - RESISTIVITY OF MUD FILTRATE
SUFT.C        4                    : SUFT         - SURFACE TEMPERATURE
~A  DEPTH     RESD       GR     PHIN     PHID
  175.000   54.548   17.640    0.313    0.316
  175.250   53.620   17.281    0.319    0.312
  175.500   53.660   16.902    0.329    0.329
  175.750   51.752   16.943    0.340    0.334
  176.000   49.912   17.814    0.331    0.336
  176.250   49.008   18.255    0.324    0.331
  176.500   49.100   20.355    0.326    0.312
  176.750   49.173   23.254    0.327    0.301
  177.000   48.336   32.729    0.328    0.300
  177.250   46.566   40.146    0.330    0.307
  177.500   40.049   56.597    0.333    0.327
  177.750   30.715   63.194    0.340    0.341
  178.000   12.106   71.840    0.339    0.360
  178.250    8.938   73.950    0.352    0.365
  178.500    7.123   73.151    0.473    0.353
  178.750    7.134   70.734    0.461    0.332
  179.000    7.858   69.546    0.453    0.278
  179.250    8.335   70.816    0.449    0.263
  179.500    8.036   73.746    0.455    0.261
  179.750    7.458   75.825    0.463    0.272
  180.000    6.663   73.408    0.469    0.277
  180.250    6.182   71.400    0.480    0.279
  180.500    5.739   71.441    0.493    0.279
  180.750    5.533   71.073    0.492    0.277
  181.000    5.648   73.572    0.468    0.272
  181.250    5.989   69.516    0.462    0.259
  181.500    6.228   67.518    0.456    0.212
  181.750    6.606   66.740    0.449    0.177
  182.000    6.873   69.229    0.444    0.133
  182.250    7.015   67.631    0.455    0.233
  182.500    7.026   66.443    0.447    0.270
  182.750    7.174   66.075    0.456    0.261
  183.000    7.464   66.525    0.466    0.274
  183.250    7.619   71.483    0.477    0.276
  183.500    7.777   74.003    0.476    0.274
  183.750    7.497   74.024    0.464    0.285
  184.000    6.701   74.475    0.456    0.296
  184.250    6.334   74.116    0.451    0.298
  184.500    5.449   73.338    0.450    0.298
  184.750    4.867   71.330    0.461    0.299
  185.000    4.350   69.722    0.482    0.298
  185.250    4.111   66.895    0.509    0.291
  185.500    3.816   64.068    0.533    0.281
  185.750    3.821   62.060    0.539    0.280
  186.000    4.211   61.692    0.513    0.291
  186.250    4.820   62.552    0.509    0.297
  186.500    5.209   65.052    0.498    0.291
  186.750    5.629   67.982    0.473    0.291
  187.000    5.856   68.412    0.476    0.292
  187.250    5.863   67.633    0.502    0.286
  187.500    5.761   63.997    0.487    0.277
  187.750    5.556   61.569    0.474    0.272
  188.000    5.565   57.513    0.482    0.271
  188.250    5.900   54.686    0.473    0.257
  188.500    6.751   51.039    0.457    0.231
  188.750    7.725   49.441    0.437    0.252
  189.000    8.676   50.712    0.437    0.286
  189.250    9.196   52.392    0.448    0.307
  189.500    9.938   53.662    0.445    0.301
  189.750   10.148   52.474    0.434    0.306
  190.000    9.787   51.286    0.428    0.314
  190.250    9.429   54.206    0.425    0.324
  190.500    8.757   56.705    0.439    0.320
  190.750    8.439   57.965    0.460    0.316
  191.000    7.833   55.968    0.460    0.316
  191.250    7.696   57.228    0.450    0.322
  191.500    7.560   60.967    0.442    0.329
  191.750    7.434   62.647    0.449    0.329
  192.000    7.299   64.327    0.463    0.318
  192.250    7.175   65.597    0.463    0.306
  192.500    7.186   66.058    0.454    0.294
  192.750    7.619   65.280    0.445    0.294
  193.000    8.393   63.672    0.445    0.285
  193.250    9.244   59.626    0.466    0.284
  193.500   10.378   56.379    0.459    0.297
  193.750   11.431   53.982    0.433    0.309
  194.000   12.596   54.432    0.427    0.318
  194.250   13.104   54.883    0.423    0.317
  194.500   13.890   54.095    0.419    0.312
  194.750   14.734   52.497    0.422    0.320
  195.000   14.756   52.128    0.398    0.323
  195.250   14.778   53.808    0.386    0.309
  195.500   14.252   55.488    0.381    0.293
  195.750   14.263   57.158    0.408    0.269
  196.000   13.492   58.019    0.409    0.254
  196.250   12.521   57.650    0.402    0.280
  196.500   11.621   58.510    0.415    0.300
  196.750   10.992   61.010    0.431    0.308
  197.000   10.398   62.280    0.443    0.307
  197.250   10.028   60.703    0.430    0.300
  197.500    9.854   59.914    0.412    0.304
  197.750    9.679   61.185    0.415    0.309
  198.000    9.693   62.045    0.429    0.309
  198.250    9.525   61.277    0.434    0.294
  198.500    9.546   61.318    0.437    0.275
  198.750    9.557   63.398    0.442    0.290
  199.000    9.568   64.268    0.448    0.292
  199.250    9.773   62.671    0.439    0.293
  199.500    9.969   61.472    0.434    0.299
  199.750   10.375   61.523    0.424    0.304
  200.000   10.586   61.145    0.410    0.303
  200.250   11.013   58.317    0.409    0.301
  200.500   10.421   56.310    0.416    0.319
  200.750    9.668   55.132    0.445    0.322
  201.000    9.321   53.124    0.463    0.321
  201.250   11.301   50.686    0.437    0.334
  201.500   13.179   46.630    0.412    0.350
  201.750   15.074   42.164    0.412    0.356
  202.000   16.604   42.215    0.425    0.356
  202.250   17.951   43.076    0.420    0.365
  202.500   18.323   43.527    0.409    0.363
  202.750   18.343   43.977    0.414    0.361
  203.000   18.371   44.428    0.409    0.361
  203.250   17.384   45.289    0.406    0.364
  203.500   16.753   47.379    0.404    0.367
  203.750   15.554   49.059    0.400    0.366
  204.000   14.990   51.569    0.411    0.358
  204.250   13.392   53.658    0.431    0.346
  204.500   12.195   54.939    0.439    0.338
  204.750   11.109   54.970    0.427    0.339
  205.000   10.714   53.792    0.436    0.326
  205.250   10.722   52.993    0.439    0.324
  205.500   10.738   52.225    0.427    0.331
  205.750   10.960   51.846    0.425    0.337
  206.000   10.770   52.706    0.428    0.328
  206.250   10.383   54.397    0.441    0.327
  206.500    9.822   55.247    0.450    0.327
  206.750    8.775   59.406    0.435    0.322
  207.000    7.692   60.666    0.433    0.318
  207.250    7.851   60.707    0.439    0.310
  207.500    8.325   59.939    0.426    0.304
  207.750    8.338   59.560    0.441    0.300
  208.000    8.511   59.191    0.441    0.311
  208.250    8.366   61.691    0.436    0.326
  208.500    7.910   64.191    0.443    0.311
  208.750    7.341   66.690    0.442    0.297
  209.000    6.813   67.141    0.444    0.283
  209.250    6.695   63.914    0.453    0.289
  209.500    6.579   61.487    0.454    0.297
  209.750    8.126   57.430    0.460    0.299
  210.000    9.126   56.242    0.461    0.288
  210.250    9.673   55.873    0.451    0.252
  210.500    9.874   56.744    0.432    0.220
  210.750    9.163   58.004    0.411    0.210
  211.000    8.344   60.924    0.430    0.240
  211.250    7.744   64.243    0.448    0.296
  211.500    8.369   66.743    0.466    0.324
  211.750    7.770   65.565    0.456    0.318
  212.000    7.209   65.595    0.459    0.312
  212.250    7.222   65.227    0.452    0.311
  212.500    7.658   63.629    0.442    0.310
  212.750    8.273   62.441    0.432    0.310
  213.000    8.941   60.433    0.436    0.315
  213.250    8.954   60.064    0.426    0.325
  213.500    8.310   71.988    0.423    0.318
  213.750    7.147   72.439    0.439    0.306
  214.000    6.265   69.612    0.458    0.301
  214.250    5.289   73.351    0.463    0.305
  214.500    5.097   73.402    0.475    0.304
  214.750    5.012   71.394    0.476    0.293
  215.000    5.112   69.786    0.478    0.292
  215.250    5.318   68.998    0.510    0.281
  215.500    5.535   67.410    0.526    0.291
  215.750    5.652   69.090    0.520    0.296
  216.000    5.767   71.600    0.505    0.293
  216.250    5.773   72.870    0.494    0.297
  216.500    5.675   73.721    0.494    0.297
  216.750    5.682   74.581    0.505    0.289
  217.000    5.585   77.101    0.509    0.300
  217.250    5.486   78.361    0.492    0.306
  217.500    5.390   79.632    0.465    0.317
  217.750    5.297   81.721    0.463    0.323
  218.000    5.207   83.811    0.482    0.313
  218.250    5.214   83.852    0.501    0.307
