~VERSION INFORMATION
 VERS.                 2.0:   CWLS LOG ASCII STANDARD -VERSION 2.0
 WRAP.                  NO:   ONE LINE PER DEPTH STEP
~WELL INFORMATION BLOCK
#MNEM.UNIT           DATA                    DESCRIPTION OF MNEMONIC
#---------    -------------------            -------------------------------
# Generated from Intellog Unique Number	CN_91_93/WELL/2951
WELL.         01-24-092-12W4                 : Well_name    - WELL
LOC .         AA/01-24-092-12W4/0            : Location     - LOCATION
UWI .         AA/01-24-092-12W400            : Uwi          - UNIQUE WELL ID
ENTR.         JOETTE                         : Entered      - ENTERED BY
SRVC.         SCHLUMBERGER                   : Scn          - SERVICE COMPANY
DATE.         03/31/92                       : Date         - LOG DATE
STRT.F        0                              : top_depth    - START DEPTH
STOP.F        379.757                        : bot_depth    - STOP DEPTH
STEP.F        0.82021                        : increment    - STEP LENGTH
 NULL. -999.2500:NULL Value
~CURVE INFORMATION BLOCK
#MNEM UNIT       ERCB CURVE CODE    CURVE DESCRIPTION
#-----------   ------------------   ----------------------------------
DEPT.F        00 001 00 00         : DEPTH        - DEPTH
CALI.IN       00 280 01 00         : CAL          - CALIPER
GR  .API      00 310 00 00         : GR           - GAMMA RAY
NPHI.V/V      00 330 00 00         : PHIN         - NEUTRON POROSITY (SANDSTONE)
DPHI.V/V      00 890 00 00         : PHID         - DENSITY POROSITY (SANDSTONE)
ILD .OHMM     00 120 00 00         : RESD         - DEEP RESISTIVITY (DIL)
~PARAMETER INFORMATION
#MNEM.UNIT           DATA             DESCRIPTION OF MNEMONIC
#---------         -----------     ------------------------------
GL  .M        370.881              : gl           - GROUND LEVEL ELEVATION
EREF.M        370.881              : kb           - ELEVATION OF DEPTH REFERENCE
DATM.M        370.881              : datum        - DATUM ELEVATION
TDD .M        120.396              : tdd          - TOTAL DEPTH DRILLER
RUN .         ONE                  : Run          - RUN NUMBER
ENG .         BILL                 : Engineer     - RECORDING ENGINEER
WIT .         JIM                  : Witness      - WITNESSED BY
MUD .         GEL                  : Mud_type     - MUD TYPE
MATR.         SANDSTONE            : Logunit      - NEUTRON MATRIX
TMAX.F        55                   : BHT          - MAXIMUM RECORDED TEMPERATURE
BHTD.F        395                  : BHTDEP       - MAXIMUM RECORDED TEMPERATURE
RMT .F        55                   : MDTP         - TEMPERATURE OF MUD
MUDD.LB/G     1.1                  : MWT          - MUD DENSITY
NEUT.         1                    : NEUTRON      - NEUTRON TYPE
RESI.         0                    : RESIST       - RESISTIVITY TYPE
RM  .OHMM     6.49                 : RM           - RESISTIVITY OF MUD
RMC .OHMM     6.49                 : RMC          - RESISTIVITY OF MUD CAKE
RMF .OHMM     6.49                 : RMF          - RESISTIVITY OF MUD FILTRATE
SUFT.F        4                    : SUFT         - SURFACE TEMPERATURE
~A  DEPTH      CAL       GR     PHIN     PHID     RESD
    0.000    5.538   17.205    0.326    0.592    0.000
    0.820    5.542   20.226    0.348    0.588    0.000
    1.640    5.528   25.908    0.396    0.577    0.000
    2.461    5.531   41.681    0.341    0.491    0.000
    3.281    5.549   46.474    0.317    0.439    0.000
    4.101    5.584   42.974    0.295    0.387    0.000
    4.921    5.698   45.692    0.303    0.372    0.000
    5.741    5.779   44.570    0.317    0.365    0.000
    6.562    5.845   44.910    0.325    0.368    0.000
    7.382    5.864   39.625    0.326    0.341    0.000
    8.202    5.835   34.933    0.292    0.310    0.000
    9.022    5.759   33.211    0.289    0.290    0.000
    9.843    5.762   52.535    0.297    0.307    0.000
   10.663    5.828   64.745    0.347    0.351    0.000
   11.483    5.783   81.407    0.550    0.379    0.000
   12.303    5.866   83.836    0.547    0.373    0.000
   13.123    5.931   62.241    0.588    0.366    0.000
   13.944    5.950   53.986    0.560    0.335    0.000
   14.764    5.937   40.105    0.492    0.301    0.000
   15.584    5.926   37.500    0.439    0.299    0.000
   16.404    5.912   37.248    0.430    0.312    0.000
   17.224    5.898   37.594    0.455    0.335    0.000
   18.045    5.898   39.423    0.474    0.340    0.000
   18.865    5.888   39.480    0.484    0.314    0.000
   19.685    5.891   49.615    0.467    0.297    0.000
   20.505    5.894   55.600    0.498    0.301    0.991
   21.326    5.897   57.139    0.542    0.261    0.993
   22.146    5.899   56.596    0.518    0.248    1.003
   22.966    5.918   57.833    0.520    0.255    1.032
   23.786    5.921   59.681    0.556    0.272    1.090
   24.606    5.923   59.428    0.599    0.286    1.293
   25.427    5.942   59.176    0.602    0.296    1.987
   26.247    6.040   58.640    0.561    0.293    6.705
   27.067    6.090   56.918    0.528    0.286   16.112
   27.887    6.141   54.301    0.488    0.285   15.021
   28.707    6.143   51.393    0.502    0.284   15.450
   29.528    6.162   49.369    0.506    0.286   15.609
   30.348    6.164   48.530    0.493    0.288   10.740
   31.168    6.167   52.730    0.516    0.274    9.158
   31.988    6.171   64.644    0.580    0.312    9.676
   32.808    6.157   73.889    0.604    0.288    9.689
   33.629    6.145   73.353    0.573    0.320   10.235
   34.449    6.148   75.781    0.550    0.321   13.278
   35.269    6.135   80.877    0.532    0.322   14.280
   36.089    6.121   76.475    0.525    0.325   14.045
   36.910    6.108   73.858    0.525    0.328   16.517
   37.730    6.111   72.735    0.523    0.338   13.468
   38.550    6.161   75.157    0.506    0.332    9.518
   39.370    6.291   78.172    0.536    0.356    8.955
   40.190    6.293   80.303    0.547    0.326   13.282
   41.011    6.629   81.546    0.510    0.314    8.662
   41.831    6.489   80.707    0.496    0.302    7.321
   42.651    6.428   77.787    0.535    0.316    8.456
   43.471    6.352   73.391    0.545    0.313    9.261
   44.291    6.307   69.601    0.521    0.309   10.791
   45.111    6.200   65.199    0.503    0.317   14.639
   45.932    6.219   62.581    0.468    0.274   12.370
   46.752    6.380   65.602    0.452    0.267   15.765
   47.572    6.445   70.099    0.463    0.283   10.849
   48.392    6.259   77.566    0.483    0.293    7.466
   49.213    6.151   82.075    0.501    0.333    8.396
   50.033    6.153   81.527    0.524    0.341    6.606
   50.853    6.188   88.401    0.587    0.383    4.466
   51.673    6.175   89.353    0.625    0.410    3.807
   52.493    6.146   88.212    0.651    0.395    3.916
   53.314    6.149   90.646    0.652    0.401    3.751
   54.134    6.167   92.475    0.662    0.383    3.656
   54.954    6.167   90.747    0.665    0.368    3.966
   55.774    6.174   89.322    0.669    0.372    3.902
   56.594    6.192   94.109    0.644    0.360    3.357
   57.415    6.192   94.184    0.614    0.344    5.300
   58.235    6.198   92.444    0.574    0.318    7.063
   59.055    6.185   94.865    0.536    0.289    9.082
   59.875    6.185   96.991    0.495    0.291    8.391
   60.696    6.190   94.380    0.505    0.267    8.403
   61.516    6.177   95.319    0.498    0.283    8.958
   62.336    6.180   94.487    0.508    0.272    9.296
   63.156    6.183   93.352    0.483    0.256   13.668
   63.976    6.138   94.014    0.441    0.266   13.086
   64.797    6.093   93.459    0.450    0.251   11.060
   65.617    6.017   92.330    0.462    0.231   12.326
   66.437    5.989   90.003    0.425    0.224   23.900
   67.257    5.991   86.206    0.398    0.192   18.471
   68.077    6.042   86.553    0.399    0.132   11.941
   68.898    6.076   92.235    0.436    0.267   15.634
   69.718    6.047   94.077    0.442    0.256   13.689
   70.538    6.018   92.349    0.432    0.231   12.762
   71.358    6.005   87.947    0.427    0.239   14.875
   72.178    6.009   83.847    0.431    0.274   17.968
   72.999    6.011   79.161    0.425    0.288   16.166
   73.819    6.015   77.433    0.424    0.301   15.756
   74.639    6.002   74.229    0.444    0.311   21.760
   75.459    6.004   77.849    0.432    0.325   23.405
   76.279    6.007   77.591    0.422    0.323   18.746
   77.100    6.007   74.974    0.426    0.317   13.608
   77.920    6.012   72.066    0.445    0.310   17.036
   78.740    5.999   67.677    0.470    0.278   19.505
   79.560    5.970   63.571    0.443    0.252   42.481
   80.381    5.958   59.768    0.394    0.236   20.820
   81.201    5.944   64.574    0.359    0.192   18.562
   82.021    5.901   63.438    0.351    0.209   30.104
   82.841    5.856   62.593    0.384    0.233   21.666
   83.661    5.842   68.578    0.386    0.225   21.306
   84.482    5.829   77.231    0.425    0.288   12.375
   85.302    5.819   81.438    0.430    0.292   10.551
   86.122    5.804   76.449    0.455    0.286   13.208
   86.942    5.791   75.610    0.471    0.284   10.770
   87.763    5.777   74.191    0.451    0.293   19.617
   88.583    5.780   71.284    0.434    0.295   20.359
   89.403    5.783   72.224    0.422    0.305   15.593
   90.223    5.802   73.163    0.436    0.297   18.835
   91.043    5.821   72.324    0.439    0.291   22.151
   91.864    5.839   70.886    0.422    0.266   21.211
   92.684    5.842   73.914    0.412    0.251   18.916
   93.504    5.813   76.935    0.420    0.220   19.110
   94.324    5.816   78.764    0.432    0.257   17.342
   95.144    5.850   72.879    0.442    0.288   12.591
   95.965    5.869   66.711    0.466    0.288   18.021
   96.785    5.872   64.384    0.457    0.305   21.193
   97.605    5.859   64.441    0.420    0.314   21.035
   98.425    5.862   63.911    0.406    0.324   20.686
   99.245    5.864   64.258    0.429    0.310   20.531
  100.066    5.868   68.156    0.423    0.306   21.689
  100.886    5.870   74.734    0.436    0.298   18.492
  101.706    5.873   76.272    0.458    0.262   16.340
  102.526    5.876   70.394    0.431    0.233   37.212
  103.346    5.879   66.301    0.391    0.206   84.744
  104.167    5.882   61.905    0.334    0.098   26.816
  104.987    5.885   61.653    0.269    0.161   20.907
  105.807    5.885   66.453    0.300    0.268   19.152
  106.627    5.891   72.141    0.432    0.312   21.730
  107.448    5.893   73.087    0.435    0.315   19.544
  108.268    5.911   76.695    0.431    0.317   12.862
  109.088    5.899   82.976    0.449    0.306   11.674
  109.908    5.901   85.991    0.467    0.285    8.628
  110.728    5.904   90.790    0.463    0.266    9.281
  111.549    5.907   90.254    0.478    0.256    9.892
  112.369    5.910   92.676    0.489    0.273    8.741
  113.189    5.928   94.518    0.502    0.274    8.076
  114.009    5.947   92.783    0.504    0.274    7.464
  114.829    5.966   92.840    0.509    0.277    7.212
  115.650    6.000   92.007    0.526    0.263    7.686
  116.470    6.019   89.087    0.533    0.268    7.835
  117.290    6.037   85.284    0.469    0.261   12.152
  118.110    6.040   85.347    0.457    0.241   11.533
  118.930    6.027   89.251    0.470    0.252   12.296
