~VERSION INFORMATION
 VERS.                 2.0:   CWLS LOG ASCII STANDARD -VERSION 2.0
 WRAP.                  NO:   ONE LINE PER DEPTH STEP
~WELL INFORMATION BLOCK
#MNEM.UNIT           DATA                    DESCRIPTION OF MNEMONIC
#---------    -------------------            -------------------------------
# Generated from Intellog Unique Number	CN_91_93/WELL/2780
WELL.         01-36-093-10W4                 : Well_name    - WELL
LOC .         AA/01-36-093-10W4/0            : Location     - LOCATION
UWI .         AA/01-36-093-10W400            : Uwi          - UNIQUE WELL ID
ENTR.         JO                             : Entered      - ENTERED BY
SRVC.         SCHLUMBERGER                   : Scn          - SERVICE COMPANY
DATE.         03/23/92                       : Date         - LOG DATE
STRT.M        0                              : top_depth    - START DEPTH
STOP.M        85                             : bot_depth    - STOP DEPTH
STEP.M        0.25                           : increment    - STEP LENGTH
 NULL. -999.2500:NULL Value
~CURVE INFORMATION BLOCK
#MNEM UNIT       ERCB CURVE CODE    CURVE DESCRIPTION
#-----------   ------------------   ----------------------------------
DEPT.M        00 001 00 00         : DEPTH        - DEPTH
CALI.MM       00 280 01 00         : CAL          - CALIPER
GR  .API      00 310 00 00         : GR           - GAMMA RAY
NPHI.V/V      00 330 00 00         : PHIN         - NEUTRON POROSITY (SANDSTONE)
DPHI.V/V      00 890 00 00         : PHID         - DENSITY POROSITY (SANDSTONE)
ILD .OHMM     00 120 00 00         : RESD         - DEEP RESISTIVITY (DIL)
~PARAMETER INFORMATION
#MNEM.UNIT           DATA             DESCRIPTION OF MNEMONIC
#---------         -----------     ------------------------------
GL  .M        334.4                : gl           - GROUND LEVEL ELEVATION
EREF.M        334.4                : kb           - ELEVATION OF DEPTH REFERENCE
DATM.M        334.4                : datum        - DATUM ELEVATION
TDD .M        86.2                 : tdd          - TOTAL DEPTH DRILLER
RUN .         ONE                  : Run          - RUN NUMBER
ENG .         JO                   : Engineer     - RECORDING ENGINEER
WIT .         TIM                  : Witness      - WITNESSED BY
MUD .         GEL                  : Mud_type     - MUD TYPE
MATR.         SANDSTONE            : Logunit      - NEUTRON MATRIX
TMAX.C        10                   : BHT          - MAXIMUM RECORDED TEMPERATURE
BHTD.M        86.2                 : BHTDEP       - MAXIMUM RECORDED TEMPERATURE
RMT .C        14                   : MDTP         - TEMPERATURE OF MUD
MUDD.KG/M     1000                 : MWT          - MUD DENSITY
NEUT.         1                    : NEUTRON      - NEUTRON TYPE
RESI.         0                    : RESIST       - RESISTIVITY TYPE
RM  .OHMM     16.5                 : RM           - RESISTIVITY OF MUD
RMC .OHMM     16.5                 : RMC          - RESISTIVITY OF MUD CAKE
RMF .OHMM     16.5                 : RMF          - RESISTIVITY OF MUD FILTRATE
SUFT.C        4                    : SUFT         - SURFACE TEMPERATURE
~A  DEPTH      CAL       GR     PHIN     PHID     RESD
# ...
   36.500   84.994   80.429    0.348    0.288   65.730
   36.750   85.076   75.901    0.367    0.296   63.357
   37.000   85.156   68.377    0.355    0.238   50.915
   37.250   85.137   64.154    0.346    0.216   37.096
   37.500   85.117   60.217    0.379    0.234   30.863
   37.750   85.117   78.380    0.360    0.272   26.790
   38.000   85.081   98.328    0.378    0.290   26.740
   38.250   84.871   95.889    0.393    0.238   46.370
   38.500   84.754   86.282    0.399    0.253   39.414
   38.750   84.754   79.361    0.353    0.242   33.487
   39.000   84.612   85.582    0.373    0.204   29.891
   39.250   84.701   98.362    0.390    0.260   30.667
   39.500   84.701   95.916    0.392    0.268   31.706
   39.750   84.757   93.186    0.377    0.245   30.130
   40.000   84.746   97.013    0.393    0.246   30.081
   40.250   84.729   91.292    0.391    0.246   30.456
   40.500   84.613   86.155    0.393    0.245   26.989
   40.750   84.494   84.916    0.394    0.255   27.903
   41.000   84.481   95.905    0.401    0.245   31.577
   41.250   84.462   90.184    0.381    0.259   30.444
   41.500   84.645   95.205    0.389    0.267   31.248
   41.750   84.617   85.307    0.391    0.252   43.313
   42.000   84.806   79.281    0.379    0.285   46.383
   42.250   84.806   75.635    0.385    0.289   46.949
   42.500   84.862   77.089    0.378    0.286   42.181
   42.750   84.953   82.408    0.392    0.272   45.785
   43.000   84.936   83.252    0.376    0.270   48.666
   43.250   85.016   80.813    0.376    0.274   48.587
   43.500   85.198   79.257    0.380    0.271   43.663
   43.750   85.382   78.011    0.372    0.274   46.098
   44.000   85.366   79.750    0.367    0.270   50.387
   44.250   85.246   79.108    0.366    0.273   42.225
   44.500   85.129   84.123    0.376    0.276   34.171
   44.750   85.129   90.947    0.371    0.261   31.366
   45.000   84.986  103.435    0.386    0.220   28.583
   45.250   84.980  101.885    0.380    0.229   32.361
   45.500   84.980   87.497    0.378    0.252   39.564
   45.750   84.935   82.081    0.354    0.278   49.040
   46.000   84.928   77.846    0.358    0.293   54.369
   46.250   84.928   74.810    0.363    0.283   61.541
   46.500   84.985   71.178    0.350    0.264   41.822
   46.750   84.974   75.304    0.380    0.239   38.919
   47.000   85.054   90.775    0.364    0.273   41.061
   47.250   85.054   88.336    0.354    0.279   35.899
   47.500   85.117   82.012    0.369    0.256   33.886
   47.750   85.199   99.273    0.384    0.249   38.904
   48.000   85.171   86.385    0.364    0.286   53.176
   48.250   85.264   74.391    0.350    0.316   89.087
   48.500   85.264   61.203    0.358    0.328   73.587
   48.750   85.226   55.184    0.371    0.320   63.429
   49.000   85.217   70.052    0.372    0.297   55.430
   49.250   85.217   77.467    0.365    0.301   49.824
   49.500   85.181   75.917    0.370    0.291   48.350
   49.750   85.060   74.373    0.362    0.283   49.295
   50.000   85.042   80.886    0.350    0.302   56.978
   50.250   85.042   76.060    0.347    0.297   56.097
   50.500   85.004   77.501    0.372    0.258   49.355
   50.750   84.894   84.319    0.365    0.227   47.253
   51.000   84.894   69.639    0.360    0.286   54.238
   51.250   84.855   70.483    0.376    0.280   64.035
   51.500   84.840   61.175    0.351    0.315   72.481
   51.750   84.840   69.770    0.345    0.287   95.714
   52.000   84.803   62.563    0.378    0.325  111.383
   52.250   84.803   53.554    0.358    0.339   94.676
   52.500   84.764   47.528    0.348    0.338   79.878
   52.750   84.855   50.758    0.343    0.337   74.890
   53.000   84.855   57.868    0.353    0.316   73.201
   53.250   84.817   61.099    0.352    0.303   99.359
   53.500   84.903   56.273    0.372    0.317   95.794
   53.750   84.986   51.149    0.349    0.330  101.822
   54.000   84.986   56.170    0.378    0.324   97.440
   54.250   85.046   54.328    0.352    0.321   70.498
   54.500   85.230   69.799    0.359    0.303   63.383
   54.750   85.200   59.894    0.385    0.302   64.141
   55.000   85.192   58.649    0.363    0.302   60.968
   55.250   85.192   67.251    0.361    0.293   67.594
   55.500   85.157   68.983    0.353    0.311   66.533
   55.750   85.144   71.033    0.368    0.312   61.484
   56.000   85.144   75.159    0.372    0.307   63.553
   56.250   85.002   71.228    0.370    0.303   68.025
   56.500   84.991   65.501    0.384    0.318   62.005
   56.750   84.991   60.974    0.358    0.303   56.901
   57.000   84.851   68.978    0.347    0.283   53.709
   57.250   84.838   67.136    0.357    0.295   62.096
   57.500   84.838   63.504    0.364    0.320   69.797
   57.750   84.700   63.745    0.354    0.302   55.299
   58.000   84.700   70.264    0.361    0.280   54.813
   58.250   84.763   74.383    0.370    0.293   61.196
   58.500   84.752   71.043    0.367    0.305   65.062
   58.750   84.722   62.928    0.362    0.320   64.460
   59.000   84.715   59.608    0.355    0.325   67.126
   59.250   84.700   54.477    0.362    0.327   67.930
   59.500   84.683   62.787    0.362    0.316   80.181
   59.750   84.662   69.300    0.367    0.291   84.025
   60.000   84.649   70.442    0.368    0.302   78.247
   60.250   84.629   63.819    0.364    0.325   68.843
   60.500   84.712   59.882    0.372    0.329   66.342
   60.750   84.696   65.500    0.374    0.295   69.054
   61.000   84.679   62.166    0.366    0.300   69.442
   61.250   84.679   65.105    0.356    0.310   66.919
   61.500   84.543   62.069    0.370    0.307   64.971
   61.750   84.225   59.922    0.371    0.305   75.624
   62.000   84.098   63.159    0.357    0.290   71.365
   62.250   84.092   79.818    0.354    0.266   56.938
   62.500   84.072   74.097    0.370    0.295   69.644
   62.750   84.154   53.748    0.351    0.321  109.492
   63.000   84.241   40.561    0.346    0.326  123.071
   63.250   84.222   50.953    0.359    0.314  116.194
   63.500   84.304   62.247    0.360    0.304   98.056
   63.750   84.282   58.614    0.342    0.306   89.984
   64.000   84.282   61.845    0.355    0.319   91.082
   64.250   84.248   56.111    0.372    0.317   90.281
   64.500   84.132   56.358    0.358    0.326   87.022
   64.750   84.132   55.106    0.360    0.315   83.277
   65.000   84.101   53.576    0.363    0.289   84.312
   65.250   83.985   52.927    0.357    0.282   84.708
   65.500   83.965   60.932    0.359    0.288   70.525
   65.750   83.946   66.550    0.353    0.290   57.862
   66.000   83.927   61.121    0.368    0.264   47.495
   66.250   84.013   71.526    0.365    0.251   40.929
   66.500   84.096   75.652    0.377    0.269   36.010
   66.750   84.275   71.416    0.370    0.288   42.822
   67.000   84.457   63.308    0.351    0.295   49.141
   67.250   84.541   71.910    0.365    0.249   37.615
   67.500   84.619   75.439    0.363    0.236   32.415
   67.750   84.606   75.686    0.365    0.293   30.172
   68.000   84.587   75.634    0.369    0.309   29.083
   68.250   84.557   55.876    0.345    0.309   44.785
   68.500   84.553   57.024    0.338    0.269   58.307
   68.750   84.432   65.029    0.345    0.211   49.897
   69.000   84.319   73.936    0.349    0.129   41.815
   69.250   84.190   87.014    0.352    0.114   30.894
   69.500   84.086   80.689    0.365    0.134   26.444
   69.750   83.969   68.696    0.370    0.134   20.091
   70.000   83.969   61.184    0.290    0.093   18.832
   70.250   83.933   61.133    0.251    0.060   23.186
   70.500   83.915   49.736    0.208    0.036   42.517
   70.750   83.915   44.313    0.152    0.028   50.548
   71.000   83.981   39.773    0.179    0.065   71.066
   71.250   83.981   39.131    0.220    0.069   72.961
   71.500   84.136   43.853    0.244    0.050   71.317
   71.750   84.325   57.236    0.281    0.047   62.760
   72.000   84.409   61.952    0.300    0.044   44.757
   72.250   84.491   66.091    0.310    0.057   36.228
   72.500   84.569   79.175    0.335    0.062   30.579
   72.750   84.569   85.688    0.326    0.053   26.916
