~VERSION INFORMATION
 VERS.                 2.0:   CWLS LOG ASCII STANDARD -VERSION 2.0
 WRAP.                  NO:   ONE LINE PER DEPTH STEP
~WELL INFORMATION BLOCK
#MNEM.UNIT           DATA                    DESCRIPTION OF MNEMONIC
#---------    -------------------            -------------------------------
# Generated from Intellog Unique Number	CN_94_101/WELL/2377
WELL.         02-06-099-12W4                 : Well_name    - WELL
LOC .         AA/02-06-099-12W4/0            : Location     - LOCATION
UWI .         AA/02-06-099-12W400            : Uwi          - UNIQUE WELL ID
ENTR.         TOP                            : Entered      - ENTERED BY
SRVC.         SCHLUMBERGER                   : Scn          - SERVICE COMPANY
DATE.         08/11/92                       : Date         - LOG DATE
STRT.M        360                            : top_depth    - START DEPTH
STOP.M        585                            : bot_depth    - STOP DEPTH
STEP.M        0.25                           : increment    - STEP LENGTH
 NULL. -999.2500:NULL Value
~CURVE INFORMATION BLOCK
#MNEM UNIT       ERCB CURVE CODE    CURVE DESCRIPTION
#-----------   ------------------   ----------------------------------
DEPT.M        00 001 00 00         : DEPTH        - DEPTH
DPHI.V/V      00 890 00 00         : PHID         - DENSITY POROSITY (SANDSTONE)
NPHI.V/V      00 330 00 00         : PHIN         - NEUTRON POROSITY (SANDSTONE)
ILD .OHMM     00 120 00 00         : RESD         - DEEP RESISTIVITY (DIL)
GR  .API      00 310 00 00         : GR           - GAMMA RAY
~PARAMETER INFORMATION
#MNEM.UNIT           DATA             DESCRIPTION OF MNEMONIC
#---------         -----------     ------------------------------
GL  .M        823.03               : gl           - GROUND LEVEL ELEVATION
EREF.M        826.26               : kb           - ELEVATION OF DEPTH REFERENCE
DATM.M        826.26               : datum        - DATUM ELEVATION
TDD .M        590                  : tdd          - TOTAL DEPTH DRILLER
RUN .         ONE                  : Run          - RUN NUMBER
ENG .         JO                   : Engineer     - RECORDING ENGINEER
WIT .         TIM                  : Witness      - WITNESSED BY
MUD .         GEL                  : Mud_type     - MUD TYPE
MATR.         SANDSTONE            : Logunit      - NEUTRON MATRIX
TMAX.C        25                   : BHT          - MAXIMUM RECORDED TEMPERATURE
BHTD.M        590                  : BHTDEP       - MAXIMUM RECORDED TEMPERATURE
RMT .C        25                   : MDTP         - TEMPERATURE OF MUD
MUDD.KG/M     1050                 : MWT          - MUD DENSITY
NEUT.         1                    : NEUTRON      - NEUTRON TYPE
RESI.         0                    : RESIST       - RESISTIVITY TYPE
RM  .OHMM     9                    : RM           - RESISTIVITY OF MUD
RMC .OHMM     9                    : RMC          - RESISTIVITY OF MUD CAKE
RMF .OHMM     9                    : RMF          - RESISTIVITY OF MUD FILTRATE
SUFT.C        4                    : SUFT         - SURFACE TEMPERATURE
~A  DEPTH     PHID     PHIN     RESD       GR
# ...
  447.000    0.394    0.586    5.035   85.955
  447.250    0.417    0.572    5.337   86.001
  447.500    0.401    0.525    5.548   86.046
  447.750    0.353    0.504    5.880   85.453
  448.000    0.340    0.487    6.479   83.056
  448.250    0.325    0.472    6.734   82.473
  448.500    0.318    0.470    7.001   80.686
  448.750    0.311    0.476    7.424   80.094
  449.000    0.310    0.471    7.720   77.095
  449.250    0.309    0.466    8.029   75.901
  449.500    0.300    0.464    8.352   75.327
  449.750    0.286    0.465    8.359   75.992
  450.000    0.285    0.463    8.529   76.001
  450.250    0.332    0.460    8.379   77.267
  450.500    0.332    0.458    7.927   79.135
  450.750    0.325    0.458    7.636   82.224
  451.000    0.319    0.482    6.824   84.702
  451.250    0.314    0.486    6.097   87.190
  451.500    0.325    0.516    5.244   87.828
  451.750    0.377    0.537    4.773   89.094
  452.000    0.394    0.554    4.266   89.732
  452.250    0.412    0.570    4.188   89.786
  452.500    0.429    0.579    4.114   89.822
  452.750    0.425    0.533    4.280   90.460
  453.000    0.423    0.523    4.451   90.487
  453.250    0.413    0.527    4.541   92.373
  453.500    0.397    0.538    4.461   93.001
  453.750    0.376    0.546    4.221   94.869
  454.000    0.377    0.555    3.992   96.127
  454.250    0.381    0.571    3.775   94.942
  454.500    0.378    0.584    3.707   91.925
  454.750    0.371    0.554    3.574   88.908
  455.000    0.356    0.512    3.510   86.502
  455.250    0.334    0.518    3.450   85.928
  455.500    0.325    0.539    3.390   89.017
  455.750    0.394    0.545    3.328   92.106
  456.000    0.407    0.573    3.332   94.593
  456.250    0.406    0.598    3.400   94.629
  456.500    0.405    0.586    3.537   95.294
  456.750    0.398    0.574    3.749   95.312
  457.000    0.393    0.561    3.823   95.349
  457.250    0.381    0.553    4.054   94.774
  457.500    0.359    0.548    4.217   92.368
  457.750    0.366    0.544    4.219   90.573
  458.000    0.387    0.538    4.305   89.388
  458.250    0.400    0.538    4.394   88.203
  458.500    0.405    0.544    4.658   86.416
  458.750    0.403    0.545    4.843   85.231
  459.000    0.397    0.545    5.035   85.887
  459.250    0.389    0.556    5.442   87.126
  459.500    0.379    0.550    5.657   88.383
  459.750    0.372    0.513    5.774   87.198
  460.000    0.345    0.470    5.779   86.022
  460.250    0.336    0.450    5.786   85.457
  460.500    0.345    0.495    5.577   85.475
  460.750    0.386    0.536    5.176   86.742
  461.000    0.402    0.560    4.715   87.379
  461.250    0.390    0.563    4.542   88.646
  461.500    0.377    0.531    4.296   89.283
  461.750    0.375    0.523    4.142   89.320
  462.000    0.383    0.532    4.070   89.356
  462.250    0.387    0.553    4.074   88.180
  462.500    0.392    0.561    4.077   87.605
  462.750    0.391    0.574    4.085   87.651
  463.000    0.381    0.542    4.088   87.669
  463.250    0.379    0.535    4.092   88.315
  463.500    0.379    0.533    4.099   88.361
  463.750    0.382    0.535    4.102   88.388
  464.000    0.388    0.536    4.110   87.831
  464.250    0.382    0.532    4.191   87.239
  464.500    0.339    0.529    4.195   86.063
  464.750    0.349    0.525    4.201   85.480
  465.000    0.370    0.528    4.205   85.534
  465.250    0.385    0.534    4.211   85.561
  465.500    0.380    0.543    4.136   86.818
  465.750    0.380    0.553    4.065   88.085
  466.000    0.391    0.560    4.068   88.713
  466.250    0.394    0.556    3.997   89.980
  466.500    0.383    0.554    3.928   91.228
  466.750    0.369    0.549    3.930   93.724
  467.000    0.357    0.545    3.789   94.964
  467.250    0.357    0.542    3.584   99.292
  467.500    0.358    0.542    3.388  100.549
  467.750    0.361    0.547    3.145  101.196
  468.000    0.366    0.556    2.976  101.223
  468.250    0.369    0.564    2.922  100.649
  468.500    0.359    0.578    2.817  100.074
  468.750    0.342    0.573    2.819   98.907
  469.000    0.340    0.562    2.823   98.324
  469.250    0.347    0.557    2.827   97.148
  469.500    0.355    0.561    2.829   95.945
  469.750    0.385    0.585    2.833   93.548
  470.000    0.409    0.588    2.890   91.752
  470.250    0.423    0.593    2.950   91.789
  470.500    0.443    0.534    3.010   91.205
  470.750    0.486    0.516    3.191   90.631
  471.000    0.509    0.516    3.318   90.065
  471.250    0.528    0.517    3.584   90.712
  471.500    0.486    0.518    3.945   91.960
  471.750    0.439    0.547    4.512   98.111
  472.000    0.426    0.570    4.968  101.191
  472.250    0.401    0.579    5.364  102.449
  472.500    0.397    0.548    5.905  101.874
  472.750    0.362    0.435    6.754   99.468
  473.000    0.336    0.406    7.726   98.283
  473.250    0.308    0.432    8.188   96.497
  473.500    0.338    0.460    8.200   95.321
  473.750    0.368    0.472    8.205   94.728
  474.000    0.300    0.464    8.372   93.552
  474.250    0.290    0.455    8.382   92.969
  474.500    0.321    0.457    8.392   91.793
  474.750    0.337    0.478    7.641   91.838
  475.000    0.364    0.479    7.229   91.856
  475.250    0.371    0.479    7.101   91.892
  475.500    0.383    0.484    6.978   91.327
  475.750    0.394    0.487    6.984   91.354
  476.000    0.442    0.488    6.993   90.780
  476.250    0.445    0.492    7.003   90.205
  476.500    0.448    0.502    7.009   89.640
  476.750    0.444    0.507    7.016   89.685
  477.000    0.374    0.455    7.024   89.712
  477.250    0.304    0.427    6.772   89.749
  477.500    0.278    0.413    6.405   89.776
  477.750    0.283    0.423    6.294   89.812
  478.000    0.314    0.472    6.298   89.255
  478.250    0.332    0.479    6.426   88.663
  478.500    0.374    0.490    7.074   87.487
  478.750    0.403    0.486    7.937   85.072
  479.000    0.317    0.441    9.075   81.454
  479.250    0.080    0.371    9.624   77.817
  479.500    0.117    0.321    8.928   77.252
  479.750    0.175    0.378    7.252   82.164
  480.000    0.225    0.423    6.006   85.863
  480.250    0.255    0.472    5.166   87.749
  480.500    0.301    0.487    4.705   87.776
  480.750    0.332    0.497    4.801   88.432
  481.000    0.351    0.507    5.088   89.079
  481.250    0.357    0.516    5.190   90.327
  481.500    0.322    0.459    5.399   90.974
  481.750    0.322    0.451    5.507   90.400
  482.000    0.350    0.472    5.514   88.002
  482.250    0.395    0.474    5.418   85.596
  482.500    0.407    0.480    5.324   84.411
  482.750    0.430    0.491    5.227   84.448
  483.000    0.443    0.502    5.233   84.475
  483.250    0.470    0.516    5.445   83.900
  483.500    0.495    0.527    5.556   83.335
  483.750    0.486    0.539    5.889   83.371
  484.000    0.436    0.556    6.363   85.850
  484.250    0.280    0.558    6.489   88.319
  484.500    0.237    0.530    6.621   91.408
  484.750    0.173    0.422    6.262   95.117
  485.000    0.229    0.450    5.491   94.533
  485.250    0.277    0.480    4.812   93.959
  485.500    0.291    0.520    3.764   93.384
  485.750    0.429    0.536    3.057   92.199
  486.000    0.463    0.557    2.581   91.643
  486.250    0.488    0.576    2.584   91.051
  486.500    0.507    0.586    2.637   90.485
  486.750    0.521    0.591    2.640   89.309
  487.000    0.521    0.589    2.593   89.327
  487.250    0.469    0.587    2.499   91.204
  487.500    0.429    0.587    2.363   93.072
  487.750    0.410    0.584    2.112   94.339
  488.000    0.431    0.583    1.961   95.578
  488.250    0.439    0.578    2.038   96.844
  488.500    0.415    0.574    2.202   97.482
  488.750    0.406    0.569    2.378   96.306
  489.000    0.393    0.565    2.669   94.510
  489.250    0.381    0.557    2.995   93.325
  489.500    0.370    0.549    3.234   92.140
  489.750    0.356    0.537    4.144   91.557
  490.000    0.363    0.523    5.016   92.231
  490.250    0.371    0.514    5.735   92.868
