~VERSION INFORMATION
 VERS.                 2.0:   CWLS LOG ASCII STANDARD -VERSION 2.0
 WRAP.                  NO:   ONE LINE PER DEPTH STEP
~WELL INFORMATION BLOCK
#MNEM.UNIT           DATA                    DESCRIPTION OF MNEMONIC
#---------    -------------------            -------------------------------
# Generated from Intellog Unique Number	CN_91_93/WELL/3662
WELL.         02-08-093-09W4                 : Well_name    - WELL
LOC .         AA/02-08-093-09W4/0            : Location     - LOCATION
UWI .         AA/02-08-093-09W400            : Uwi          - UNIQUE WELL ID
ENTR.         JOETTE                         : Entered      - ENTERED BY
SRVC.         SCHLUMBERGER                   : Scn          - SERVICE COMPANY
DATE.         03/22/92                       : Date         - LOG DATE
STRT.M        3                              : top_depth    - START DEPTH
STOP.M        95                             : bot_depth    - STOP DEPTH
STEP.M        0.25                           : increment    - STEP LENGTH
 NULL. -999.2500:NULL Value
~CURVE INFORMATION BLOCK
#MNEM UNIT       ERCB CURVE CODE    CURVE DESCRIPTION
#-----------   ------------------   ----------------------------------
DEPT.M        00 001 00 00         : DEPTH        - DEPTH
GR  .API      00 310 00 00         : GR           - GAMMA RAY
CALI.MM       00 280 01 00         : CAL          - CALIPER
NPHI.V/V      00 330 00 00         : PHIN         - NEUTRON POROSITY (SANDSTONE)
DPHI.V/V      00 890 00 00         : PHID         - DENSITY POROSITY (SANDSTONE)
ILD .OHMM     00 120 00 00         : RESD         - DEEP RESISTIVITY (DIL)
~PARAMETER INFORMATION
#MNEM.UNIT           DATA             DESCRIPTION OF MNEMONIC
#---------         -----------     ------------------------------
GL  .M        333.6                : gl           - GROUND LEVEL ELEVATION
EREF.M        333.6                : kb           - ELEVATION OF DEPTH REFERENCE
DATM.M        333.6                : datum        - DATUM ELEVATION
TDD .M        97.9                 : tdd          - TOTAL DEPTH DRILLER
RUN .         ONE                  : Run          - RUN NUMBER
ENG .         JO                   : Engineer     - RECORDING ENGINEER
WIT .         TIM                  : Witness      - WITNESSED BY
MUD .         GEL                  : Mud_type     - MUD TYPE
MATR.         SANDSTONE            : Logunit      - NEUTRON MATRIX
TMAX.C        12.6                 : BHT          - MAXIMUM RECORDED TEMPERATURE
BHTD.M        97.9                 : BHTDEP       - MAXIMUM RECORDED TEMPERATURE
RMT .C        12                   : MDTP         - TEMPERATURE OF MUD
MUDD.KG/M     1090                 : MWT          - MUD DENSITY
NEUT.         1                    : NEUTRON      - NEUTRON TYPE
RESI.         0                    : RESIST       - RESISTIVITY TYPE
RM  .OHMM     4.35                 : RM           - RESISTIVITY OF MUD
RMC .OHMM     4.35                 : RMC          - RESISTIVITY OF MUD CAKE
RMF .OHMM     4.35                 : RMF          - RESISTIVITY OF MUD FILTRATE
SUFT.C        4                    : SUFT         - SURFACE TEMPERATURE
~A  DEPTH       GR      CAL     PHIN     PHID     RESD
# ...
   76.000   66.814  137.811    0.506    0.156   56.711
   76.250  110.288  137.440    0.580    0.213   48.011
   76.500   65.049  137.455    0.370    0.229   48.947
   76.750   65.693  137.471    0.413    0.228   97.426
   77.000   44.916  137.487    0.444    0.244  108.997
   77.250   32.101  137.513    0.386    0.281  190.520
   77.500   29.685  137.529    0.368    0.282   72.524
   77.750   36.446  137.142    0.387    0.253   66.148
   78.000   51.160  136.755    0.364    0.253   45.638
   78.250   49.364  136.776    0.339    0.250   40.852
   78.500   62.243  137.613    0.462    0.211   41.649
   78.750   77.568  138.449    0.435    0.213   50.191
   79.000   64.753  138.884    0.346    0.225   55.129
   79.250   44.596  139.307    0.286    0.221   50.264
   79.500   28.714  139.333    0.249    0.225   42.553
   79.750   23.239  139.349    0.271    0.234   37.389
   80.000   23.287  139.381    0.283    0.239   36.728
   80.250   23.922  139.396    0.286    0.241   34.767
   80.500   26.393  139.412    0.300    0.242   34.158
   80.750   28.260  139.433    0.288    0.240   34.824
   81.000   26.464  139.046    0.276    0.235   36.163
   81.250   32.001  139.073    0.289    0.230   38.981
   81.500   32.033  139.094    0.290    0.230   37.586
   81.750   24.723  138.707    0.297    0.236   36.241
   82.000   26.590  138.728    0.308    0.237   37.641
   82.250   36.417  138.754    0.303    0.226   34.969
   82.500   36.441  138.367    0.261    0.220   34.363
   82.750   44.433  138.388    0.282    0.233   37.041
   83.000   41.398  138.409    0.278    0.233   37.055
   83.250   36.535  138.425    0.275    0.236   36.399
   83.500   39.626  138.446    0.274    0.233   34.450
   83.750   43.940  138.875    0.264    0.240   35.122
   84.000   52.544  138.901    0.292    0.241   39.293
   84.250   69.704  138.917    0.280    0.224   33.889
   84.500  124.802  138.943    0.310    0.220   27.135
   84.750  120.552  138.964    0.293    0.219   15.844
   85.000  102.842  138.980    0.327    0.188   17.079
   85.250  119.391  139.419    0.467    0.162   17.091
   85.500  132.270  139.430    0.621    0.156   21.373
   85.750  128.019  139.451    0.623    0.141   18.094
   86.000  111.533  139.879    0.560    0.115   16.500
   86.250   87.094  140.319    0.496   -0.008   14.770
   86.500   93.243  140.334    0.562    0.030   13.979
   86.750   98.780  140.334    0.628    0.083   29.977
   87.000  109.823  139.163    0.608    0.073   24.002
   87.250   93.337  139.163    0.531   -0.010   21.093
   87.500   86.647  139.200    0.462   -0.026   21.501
   87.750   86.067  139.629    0.396    0.050   34.241
   88.000   83.644  139.242    0.286    0.047   35.563
   88.250   62.256  139.263    0.173    0.039   36.257
   88.500   64.130  138.871    0.168    0.030   39.816
   88.750   70.279  138.903    0.171    0.025   42.137
   89.000   64.193  138.918    0.141    0.008   60.025
   89.250   53.205  138.934    0.118   -0.019   50.816
   89.500   42.837  138.966    0.097   -0.010   54.778
   89.750   35.527  138.976    0.101   -0.001   49.953
   90.000   37.394  139.008    0.111    0.008   42.298
   90.250   37.425  139.023    0.119    0.006   42.328
   90.500   42.963  139.044    0.117    0.009   41.579
   90.750   50.343  139.071    0.123    0.046   36.527
   91.000   58.939  139.081    0.195    0.073   24.291
   91.250   63.261  139.113    0.186    0.050   29.817
   91.500   57.787  139.123    0.162    0.036   34.621
   91.750   52.916  139.144    0.144    0.018   31.572
   92.000   55.395  139.170    0.151    0.020   27.230
   92.250   61.544  139.186    0.188    0.016   24.374
   92.500   65.246  139.207    0.209    0.016   29.925
   92.750   59.779  138.831    0.200    0.061   39.574
   93.000   63.474  138.444    0.195    0.076   40.353
   93.250   73.913  138.062    0.351    0.067   37.489
   93.500   83.121  137.665    0.350    0.039   41.942
   93.750   72.752  137.278    0.298    0.028   51.493
   94.000   66.062  137.299    0.251    0.029   52.496
   94.250   70.368  136.918    0.240    0.081   34.262
   94.500   86.306  136.939    0.213    0.108   31.244
   94.750   89.396  136.960    0.264    0.144   39.078
   95.000   73.522  136.986    0.239    0.190   42.915
