~VERSION INFORMATION
 VERS.                 2.0:   CWLS LOG ASCII STANDARD -VERSION 2.0
 WRAP.                  NO:   ONE LINE PER DEPTH STEP
~WELL INFORMATION BLOCK
#MNEM.UNIT           DATA                    DESCRIPTION OF MNEMONIC
#---------    -------------------            -------------------------------
# Generated from Intellog Unique Number	CW_76_78/WELL/2778
WELL.         AMOCO MCULLEN                  : Well_name    - WELL
LOC .         AA/06-23-077-25W4/0            : Location     - LOCATION
UWI .         AA/06-23-077-25W4/0            : Uwi          - UNIQUE WELL ID
ENTR.         JOE                            : Entered      - ENTERED BY
SRVC.         WESTERN ATLAS                  : Scn          - SERVICE COMPANY
STRT.M        435                            : top_depth    - START DEPTH
STOP.M        686                            : bot_depth    - STOP DEPTH
STEP.M        0.25                           : increment    - STEP LENGTH
 NULL. -999.2500:NULL Value
~CURVE INFORMATION BLOCK
#MNEM UNIT       ERCB CURVE CODE    CURVE DESCRIPTION
#-----------   ------------------   ----------------------------------
DEPT.M        00 001 00 00         : DEPTH        - DEPTH
CALI.MM       00 280 01 00         : CAL          - CALIPER
ILD .OHMM     00 120 00 00         : RESD         - DEEP RESISTIVITY (DIL)
DPHI.V/V      00 890 00 00         : PHID         - DENSITY POROSITY (SANDSTONE)
NPHI.V/V      00 330 00 00         : PHIN         - NEUTRON POROSITY (SANDSTONE)
GR  .API      00 310 00 00         : GR           - GAMMA RAY
~PARAMETER INFORMATION
#MNEM.UNIT           DATA             DESCRIPTION OF MNEMONIC
#---------         -----------     ------------------------------
GL  .M        737.31               : gl           - GROUND LEVEL ELEVATION
EREF.M        741                  : kb           - ELEVATION OF DEPTH REFERENCE
DATM.M        741                  : datum        - DATUM ELEVATION
TDD .M        690                  : tdd          - TOTAL DEPTH DRILLER
RUN .         ONE                  : Run          - RUN NUMBER
ENG .         KAWOLSKI             : Engineer     - RECORDING ENGINEER
WIT .         BROWN                : Witness      - WITNESSED BY
MUD .         GEL                  : Mud_type     - MUD TYPE
MATR.         SANDSTONE            : Logunit      - NEUTRON MATRIX
TMAX.C        32                   : BHT          - MAXIMUM RECORDED TEMPERATURE
BHTD.M        687.5                : BHTDEP       - MAXIMUM RECORDED TEMPERATURE
RMT .C        24                   : MDTP         - TEMPERATURE OF MUD
MUDD.KG/M     1130                 : MWT          - MUD DENSITY
NEUT.         1                    : NEUTRON      - NEUTRON TYPE
RESI.         0                    : RESIST       - RESISTIVITY TYPE
RM  .OHMM     3                    : RM           - RESISTIVITY OF MUD
RMC .OHMM     3.2                  : RMC          - RESISTIVITY OF MUD CAKE
RMF .OHMM     2.8                  : RMF          - RESISTIVITY OF MUD FILTRATE
SUFT.C        0                    : SUFT         - SURFACE TEMPERATURE
~A  DEPTH      CAL     RESD     PHID     PHIN       GR
# ...
  508.000  169.219   19.625    0.288    0.351   62.895
  508.250  168.763   20.379    0.289    0.331   63.850
  508.500  167.780   20.013    0.290    0.318   62.648
  508.750  167.831   18.934    0.292    0.332   58.978
  509.000  167.881   17.581    0.294    0.351   53.775
  509.250  167.951   16.174    0.297    0.350   51.953
  509.500  168.001   15.443    0.299    0.319   51.059
  509.750  168.572   15.307    0.300    0.316   51.705
  510.000  168.572   15.313    0.300    0.331   53.584
  510.250  169.193   15.319    0.300    0.350   56.703
  510.500  169.218   15.185    0.300    0.360   56.729
  510.750  169.281   15.191    0.301    0.353   53.367
  511.000  169.325   15.198    0.301    0.329   48.472
  511.250  169.370   15.064    0.301    0.309   50.039
  511.500  169.427   14.930    0.301    0.316   55.002
  511.750  169.991   14.661    0.301    0.322   56.577
  512.000  170.041   14.530    0.300    0.322   55.371
  512.250  169.578   14.402    0.299    0.325   51.400
  512.500  168.602   14.274    0.297    0.331   48.658
  512.750  168.145   13.887    0.294    0.344   47.148
  513.000  167.163   13.637    0.293    0.361   47.175
  513.250  167.163   13.390    0.291    0.358   49.669
  513.500  166.769   13.272    0.292    0.347   50.320
  513.750  165.267   13.155    0.294    0.348   50.354
  514.000  164.798   13.039    0.293    0.343   50.377
  514.250  164.348   13.044    0.289    0.330   51.023
  514.500  164.386   12.928    0.287    0.333   53.834
  514.750  164.969   12.696    0.290    0.342   53.864
  515.000  165.520   12.582    0.292    0.353   52.662
  515.250  166.097   12.356    0.292    0.364   56.694
  515.500  166.141   12.247    0.288    0.346   61.349
  515.750  166.191   12.026    0.290    0.322   60.451
  516.000  166.242   11.809    0.292    0.330   55.244
  516.250  166.286   11.705    0.291    0.336   51.578
  516.500  166.350   11.601    0.290    0.329   59.314
  516.750  166.394   11.498    0.289    0.315   60.272
  517.000  166.444   11.396    0.288    0.317   56.913
  517.250  165.975   11.192    0.287    0.333   56.940
  517.500  166.032   11.092    0.285    0.356   58.515
  517.750  166.095   10.993    0.280    0.338   58.233
  518.000  166.140   10.896    0.273    0.318   57.343
  518.250  166.697   10.901    0.262    0.300   57.370
  518.500  167.261   11.008    0.246    0.291   53.703
  518.750  168.859   11.538    0.210    0.279   50.036
  519.000  170.449   12.551    0.170    0.269   48.218
  519.250  171.020   13.782    0.166    0.259   47.636
  519.500  170.557   15.276    0.178    0.267   47.355
  519.750  170.088   15.002    0.210    0.287   44.925
  520.000  167.577   14.324    0.235    0.306   43.411
  520.250  166.081   12.815    0.252    0.320   44.365
  520.500  166.132   12.123    0.256    0.333   52.101
  520.750  166.696   11.257    0.250    0.338   57.369
  521.000  167.780   10.357    0.232    0.319   58.947
  521.250  169.377    9.798    0.199    0.303   61.434
  521.500  169.928    9.269    0.167    0.293   67.938
  521.750  171.006    8.769    0.123    0.295   89.229
  522.000  172.609    8.453    0.132    0.299   96.969
  522.250  173.167    8.223    0.144    0.308   98.224
  522.500  175.290    8.074    0.151    0.325  100.106
  522.750  176.355    7.929    0.156    0.351  101.373
  523.000  176.919    7.859    0.156    0.365  102.023
  523.250  177.477    7.862    0.153    0.364  101.430
  523.500  177.027    7.866    0.145    0.337   99.923
  523.750  176.558    7.869    0.136    0.316  100.878
  524.000  175.581    7.872    0.142    0.342   97.824
  524.250  174.599    7.875    0.173    0.363   96.010
  524.500  173.622    7.879    0.196    0.356   97.272
  524.750  172.652    8.031    0.212    0.345   96.686
  525.000  171.163    8.185    0.203    0.349   93.632
  525.250  169.159    8.420    0.192    0.346   88.733
  525.500  166.655    8.744    0.179    0.346   85.375
  525.750  166.186    9.165    0.171    0.338   89.102
  526.000  166.237    9.605    0.142    0.325   94.065
  526.250  166.801   10.162    0.078    0.307   92.555
  526.500  167.358   11.368   -0.005    0.275   83.648
  526.750  167.929   13.702   -0.012    0.176   71.972
  527.000  169.520   23.529   -0.012    0.123   57.523
  527.250  172.138   35.135   -0.004    0.124   49.547
  527.500  174.248   37.869    0.011    0.142   49.885
  527.750  175.319   25.146    0.056    0.181   54.537
  528.000  177.944   14.121    0.126    0.228   65.962
  528.250  181.588   10.683    0.169    0.275   79.243
  528.500  184.206    8.467    0.186    0.300   87.899
  528.750  186.830    6.901    0.190    0.317   93.174
  529.000  187.895    5.731    0.187    0.330   99.366
  529.250  187.958    5.223    0.182    0.338  103.713
  529.500  187.502    5.226    0.175    0.345  105.588
  529.750  187.540    5.376    0.167    0.362  107.779
  530.000  187.077    5.687    0.155    0.383  110.270
  530.250  186.620    5.905    0.144    0.367  113.077
  530.500  185.638    6.132    0.139    0.328  112.803
  530.750  184.661    6.368    0.142    0.331  109.129
  531.000  183.698    6.674    0.145    0.329  105.770
  531.250  183.222    6.996    0.143    0.320  104.569
  531.500  181.745    7.197    0.139    0.322  103.983
  531.750  180.756    7.404    0.131    0.332  102.477
  532.000  178.246    7.617    0.124    0.337  100.655
  532.250  176.750    7.764    0.117    0.337   99.145
  532.500  176.287    7.913    0.111    0.330   97.635
  532.750  175.837    7.990    0.113    0.318   95.204
  533.000  176.401    7.994    0.113    0.303   92.458
  533.250  176.958    8.148    0.115    0.305   91.564
  533.500  178.036    8.227    0.121    0.324   95.600
  533.750  178.600    8.232    0.135    0.335   96.250
  534.000  179.690    8.158    0.153    0.352   98.132
  534.250  179.728    8.162    0.172    0.359  100.624
  534.500  178.758    8.165    0.187    0.347  103.122
  534.750  177.262    8.169    0.181    0.334  102.841
  535.000  175.772    8.097    0.179    0.345  100.715
  535.250  174.282    8.025    0.186    0.350   98.592
  535.500  173.312    8.029    0.198    0.347   98.311
  535.750  172.856    7.958    0.213    0.336   98.653
  536.000  171.879    7.961    0.213    0.335   99.919
  536.250  171.416    7.963    0.207    0.342   98.714
  536.500  170.954    8.042    0.187    0.342   88.882
  536.750  169.971    8.120    0.153    0.350   79.982
  537.000  169.514    8.276    0.129    0.343   80.933
  537.250  169.559    8.435    0.133    0.321   84.352
  537.500  169.616    8.439    0.144    0.301   88.391
  537.750  169.666    8.365    0.155    0.311   90.582
  538.000  169.723    8.138    0.167    0.331   90.612
  538.250  169.723    7.844    0.177    0.339   94.031
  538.500  169.831    7.631    0.188    0.344   97.450
  538.750  169.875    7.563    0.201    0.351   99.333
  539.000  169.406    7.927    0.217    0.360   99.359
  539.250  168.429    8.386    0.220    0.353   95.077
  539.500  167.966    8.955    0.215    0.344   91.410
  539.750  166.990    9.298    0.219    0.336   88.980
  540.000  166.014   10.024    0.227    0.342   89.010
  540.250  165.044   10.311    0.223    0.341   88.732
  540.500  164.067   10.509    0.212    0.333   86.298
  540.750  163.091   10.613    0.198    0.305   83.560
  541.000  162.622   10.518    0.191    0.284   81.426
  541.250  162.159   10.523    0.199    0.284   76.219
  541.500  162.222   10.527    0.203    0.291   72.556
  541.750  161.753   10.531    0.212    0.300   72.583
  542.000  161.804   10.440    0.233    0.314   74.157
  542.250  161.347   10.251    0.249    0.329   77.573
  542.500  161.404   10.161    0.250    0.350   79.763
  542.750  160.941   10.069    0.242    0.350   77.942
  543.000  160.985   10.074    0.233    0.345   79.512
  543.250  161.036   10.173    0.211    0.340   78.930
  543.500  160.579   10.177    0.189    0.339   76.184
  543.750  160.110   10.182    0.186    0.336   74.986
  544.000  159.647   10.186    0.196    0.342   74.712
  544.250  158.158   10.191    0.206    0.346   75.670
