~VERSION INFORMATION
 VERS.                 2.0:   CWLS LOG ASCII STANDARD -VERSION 2.0
 WRAP.                  NO:   ONE LINE PER DEPTH STEP
~WELL INFORMATION BLOCK
#MNEM.UNIT           DATA                    DESCRIPTION OF MNEMONIC
#---------    -------------------            -------------------------------
# Generated from Intellog Unique Number	CN_94_101/WELL/3668
WELL.         03-28-096-16W4                 : Well_name    - WELL
LOC .         AA/03-28-096-16W4/0            : Location     - LOCATION
UWI .         AA/03-28-096-16W400            : Uwi          - UNIQUE WELL ID
ENTR.         J                              : Entered      - ENTERED BY
SRVC.         SCHLUMBERGER                   : Scn          - SERVICE COMPANY
DATE.         08/05/92                       : Date         - LOG DATE
STRT.M        200                            : top_depth    - START DEPTH
STOP.M        410                            : bot_depth    - STOP DEPTH
STEP.M        0.25                           : increment    - STEP LENGTH
 NULL. -999.2500:NULL Value
~CURVE INFORMATION BLOCK
#MNEM UNIT       ERCB CURVE CODE    CURVE DESCRIPTION
#-----------   ------------------   ----------------------------------
DEPT.M        00 001 00 00         : DEPTH        - DEPTH
GR  .API      00 310 00 00         : GR           - GAMMA RAY
NPHI.V/V      00 330 00 00         : PHIN         - NEUTRON POROSITY (SANDSTONE)
DPHI.V/V      00 890 00 00         : PHID         - DENSITY POROSITY (SANDSTONE)
ILD .OHMM     00 120 00 00         : RESD         - DEEP RESISTIVITY (DIL)
~PARAMETER INFORMATION
#MNEM.UNIT           DATA             DESCRIPTION OF MNEMONIC
#---------         -----------     ------------------------------
GL  .M        655.42               : gl           - GROUND LEVEL ELEVATION
EREF.M        658.17               : kb           - ELEVATION OF DEPTH REFERENCE
DATM.M        658.17               : datum        - DATUM ELEVATION
TDD .M        416.5                : tdd          - TOTAL DEPTH DRILLER
RUN .         ONE                  : Run          - RUN NUMBER
ENG .         JO                   : Engineer     - RECORDING ENGINEER
WIT .         TIM                  : Witness      - WITNESSED BY
MUD .         GEL                  : Mud_type     - MUD TYPE
MATR.         SANDSTONE            : Logunit      - NEUTRON MATRIX
TMAX.C        41.5                 : BHT          - MAXIMUM RECORDED TEMPERATURE
BHTD.M        416                  : BHTDEP       - MAXIMUM RECORDED TEMPERATURE
RMT .C        14                   : MDTP         - TEMPERATURE OF MUD
MUDD.KG/M     1130                 : MWT          - MUD DENSITY
NEUT.         1                    : NEUTRON      - NEUTRON TYPE
RESI.         0                    : RESIST       - RESISTIVITY TYPE
RM  .OHMM     0.523                : RM           - RESISTIVITY OF MUD
RMC .OHMM     0.523                : RMC          - RESISTIVITY OF MUD CAKE
RMF .OHMM     0.723                : RMF          - RESISTIVITY OF MUD FILTRATE
SUFT.C        4                    : SUFT         - SURFACE TEMPERATURE
~A  DEPTH       GR     PHIN     PHID     RESD
# ...
  374.000   38.163    0.416    0.323   48.701
  374.250   38.160    0.422    0.325   48.675
  374.500   38.756    0.424    0.325   48.650
  374.750   39.354    0.423    0.325   47.673
  375.000   39.952    0.421    0.324   47.648
  375.250   41.750    0.421    0.320   48.573
  375.500   42.347    0.421    0.315   52.508
  375.750   42.944    0.419    0.309   61.395
  376.000   44.143    0.418    0.302   85.640
  376.250   43.540    0.414    0.298  124.239
  376.500   41.736    0.404    0.293  148.141
  376.750   35.729    0.388    0.293  163.294
  377.000   31.524    0.368    0.300  166.440
  377.250   27.918    0.350    0.311  173.006
  377.500   25.514    0.348    0.326  179.808
  377.750   24.311    0.350    0.326  183.296
  378.000   22.506    0.355    0.319  183.200
  378.250   21.304    0.355    0.316  179.571
  378.500   20.700    0.354    0.316  179.453
  378.750   20.697    0.349    0.311  175.899
  379.000   21.295    0.344    0.302  162.501
  379.250   21.291    0.337    0.296  159.303
  379.500   21.288    0.333    0.290  147.208
  379.750   21.286    0.333    0.289  116.281
  380.000   21.282    0.333    0.289   84.922
  380.250   21.881    0.330    0.294   62.020
  380.500   23.077    0.329    0.300   45.288
  380.750   24.274    0.325    0.308   26.657
  381.000   24.873    0.328    0.309   21.057
  381.250   26.671    0.342    0.308   19.080
  381.500   30.871    0.368    0.305   17.629
  381.750   35.070    0.382    0.301   16.613
  382.000   37.468    0.383    0.299   16.602
  382.250   38.066    0.386    0.296   16.276
  382.500   39.264    0.392    0.298   15.949
  382.750   40.461    0.399    0.300   15.633
  383.000   42.258    0.400    0.304   14.442
  383.250   42.856    0.396    0.300   13.882
  383.500   44.054    0.390    0.293   13.342
  383.750   44.050    0.375    0.289   12.087
  384.000   44.048    0.375    0.292   11.390
  384.250   44.044    0.372    0.297   10.734
  384.500   44.040    0.366    0.297   10.115
  384.750   44.039    0.358    0.292    9.721
  385.000   45.236    0.360    0.288    9.715
  385.250   47.033    0.365    0.295    9.711
  385.500   48.232    0.372    0.301    9.706
  385.750   50.031    0.375    0.297    9.702
  386.000   51.828    0.377    0.290    9.887
  386.250   53.026    0.375    0.283   10.078
  386.500   53.624    0.372    0.280   10.274
  386.750   54.221    0.369    0.282   10.471
  387.000   54.818    0.365    0.286   10.465
  387.250   57.217    0.378    0.279   10.057
  387.500   60.815    0.388    0.265    9.665
  387.750   64.415    0.404    0.252    9.109
  388.000   70.415    0.422    0.253    8.254
  388.250   72.213    0.426    0.259    7.479
  388.500   72.811    0.417    0.269    6.646
  388.750   73.407    0.408    0.274    6.641
  389.000   76.406    0.422    0.257    7.180
  389.250   80.005    0.437    0.234    8.231
  389.500   80.603    0.431    0.224    9.254
  389.750   79.400    0.417    0.228   10.203
  390.000   77.596    0.412    0.229   11.929
  390.250   77.593    0.409    0.230   12.646
  390.500   78.190    0.402    0.232   13.671
  390.750   79.387    0.394    0.234   14.210
  391.000   78.783    0.398    0.248   14.482
  391.250   78.181    0.399    0.262   14.477
  391.500   76.377    0.393    0.262   14.186
  391.750   75.173    0.388    0.259   13.633
  392.000   75.170    0.384    0.254   13.102
  392.250   77.568    0.383    0.252   12.347
  392.500   78.765    0.382    0.249   11.636
  392.750   79.964    0.381    0.246   10.965
  393.000   81.762    0.377    0.243   10.333
  393.250   82.360    0.373    0.238    9.738
  393.500   83.558    0.379    0.229    8.996
  393.750   84.155    0.398    0.221    8.819
  394.000   87.153    0.395    0.212    8.475
  394.250   89.551    0.384    0.204    8.306
  394.500   91.951    0.376    0.199    8.302
  394.750   95.550    0.379    0.198    8.298
  395.000   96.147    0.381    0.195    8.292
  395.250   97.345    0.382    0.194    8.127
  395.500  100.343    0.382    0.192    8.283
  395.750  105.143    0.380    0.190    8.443
  396.000  111.744    0.377    0.190    8.440
  396.250  117.744    0.383    0.189    8.773
  396.500  123.144    0.393    0.190    9.116
  396.750  127.944    0.404    0.192    9.293
  397.000  123.739    0.411    0.194    9.660
  397.250  117.732    0.412    0.196   10.041
  397.500  112.326    0.406    0.199   10.438
  397.750  105.720    0.400    0.222   11.505
  398.000   99.113    0.397    0.247   11.962
  398.250   93.707    0.397    0.260   13.183
  398.500   90.102    0.401    0.259   13.439
  398.750   87.698    0.404    0.256   13.700
  399.000   85.894    0.404    0.255   13.423
  399.250   84.689    0.404    0.258   13.154
  399.500   84.087    0.404    0.263   12.895
  399.750   83.484    0.401    0.268   12.636
  400.000   83.481    0.396    0.277   12.384
  400.250   84.078    0.393    0.284   12.139
  400.500   85.276    0.395    0.288   11.896
  400.750   87.674    0.399    0.288   11.889
  401.000   90.073    0.399    0.283   11.883
  401.250   91.871    0.396    0.280   11.878
  401.500   93.068    0.393    0.278   11.871
  401.750   93.665    0.388    0.278   11.636
  402.000   93.662    0.385    0.275   10.752
  402.250   92.459    0.384    0.273    9.743
  402.500   87.053    0.381    0.265    9.003
  402.750   78.646    0.375    0.259    8.483
  403.000   66.036    0.365    0.245    8.315
  403.250   56.428    0.346    0.238    8.148
  403.500   51.022    0.332    0.236    8.144
  403.750   46.816    0.318    0.278    8.139
  404.000   44.411    0.308    0.292    8.135
  404.250   42.007    0.313    0.293    8.130
  404.500   40.203    0.322    0.292    8.289
  404.750   38.999    0.334    0.301    8.616
  405.000   37.794    0.340    0.306    8.955
  405.250   37.193    0.348    0.308    9.308
  405.500   35.388    0.349    0.310    9.674
  405.750   33.585    0.345    0.311    9.860
  406.000   32.981    0.344    0.311    9.855
  406.250   32.377    0.343    0.320    9.850
  406.500   32.375    0.353    0.322    9.845
  406.750   32.372    0.360    0.325    9.650
  407.000   33.570    0.357    0.322    9.274
  407.250   35.368    0.352    0.314    9.089
  407.500   38.966    0.336    0.306    8.735
  407.750   40.765    0.324    0.282    8.730
  408.000   41.962    0.324    0.280    8.898
  408.250   42.559    0.328    0.292   10.004
  408.500   44.358    0.328    0.304   18.727
  408.750   46.756    0.325    0.301   22.771
  409.000   49.755    0.313    0.287   23.667
  409.250   60.558    0.200    0.008   24.600
  409.500   75.564    0.170    0.004   25.574
  409.750   79.163    0.170    0.004   28.194
  410.000   81.561    0.170    0.005   31.693
