~VERSION INFORMATION
 VERS.                 2.0:   CWLS LOG ASCII STANDARD -VERSION 2.0
 WRAP.                  NO:   ONE LINE PER DEPTH STEP
~WELL INFORMATION BLOCK
#MNEM.UNIT           DATA                    DESCRIPTION OF MNEMONIC
#---------    -------------------            -------------------------------
# Generated from Intellog Unique Number	CN_94_101/WELL/2647
WELL.         06-28-094-13W4                 : Well_name    - WELL
LOC .         AA/06-28-094-13W4/0            : Location     - LOCATION
UWI .         AA/06-28-094-13W400            : Uwi          - UNIQUE WELL ID
ENTR.         JOETTE                         : Entered      - ENTERED BY
SRVC.         SCHLUMBERGER                   : Scn          - SERVICE COMPANY
DATE.         06/18/92                       : Date         - LOG DATE
STRT.M        15                             : top_depth    - START DEPTH
STOP.M        145                            : bot_depth    - STOP DEPTH
STEP.M        0.25                           : increment    - STEP LENGTH
 NULL. -999.2500:NULL Value
~CURVE INFORMATION BLOCK
#MNEM UNIT       ERCB CURVE CODE    CURVE DESCRIPTION
#-----------   ------------------   ----------------------------------
DEPT.M        00 001 00 00         : DEPTH        - DEPTH
GR  .API      00 310 00 00         : GR           - GAMMA RAY
NPHI.V/V      00 330 00 00         : PHIN         - NEUTRON POROSITY (SANDSTONE)
DPHI.V/V      00 890 00 00         : PHID         - DENSITY POROSITY (SANDSTONE)
ILD .OHMM     00 120 00 00         : RESD         - DEEP RESISTIVITY (DIL)
~PARAMETER INFORMATION
#MNEM.UNIT           DATA             DESCRIPTION OF MNEMONIC
#---------         -----------     ------------------------------
GL  .M        400.2                : gl           - GROUND LEVEL ELEVATION
EREF.M        403.5                : kb           - ELEVATION OF DEPTH REFERENCE
DATM.M        403.5                : datum        - DATUM ELEVATION
TDD .M        151                  : tdd          - TOTAL DEPTH DRILLER
RUN .         ONE                  : Run          - RUN NUMBER
ENG .         JO                   : Engineer     - RECORDING ENGINEER
WIT .         TIM                  : Witness      - WITNESSED BY
MUD .         GEL                  : Mud_type     - MUD TYPE
MATR.         SANDSTONE            : Logunit      - NEUTRON MATRIX
TMAX.C        15                   : BHT          - MAXIMUM RECORDED TEMPERATURE
BHTD.M        151                  : BHTDEP       - MAXIMUM RECORDED TEMPERATURE
RMT .C        16.9                 : MDTP         - TEMPERATURE OF MUD
MUDD.KG/M     1050                 : MWT          - MUD DENSITY
NEUT.         1                    : NEUTRON      - NEUTRON TYPE
RESI.         0                    : RESIST       - RESISTIVITY TYPE
RM  .OHMM     5.88                 : RM           - RESISTIVITY OF MUD
RMC .OHMM     5.88                 : RMC          - RESISTIVITY OF MUD CAKE
RMF .OHMM     6.27                 : RMF          - RESISTIVITY OF MUD FILTRATE
SUFT.C        4                    : SUFT         - SURFACE TEMPERATURE
~A  DEPTH       GR     PHIN     PHID     RESD
# ...
  102.000   61.422    0.481    0.246   12.134
  102.250   55.146    0.509    0.329   12.373
  102.500   48.870    0.491    0.362   12.617
  102.750   51.405    0.454    0.388   12.866
  103.000   64.009    0.442    0.337   13.374
  103.250   78.505    0.456    0.348   13.904
  103.500   85.445    0.471    0.402   13.906
  103.750   83.579    0.478    0.379   13.910
  104.000   79.187    0.494    0.343   13.913
  104.250   73.540    0.488    0.298   13.918
  104.500   68.518    0.472    0.401   13.656
  104.750   58.466    0.479    0.368   13.659
  105.000   50.931    0.440    0.330   13.662
  105.250   48.436    0.409    0.314   13.931
  105.500   48.449    0.368    0.288   13.937
  105.750   48.466    0.363    0.295   14.211
  106.000   52.260    0.370    0.297   14.213
  106.250   56.053    0.380    0.287   13.947
  106.500   57.958    0.385    0.290   13.425
  106.750   56.717    0.381    0.299   13.172
  107.000   52.962    0.383    0.307   12.678
  107.250   49.829    0.391    0.313   12.683
  107.500   46.075    0.402    0.308   12.932
  107.750   44.204    0.406    0.296   12.934
  108.000   43.596    0.406    0.295   12.934
  108.250   43.605    0.405    0.295   13.448
  108.500   43.631    0.401    0.255   14.254
  108.750   43.644    0.396    0.254   14.533
  109.000   43.657    0.382    0.280   14.817
  109.250   43.678    0.380    0.287   15.703
  109.500   44.325    0.386    0.297   16.324
  109.750   45.601    0.394    0.299   16.644
  110.000   45.619    0.393    0.294   16.332
  110.250   44.377    0.389    0.292   15.719
  110.500   45.658    0.388    0.286   14.843
  110.750   46.929    0.381    0.274   14.562
  111.000   47.576    0.368    0.258   14.567
  111.250   44.442    0.356    0.267   14.854
  111.500   40.688    0.353    0.258   15.741
  111.750   37.563    0.352    0.259   16.682
  112.000   36.942    0.355    0.274   17.008
  112.250   37.589    0.363    0.275   17.680
  112.500   39.494    0.376    0.270   18.379
  112.750   43.292    0.393    0.262   18.740
  113.000   44.564    0.396    0.251   19.482
  113.250   47.098    0.390    0.246   19.487
  113.500   47.120    0.385    0.262   19.869
  113.750   46.504    0.393    0.274   19.873
  114.000   46.521    0.405    0.271   19.880
  114.250   46.543    0.401    0.270   19.886
  114.500   45.301    0.394    0.264   19.889
  114.750   44.685    0.383    0.275   19.895
  115.000   43.448    0.378    0.269   19.903
  115.250   42.211    0.379    0.276   19.906
  115.500   40.965    0.405    0.289   19.912
  115.750   40.978    0.416    0.282   20.303
  116.000   39.741    0.417    0.276   20.309
  116.250   41.022    0.415    0.287   20.709
  116.500   41.660    0.410    0.297   21.117
  116.750   44.824    0.414    0.296   21.123
  117.000   51.139    0.416    0.296   21.128
  117.250   56.187    0.414    0.299   20.338
  117.500   63.756    0.411    0.306   19.955
  117.750   70.701    0.403    0.302   19.206
  118.000   76.382    0.403    0.283   18.133
  118.250   85.839    0.408    0.267   17.123
  118.500   92.154    0.409    0.261   16.479
  118.750   92.168    0.407    0.256   15.562
  119.000   92.185    0.402    0.242   15.268
  119.250   92.832    0.398    0.218   15.871
  119.500   94.737    0.410    0.195   16.183
  119.750   96.647    0.416    0.193   17.151
  120.000   96.035    0.413    0.217   17.487
  120.250   92.276    0.405    0.234   18.178
  120.500   90.401    0.400    0.257   18.183
  120.750   86.017    0.400    0.263   20.413
  121.000   87.293    0.405    0.241   21.629
  121.250   89.199    0.416    0.242   25.724
  121.500   86.069    0.425    0.241   30.594
  121.750   82.940    0.436    0.232   42.441
  122.000   80.436    0.432    0.267   45.842
  122.250   76.047    0.414    0.259   52.464
  122.500   72.922    0.399    0.264   60.042
  122.750   74.198    0.384    0.268   64.857
  123.000   74.216    0.390    0.260   63.645
  123.250   70.453    0.390    0.269   61.256
  123.500   72.992    0.376    0.263   56.733
  123.750   74.268    0.376    0.268   61.292
  124.000   67.358    0.404    0.273   68.814
  124.250   57.931    0.417    0.264   71.518
  124.500   44.732    0.426    0.261   68.839
  124.750   45.383    0.433    0.276   71.564
  125.000   52.319    0.437    0.295   75.826
  125.250   55.483    0.428    0.318   85.132
  125.500   50.474    0.418    0.323   80.382
  125.750   49.224    0.408    0.303   68.929
  126.000   51.130    0.414    0.304   54.739
  126.250   44.854    0.419    0.304   46.946
  126.500   45.500    0.424    0.297   48.797
  126.750   49.927    0.433    0.288   55.846
  127.000   54.979    0.441    0.296   67.709
  127.250   53.109    0.435    0.309   83.685
  127.500   56.273    0.423    0.325   95.766
  127.750   61.950    0.418    0.334  113.914
  128.000   67.636    0.414    0.331  105.502
  128.250   65.136    0.405    0.320   95.850
  128.500   59.489    0.408    0.308   90.502
  128.750   51.950    0.400    0.283   88.797
  129.000   41.898    0.404    0.261   92.306
  129.250   41.294    0.421    0.263   97.810
  129.500   43.191    0.436    0.275  105.670
  129.750   44.471    0.429    0.294  105.685
  130.000   45.118    0.426    0.311  101.726
  130.250   45.765    0.441    0.320   83.952
  130.500   45.778    0.442    0.315   58.267
  130.750   47.054    0.427    0.307   47.171
  131.000   50.222    0.427    0.316   32.118
  131.250   50.869    0.431    0.322   26.504
  131.500   47.739    0.426    0.315   22.298
  131.750   48.382    0.417    0.307   21.055
  132.000   55.322    0.421    0.302   20.660
  132.250   61.633    0.426    0.306   20.663
  132.500   72.983    0.416    0.305   19.889
  132.750   77.405    0.399    0.280   19.516
  133.000   76.793    0.394    0.248   18.427
  133.250   75.552    0.397    0.228   17.736
  133.500   78.716    0.412    0.220   15.507
  133.750   80.621    0.424    0.230   14.925
  134.000   80.639    0.419    0.244   16.755
  134.250   84.432    0.406    0.251   18.453
  134.500   87.600    0.409    0.240   18.458
  134.750   85.734    0.408    0.246   20.325
  135.000   84.484    0.403    0.225   22.382
  135.250   80.096    0.383    0.208   36.208
  135.500   75.712    0.385    0.210   39.875
  135.750   73.208    0.389    0.220   44.769
  136.000   66.303    0.389    0.219   43.925
  136.250   56.246    0.392    0.210   41.471
  136.500   53.746    0.399    0.213   35.570
  136.750   56.289    0.412    0.243   34.233
  137.000   56.932    0.416    0.280   29.934
  137.250   58.837    0.421    0.287   28.262
  137.500   62.001    0.424    0.287   27.199
  137.750   68.312    0.420    0.288   26.689
  138.000   65.183    0.414    0.272   27.215
  138.250   60.165    0.411    0.259   28.842
  138.500   54.514    0.417    0.259   31.758
  138.750   50.755    0.426    0.254   37.053
  139.000   53.928    0.433    0.273   40.803
  139.250   55.200    0.432    0.279   47.599
  139.500   55.213    0.426    0.279   49.480
  139.750   50.196    0.420    0.274   31.196
  140.000   40.143    0.414    0.268   25.743
  140.250   34.497    0.406    0.268   13.390
  140.500   33.889    0.408    0.273   11.706
  140.750   35.161    0.415    0.285   13.923
  141.000   36.441    0.400    0.293   21.675
  141.250   36.458    0.376    0.300   33.101
  141.500   36.471    0.370    0.301   37.158
  141.750   36.489    0.363    0.291   52.545
  142.000   37.773    0.355    0.199   54.625
  142.250   39.041    0.337    0.146   50.587
  142.500   43.468    0.304    0.094   35.116
  142.750   47.886    0.231    0.063   33.154
  143.000   57.344    0.188    0.006   30.123
  143.250   64.288    0.168    0.004   27.367
  143.500   69.970    0.171    0.006   19.741
  143.750   75.651    0.177    0.011   18.640
  144.000   78.194    0.184    0.005   17.940
  144.250   79.466    0.203   -0.005   19.380
  144.500   81.367    0.258    0.022   21.757
  144.750   90.825    0.276    0.035   24.898
  145.000   93.989    0.278    0.035   28.494
