~VERSION INFORMATION
 VERS.                 2.0:   CWLS LOG ASCII STANDARD -VERSION 2.0
 WRAP.                  NO:   ONE LINE PER DEPTH STEP
~WELL INFORMATION BLOCK
#MNEM.UNIT           DATA                    DESCRIPTION OF MNEMONIC
#---------    -------------------            -------------------------------
# Generated from Intellog Unique Number	CN_94_101/WELL/2482
WELL.         05-36-094-09W4                 : Well_name    - WELL
LOC .         AA/05-36-094-09W4/0            : Location     - LOCATION
UWI .         AA/05-36-094-09W400            : Uwi          - UNIQUE WELL ID
ENTR.         JOETTE                         : Entered      - ENTERED BY
SRVC.         SCHLUMBERGER                   : Scn          - SERVICE COMPANY
DATE.         05/17/92                       : Date         - LOG DATE
STRT.M        15                             : top_depth    - START DEPTH
STOP.M        140                            : bot_depth    - STOP DEPTH
STEP.M        0.25                           : increment    - STEP LENGTH
 NULL. -999.2500:NULL Value
~CURVE INFORMATION BLOCK
#MNEM UNIT       ERCB CURVE CODE    CURVE DESCRIPTION
#-----------   ------------------   ----------------------------------
DEPT.M        00 001 00 00         : DEPTH        - DEPTH
GR  .API      00 310 00 00         : GR           - GAMMA RAY
CALI.MM       00 280 01 00         : CAL          - CALIPER
NPHI.V/V      00 330 00 00         : PHIN         - NEUTRON POROSITY (SANDSTONE)
DPHI.V/V      00 890 00 00         : PHID         - DENSITY POROSITY (SANDSTONE)
ILD .OHMM     00 120 00 00         : RESD         - DEEP RESISTIVITY (DIL)
~PARAMETER INFORMATION
#MNEM.UNIT           DATA             DESCRIPTION OF MNEMONIC
#---------         -----------     ------------------------------
GL  .M        332.67               : gl           - GROUND LEVEL ELEVATION
EREF.M        332.67               : kb           - ELEVATION OF DEPTH REFERENCE
DATM.M        332.67               : datum        - DATUM ELEVATION
TDD .M        147                  : tdd          - TOTAL DEPTH DRILLER
RUN .         ONE                  : Run          - RUN NUMBER
ENG .         JO                   : Engineer     - RECORDING ENGINEER
WIT .         TIM                  : Witness      - WITNESSED BY
MUD .         GEL                  : Mud_type     - MUD TYPE
MATR.         SANDSTONE            : Logunit      - NEUTRON MATRIX
TMAX.C        18                   : BHT          - MAXIMUM RECORDED TEMPERATURE
BHTD.M        147                  : BHTDEP       - MAXIMUM RECORDED TEMPERATURE
RMT .C        18.6                 : MDTP         - TEMPERATURE OF MUD
MUDD.KG/M     0                    : MWT          - MUD DENSITY
NEUT.         1                    : NEUTRON      - NEUTRON TYPE
RESI.         0                    : RESIST       - RESISTIVITY TYPE
RM  .OHMM     6.04                 : RM           - RESISTIVITY OF MUD
RMC .OHMM     9.17                 : RMC          - RESISTIVITY OF MUD CAKE
RMF .OHMM     6.2                  : RMF          - RESISTIVITY OF MUD FILTRATE
SUFT.C        4                    : SUFT         - SURFACE TEMPERATURE
~A  DEPTH       GR      CAL     PHIN     PHID     RESD
   15.000   34.715  164.400    0.427    0.166  105.156
   15.250   32.867  164.390    0.438    0.170  113.138
   15.500   32.236  164.376    0.456    0.153  106.936
   15.750   30.388  164.363    0.579    0.118   53.865
   16.000   26.098  164.346    0.502    0.102  102.874
   16.250   26.082  164.740    0.443    0.115  104.705
   16.500   31.536  164.724    0.360    0.078   83.783
   16.750   29.693  164.710    0.350    0.074   19.400
   17.000   26.621  164.697    0.362    0.046   23.754
   17.250   29.651  164.680    0.382    0.004   22.040
   17.500   30.233  164.667    0.395   -0.018   18.305
   17.750   27.166  164.657    0.385    0.008   20.432
   18.000   26.536  164.647    0.333    0.036   15.755
   18.250   31.387  164.226    0.334    0.017   17.923
   18.500   32.583  164.216    0.334   -0.004   13.817
   18.750   30.730  163.791    0.368   -0.030   12.352
   19.000   29.490  163.781    0.357   -0.007   11.896
   19.250   30.687  164.165    0.330    0.025   10.441
   19.500   33.102  164.152    0.322    0.045    9.510
   19.750   33.694  164.550    0.370    0.061    8.195
   20.000   36.718  164.533    0.460    0.089    7.061
   20.250   44.614  161.288    0.489    0.119    6.552
   20.500   49.465  154.401    0.323    0.152    5.967
   20.750   61.625  148.727    0.233    0.193   24.338
   21.000   68.912  147.500    0.248    0.297   68.544
   21.250   66.449  149.104    0.398    0.330   88.738
   21.500   69.484  154.347    0.453    0.312   48.132
   21.750   72.502  148.269    0.548    0.254   37.123
   22.000   66.994  159.173    0.584    0.250   33.813
   22.250   68.800  155.116    0.651    0.266   49.829
   22.500   76.701  147.824    0.552    0.283   57.730
   22.750   82.775  145.789    0.490    0.186   79.004
   23.000   70.568  146.985    0.526    0.078   71.960
   23.250   65.674  147.373    0.432    0.126   57.581
   23.500   74.179  145.338    0.468    0.262   84.854
   23.750   74.767  144.516    0.537    0.236  162.060
   24.000   79.613  144.907    0.479    0.235   73.052
   24.250   71.070  145.702    0.454    0.265   71.636
   24.500   68.003  146.093    0.527    0.208   86.142
   24.750   80.772  147.700    0.592    0.228   89.313
   25.000  107.554  151.730    0.574    0.259   87.600
   25.250   97.782  154.547    0.531    0.270   68.811
   25.500   83.144  145.234    0.555    0.258   45.759
   25.750   80.686  144.813    0.588    0.263   76.759
   26.000   85.532  145.605    0.467    0.268  103.097
   26.250   75.766  145.598    0.443    0.257   97.446
   26.500   77.577  145.585    0.472    0.244   93.825
   26.750   70.856  145.572    0.492    0.234  106.732
   27.000   65.962  145.150    0.436    0.231  125.965
   27.250   66.550  144.736    0.368    0.257  119.060
   27.500   54.343  144.716    0.434    0.292   76.298
   27.750   46.404  144.709    0.534    0.295  104.415
   28.000   51.255  144.689    0.567    0.286  171.903
   28.250   59.760  144.683    0.462    0.294  181.599
   28.500   64.611  145.067    0.517    0.291  159.398
   28.750   57.281  145.057    0.485    0.284  120.659
   29.000   60.914  145.047    0.522    0.271  120.555
   29.250   71.855  145.030    0.502    0.252  122.675
   29.500   76.097  145.013    0.450    0.234  107.701
   29.750   87.038  145.003    0.383    0.215  105.635
   30.000   93.722  144.983    0.469    0.221   97.993
   30.250   79.687  144.976    0.457    0.228   81.386
   30.500   76.011  144.953    0.420    0.227   56.150
   30.750   82.080  144.946    0.383    0.274   90.787
   31.000   71.705  144.930    0.542    0.268   90.709
   31.250   57.061  144.920    0.593    0.259   60.308
   31.500   60.694  144.906    0.524    0.271   93.967
   31.750   61.282  144.893    0.398    0.258  224.039
   32.000   52.130  144.475    0.438    0.226   93.805
   32.250   58.808  144.458    0.440    0.211  148.857
   32.500   69.750  144.452    0.419    0.235  178.963
   32.750   80.691  144.435    0.434    0.266  102.634
   33.000   60.571  144.425    0.452    0.284   66.985
   33.250   59.332  144.004    0.421    0.273  118.805
   33.500   63.574  143.583    0.452    0.268  203.013
   33.750   58.675  143.977    0.471    0.291  156.544
   34.000   56.217  144.371    0.446    0.271  137.407
   34.250   66.555  145.167    0.451    0.239  127.466
   34.500   76.887  146.366    0.404    0.239  153.245
   34.750   84.174  146.353    0.476    0.250  100.018
   35.000   82.929  145.531    0.499    0.238   81.544
   35.250   81.690  145.113    0.479    0.249   87.734
   35.500   76.791  144.695    0.506    0.252  103.521
   35.750   76.166  144.278    0.485    0.240   94.292
   36.000   61.522  144.264    0.440    0.258   99.589
   36.250   62.115  144.652    0.494    0.255   90.729
   36.500   66.966  145.046    0.484    0.249   99.439
   36.750   74.253  145.841    0.436    0.264  103.077
   37.000   74.841  145.821    0.457    0.284   92.185
   37.250   57.766  145.404    0.483    0.259   92.106
   37.500   52.872  144.982    0.493    0.244   99.097
   37.750   63.814  144.972    0.461    0.233  154.405
   38.000   68.665  144.551    0.425    0.234  236.118
   38.250   69.861  144.545    0.411    0.217   97.029
   38.500   71.662  144.528    0.430    0.215   72.102
   38.750   66.773  144.515    0.461    0.250   85.094
   39.000   58.225  144.097    0.484    0.221   78.955
   39.250   66.731  143.676    0.440    0.219   91.474
   39.500   77.672  143.666    0.380    0.233   91.396
   39.750   79.478  143.652    0.376    0.233   81.721
   40.000   82.501  143.642    0.393    0.214   67.857
   40.250   89.180  144.438    0.418    0.208   66.555
   40.500   87.331  144.829    0.361    0.244   69.005
   40.750   82.437  144.812    0.396    0.283   65.209
   41.000   73.275  144.397    0.482    0.305   67.609
   41.250   77.522  143.575    0.461    0.275   66.312
   41.500   68.969  142.750    0.542    0.244   90.769
   41.750   59.812  143.946    0.486    0.266  126.539
   42.000   51.873  144.344    0.465    0.279  126.430
   42.250   41.498  145.139    0.530    0.294   92.226
   42.500   33.559  145.530    0.504    0.299   76.580
   42.750   35.365  145.918    0.438    0.303  154.572
   43.000   56.051  145.901    0.397    0.198  355.221
   43.250  102.316  145.891    0.317    0.199  427.063
   43.500   96.819  145.878    0.348    0.180  123.473
   43.750   98.625  146.258    0.343    0.173   43.758
   44.000  116.875  146.252    0.346    0.182   49.756
   44.250  115.635  146.643    0.406    0.175   42.095
   44.500  102.209  147.034    0.459    0.190   28.516
   44.750  108.278  147.020    0.461    0.199   28.491
   45.000  110.084  147.010    0.454    0.209   38.991
   45.250   95.446  146.997    0.459    0.222   38.949
   45.500   89.943  146.171    0.446    0.231   44.307
   45.750   86.267  145.757    0.488    0.229   54.263
   46.000   82.592  144.935    0.560    0.183   52.235
   46.250   77.089  144.517    0.451    0.150   48.467
   46.500   83.158  144.504    0.380    0.189   46.666
   46.750  109.934  144.891    0.415    0.209   47.506
   47.000  103.214  145.282    0.447    0.200   63.821
   47.250   94.057  145.677    0.548    0.202   42.441
   47.500   87.336  145.663    0.489    0.197   29.287
   47.750   80.615  144.838    0.388    0.205   31.510
   48.000   71.447  144.420    0.426    0.235   48.186
   48.250   70.822  144.006    0.455    0.253   49.033
   48.500   70.801  143.989    0.401    0.244   50.849
   48.750   70.774  143.976    0.407    0.247   62.275
   49.000   71.367  143.959    0.433    0.247   72.134
   49.250   76.218  143.548    0.455    0.241   72.072
   49.500   79.845  143.535    0.500    0.248   72.010
   49.750   78.611  144.734    0.547    0.249   71.963
   50.000   85.898  146.743    0.537    0.235   62.008
   50.250   87.699  148.748    0.504    0.230   56.479
   50.500   85.856  148.737    0.505    0.234   54.380
   50.750   85.225  147.915    0.540    0.232   45.154
   51.000   87.031  146.682    0.531    0.232   48.582
   51.250   76.047  142.622    0.495    0.235   68.992
