~VERSION INFORMATION
 VERS.                 2.0:   CWLS LOG ASCII STANDARD -VERSION 2.0
 WRAP.                  NO:   ONE LINE PER DEPTH STEP
~WELL INFORMATION BLOCK
#MNEM.UNIT           DATA                    DESCRIPTION OF MNEMONIC
#---------    -------------------            -------------------------------
# Generated from Intellog Unique Number	CN_91_93/WELL/4001
WELL.         AOSTRA AO-72                   : Well_name    - WELL
LOC .         09-20-092-13W4                 : Location     - LOCATION
UWI .         AA/09-20-092-13W400            : Uwi          - UNIQUE WELL ID
ENTR.         JOETTE                         : Entered      - ENTERED BY
SRVC.         CENTURY                        : Scn          - SERVICE COMPANY
DATE.         03/16/92                       : Date         - LOG DATE
STRT.M        50                             : top_depth    - START DEPTH
STOP.M        190                            : bot_depth    - STOP DEPTH
STEP.M        0.25                           : increment    - STEP LENGTH
 NULL. -999.2500:NULL Value
~CURVE INFORMATION BLOCK
#MNEM UNIT       ERCB CURVE CODE    CURVE DESCRIPTION
#-----------   ------------------   ----------------------------------
DEPT.M        00 001 00 00         : DEPTH        - DEPTH
GR  .API      00 310 00 00         : GR           - GAMMA RAY
DPHI.V/V      00 890 00 00         : PHID         - DENSITY POROSITY (SANDSTONE)
ILD .OHMM     00 120 00 00         : RESD         - DEEP RESISTIVITY (DIL)
~PARAMETER INFORMATION
#MNEM.UNIT           DATA             DESCRIPTION OF MNEMONIC
#---------         -----------     ------------------------------
GL  .M        437.9                : gl           - GROUND LEVEL ELEVATION
EREF.M        437.9                : kb           - ELEVATION OF DEPTH REFERENCE
DATM.M        437.9                : datum        - DATUM ELEVATION
TDD .M        174.3                : tdd          - TOTAL DEPTH DRILLER
RUN .         ONE                  : Run          - RUN NUMBER
ENG .         BILL                 : Engineer     - RECORDING ENGINEER
WIT .         JIM                  : Witness      - WITNESSED BY
MUD .         GEL                  : Mud_type     - MUD TYPE
MATR.         SANDSTONE            : Logunit      - NEUTRON MATRIX
TMAX.C        18                   : BHT          - MAXIMUM RECORDED TEMPERATURE
BHTD.M        194.3                : BHTDEP       - MAXIMUM RECORDED TEMPERATURE
RMT .C        18                   : MDTP         - TEMPERATURE OF MUD
MUDD.KG/M     1100                 : MWT          - MUD DENSITY
NEUT.         1                    : NEUTRON      - NEUTRON TYPE
RESI.         0                    : RESIST       - RESISTIVITY TYPE
RM  .OHMM     9.37                 : RM           - RESISTIVITY OF MUD
RMC .OHMM     9.37                 : RMC          - RESISTIVITY OF MUD CAKE
RMF .OHMM     9.37                 : RMF          - RESISTIVITY OF MUD FILTRATE
SUFT.C        4                    : SUFT         - SURFACE TEMPERATURE
~A  DEPTH       GR     PHID     RESD
   50.000  115.552    0.271   11.781
   50.250  119.221    0.247   12.249
   50.500   97.996    0.220   10.992
   50.750   89.786    0.202   11.444
   51.000   96.413    0.244   10.454
   51.250   79.897    0.259   10.877
   51.500   87.707    0.312   11.970
   51.750   98.476    0.311   10.935
   52.000  103.304    0.297    9.456
   52.250  108.773    0.282   10.400
   52.500  109.436    0.290   11.869
   52.750  100.043    0.281   12.123
   53.000   97.772    0.336    9.041
   53.250  103.216    0.325    8.576
   53.500  117.534    0.311    7.559
   53.750  118.222    0.343    7.299
   54.000  102.913    0.340    7.595
   54.250  101.825    0.361    7.907
   54.500  103.720    0.354    7.783
   54.750  102.017    0.336    8.098
   55.000  105.095    0.319    8.114
   55.250  111.698    0.306    6.762
   55.500  102.920    0.291    6.911
   55.750   99.467    0.301    7.462
   56.000   94.806    0.318    7.486
   56.250   90.169    0.308    7.234
   56.500  101.529    0.295    7.526
   56.750  114.664    0.279    7.687
   57.000  114.760    0.280    7.998
   57.250  101.817    0.280    7.587
   57.500  107.261    0.278    7.612
   57.750  107.357    0.274    7.909
   58.000  104.495    0.255    7.790
   58.250  115.264    0.246    7.811
   58.500  107.645    0.270    8.127
   58.750  108.356    0.259    7.568
   59.000  113.185    0.254    8.962
   59.250  115.056    0.261   10.812
   59.500   79.017    0.279   11.681
   59.750   65.482    0.298   15.174
   60.000   67.944    0.368   16.082
   60.250   98.851    0.377   14.431
   60.500   68.136    0.331   15.035
   60.750   71.214    0.352   12.283
   61.000   62.412    0.375    9.871
   61.250   86.811    0.362   10.650
   61.500  102.313    0.306   12.155
   61.750   78.721    0.288   18.320
   62.000   64.595    0.343   11.148
   62.250   69.423    0.320    9.634
   62.500   83.150    0.302   10.023
   62.750   76.738    0.321   10.050
   63.000   72.101    0.319    8.691
   63.250   87.603    0.282    7.944
   63.500  100.737    0.273    7.681
   63.750   90.752    0.263    8.930
   64.000   73.077    0.261   10.191
   64.250   69.623    0.284   13.005
   64.500   82.166    0.314   10.639
   64.750   92.935    0.337   11.268
   65.000   85.340    0.354   13.603
   65.250   79.496    0.338   10.145
   65.500   79.592    0.245   10.954
   65.750   71.406    0.193    9.643
   66.000   76.234    0.191    8.820
   66.250   96.492    0.205    8.681
   66.500  104.870    0.239    8.545
   66.750   84.237    0.305    8.728
   67.000   84.924    0.297    8.751
   67.250   83.245    0.302    8.154
   67.500   75.059    0.280    8.798
   67.750   76.338    0.275    9.676
   68.000   73.500    0.291    9.702
   68.250   78.305    0.283   10.290
   68.500   81.974    0.268   10.128
   68.750   76.722    0.281   10.344
   69.000   69.719    0.306    9.282
   69.250   81.079    0.287    8.638
   69.500   80.583    0.267    8.513
   69.750   74.171    0.280    9.532
   70.000   57.679    0.312   11.288
   70.250   60.733    0.256   15.510
   70.500   59.054    0.212   13.413
   70.750   63.291    0.257   12.722
   71.000   71.102    0.233   13.736
   71.250   75.954    0.271   10.429
   71.500   68.359    0.325   11.068
   71.750   73.164    0.326   10.694
   72.000   80.975    0.311   10.923
   72.250   84.620    0.301    9.795
   72.500   87.106    0.294   10.191
   72.750   83.653    0.325   11.848
   73.000   77.217    0.284   14.842
   73.250   65.481    0.234   16.024
   73.500   75.043    0.264   10.307
   73.750   88.769    0.296    9.243
   74.000   88.297    0.309    9.268
   74.250   81.270    0.296    9.292
   74.500   71.285    0.291    9.491
   74.750   83.237    0.310    9.529
   75.000   79.783    0.289   10.473
   75.250   71.005    0.236   10.309
   75.500   82.365    0.252   11.985
   75.750   87.810    0.299   10.181
   76.000   84.356    0.320    9.480
   76.250   86.227    0.323    8.042
   76.500   85.115    0.279    6.336
   76.750  109.515    0.287    8.390
   77.000  107.836    0.306    8.892
   77.250   94.893    0.320    9.786
   77.500   79.583    0.335    9.282
   77.750   87.394    0.315    9.307
   78.000   84.532    0.297    9.161
   78.250   81.670    0.295   10.082
   78.500   76.417    0.295    9.041
   78.750   78.904    0.252    8.270
   79.000   84.915    0.257    7.839
   79.250   96.276    0.291    8.309
   79.500   88.089    0.293    9.840
   79.750   82.837    0.292   13.272
   80.000   63.978    0.296   13.556
   80.250   75.338    0.286   10.110
   80.500   78.392    0.289   12.197
   80.750   68.455    0.292   18.046
   81.000   60.245    0.261   15.908
   81.250   40.178    0.144   35.332
   81.500   55.680    0.066   61.746
   81.750   85.403    0.165   18.580
   82.000   75.490    0.216   12.633
   82.250   79.087    0.266   14.153
   82.500   94.613    0.297   11.151
   82.750   94.093    0.300   12.734
   83.000   76.441    0.303   16.239
   83.250   85.411    0.319   13.533
   83.500   73.651    0.319   10.473
   83.750   85.011    0.328    8.891
   84.000  104.086    0.334    7.542
   84.250   85.795    0.315    8.774
   84.500   89.464    0.301    9.473
   84.750   96.683    0.306    9.154
   85.000   89.656    0.302   10.649
   85.250   93.917    0.312   10.283
   85.500   89.848    0.300   12.645
   85.750   85.211    0.235   12.446
   86.000   71.676    0.227    9.995
   86.250   80.670    0.257   10.594
   86.500   79.583    0.262   12.090
   86.750   82.637    0.265   14.318
   87.000   78.000    0.193   16.052
   87.250   81.054    0.188   15.510
   87.500   79.966    0.215   14.443
   87.750   64.066    0.261   10.373
   88.000   76.609    0.278    9.840
   88.250   85.603    0.300   10.822
   88.500   78.008    0.299   11.477
   88.750   82.245    0.285   11.723
   89.000   86.482    0.267   12.665
   89.250   67.031    0.251   11.577
   89.500   74.250    0.255   12.962
   89.750   80.854    0.271    9.847
   90.000   88.664    0.279   16.584
   90.250  100.024    0.162    7.779
   90.500   74.042    0.074    8.110
   90.750   96.075    0.134    8.272
   91.000  112.760    0.208    8.455
   91.250  111.672    0.275    8.472
   91.500  129.540    0.263    8.494
   91.750  113.663    0.258    8.522
   92.000   97.146    0.227    8.705
   92.250   93.693    0.202    9.392
   92.500  103.870    0.215    9.429
   92.750   96.867    0.228    9.275
   93.000  102.878    0.223    8.176
   93.250  107.731    0.225    8.986
   93.500   93.605    0.241   10.074
   93.750   99.617    0.251    9.556
   94.000   67.127    0.251    9.581
   94.250   66.040    0.150   10.927
   94.500   81.541    0.096   10.365
   94.750  107.715    0.161    7.880
   95.000  106.628    0.267    8.666
   95.250   77.688    0.303   10.455
   95.500   60.627    0.317   13.835
   95.750   55.375    0.315   16.395
   96.000   54.288    0.305   19.779
   96.250   47.876    0.284   20.963
   96.500   54.480    0.290   14.529
   96.750   67.615    0.317   16.571
   97.000   74.242    0.317   16.012
   97.250   73.746    0.285   18.639
   97.500   76.209    0.263   22.059
   97.750   61.491    0.253   27.615
   98.000   46.773    0.177   22.192
   98.250   59.932    0.254   22.251
   98.500   62.394    0.293   23.583
   98.750   61.922    0.272   24.995
   99.000   63.201    0.210   23.709
   99.250   59.748    0.143   26.076
   99.500   61.003    0.133   32.643
   99.750   65.856    0.215   19.129
  100.000   67.135    0.285   13.506
  100.250   76.696    0.275   12.802
  100.500   80.365    0.268   13.085
  100.750   88.152    0.271   13.868
  101.000   86.497    0.276   15.527
  101.250   77.104    0.262   15.013
  101.500   94.971    0.256   14.231
  101.750   95.683    0.255   15.103
  102.000   85.106    0.270   17.547
  102.250   74.529    0.268   18.957
  102.500   62.770    0.242   19.008
  102.750   49.259    0.275   18.709
  103.000   51.721    0.280   16.777
  103.250   63.673    0.194   12.512
  103.500   74.465    0.226   15.095
  103.750   71.579    0.244   18.235
  104.000   62.777    0.273   20.041
