~VERSION INFORMATION
 VERS.                 2.0:   CWLS LOG ASCII STANDARD -VERSION 2.0
 WRAP.                  NO:   ONE LINE PER DEPTH STEP
~WELL INFORMATION BLOCK
#MNEM.UNIT           DATA                    DESCRIPTION OF MNEMONIC
#---------    -------------------            -------------------------------
# Generated from Intellog Unique Number	CN_94_101/WELL/2546
WELL.         04-23-094-10W4                 : Well_name    - WELL
LOC .         AA/04-23-094-10W4/0            : Location     - LOCATION
UWI .         AA/04-23-094-10W400            : Uwi          - UNIQUE WELL ID
ENTR.         JOETTE                         : Entered      - ENTERED BY
SRVC.         SCHLUMBERGER                   : Scn          - SERVICE COMPANY
DATE.         05/17/92                       : Date         - LOG DATE
STRT.M        0                              : top_depth    - START DEPTH
STOP.M        65                             : bot_depth    - STOP DEPTH
STEP.M        0.25                           : increment    - STEP LENGTH
 NULL. -999.2500:NULL Value
~CURVE INFORMATION BLOCK
#MNEM UNIT       ERCB CURVE CODE    CURVE DESCRIPTION
#-----------   ------------------   ----------------------------------
DEPT.M        00 001 00 00         : DEPTH        - DEPTH
GR  .API      00 310 00 00         : GR           - GAMMA RAY
NPHI.V/V      00 330 00 00         : PHIN         - NEUTRON POROSITY (SANDSTONE)
RHOB.KG/M3    00 350 00 00         : DENS         - BULK DENSITY
ILD .OHMM     00 120 00 00         : RESD         - DEEP RESISTIVITY (DIL)
~PARAMETER INFORMATION
#MNEM.UNIT           DATA             DESCRIPTION OF MNEMONIC
#---------         -----------     ------------------------------
GL  .M        308.3                : gl           - GROUND LEVEL ELEVATION
EREF.M        308.3                : kb           - ELEVATION OF DEPTH REFERENCE
DATM.M        308.3                : datum        - DATUM ELEVATION
TDD .M        73.8                 : tdd          - TOTAL DEPTH DRILLER
RUN .         ONE                  : Run          - RUN NUMBER
ENG .         JO                   : Engineer     - RECORDING ENGINEER
WIT .         TIM                  : Witness      - WITNESSED BY
MUD .         GEL                  : Mud_type     - MUD TYPE
MATR.         SANDSTONE            : Logunit      - NEUTRON MATRIX
TMAX.C        16                   : BHT          - MAXIMUM RECORDED TEMPERATURE
BHTD.M        73.8                 : BHTDEP       - MAXIMUM RECORDED TEMPERATURE
RMT .C        16                   : MDTP         - TEMPERATURE OF MUD
MUDD.KG/M     1060                 : MWT          - MUD DENSITY
NEUT.         1                    : NEUTRON      - NEUTRON TYPE
RESI.         0                    : RESIST       - RESISTIVITY TYPE
RM  .OHMM     3.5                  : RM           - RESISTIVITY OF MUD
RMC .OHMM     3.5                  : RMC          - RESISTIVITY OF MUD CAKE
RMF .OHMM     3.5                  : RMF          - RESISTIVITY OF MUD FILTRATE
SUFT.C        4                    : SUFT         - SURFACE TEMPERATURE
~A  DEPTH       GR     PHIN     DENS     RESD
# ...
   43.500   34.051    0.415 2259.740    2.896
   43.750   30.439    0.409 2239.260    3.119
   44.000   34.787    0.416 2212.620    3.176
   44.250   31.160    0.395 2218.900    2.782
   44.500   26.315    0.414 2225.170    2.728
   44.750   20.857    0.418 2270.580    3.052
   45.000   23.979    0.448 2233.620    3.107
   45.250   37.527    0.465 2153.430    2.990
   45.500   32.682    0.446 2132.950    2.824
   45.750   29.055    0.420 2223.650    2.617
   46.000   25.435    0.384 2246.410    2.665
   46.250   23.049    0.388 2316.530    2.564
   46.500   23.712    0.379 2285.760    2.468
   46.750   22.552    0.391 2271.450    2.921
   47.000   22.616    0.390 2310.680    2.558
   47.250   22.674    0.368 2349.910    2.040
   47.500   25.176    0.359 2374.720    1.963
   47.750   32.595    0.382 2339.830    2.155
   48.000   40.620    0.389 2274.060    2.194
   48.250   43.742    0.393 2284.460    1.886
   48.500   35.227    0.398 2278.380    1.562
   48.750   43.238    0.401 2290.860    1.590
   49.000   60.463    0.416 2307.420    1.745
   49.250   89.325    0.489 2274.600    1.648
   49.500  139.644    0.515 2336.460    1.810
   49.750  146.451    0.519 2375.720    1.390
   50.000  139.774    0.530 2344.910    0.884
   50.250  141.671    0.526 2268.850    0.760
   50.500  130.690    0.508 2283.360    0.819
   50.750  106.226    0.480 2332.890    1.385
   51.000  114.871    0.499 2333.020    1.734
   51.250  150.474    0.517 2312.520    1.063
   51.500  144.403    0.532 2322.920    0.949
   51.750  145.687    0.529 2213.890    0.863
   52.000  129.204    0.526 2207.820    0.800
   52.250  140.899    0.525 2277.950    1.001
   52.500  138.506    0.531 2243.050    1.020
   52.750  145.312    0.531 2189.640    0.927
   53.000  160.078    0.530 2175.320    0.893
   53.250  172.393    0.543 2175.440    0.875
   53.500  166.935    0.535 2165.240    0.842
   53.750  162.090    0.536 2192.120    0.826
   54.000  149.891    0.540 2192.240    0.795
   54.250  176.921    0.527 2262.340    0.779
   54.500  124.879    0.496 2258.330    0.764
   54.750   94.286    0.468 2307.850    0.939
   55.000   72.894    0.440 2289.430    1.367
   55.250   60.694    0.435 2326.590    1.445
   55.500   56.469    0.431 2304.050    1.710
   55.750   70.002    0.462 2293.870    1.808
   56.000  128.289    0.504 2250.740    1.773
   56.250  152.256    0.523 2248.780    1.008
   56.500  149.256    0.522 2288.030    0.788
   56.750  159.726    0.527 2284.030    0.773
   57.000  156.719    0.516 2317.070    0.758
   57.250  129.811    0.511 2294.530    0.802
   57.500   86.961    0.491 2251.400    1.082
   57.750   84.567    0.476 2220.620    1.381
   58.000  109.759    0.498 2247.510    1.210
   58.250  138.009    0.515 2274.370    0.947
   58.500  139.905    0.505 2315.650    0.814
   58.750  108.707    0.504 2387.820    0.860
   59.000   83.630    0.493 2379.690    0.980
   59.250   65.915    0.470 2423.050    1.076
   59.500   67.198    0.454 2546.700    1.159
   59.750   62.966    0.396 2567.400    1.425
   60.000   39.735    0.361 2606.620    1.960
   60.250   23.245    0.176 2676.750    2.501
   60.500   15.948    0.188 2670.680   13.832
   60.750   11.716    0.196 2658.430   12.116
   61.000    6.871    0.243 2666.790   25.686
   61.250    9.993    0.254 2586.570   26.647
   61.500   10.051    0.176 2566.100   15.435
   61.750    7.051    0.158 2617.680   14.577
   62.000   13.238    0.084 2642.500   14.565
   62.250   10.231    0.081 2669.390   20.416
   62.500    7.830    0.088 2640.650   85.171
   62.750    7.289    0.090 2673.720   58.423
   63.000    9.171    0.093 2675.870   28.037
   63.250   15.358    0.121 2678.040   18.181
   63.500   34.428    0.091 2696.690   12.950
   63.750   27.132    0.091 2674.140    8.719
   64.000   20.455    0.150 2694.830   12.930
   64.250   28.466    0.238 2713.470   24.951
   64.500   40.781    0.327 2635.340    3.949
   64.750   43.297    0.302 2666.330    3.032
   65.000   45.799    0.301 2676.730    3.726
