~VERSION INFORMATION
 VERS.                 2.0:   CWLS LOG ASCII STANDARD -VERSION 2.0
 WRAP.                  NO:   ONE LINE PER DEPTH STEP
~WELL INFORMATION BLOCK
#MNEM.UNIT           DATA                    DESCRIPTION OF MNEMONIC
#---------    -------------------            -------------------------------
# Generated from Intellog Unique Number	CN_94_101/WELL/3188
WELL.         02-29-099-14W4                 : Well_name    - WELL
LOC .         AA/02-29-099-14W4/0            : Location     - LOCATION
UWI .         AA/02-29-099-14W400            : Uwi          - UNIQUE WELL ID
ENTR.         TIM                            : Entered      - ENTERED BY
SRVC.         SCHLUMBERGER                   : Scn          - SERVICE COMPANY
DATE.         08/13/92                       : Date         - LOG DATE
STRT.M        360                            : top_depth    - START DEPTH
STOP.M        562                            : bot_depth    - STOP DEPTH
STEP.M        0.25                           : increment    - STEP LENGTH
 NULL. -999.2500:NULL Value
~CURVE INFORMATION BLOCK
#MNEM UNIT       ERCB CURVE CODE    CURVE DESCRIPTION
#-----------   ------------------   ----------------------------------
DEPT.M        00 001 00 00         : DEPTH        - DEPTH
DPHI.V/V      00 890 00 00         : PHID         - DENSITY POROSITY (SANDSTONE)
NPHI.V/V      00 330 00 00         : PHIN         - NEUTRON POROSITY (SANDSTONE)
ILD .OHMM     00 120 00 00         : RESD         - DEEP RESISTIVITY (DIL)
GR  .API      00 310 00 00         : GR           - GAMMA RAY
~PARAMETER INFORMATION
#MNEM.UNIT           DATA             DESCRIPTION OF MNEMONIC
#---------         -----------     ------------------------------
GL  .M        800.3                : gl           - GROUND LEVEL ELEVATION
EREF.M        803.3                : kb           - ELEVATION OF DEPTH REFERENCE
DATM.M        803.3                : datum        - DATUM ELEVATION
TDD .M        562                  : tdd          - TOTAL DEPTH DRILLER
RUN .         ONE                  : Run          - RUN NUMBER
ENG .         JO                   : Engineer     - RECORDING ENGINEER
WIT .         TIM                  : Witness      - WITNESSED BY
MUD .         GEL                  : Mud_type     - MUD TYPE
MATR.         SANDSTONE            : Logunit      - NEUTRON MATRIX
TMAX.C        25                   : BHT          - MAXIMUM RECORDED TEMPERATURE
BHTD.M        562                  : BHTDEP       - MAXIMUM RECORDED TEMPERATURE
RMT .C        24                   : MDTP         - TEMPERATURE OF MUD
MUDD.KG/M     1000                 : MWT          - MUD DENSITY
NEUT.         1                    : NEUTRON      - NEUTRON TYPE
RESI.         0                    : RESIST       - RESISTIVITY TYPE
RM  .OHMM     4.75                 : RM           - RESISTIVITY OF MUD
RMC .OHMM     6.3                  : RMC          - RESISTIVITY OF MUD CAKE
RMF .OHMM     6.3                  : RMF          - RESISTIVITY OF MUD FILTRATE
SUFT.C        4                    : SUFT         - SURFACE TEMPERATURE
~A  DEPTH     PHID     PHIN     RESD       GR
# ...
  534.000    0.289    0.368    8.650   73.733
  534.250    0.289    0.358    9.174   69.468
  534.500    0.290    0.350    9.539   63.984
  534.750    0.301    0.347    9.922   60.939
  535.000    0.329    0.353    9.739   60.346
  535.250    0.334    0.364    8.681   62.814
  535.500    0.332    0.389    7.887   66.510
  535.750    0.332    0.392    7.447   68.978
  536.000    0.329    0.382    6.640   71.440
  536.250    0.322    0.373    6.515   73.908
  536.500    0.322    0.372    6.035   76.375
  536.750    0.308    0.382    5.811   77.628
  537.000    0.293    0.391    5.596   78.867
  537.250    0.284    0.388    5.388   81.339
  537.500    0.283    0.382    5.287   83.802
  537.750    0.282    0.376    5.501   83.826
  538.000    0.284    0.366    5.503   81.398
  538.250    0.290    0.368    5.509   78.362
  538.500    0.294    0.368    5.513   77.760
  538.750    0.299    0.368    5.515   76.555
  539.000    0.308    0.366    5.627   77.804
  539.250    0.315    0.362    5.524   79.042
  539.500    0.319    0.361    5.421   80.286
  539.750    0.314    0.357    5.426   81.529
  540.000    0.306    0.353    5.428   81.549
  540.250    0.300    0.361    5.868   80.961
  540.500    0.298    0.377    6.467   79.751
  540.750    0.298    0.373    7.552   74.875
  541.000    0.297    0.358    8.485   70.610
  541.250    0.282    0.354    8.826   68.186
  541.500    0.332    0.359    8.020   69.430
  541.750    0.346    0.389    7.147   71.902
  542.000    0.351    0.393    6.130   75.594
  542.250    0.334    0.389    5.790   77.445
  542.500    0.322    0.377    5.682   79.300
  542.750    0.309    0.363    5.577   82.996
  543.000    0.293    0.352    5.370   85.459
  543.250    0.273    0.347    5.271   90.375
  543.500    0.258    0.350    5.174   92.842
  543.750    0.233    0.361    5.381   91.642
  544.000    0.224    0.361    6.284   87.990
  544.250    0.250    0.361    8.900   83.725
  544.500    0.279    0.362   11.668   53.751
  544.750    0.306    0.367   14.719   48.263
  545.000    0.313    0.376   17.192   45.834
  545.250    0.328    0.381   17.877   45.246
  545.500    0.344    0.387   19.325   44.659
  545.750    0.365    0.385   20.100   44.673
  546.000    0.381    0.377   19.352   43.474
  546.250    0.372    0.374   17.254   42.871
  546.500    0.356    0.387   16.609   41.667
  546.750    0.349    0.400   15.089   41.074
  547.000    0.353    0.407   13.192   40.481
  547.250    0.362    0.402   11.989   39.894
  547.500    0.369    0.383   11.545   39.913
  547.750    0.364    0.375   10.694   39.326
  548.000    0.370    0.378    9.716   38.121
  548.250    0.379    0.380    5.664   36.912
  548.500    0.375    0.379    4.856   35.100
  548.750    0.370    0.375    3.930   34.507
  549.000    0.365    0.371    3.180   34.522
  549.250    0.357    0.374    2.890   34.541
  549.500    0.344    0.370    2.576   34.561
  549.750    0.333    0.365    2.341   34.580
  550.000    0.325    0.361    2.297   35.212
  550.250    0.338    0.358    2.128   36.455
  550.500    0.347    0.356    2.049   37.699
  550.750    0.348    0.356    1.899   37.718
  551.000    0.343    0.360    1.863   34.682
  551.250    0.339    0.365    1.794   33.478
  551.500    0.336    0.367    1.761   33.497
  551.750    0.328    0.359    1.728   34.746
  552.000    0.326    0.349    1.696   35.377
  552.250    0.332    0.346    1.698   34.173
  552.500    0.330    0.350    1.699   33.580
  552.750    0.321    0.352    1.700   34.217
  553.000    0.322    0.349    1.702   34.838
  553.250    0.329    0.345    1.703   35.470
  553.500    0.340    0.346    1.704   37.330
  553.750    0.334    0.351    1.705   39.186
  554.000    0.331    0.356    1.740   44.096
  554.250    0.331    0.356    1.775   54.520
  554.500    0.351    0.352    1.846   64.948
  554.750    0.348    0.350    1.995   76.596
  555.000    0.345    0.350    2.329   90.080
  555.250    0.279    0.356    2.617  102.340
  555.500    0.253    0.362    3.117  113.992
  555.750    0.247    0.369    3.241  112.788
  556.000    0.247    0.364    3.436  111.583
  556.250    0.252    0.360    3.440  110.991
  556.500    0.253    0.360    3.376  111.627
  556.750    0.249    0.360    3.251  112.254
  557.000    0.244    0.361    3.190  112.885
  557.250    0.243    0.361    2.955  112.297
  557.500    0.248    0.361    2.738  111.093
  557.750    0.257    0.362    2.586  111.112
  558.000    0.267    0.364    2.538  111.137
  558.250    0.292    0.356    2.491  111.146
  558.500    0.287    0.344    2.446  111.778
  558.750    0.285    0.346    2.400  112.409
  559.000    0.290    0.359    2.356  113.046
  559.250    0.306    0.372    2.313  111.229
  559.500    0.323    0.377    2.270  109.412
  559.750    0.327    0.379    2.228  108.825
  560.000    0.329    0.379    2.273  108.835
  560.250    0.334    0.377    2.364  109.476
  560.500    0.329    0.372    2.412  108.883
  560.750    0.290    0.364    2.414  108.903
  561.000    0.133    0.355    2.415  110.146
  561.250    0.033    0.348    2.417  111.390
  561.500    0.027    0.350    2.419  112.628
  561.750    0.027    0.353    2.420  112.648
  562.000    0.027    0.362    2.376  112.667
