~VERSION INFORMATION
 VERS.                 2.0:   CWLS LOG ASCII STANDARD -VERSION 2.0
 WRAP.                  NO:   ONE LINE PER DEPTH STEP
~WELL INFORMATION BLOCK
#MNEM.UNIT           DATA                    DESCRIPTION OF MNEMONIC
#---------    -------------------            -------------------------------
# Generated from Intellog Unique Number	CC_84_87/WELL/1171
NULL.         -999.25                        : NULL_VALUE
WELL.         ARCO ACI McMURRAY              : Well_name    - WELL              
LOC .         08-11-084-12W4                 : Location     - LOCATION          
UWI .         AA/08-11-084-12W400            : Uwi          - UNIQUE WELL ID    
ENTR.         RJA                            : Entered      - ENTERED BY        
SRVC.         SCHLUMBERGER                   : Scn          - SERVICE COMPANY   
DATE.         20 FEB 74                      : Date         - LOG DATE
STRT.M        91.44                          : top_depth    - START DEPTH       
STOP.M        321.259                        : bot_depth    - STOP DEPTH        
STEP.M        0.3048                         : increment    - STEP LENGTH       
~CURVE INFORMATION BLOCK
#MNEM UNIT       ERCB CURVE CODE    CURVE DESCRIPTION
#-----------   ------------------   ----------------------------------
DEPT.M        00 001 00 00         : DEPTH        - DEPTH                       
DPHI.V/V      00 890 00 00         : PHID         - DENSITY POROSITY (LIMESTONE)
GR  .API      00 310 00 00         : GR           - GAMMA RAY                   
NPHI.V/V      00 330 00 00         : PHIN         - NEUTRON POROSITY (LIMESTONE)
ILD .OHMM     00 120 00 00         : RESD         - DEEP RESISTIVITY (DIL)      
~PARAMETER INFORMATION       
#MNEM.UNIT           DATA             DESCRIPTION OF MNEMONIC
#---------         -----------     ------------------------------
GL  .M        567.69               : gl           - GROUND LEVEL ELEVATION      
EREF.M        569.366              : kb           - ELEVATION OF DEPTH REFERENCE
DATM.M        569.366              : datum        - DATUM ELEVATION             
TDD .M        321.564              : tdd          - TOTAL DEPTH DRILLER         
RUN .         ONE                  : Run          - RUN NUMBER                  
ENG .         BILL                 : Engineer     - RECORDING ENGINEER          
WIT .         JIM                  : Witness      - WITNESSED BY                
MUD .         GEL                  : Mud_type     - MUD TYPE                    
MATR.         LIMESTONE            : Logunit      - NEUTRON MATRIX              
TMAX.C        21.1111              : BHT          - MAXIMUM RECORDED TEMPERATURE
BHTD.M        321.564              : BHTDEP       - MAXIMUM RECORDED TEMPERATURE
MATR.         1                    : LOGUNIT      - NEUTRON MATRIX              
RMT .C        25                   : MDTP         - TEMPERATURE OF MUD          
NEUT.         0                    : NEUTRON      - NEUTRON TYPE                
RESI.         0                    : RESIST       - RESISTIVITY TYPE            
RMC .OHMM     0.25                 : RMC          - RESISTIVITY OF MUD CAKE     
RMF .OHMM     0.25                 : RMF          - RESISTIVITY OF MUD FILTRATE 
SUFT.C        4                    : SUFT         - SURFACE TEMPERATURE         
~A  DEPTH     PHID       GR     PHIN     RESD
   91.440    0.288  125.525    0.437    4.049
   91.745    0.274  125.879    0.402    4.170
   92.050    0.250  125.281    0.391    4.233
   92.354    0.248  124.861    0.423    4.173
   92.659    0.270  132.480    0.418    4.039
   92.964    0.282  129.201    0.432    3.852
   93.269    0.282  123.005    0.417    3.736
   93.574    0.285  123.359    0.434    3.609
   93.878    0.291  120.438    0.440    3.486
   94.183    0.306  127.045    0.463    3.313
   94.488    0.299  121.623    0.494    3.201
   94.793    0.288  118.940    0.505    3.086
   95.098    0.315  108.337    0.450    3.174
   95.402    0.318   90.470    0.404    4.424
   95.707    0.328   62.241    0.320    6.444
   96.012    0.278   37.704    0.310    8.837
   96.317    0.314   51.278    0.346   11.573
   96.622    0.330   65.805    0.352    9.709
   96.926    0.323   59.132    0.372    7.257
   97.231    0.341   80.447    0.404    4.949
   97.536    0.335  117.898    0.465    3.462
   97.841    0.311  134.509    0.482    2.915
   98.146    0.289  131.409    0.509    2.666
   98.450    0.302  126.881    0.512    2.628
   98.755    0.314  123.006    0.468    2.673
   99.060    0.310  122.706    0.488    2.856
   99.365    0.313  128.002    0.466    3.046
   99.670    0.301  126.808    0.459    3.304
   99.975    0.291  122.696    0.437    3.647
  100.279    0.291  118.167    0.440    3.793
  100.584    0.271  122.809    0.415    4.081
  100.889    0.280  128.343    0.445    4.160
  101.194    0.261  134.831    0.469    4.213
  101.498    0.267  132.207    0.470    4.263
  101.803    0.282  125.952    0.435    4.273
  102.108    0.271  123.269    0.416    4.312
  102.413    0.290  126.839    0.433    4.323
  102.718    0.266  126.180    0.455    4.107
  103.022    0.275  123.914    0.439    3.904
  103.327    0.291  127.126    0.431    3.648
  103.632    0.279  128.434    0.445    3.532
  103.937    0.279  125.572    0.455    3.578
  104.242    0.264  127.295    0.457    3.967
  104.546    0.261  125.743    0.461    4.373
  104.851    0.252  126.396    0.439    4.513
  105.156    0.249  125.261    0.438    4.456
  105.461    0.267  129.605    0.476    4.282
  105.766    0.280  129.244    0.446    4.143
  106.070    0.300  133.648    0.438    4.146
  106.375    0.267  133.704    0.439    4.207
  106.680    0.279  126.853    0.447    4.247
  106.985    0.278  120.835    0.408    4.328
  107.290    0.307  117.260    0.421    4.542
  107.595    0.281  116.363    0.380    5.457
  107.899    0.271  111.417    0.297    7.565
  108.204    0.259   91.287    0.313   10.468
  108.509    0.262   80.089    0.322   14.511
  108.814    0.339   78.776    0.336   17.408
  109.119    0.338   79.666    0.348   17.671
  109.423    0.363   75.852    0.315   17.072
  109.728    0.373   75.789    0.326   16.342
  110.033    0.295   78.167    0.323   15.077
  110.338    0.260   84.357    0.353   13.464
  110.643    0.249   91.023    0.381   11.995
  110.947    0.271   98.344    0.362   11.404
  111.252    0.284   94.947    0.357   10.756
  111.557    0.290  100.303    0.359   10.507
  111.862    0.269  100.002    0.349   10.356
  112.167    0.283   99.999    0.374   10.306
  112.471    0.297  100.591    0.375   10.516
  112.776    0.283   94.871    0.361   11.034
  113.081    0.297   99.869    0.363   11.727
  113.386    0.299  102.308    0.349   11.707
  113.691    0.295   91.646    0.358   11.758
  113.995    0.298   87.950    0.364   12.842
  114.300    0.308   82.767    0.354   14.288
  114.605    0.309   65.495    0.351   16.074
  114.910    0.348   73.650    0.362   17.622
  115.215    0.350   85.616    0.388   16.233
  115.519    0.321   96.688    0.379   14.496
  115.824    0.302   81.917    0.402   13.251
  116.129    0.328   71.791    0.475   13.089
  116.434    0.390   77.504    0.350   14.065
  116.739    0.408   69.938    0.333   18.283
  117.043    0.367   64.576    0.337   23.044
  117.348    0.342   58.200    0.354   28.933
  117.653    0.344   54.327    0.365   32.965
  117.958    0.349   51.168    0.349   33.891
  118.263    0.352   57.596    0.349   29.707
  118.567    0.358   60.035    0.356   26.680
  118.872    0.360   67.713    0.361   24.172
  119.177    0.353   82.358    0.400   22.065
  119.482    0.342   94.384    0.403   20.738
  119.787    0.338   89.319    0.376   20.073
  120.091    0.327   86.695    0.349   22.086
  120.396    0.322   85.204    0.341   25.817
  120.701    0.330   67.336    0.356   30.073
  121.006    0.340   63.582    0.339   32.372
  121.311    0.334   57.564    0.352   31.506
  121.615    0.339   49.045    0.340   27.265
  121.920    0.336   64.346    0.365   23.087
  122.225    0.318   80.837    0.389   16.605
  122.530    0.312  104.117    0.387   11.661
  122.835    0.257  132.101    0.347    9.377
  123.139    0.226  130.967    0.331    8.816
  123.444    0.240  130.368    0.333    8.657
  123.749    0.245  129.829    0.372    8.755
  124.054    0.239  128.872    0.354    8.889
  124.359    0.230  127.857    0.335    9.138
  124.663    0.231  126.901    0.341    9.572
  124.968    0.255  117.013    0.333   11.147
  125.273    0.268  100.098    0.349   13.393
  125.578    0.291   93.367    0.351   15.292
  125.883    0.300   90.326    0.356   16.011
  126.187    0.316   97.171    0.365   16.020
  126.492    0.303   99.907    0.356   15.217
  126.797    0.302  113.778    0.348   14.843
  127.102    0.296  124.791    0.347   14.281
  127.407    0.292  123.776    0.354   13.952
  127.711    0.284  116.865    0.384   13.601
  128.016    0.283  114.539    0.364   13.461
  128.321    0.289  114.179    0.340   13.343
  128.626    0.285  104.291    0.355   13.348
  128.931    0.287  114.232    0.381   13.624
  129.235    0.288  117.146    0.370   14.238
  129.540    0.297  104.698    0.364   15.302
  129.845    0.319   90.284    0.394   17.823
  130.150    0.350   79.741    0.391   20.086
  130.455    0.371   72.176    0.379   20.801
  130.759    0.365   75.864    0.403   21.233
  131.064    0.354   77.826    0.390   21.872
  131.369    0.360   72.225    0.387   22.413
  131.674    0.375   65.731    0.373   23.169
  131.979    0.373   59.475    0.401   22.926
  132.283    0.365   67.631    0.378   21.947
  132.588    0.372   94.364    0.362   19.595
  132.893    0.346  105.854    0.369   18.045
  133.198    0.315  108.292    0.364   17.186
  133.503    0.300  112.814    0.380   16.031
  133.807    0.313  115.967    0.387   14.687
  134.112    0.314  113.463    0.402   13.090
  134.417    0.310  121.201    0.403   11.711
  134.722    0.275  126.557    0.364   10.572
  135.027    0.279  136.260    0.353    9.509
  135.331    0.277  146.380    0.376    8.380
  135.636    0.253  140.481    0.407    7.510
  135.941    0.225  140.478    0.417    6.670
  136.246    0.228  146.072    0.390    5.954
  136.550    0.209  147.855    0.393    5.764
  136.855    0.209  146.363    0.399    5.958
  137.160    0.215  137.904    0.400    6.195
  137.465    0.201  132.601    0.397    6.266
  137.770    0.191  143.257    0.426    5.782
  138.074    0.211  151.531    0.427    4.931
  138.379    0.238  154.743    0.443    4.388
  138.684    0.258  157.122    0.442    4.005
  138.989    0.256  157.417    0.466    3.876
  139.294    0.268  147.171    0.475    4.598
  139.598    0.305  132.102    0.456    8.223
  139.903    0.327  120.070    0.418   13.694
  140.208    0.355  116.852    0.381   18.369
  140.513    0.370  125.424    0.403   17.327
  140.818    0.348  105.234    0.360   16.109
  141.122    0.333  103.802    0.363   15.618
  141.427    0.320  120.888    0.376   15.397
  141.732    0.298  130.175    0.366   15.314
  142.037    0.287  131.243    0.371   14.987
  142.342    0.293  119.390    0.384   13.910
  142.646    0.314  114.504    0.380   12.374
  142.951    0.309  130.459    0.379   10.671
  143.256    0.287  157.848    0.364    8.581
  143.561    0.265  147.543    0.377    7.621
  143.866    0.256  134.379    0.388    8.941
  144.170    0.293  128.600    0.370   11.393
