~VERSION INFORMATION
 VERS.                 2.0:   CWLS LOG ASCII STANDARD -VERSION 2.0
 WRAP.                  NO:   ONE LINE PER DEPTH STEP
~WELL INFORMATION BLOCK
#MNEM.UNIT           DATA                    DESCRIPTION OF MNEMONIC
#---------    -------------------            -------------------------------
# Generated from Intellog Unique Number	CC_80_83/WELL/2325
NULL.         -999.25                        : NULL_VALUE
WELL.         ARCO ACI McMURRAY              : Well_name    - WELL              
LOC .         09-29-083-12W4                 : Location     - LOCATION          
UWI .         AA/09-29-083-12W400            : Uwi          - UNIQUE WELL ID    
ENTR.         RJA                            : Entered      - ENTERED BY        
SRVC.         SCHLUMBERGER                   : Scn          - SERVICE COMPANY   
DATE.         15 FEB 74                      : Date         - LOG DATE
STRT.M        85.344                         : top_depth    - START DEPTH       
STOP.M        329.184                        : bot_depth    - STOP DEPTH        
STEP.M        0.3048                         : increment    - STEP LENGTH       
~CURVE INFORMATION BLOCK
#MNEM UNIT       ERCB CURVE CODE    CURVE DESCRIPTION
#-----------   ------------------   ----------------------------------
DEPT.M        00 001 00 00         : DEPTH        - DEPTH                       
DPHI.V/V      00 890 00 00         : PHID         - DENSITY POROSITY (LIMESTONE)
GR  .API      00 310 00 00         : GR           - GAMMA RAY                   
NPHI.V/V      00 330 00 00         : PHIN         - NEUTRON POROSITY (LIMESTONE)
ILD .OHMM     00 120 00 00         : RESD         - DEEP RESISTIVITY (DIL)      
~PARAMETER INFORMATION       
#MNEM.UNIT           DATA             DESCRIPTION OF MNEMONIC
#---------         -----------     ------------------------------
GL  .M        566.227              : gl           - GROUND LEVEL ELEVATION      
EREF.M        567.903              : kb           - ELEVATION OF DEPTH REFERENCE
DATM.M        567.903              : datum        - DATUM ELEVATION             
TDD .M        332.232              : tdd          - TOTAL DEPTH DRILLER         
RUN .         ONE                  : Run          - RUN NUMBER                  
ENG .         BILL                 : Engineer     - RECORDING ENGINEER          
WIT .         JIM                  : Witness      - WITNESSED BY                
MUD .         GEL                  : Mud_type     - MUD TYPE                    
MATR.         LIMESTONE            : Logunit      - NEUTRON MATRIX              
TMAX.C        18.3333              : BHT          - MAXIMUM RECORDED TEMPERATURE
BHTD.M        332.232              : BHTDEP       - MAXIMUM RECORDED TEMPERATURE
MATR.         1                    : LOGUNIT      - NEUTRON MATRIX              
RMT .C        25                   : MDTP         - TEMPERATURE OF MUD          
NEUT.         1                    : NEUTRON      - NEUTRON TYPE                
RESI.         0                    : RESIST       - RESISTIVITY TYPE            
RMC .OHMM     0.25                 : RMC          - RESISTIVITY OF MUD CAKE     
RMF .OHMM     0.25                 : RMF          - RESISTIVITY OF MUD FILTRATE 
SUFT.C        4                    : SUFT         - SURFACE TEMPERATURE         
~A  DEPTH     PHID       GR     PHIN     RESD
# ...
  138.379    0.238  102.741    0.461    4.715
  138.684    0.225  103.913    0.453    4.804
  138.989    0.224   97.815    0.448    4.894
  139.294    0.187   97.779    0.428    5.176
  139.598    0.197  106.854    0.433    5.372
  139.903    0.236  108.030    0.436    5.272
  140.208    0.271  109.808    0.416    5.079
  140.513    0.295  111.002    0.437    4.213
  140.818    0.316  112.787    0.453    3.766
  141.122    0.334  106.071    0.484    3.560
  141.427    0.359   96.930    0.526    3.429
  141.732    0.373   92.649    0.540    3.836
  142.037    0.382   82.892    0.551    5.076
  142.342    0.361   79.213    0.453    6.973
  142.646    0.327   83.434    0.410    9.578
  142.951    0.306   89.473    0.403   12.914
  143.256    0.290   90.046    0.391   14.444
  143.561    0.295   85.766    0.398   13.913
  143.866    0.306   77.820    0.398   13.154
  144.170    0.321   77.196    0.388   12.436
  144.475    0.316   82.625    0.399   12.204
  144.780    0.297  112.344    0.421   11.325
  145.085    0.253  112.914    0.406    9.571
  145.390    0.243  107.420    0.393    8.089
  145.694    0.268   93.420    0.382    7.231
  145.999    0.297   86.097    0.410    7.938
  146.304    0.321   90.912    0.391    9.932
  146.609    0.317   97.568    0.380   11.319
  146.914    0.318   99.348    0.389   12.660
  147.218    0.297   95.674    0.395   13.898
  147.523    0.279   85.922    0.408   13.897
  147.828    0.295   82.245    0.406   12.656
  148.133    0.288   81.606    0.383   12.191
  148.437    0.272   79.142    0.353   11.743
  148.742    0.288   66.968    0.347   11.311
  149.047    0.298   67.527    0.390   11.310
  149.352    0.266   74.179    0.394   11.309
  149.657    0.276   82.040    0.370   11.099
  149.961    0.283   81.397    0.363   10.493
  150.266    0.280   82.583    0.352    9.556
  150.571    0.277   82.550    0.361    8.703
  150.876    0.302   62.468    0.358    8.703
  151.181    0.329   57.576    0.367    9.377
  151.485    0.338   59.358    0.397   10.488
  151.790    0.336   65.404    0.405   11.514
  152.095    0.323   71.442    0.401   11.951
  152.400    0.320   70.808    0.413   11.299
  152.705    0.316   66.508    0.412   10.682
  153.009    0.317   64.663    0.397    9.912
  153.314    0.301   67.059    0.413    9.027
  153.619    0.307   73.098    0.414    8.377
  153.924    0.277   83.989    0.383    8.068
  154.229    0.243   95.496    0.405    7.772
  154.533    0.235  103.354    0.425    7.212
  154.838    0.241  109.995    0.412    6.568
  155.143    0.232  109.969    0.385    5.871
  155.448    0.254  111.755    0.369    5.448
  155.753    0.260  113.537    0.406    5.150
  156.057    0.253  108.040    0.399    5.055
  156.362    0.258   99.505    0.413    5.549
  156.667    0.276   92.794    0.419    6.324
  156.972    0.301   86.687    0.430    7.207
  157.277    0.321   83.598    0.424    8.213
  157.581    0.302   83.576    0.455    9.016
  157.886    0.285   82.942    0.440    9.898
  158.191    0.293   87.754    0.413   10.274
  158.496    0.287   90.767    0.416    9.896
  158.800    0.288   92.555    0.418    9.013
  159.105    0.278   97.372    0.416    8.208
  159.410    0.287   99.155    0.438    8.056
  159.715    0.303   99.132    0.463    8.680
  160.020    0.312   94.242    0.478    9.180
  160.324    0.323   94.809    0.412   10.461
  160.629    0.308   94.772    0.398   11.063
  160.934    0.307   91.102    0.410   11.483
  161.239    0.311   87.426    0.426   11.699
  161.544    0.320   91.025    0.387   11.268
  161.848    0.306   88.570    0.389   10.854
  162.153    0.287   84.284    0.401   10.854
  162.458    0.296   76.955    0.372   11.057
  162.763    0.307   69.643    0.389   11.477
  163.068    0.311   62.315    0.421   12.366
  163.372    0.319   67.132    0.427   13.832
  163.677    0.327   66.500    0.414   14.357
  163.982    0.315   64.651    0.423   14.356
  164.287    0.321   63.399    0.412   14.355
  164.592    0.335   60.934    0.393   14.088
  164.896    0.362   64.539    0.378   13.570
  165.201    0.372   68.153    0.402   13.071
  165.506    0.360   70.547    0.431   12.828
  165.811    0.344   74.759    0.443   11.903
  166.116    0.333   77.163    0.426   11.466
  166.420    0.320   74.698    0.398   10.840
  166.725    0.313   79.522    0.405   10.248
  167.030    0.302   83.124    0.391    9.688
  167.335    0.317   95.238    0.410    8.990
  167.640    0.277  101.886    0.424    8.188
  167.944    0.254   96.988    0.403    6.666
  168.249    0.243   93.319    0.415    6.186
  168.554    0.255   95.106    0.397    5.633
  168.859    0.256   97.498    0.411    5.227
  169.163    0.227   96.848    0.430    5.227
  169.468    0.233  101.075    0.452    5.226
  169.773    0.254  108.328    0.452    5.226
  170.078    0.259  107.071    0.465    5.225
  170.383    0.240   99.149    0.482    5.323
  170.687    0.248  100.936    0.465    5.323
  170.992    0.235  104.546    0.468    5.322
  171.297    0.236  106.931    0.460    5.422
  171.602    0.226  109.940    0.431    5.422
  171.907    0.212  110.508    0.420    5.421
  172.211    0.218  112.305    0.412    5.421
  172.516    0.236  106.195    0.425    5.320
  172.821    0.249   99.477    0.445    5.030
  173.126    0.260  105.519    0.473    4.936
  173.431    0.264   98.805    0.473    4.936
  173.735    0.283   92.090    0.449    5.028
  174.040    0.314   92.059    0.488    5.028
  174.345    0.348   95.666    0.547    4.843
  174.650    0.313   89.559    0.580    4.753
  174.955    0.360   80.412    0.565    4.842
  175.259    0.403   81.591    0.530    4.933
  175.564    0.329   81.564    0.470    5.120
  175.869    0.351   74.241    0.401    5.517
  176.174    0.390   65.097    0.453    6.287
  176.479    0.407   60.810    0.386    7.438
  176.783    0.367   60.175    0.327    8.636
  177.088    0.352   60.740    0.397   10.806
  177.393    0.352   58.279    0.435   12.086
  177.698    0.359   55.821    0.429   13.023
  178.003    0.364   55.182    0.430   12.544
  178.307    0.360   52.106    0.456   12.083
  178.612    0.364   50.256    0.437   11.639
  178.917    0.359   52.031    0.425   11.638
  179.222    0.346   56.868    0.409   11.636
  179.527    0.340   55.613    0.436   11.420
  179.831    0.344   58.005    0.445   11.419
  180.136    0.352   60.407    0.424   11.418
  180.441    0.360   57.941    0.408   11.417
  180.746    0.351   57.304    0.414   11.850
  181.050    0.348   59.699    0.407   12.073
  181.355    0.346   59.049    0.416   12.300
  181.660    0.347   55.983    0.411   12.299
  181.965    0.350   55.953    0.405   12.297
  182.270    0.352   59.556    0.423   12.528
  182.574    0.352   60.734    0.425   12.763
  182.879    0.335   64.341    0.400   12.762
  183.184    0.327   64.924    0.391   12.761
  183.489    0.347   60.639    0.408   12.292
  183.794    0.343   66.678    0.427   12.063
  184.098    0.335   66.636    0.449   11.405
  184.403    0.347   58.712    0.400   10.782
  184.708    0.353   59.280    0.398   10.582
  185.013    0.302   62.889    0.424   10.581
  185.318    0.298   64.686    0.422   10.983
  185.622    0.339   65.253    0.404   11.833
  185.927    0.350   63.389    0.396   11.833
  186.232    0.348   62.145    0.405   11.831
  186.537    0.354   62.723    0.420   11.612
  186.842    0.347   63.900    0.412   11.395
  187.146    0.336   62.050    0.410   11.183
  187.451    0.337   62.613    0.417   11.182
  187.756    0.344   63.194    0.426   11.181
  188.061    0.348   64.375    0.422   11.392
  188.366    0.348   66.148    0.425   11.391
  188.670    0.346   68.549    0.423   11.178
  188.975    0.328   71.559    0.427   10.767
  189.280    0.322   67.270    0.425   10.567
  189.585    0.333   68.449    0.425   10.371
  189.890    0.341   61.131    0.420   10.370
  190.194    0.336   63.530    0.429   10.565
  190.499    0.330   66.525    0.442   11.383
  190.804    0.330   62.846    0.443   11.815
  191.109    0.296   60.999    0.437   12.264
