~Version : LASO    vs 4.00
VERS.                2.00:   CWLS Log ASCII Standard -VERSION 2.0
WRAP.                  NO:
~Well Information Block
#MNEM.UNIT       Data                        Description of Mnemonic
#----.----      -------------------------- : -----------------------------
COMP.                                     : COMPANY
FLD .    WILDCAT                          : FIELD NAME
LOC .    02-32-090-08W4                   : WELL LOCATION
UWI .    AA/02-32-090-08W400              : UNIQUE WELL ID
STRT.M             0.0000:
STOP.M           201.3750:
STEP.M             0.1250:
NULL.           -999.2500:
COMP.  :COMPANY
WELL.  MOBIL CLARKE OV 2-32:WELL
FLD.   :FIELD
LOC.   :LOCATION
CTRY.  :COUNTRY
PROV.  ALBERTA:PROVINCE
SRVC.  DRESSER ATLAS:SERVICE COMPANY
DATE.  17-FEB-81:LOG DATE
UWI.   :UNIQUE WELL ID
~Parameter Information Block
#MNEM.UNIT       Data                        Description of Mnemonic
#----.----      -------------------------- : -----------------------------
RUN .                   1                 : Run Number
GL  .M           431.8000                 : Ground Level Elevation
DREF.                  KB                 : Depth Reference
EREF.M           431.8000                 : Elevation of Depth Reference
TDL .M           202.0000                 : Total Depth Logger
TDD .M           201.6000                 : Total Depth Driller
BHT .DEGC         20.0000                 : Bottom Hole Temperature
BS  .MM          159.0000                 : Bit Size
DFD .             10.3000                 : Mud Weight (Density)
DFV .             85.0000                 : Mud Viscosity
DFPH.             10.0000                 : Mud pH
RM  .OHMM          4.9000                 : Mud Resistivity
RMT .DEGC         20.0000                 : Mud Resistivity Temperature
RMF .OHMM          4.7000                 : Mud Filtrate Resistivity
RMFT.DEGC         10.0000                 : RMF Temperature
RMC .OHMM          9.5000                 : Mud Cake Resistivity
RMCT.DEGC         10.0000                 : RMC Temperature
~Curve Information Block
#MNEM.UNIT        API CODE    Curve Description
#---------    ------------    -------------------------------------------
DEPT.M                    :   DEPTH
CALI.MM       42 280  1  1:   3 DENSITY CALIPER
DPHI.V/V                  :   DPHI
DT  .US/M     60 520 42  1:   2 SONIC INTERVAL TRANSIT TIME (COMPENSATED)
GR  .GAPI     42 310  1  1:   4 GAMMA RAY
IL  .OHMM      5 120 45  1:   7 INDUCTION
NPHI.V/V      42 890  3  1:   5 NEUTRON POROSITY (SANDSTONE)
RHOB.K/M3     42 350  1  1:   6 BULK DENSITY
SFL .OHMM      5 220  6  1:   8 FOCUSSED RESISTIVITY
SP  .MV        5  10  1  1:   9 SPONTANEOUS POTENTIAL
~A  Depth           CALI        DPHI          DT          GR          IL        NPHI        RHOB         SFL          SP
# ...
159.1250        159.5750      0.2143    424.2800    101.2200     11.6600      0.3663   2280.3000     17.6800    -36.6700
159.2500        159.5750      0.2139    430.6400     99.0300     11.6600      0.3579   2286.3000     17.3700    -37.0400
159.3750        159.5500      0.2129    435.3200     95.5500     11.5350      0.3577   2290.8999     16.8800    -37.7900
159.5000        159.5500      0.2109    434.0800     92.5200     11.3550      0.3647   2292.6001     17.1250    -37.7900
159.6250        159.5500      0.2087    432.8800     93.3300     11.2900      0.3600   2294.2000     19.2100    -38.4100
159.7500        159.5250      0.2071    430.9200     93.7650     11.2300      0.3574   2307.5000     19.8850    -40.2800
159.8750        159.5250      0.2051    407.6000     95.9550     11.1100      0.3504   2319.3000     18.2900    -40.4000
160.0000        159.5250      0.2027    395.8000     94.1550     11.1100      0.3473   2312.0000     15.5950    -37.9100
160.1250        160.3000      0.2037    433.6000     92.7450     11.1100      0.3509   2303.3999     14.6750    -35.7900
160.2500        159.5000      0.2060    436.8000     95.0850     11.0450      0.3482   2296.5000     14.8000    -34.1800
160.3750        158.8250      0.2076    417.6400     99.9000     10.9850      0.3487   2288.2000     15.6550    -35.0500
160.5000        158.8500      0.2085    386.4800    103.4850     10.8600      0.3461   2286.7000     16.1450    -36.5400
160.6250        161.3000      0.2086    385.0000    101.7450     10.9250      0.3394   2289.1001     16.0850    -38.1600
160.7500        162.4750      0.2096    436.8000    102.8850     10.9250      0.3369   2294.8999     16.7000    -39.4100
160.8750        161.7000      0.2104    437.7600    102.1500     10.9850      0.3304   2296.5000     17.4950    -42.0200
161.0000        161.4500      0.2109    439.2400    100.9050     11.0450      0.3262   2298.2000     18.4150    -44.0200
161.1250        161.4250      0.2116    440.9600     99.2550     11.1700      0.3277   2292.3999     18.3500    -44.5100
161.2500        161.4250      0.2130    441.2000     96.3750     11.2300      0.3376   2289.0000     16.8800    -45.2600
161.3750        160.6750      0.2163    456.4400     93.2850     11.2300      0.3357   2285.7000     14.6750    -39.5300
161.5000        158.6000      0.2198    440.2400     93.7200     11.2300      0.3320   2269.6001     14.6750    -38.5300
161.6250        158.4000      0.2214    423.0400     95.9850     11.2300      0.3386   2262.8000     16.8200    -40.4000
161.7500        159.4000      0.2227    417.6400     94.8750     11.1100      0.3448   2257.0000     18.3500    -45.7600
161.8750        159.3750      0.2249    416.9200     92.6250     11.1100      0.3472   2252.6001     18.9650    -48.6200
162.0000        159.3750      0.2263    416.6800     92.6250     11.0450      0.3448   2253.6001     19.3350    -49.9900
162.1250        159.3750      0.2284    420.8400     92.0700     10.9850      0.3500   2255.8000     19.2700    -50.7400
162.2500        158.2250      0.2308    425.2800     91.4100     10.8600      0.3494   2257.8999     18.2300    -49.1200
162.3750        156.3500      0.2313    443.9200     94.3500     10.8000      0.3481   2252.8000     16.7000    -46.7600
162.5000        156.6000      0.2314    443.9200     94.0950     10.6800      0.3460   2249.3999     16.6350    -45.5100
162.6250        158.6250      0.2323    434.0800     95.0100     10.5550      0.3490   2248.6001     16.5150    -45.5100
162.7500        159.3250      0.2331    431.1600     94.4400     10.4350      0.3580   2250.8000     16.9450    -45.7600
162.8750        159.3250      0.2339    436.0400     94.8900     10.3700      0.3542   2254.8000     15.9000    -45.7600
163.0000        159.3000      0.2347    441.2000     93.2250     10.3700      0.3497   2262.5000     15.4100    -46.0100
163.1250        159.3000      0.2349    445.1200     90.7800     10.3100      0.3497   2262.5000     16.2700    -47.5000
163.2500        159.5750      0.2350    473.1200     93.1650     10.3100      0.3536   2242.3000     18.4150    -50.1200
163.3750        160.6000      0.2350    530.5200     92.1600     10.3700      0.3452   2228.5000     19.6400    -51.4900
163.5000        161.2750      0.2358    509.9200     89.9100     10.4950      0.3464   2226.0000     19.2100    -51.3600
163.6250        160.9000      0.2385    469.6800     87.4650     10.7400      0.3481   2225.7000     17.4950    -51.1100
163.7500        159.4750      0.2423    438.2800     86.6850     10.8000      0.3437   2221.6001     16.6350    -50.9900
163.8750        158.3250      0.2557    429.2000     83.4150     10.9250      0.3415   2196.0000     17.1900    -52.4900
164.0000        158.2250      0.2642    425.0000     80.9250     10.9250      0.3433   2191.0000     19.5800    -56.1000
164.1250        159.2250      0.2710    418.6400     79.1100     10.9250      0.3487   2179.8000     21.9050    -59.3400
164.2500        159.2250      0.2765    397.7600     78.7350     10.9850      0.3376   2171.8999     23.3750    -55.4700
164.3750        161.2000      0.2798    390.4000     80.3400     11.1100      0.3344   2181.8000     22.0900    -54.3500
164.5000        162.1000      0.2808    429.2000     82.7850     11.3550      0.3376   2187.7000     19.0900    -52.4900
164.6250        161.2000      0.2764    431.8800     84.0450     11.6000      0.3392   2194.3999     15.4100    -50.1200
164.7500        161.1750      0.2764    431.1600     82.3050     11.8450      0.3395   2196.1001     14.3100    -47.8800
164.8750        160.5250      0.2799    428.6800     79.2600     12.3950      0.3509   2192.3000     17.2500    -48.6200
165.0000        160.1750      0.2872    423.8000     80.0400     13.1950      0.3589   2169.7000     20.1900    -53.1100
165.1250        160.1500      0.2921    413.0000     82.9950     14.2350      0.3646   2150.3999     20.1300    -55.6000
165.2500        160.1500      0.2982    408.5600     80.0700     15.4650      0.3593   2144.3999     20.1900    -55.1000
165.3750        160.1250      0.3031    429.4400     74.7150     17.1800      0.3503   2133.2000     28.0950    -55.6000
165.5000        160.1250      0.3088    447.8400     68.6100     19.0200      0.3469   2136.3000     43.0450    -56.7200
165.6250        160.1250      0.3157    483.1600     64.3200     20.9850      0.3470   2131.2000     64.1000    -54.3500
165.7500        160.1000      0.3212    434.8400     61.8450     23.2550      0.3490   2120.6001     80.9000    -50.7400
165.8750        160.4500      0.3238    419.6000     56.5950     26.1400      0.3442   2104.7000     81.1500    -48.1300
166.0000        159.5500      0.3251    417.6400     54.8700     29.3900      0.3438   2095.3999     98.0500    -45.1400
166.1250        158.5000      0.3239    414.9600     53.6250     31.6600      0.3488   2102.3999     80.9000    -43.3900
166.2500        159.5250      0.3204    403.6800     53.4450     33.3750      0.3585   2108.6001     48.3150    -42.4000
166.3750        160.3750      0.3202    409.0800     50.6400     33.8050      0.3616   2113.5000     47.5200    -41.5200
166.5000        161.0500      0.3223    439.0000     46.0800     32.8850      0.3595   2117.0000    118.4000    -41.7700
166.6250        162.0500      0.3214    418.8800     43.8450     31.5350      0.3628   2116.2000    277.1000    -42.1500
166.7500        161.6750      0.3192    428.4400     45.0450     31.1100      0.3608   2109.3999    639.9999    -42.5200
166.8750        161.0250      0.3209    495.4400     46.8900     31.2300      0.3649   2098.2000    839.4999    -43.2700
167.0000        160.9500      0.3232    450.2800     48.6150     30.9850      0.3646   2110.3000     67.9500    -42.1500
167.1250        160.2500      0.3216    457.4000     45.4950     30.4350      0.3647   2117.0000     37.7750    -40.7800
167.2500        159.3500      0.3213    481.2000     44.2650     29.2650      0.3575   2120.6001     48.4400    -40.4000
167.3750        159.0000      0.3221    425.7600     44.0550     28.0400      0.3563   2120.7000     77.9999    -40.6500
