~Version : LASO    vs 4.00
VERS.                2.00:   CWLS Log ASCII Standard -VERSION 2.0
WRAP.                  NO:
~Well Information Block
#MNEM.UNIT       Data                        Description of Mnemonic
#----.----      -------------------------- : -----------------------------
STRT.M            11.0000:
STOP.M           176.0000:
STEP.M             0.1000:
NULL.           -999.2500:
COMP.  MOBIL OIL CANADA LTD.  :COMPANY
WELL.  MOBIL CLARKE OV 5-32   :WELL
FLD.   CLARKE                 :FIELD
LOC.   05-32-089-08W4         :LOCATION
CTRY.  CANADA                 :COUNTRY
PROV.  ALBERTA                :PROVINCE
SRVC.  SCHLUMBERGER           :SERVICE COMPANY
DATE.  04-MAR-81              :LOG DATE
UWI.   AA/05-32-089-08W400    :UNIQUE WELL ID
~Parameter Information Block
#MNEM.UNIT       Data                        Description of Mnemonic
#----.----      -------------------------- : -----------------------------
RUN .                   1                 : Run Number
GL  .M           391.1000                 : Ground Level Elevation
DREF.                  KB                 : Depth Reference
EREF.M           394.5000                 : Elevation of Depth Reference
TDL .M           176.5000                 : Total Depth Logger
TDD .M           174.0000                 : Total Depth Driller
CSGL.M            16.0000                 : Casing Bottom Logger
CSGD.M            14.6000                 : Casing Bottom Driller
CSGS.MM          219.0000                 : Casing Size
CSGW.KG/M          0.0000                 : Casing Weight
BHT .DEGC         23.0000                 : Bottom Hole Temperature
BS  .MM          159.0000                 : Bit Size
DFD .           1110.0000                 : Mud Weight (Density)
DFV .             90.0000                 : Mud Viscosity
DFPH.             10.0000                 : Mud pH
RM  .OHMM          1.9600                 : Mud Resistivity
RMT .DEGC         20.0000                 : Mud Resistivity Temperature
~Curve Information Block
#MNEM.UNIT        API CODE    Curve Description
#---------    ------------    -------------------------------------------
DEPT.M                    :   DEPTH
CALI.MM       42 280  1  1:   3 DENSITY CALIPER
DPHI.V/V                  :   DPHI
DT  .US/M     60 520  0  1:   2 SONIC INTERVAL TRANSIT TIME (COMPENSATED)
GR  .GAPI     42 310  1  1:   4 GAMMA RAY
ILD .OHMM      5 120 46  1:   6 DEEP INDUCTION
ILM .OHMM      5 120 44  1:   7 MEDIUM INDUCTION
NPHI.V/V                  :   NPHI
RHOB.K/M3     42 350  1  1:   5 BULK DENSITY
SFLU.OHMM      5 220  1  1:   8 FOCUSSED RESISTIVITY
SP  .MV        5  10  1  1:   9 SPONTANEOUS POTENTIAL
~A  Depth           CALI        DPHI          DT          GR         ILD         ILM        NPHI        RHOB        SFLU          SP
# ...
17.1000         185.1250      0.1926    378.3600     71.0100   1137.1818      9.1165      0.3436   2460.0000      1.5270    -68.2500
17.2000         191.5000      0.1890    401.8800     69.3600      1.8528 100000.0000      0.3506   2317.0000     71.7513    -76.7550
17.3000         191.5000      0.2009    419.4400     69.3600      1.8528 100000.0000      0.3560   2317.0000     71.7513    -76.7550
17.4000         203.0000      0.2120    419.7200     73.5300      1.3299     13.5466      0.3622   2304.0000     42.4453    -78.7500
17.5000         203.0000      0.2485    218.8400     78.1650      1.3299     13.5466      0.3690   2304.0000     42.4453    -78.7500
17.6000         208.0750      0.2609    125.1200     82.4400      4.7406      3.9795      0.3755   2342.0000     44.8570    -80.7600
17.7000         208.0750      0.2700    128.0400     86.5500      4.7406      3.9795      0.3805   2342.0000     44.8570    -80.7600
17.8000         200.4250      0.2851    242.2800     90.6600    409.1004     40.5350      0.3874   2285.8999     65.4380    -84.2550
17.9000         200.4250      0.2986    297.4000     93.5100    409.1004     40.5350      0.3936   2285.8999     65.4380    -84.2550
18.0000         205.5250      0.3276    330.4800     95.2950  29636.7012     19.7620      0.4132   2253.0000     61.3522    -85.2600
18.1000         205.5250      0.3467     98.8800     96.5550  29636.7012     19.7620      0.4421   2253.0000     61.3522    -85.2600
18.2000         195.3250      0.3627    166.9200     95.3100 100000.0000     27.2791      0.5135   2223.0000     47.4056    -85.5000
18.3000         195.3250      0.3912    206.2400     92.7000 100000.0000     27.2791      0.5310   2223.0000     47.4056    -85.5000
18.4000         197.8750      0.3976    225.2800     88.8150     15.4110     20.1294      0.5542   2054.0000     13.1774    -85.2600
18.5000         197.8750      0.3991    237.4800     85.3650     15.4110     20.1294      0.5653   2054.0000     13.1774    -85.2600
18.6000         200.4250      0.4005    248.4800     82.2150     14.3163     13.2993      0.5678   1992.0000     10.1819    -85.7550
18.7000         200.4250      0.4015    253.5600     79.0650     14.3163     13.2993      0.5638   1992.0000     10.1819    -85.7550
18.8000         196.6250      0.4030    253.5600     75.6750     16.1373     11.3718      0.5586   1979.0000      9.7237    -87.0000
18.9000         196.6250      0.4040    186.7200     72.0600     16.1373     11.3718      0.5514   1979.0000      9.7237    -87.0000
19.0000         185.1250      0.4043    155.4800     69.9750     17.3712   2207.1401      0.5460   1977.0000     14.1850    -91.0050
19.1000         185.1250      0.4043    124.2400     69.0000     17.3712   2207.1401      0.5438   1977.0000     14.1850    -91.0050
19.2000         185.1250      0.4193    100.0000     68.7000     18.6995   3906.8782      0.5489   1978.0000     25.3414    -93.0000
19.3000         185.1250      0.4285    100.0000     68.4150     18.6995   3906.8782      0.5531   1978.0000     25.3414    -93.0000
19.4000         185.1250      0.4376    108.3200     68.7450     23.7591     26.5357      0.5595   1978.0000     32.4960    -95.0100
19.5000         185.1250      0.4450    165.3200     69.0600     23.7591     26.5357      0.5641   1978.0000     32.4960    -95.0100
19.6000         182.5750      0.4533    260.2400     66.4800     87.8678     23.7591      0.5632   1979.0000     36.6294    -96.5100
19.7000         182.5750      0.4607    346.4000     63.6150     87.8678     23.7591      0.5605   1979.0000     36.6294    -96.5100
19.8000         181.3000      0.4680    403.2400     60.0150     36.2936     25.8125      0.5537   1940.0000     34.6601    -97.7550
19.9000         181.3000      0.4753    447.5200     56.1150     36.2936     25.8125      0.5403   1940.0000     34.6601    -97.7550
20.0000         181.3000      0.4771    482.9200     52.7250     34.6601     25.8125      0.5002   1900.0000     32.1981    -98.0100
20.1000         181.3000      0.4672    442.8000     50.5350     34.6601     25.8125      0.4716   1900.0000     32.1981    -98.0100
20.2000         181.3000      0.4164    416.0800     48.6750     33.4064     27.0290      0.4511   1867.0000     27.7863    -98.7600
20.3000         181.3000      0.3900    353.5600     46.9950     33.4064     27.0290      0.4427   1867.0000     27.7863    -98.7600
20.4000         146.8750      0.3918    257.0000     48.4950     36.2936     40.9100      0.4376   1850.0000     22.6898   -100.2600
20.5000         146.8750      0.3957    500.2400     50.1600     36.2936     40.9100      0.4317   1850.0000     22.6898   -100.2600
20.6000         152.0000      0.3978    564.6400     51.4650     44.8570     48.7338      0.4269   1914.0000     30.4670   -102.2550
20.7000         152.0000      0.3951    580.6800     52.4250     44.8570     48.7338      0.4287   1914.0000     30.4670   -102.2550
20.8000         157.0750      0.3881    601.1200     51.4650     49.6398     51.0305      0.4321   2021.0000     47.8443   -103.5000
20.9000         157.0750      0.3782    625.2400     50.5950     49.6398     51.0305      0.4306   2021.0000     47.8443   -103.5000
21.0000         159.6250      0.3692    652.6000     50.3100     64.2436     59.1330      0.4224   1979.0000     54.9326   -104.7600
21.1000         159.6250      0.3747    593.0000     50.0400     64.2436     59.1330      0.4205   1979.0000     54.9326   -104.7600
21.2000         157.0750      0.3735    507.8800     52.4250     67.2713     62.4928      0.4175   2005.0000     51.5027   -104.7600
21.3000         157.0750      0.3718    500.4800     55.4100     67.2713     62.4928      0.4153   2005.0000     51.5027   -104.7600
21.4000         154.5250      0.3672    488.3600     57.1050     66.6546     60.2324      0.4121   2034.0000     51.5027   -104.5050
21.5000         154.5250      0.3606    367.3200     57.5250     66.6546     60.2324      0.4072   2034.0000     51.5027   -104.5050
21.6000         155.8000      0.3543    243.9600     57.9150     57.5215     55.4409      0.4022   2019.0000     51.0305   -104.0100
21.7000         155.8000      0.3542     99.6000     58.1850     57.5215     55.4409      0.3977   2019.0000     51.0305   -104.0100
21.8000         159.6250      0.3553    104.1200     58.4550     53.9299     52.9456      0.3980   2038.0000     46.1137   -105.0000
21.9000         159.6250      0.3438    108.6400     59.5050     53.9299     52.9456      0.3981   2038.0000     46.1137   -105.0000
22.0000         169.8250      0.3331    113.1600     62.4000     51.0305     49.6398      0.3962   2078.0000     47.4056   -104.5050
22.1000         169.8250      0.3213    117.6800     65.0700     51.0305     49.6398      0.3892   2078.0000     47.4056   -104.5050
22.2000         174.9250      0.3014    439.7600     66.8850     46.9710     46.5404      0.3804   2075.0000     54.9326   -102.5100
22.3000         174.9250      0.2858    499.8400     68.7150     46.9710     46.5404      0.3700   2075.0000     54.9326   -102.5100
22.4000         174.9250      0.2344    570.6400     69.4650     45.2720     44.8570      0.3586   2130.0000     49.6398   -100.7550
22.5000         174.9250      0.2179    570.6400     70.2150     45.2720     44.8570      0.3516   2130.0000     49.6398   -100.7550
22.6000         174.9250      0.2116    525.6000     70.9650     44.0382     42.4453      0.3485   2164.8999     42.8381    -98.0100
22.7000         174.9250      0.1955    509.9200     71.8800     44.0382     42.4453      0.3463   2164.8999     42.8381    -98.0100
22.8000         183.8750      0.1859    502.8000     73.1250     42.8381     40.1634      0.3442   2258.0000     38.7106    -95.0100
22.9000         183.8750      0.1775    498.8000     74.3700     42.8381     40.1634      0.3413   2258.0000     38.7106    -95.0100
23.0000         192.7750      0.1831    496.4800     75.1200     41.6706     39.0688      0.3383   2370.0000     34.0275    -91.0050
23.1000         192.7750      0.1918    499.6000     75.5700     41.6706     39.0688      0.3306   2370.0000     34.0275    -91.0050
