~VERSION INFORMATION
 VERS.                 2.0:   CWLS LOG ASCII STANDARD -VERSION 2.0
 WRAP.                  NO:   ONE LINE PER DEPTH STEP
~WELL INFORMATION BLOCK
#MNEM.UNIT           DATA                    DESCRIPTION OF MNEMONIC
#---------    -------------------            -------------------------------
# Generated from Intellog Unique Number	CX_WELLS/WELL/3853
WELL.         HORSE CREEK                    : Well_name    - WELL
LOC .         AA/04-24-087-10W4/0            : Location     - LOCATION
UWI .         AA/04-24-087-10W400            : Uwi          - UNIQUE WELL ID
ENTR.         T                              : Entered      - ENTERED BY
SRVC.         SCHLUMBERGER                   : Scn          - SERVICE COMPANY
DATE.         03/06/92                       : Date         - LOG DATE
STRT.F        80                             : top_depth    - START DEPTH
STOP.F        680.394                        : bot_depth    - STOP DEPTH
STEP.F        0.8202                         : increment    - STEP LENGTH
 NULL. -999.2500:NULL Value
~CURVE INFORMATION BLOCK
#MNEM UNIT       ERCB CURVE CODE    CURVE DESCRIPTION
#-----------   ------------------   ----------------------------------
DEPT.F        00 001 00 00         : DEPTH        - DEPTH
GR  .API      00 310 00 00         : GR           - GAMMA RAY
NPHI.V/V      00 330 00 00         : PHIN         - NEUTRON POROSITY (SANDSTONE)
ILD .OHMM     00 120 00 00         : RESD         - DEEP RESISTIVITY (DIL)
~PARAMETER INFORMATION
#MNEM.UNIT           DATA             DESCRIPTION OF MNEMONIC
#---------         -----------     ------------------------------
GL  .F        1349                 : gl           - GROUND LEVEL ELEVATION
EREF.F        1349                 : kb           - ELEVATION OF DEPTH REFERENCE
DATM.F        1349                 : datum        - DATUM ELEVATION
TDD .F        582                  : tdd          - TOTAL DEPTH DRILLER
RUN .         ONE                  : Run          - RUN NUMBER
ENG .         JO                   : Engineer     - RECORDING ENGINEER
WIT .         TIM                  : Witness      - WITNESSED BY
MUD .         GEL                  : Mud_type     - MUD TYPE
MATR.         SANDSTONE            : Logunit      - NEUTRON MATRIX
TMAX.F        66.2                 : BHT          - MAXIMUM RECORDED TEMPERATURE
BHTD.F        582                  : BHTDEP       - MAXIMUM RECORDED TEMPERATURE
RMT .F        68                   : MDTP         - TEMPERATURE OF MUD
MUDD.LB/G     1                    : MWT          - MUD DENSITY
NEUT.         1                    : NEUTRON      - NEUTRON TYPE
RESI.         0                    : RESIST       - RESISTIVITY TYPE
RM  .OHMM     3.12                 : RM           - RESISTIVITY OF MUD
RMC .OHMM     4.5                  : RMC          - RESISTIVITY OF MUD CAKE
RMF .OHMM     4.5                  : RMF          - RESISTIVITY OF MUD FILTRATE
SUFT.F        39.2                 : SUFT         - SURFACE TEMPERATURE
~A  DEPTH       GR     PHIN     RESD
# ...
  435.971   68.412    0.501   10.318
  436.791   69.898    0.504    8.851
  437.612   68.839    0.508    7.390
  438.432   67.766    0.517    6.662
  439.252   67.058    0.521    6.491
  440.072   66.343    0.522    6.496
  440.892   65.649    0.519    6.689
  441.713   65.298    0.512    6.697
  442.533   65.333    0.502    6.891
  443.353   66.083    0.496    6.530
  444.173   67.198    0.495    6.172
  444.993   68.684    0.495    5.814
  445.814   70.164    0.499    5.819
  446.634   71.643    0.500    5.645
  447.454   74.960    0.507    5.469
  448.274   77.161    0.511    5.476
  449.094   84.124    0.516    5.486
  449.915   85.968    0.518    5.501
  450.735   86.718    0.520    5.506
  451.555   86.375    0.521    5.695
  452.375   85.309    0.521    5.891
  453.196   85.701    0.519    5.896
  454.016   87.559    0.518    5.906
  454.836   88.674    0.516    6.100
  455.656   89.424    0.508    6.291
  456.476   89.803    0.499    6.852
  457.297   88.737    0.463    7.225
  458.117   88.036    0.427    8.890
  458.937   88.050    0.386   11.474
  459.757   88.442    0.357   13.136
  460.577   88.463    0.357   15.169
  461.398   85.581    0.360   16.279
  462.218   84.866    0.365   15.554
  463.038   85.995    0.380   14.460
  463.858   87.110    0.387   13.181
  464.678   87.488    0.394   12.455
  465.499   88.617    0.402   12.279
  466.319   88.638    0.415   13.022
  467.139   86.836    0.429   13.399
  467.959   85.399    0.449   13.407
  468.780   83.232    0.459   12.865
  469.600   80.707    0.466   12.872
  470.420   77.447    0.472   13.250
  471.240   69.446    0.473   13.255
  472.060   67.287    0.464   12.532
  472.881   65.492    0.456   12.355
  473.701   65.141    0.447   12.546
  474.521   65.162    0.436   13.111
  475.341   65.555    0.428   13.483
  476.161   68.128    0.420   14.045
  476.982   72.531    0.410   14.052
  477.802   76.934    0.412   13.876
  478.622   79.157    0.415   13.520
  479.442   80.272    0.421   13.341
  480.262   81.751    0.426   12.983
  481.083   83.602    0.431   12.623
  481.903   84.353    0.435   12.265
  482.723   85.110    0.442   12.089
  483.543   84.030    0.452   11.912
  484.364   77.137    0.456   11.736
  485.184   75.335    0.407   12.484
  486.004   74.262    0.264   13.043
  486.824   72.825    0.130   13.972
  487.644   71.759    0.115   14.896
  488.465   72.502    0.107   29.803
  489.285   79.100    0.111   39.190
  490.105   80.573    0.128   45.084
  490.925   84.247    0.234   50.243
  491.745   89.015    0.269   49.699
  492.566   90.859    0.299   47.686
  493.386   94.175    0.318   47.325
  494.206   93.838    0.332   42.368
  495.026   92.401    0.342   33.917
  495.846   91.321    0.355   29.512
  496.667   84.786    0.355   27.864
  497.487   83.706    0.354   26.405
  498.307   76.070    0.352   27.146
  499.127   67.719    0.349   28.813
  499.948   61.177    0.354   27.531
  500.768   59.368    0.357   26.803
  501.588   57.201    0.365   24.976
  502.408   58.688    0.370   24.430
  503.228   61.268    0.380   22.231
  504.049   62.018    0.391   20.218
  504.869   62.039    0.398   19.122
  505.689   61.338    0.409   17.658
  506.509   60.644    0.421   16.016
  507.329   59.928    0.428   15.101
  508.150   58.862    0.436   15.663
  508.970   58.147    0.443   15.857
  509.790   57.081    0.453   14.763
  510.610   56.373    0.456   14.217
  511.430   57.859    0.449   13.675
  512.251   59.703    0.442   13.682
  513.071   61.555    0.424   14.241
  513.891   63.770    0.414   16.090
  514.711   65.628    0.406   17.203
  515.531   66.736    0.393   17.578
  516.352   68.945    0.387   18.140
  517.172   70.796    0.377   17.412
  517.992   73.004    0.372   15.580
  518.812   80.318    0.374   15.220
  519.633   82.533    0.382   14.862
  520.453   86.579    0.411   14.139
  521.273   86.593    0.421   13.776
  522.093   85.162    0.430   13.602
  522.913   78.992    0.440   13.798
  523.734   78.641    0.447   13.806
  524.554   76.846    0.454   13.997
  525.374   74.687    0.449   14.004
  526.194   73.607    0.441   14.196
  527.014   71.805    0.436   14.387
  527.835   70.010    0.431   14.578
  528.655   72.583    0.433   14.593
  529.475   79.174    0.435   14.417
  530.295   86.501    0.437   14.238
  531.115   88.338    0.444   14.064
  531.936   96.030    0.457   14.069
  532.756   97.509    0.468   14.265
  533.576   96.815    0.476   14.456
  534.396   96.100    0.471   14.648
  535.217   94.669    0.459   14.655
  536.037   93.954    0.446   14.851
  536.857   92.895    0.430   15.040
  537.677   92.559    0.424   15.234
  538.497   92.580    0.434   15.244
  539.318   92.601    0.440   14.886
  540.138   92.615    0.437   14.707
  540.958   92.650    0.428   14.349
  541.778   92.663    0.423   14.175
  542.598   93.063    0.412   14.180
  543.419   93.442    0.412   14.560
  544.239   95.671    0.419   14.749
  545.059   96.415    0.431   14.943
  545.879   96.807    0.439   14.952
  546.699   96.099    0.441   14.592
  547.520   95.384    0.442   13.869
  548.340   94.682    0.442   13.692
  549.160   94.346    0.442   13.514
  549.980   92.544    0.439   13.526
  550.801   80.897    0.437   13.717
  551.621   74.712    0.436   13.906
  552.441   67.448    0.436   14.284
  553.261   65.646    0.436   14.475
  554.081   64.573    0.431   14.852
  554.902   67.890    0.424   15.046
  555.722   74.109    0.421   15.051
  556.542   77.047    0.417   14.693
  557.362   86.190    0.412   14.706
  558.182   87.691    0.409   15.078
  559.003   88.076    0.409   16.189
  559.823   88.462    0.418   17.486
  560.643   88.476    0.428   18.231
  561.463   88.132    0.429   17.687
  562.283   85.250    0.427   16.959
  563.104   83.806    0.423   15.679
  563.924   82.375    0.422   14.405
  564.744   83.869    0.419   14.226
  565.564   84.605    0.423   15.157
  566.385   84.268    0.428   16.450
  567.205   81.737    0.428   18.850
  568.025   75.559    0.417   19.409
  568.845   69.017    0.390   18.683
  569.665   66.493    0.372   18.139
  570.486   60.323    0.358   17.046
  571.306   58.514    0.352   16.869
  572.126   55.982    0.361   19.637
  572.946   53.093    0.368   22.219
  573.766   53.486    0.369   26.274
  574.587   54.594    0.368   28.490
  575.407   57.174    0.367   30.337
  576.227   65.223    0.363   29.795
  577.047   67.797    0.360   26.311
  577.867   70.019    0.353   25.213
  578.688   68.575    0.346   23.565
  579.508   61.668    0.336   21.369
  580.328   53.303    0.333   21.008
  581.148   46.039    0.328   21.938
  581.969   39.139    0.328   22.497
  582.789   37.330    0.332   24.161
  583.609   35.163    0.339   25.272
  584.429   34.834    0.344   27.856
  585.249   37.035    0.351   32.279
  586.070   43.269    0.373   33.206
  586.890   45.477    0.395   38.548
  587.710   48.050    0.392   43.523
  588.530   51.360    0.387   50.706
  589.350   52.839    0.384   51.998
  590.171   51.781    0.382   57.892
  590.991   51.065    0.381   61.947
  591.811   44.895    0.381   53.497
  592.631   44.544    0.381   43.572
  593.451   43.843    0.383   39.169
  594.272   42.777    0.383   37.705
  595.092   42.076    0.382   38.264
  595.912   40.996    0.382   39.929
  596.732   38.836    0.382   42.146
  597.552   37.041    0.382   44.176
  598.373   36.333    0.382   47.863
  599.193   35.618    0.383   48.974
  600.013   34.194    0.383   51.193
  600.833   33.479    0.385   52.303
  601.654   33.507    0.386   53.600
  602.474   34.257    0.386   54.343
  603.294   35.014    0.387   54.721
  604.114   34.320    0.389   55.650
  604.934   33.247    0.390   55.841
  605.755   32.174    0.394   56.587
  606.575   31.466    0.397   55.856
  607.395   31.115    0.405   56.050
  608.215   30.786    0.414   56.060
  609.035   30.442    0.434   54.594
  609.856   30.105    0.435   37.498
  610.676   29.755    0.428   19.304
  611.496   29.418    0.421   19.677
  612.316   29.074    0.415   19.687
  613.136   28.731    0.412   19.697
