~Version : LASO    vs 4.00
VERS.                2.00:   CWLS Log ASCII Standard -VERSION 2.0
WRAP.                  NO:
~Well Information Block
#MNEM.UNIT       Data                        Description of Mnemonic
#----.----      -------------------------- : -----------------------------
STRT.M            15.0000:
STOP.M           186.3750:
STEP.M             0.1250:
NULL.           -999.2500:
COMP.  MOBIL OIL OF CANADA                :COMPANY
WELL.  MOBIL CLARKE OV 2-19               :WELL
FLD.                                      :FIELD
LOC.   02-19-090-07W4                     :LOCATION
CTRY.  CANADA                             :COUNTRY
PROV.  ALBERTA                            :PROVINCE
SRVC.  DRESSER ATLAS                      :SERVICE COMPANY
DATE.  24-FEB-81                          :LOG DATE
UWI.   AA/02-19-090-07W400                :UNIQUE WELL ID
~Parameter Information Block
#MNEM.UNIT       Data                        Description of Mnemonic
#----.----      -------------------------- : -----------------------------
RUN .                   1                 : Run Number
GL  .M           444.6000                 : Ground Level Elevation
DREF.                  KB                 : Depth Reference
EREF.M           444.6000                 : Elevation of Depth Reference
TDL .M           186.3000                 : Total Depth Logger
TDD .M           185.0000                 : Total Depth Driller
CSGL.M            14.7000                 : Casing Bottom Logger
CSGD.M            14.7000                 : Casing Bottom Driller
CSGS.MM          219.0000                 : Casing Size
CSGW.KG/M          0.0000                 : Casing Weight
BHT .DEGC         20.0000                 : Bottom Hole Temperature
BS  .MM          159.0000                 : Bit Size
DFD .           9999.0000                 : Mud Weight (Density)
DFV .             90.0000                 : Mud Viscosity
RM  .OHMM          2.5000                 : Mud Resistivity
RMT .DEGC         20.0000                 : Mud Resistivity Temperature
~Curve Information Block
#MNEM.UNIT        API CODE    Curve Description
#---------    ------------    -------------------------------------------
DEPT.M                    :   DEPTH
CALI.MM       42 280  1  1:   3 DENSITY CALIPER
DPHI.V/V                  :   DPHI
DT  .US/M     60 520 32  1:   2 SONIC INTERVAL TRANSIT TIME (COMPENSATED)
GR  .GAPI     42 310  1  1:   4 GAMMA RAY
ILD .OHMM      5 120 45  1:   7 DEEP INDUCTION
NPHI.V/V      42 890  3  1:   5 NEUTRON POROSITY (SANDSTONE)
RHOB.K/M3     42 350  1  1:   6 BULK DENSITY
SN  .OHMM      5  40 16  1:   8 SHORT NORMAL
SP  .MV        5  10  1  1:   9 SPONTANEOUS POTENTIAL
~A  Depth           CALI        DPHI          DT          GR         ILD        NPHI        RHOB          SN          SP
# ...
48.5000         232.8500      0.2253    454.8000     60.3000     30.0400      0.3541   2316.5000     38.2450    -53.6850
48.6250         231.9500      0.2129    467.3200     58.0800     30.8150      0.3556   2304.3000     36.7800    -53.9250
48.7500         231.0500      0.2090    581.6400     54.7800     32.0450      0.3544   2282.3999     34.4050    -53.9400
48.8750         228.9500      0.2106    589.2000     51.4800     33.4000      0.3537   2228.7000     37.9400    -53.7900
49.0000         225.0250      0.2260    565.6800     48.6450     34.2400      0.3612   2175.7000     38.3050    -53.2200
49.1250         225.3250      0.2458    585.8800     46.1700     34.7550      0.3627   2160.3999     38.7950    -52.3500
49.2500         219.9250      0.2787    573.2400     44.0850     35.1450      0.3634   2149.3999     39.3400    -52.0800
49.3750         218.7000      0.2919    550.9200     45.5100     35.0150      0.3664   2165.3000     42.6350    -51.5100
49.5000         225.0250      0.2916    591.8000     46.7400     34.8200      0.3691   2150.7000     45.0150    -50.9400
49.6250         235.8750      0.3023    611.3200     47.9700     34.4350      0.3732   2091.5000     44.5250    -50.7600
49.7500         249.4250      0.3156    562.0800     49.2000     34.1100      0.3713   2131.2000     42.0850    -50.4000
49.8750         247.3000      0.3253    512.2000     53.5050     34.1100      0.3511   2137.8999     37.8800    -51.0300
50.0000         226.8500      0.3045    497.9200     55.7550     32.9150      0.3461   2141.5000     36.9050    -50.4600
50.1250         216.3000      0.2713    489.2000     54.3000     33.9100      0.3326   2161.0000     37.0850    -51.0900
50.2500         218.7000      0.2344    483.9600     52.9500     33.6500      0.3263   2249.3999     38.2450    -51.1200
50.3750         221.1250      0.2214    496.8400     52.9500     33.4550      0.3180   2306.8000     38.3650    -51.7650
50.5000         222.3250      0.2096    503.4000     57.9900     33.3250      0.3150   2338.5000     39.1600    -51.7950
50.6250         225.3250      0.1983    526.8800     58.5450     33.1350      0.3109   2347.0000     40.0150    -52.4250
50.7500         226.2250      0.1918    563.6000     53.4150     33.5200      0.3173   2341.5000     39.2200    -52.4550
50.8750         225.3250      0.1916    595.1200     51.7050     33.6500      0.3263   2329.8999     40.4400    -53.1000
51.0000         225.6250      0.2056    588.8800     50.2800     33.6500      0.3266   2321.3999     41.1100    -52.5300
51.1250         226.2250      0.2186    524.3200     50.3700     33.5200      0.3289   2303.7000     39.3400    -52.5600
51.2500         224.4250      0.2321    538.8000     50.5500     33.6500      0.3259   2269.6001     35.5600    -53.1900
51.3750         224.1250      0.2476    527.8400     51.3900     33.7150      0.3278   2220.8000     36.2950    -53.2200
51.5000         222.9250      0.2661    537.5200     52.5000     33.6500      0.3274   2195.8000     38.9750    -53.8650
51.6250         224.7250      0.2768    548.7600     52.5450     33.7150      0.3281   2179.3000     40.9900    -54.4950
51.7500         225.0250      0.2826    565.2000     52.5900     33.8450      0.3311   2183.6001     42.5750    -55.1250
51.8750         224.4250      0.2797    561.1200     51.9600     33.9100      0.3281   2198.2000     45.6250    -55.1550
52.0000         220.2250      0.2747    508.3600     51.3750     33.7150      0.3271   2228.7000     39.8900    -55.8000
52.1250         220.5250      0.2695    499.1600     50.7900     33.0700      0.3251   2240.3000     33.2450    -55.8300
52.2500         221.1250      0.2668    501.2800     50.2050     32.4250      0.3256   2230.5000     34.3400    -55.8600
52.3750         220.8250      0.2873    497.3200     49.8000     32.2300      0.3251   2193.3000     37.4500    -56.4450
52.5000         220.8250      0.3046    489.3600     51.1650     31.8400      0.3214   2134.8000     38.0000    -55.5900
52.6250         219.9250      0.3234    482.2800     52.6500     31.7150      0.3184   2102.5000     37.6950    -55.3050
52.7500         223.8250      0.3382    494.3600     53.9250     30.9400      0.3173   2175.7000     36.5350    -54.7800
52.8750         222.9250      0.3604    513.2000     53.1150     30.6800      0.3236   2194.6001     36.7800    -54.2100
53.0000         222.3250      0.3870    523.9200     52.4100     30.4200      0.3263   2129.3000     36.0500    -53.6400
53.1250         228.0500      0.4097    512.5600     51.8550     30.4850      0.3349   2028.1000     33.1250    -53.4900
53.2500         226.2250      0.4429    555.5200     53.4750     29.0000      0.3379   1912.9000     32.0850    -53.7000
53.3750         220.2250      0.4192    509.4400     54.8550     28.0350      0.3259   1886.0000     31.9650    -53.3250
53.5000         225.3250      0.3688    526.0000     55.8300     28.0350      0.3236   1972.0000     32.8200    -53.1750
53.6250         228.0500      0.3357    553.4000     55.9800     27.4500      0.3248   2109.8000     36.5350    -53.5200
53.7500         228.9500      0.2445    489.6000     56.1450     27.0650      0.3278   2273.2000     39.9500    -54.3150
53.8750         229.5500      0.2197    466.6400     56.3100     26.9350      0.3301   2300.7000     38.3650    -54.4650
54.0000         226.5500      0.2110    457.7200     57.9150     27.1950      0.3296   2294.0000     35.4400    -54.7200
54.1250         223.8250      0.2041    427.2000     60.0300     27.3250      0.3319   2304.3000     32.0850    -55.1400
54.2500         224.4250      0.1948    429.4400     60.4650     27.1300      0.3383   2314.7000     31.2300    -55.4250
54.3750         226.5500      0.1837    493.4800     60.7500     27.1300      0.3376   2317.7000     31.2300    -56.3850
54.5000         234.0750      0.1640    526.8800     60.7800     27.4500      0.3331   2386.6001     31.8400    -58.8450
54.6250         241.0000      0.1488    526.3600     60.8100     27.6450      0.3244   2426.8999     32.6950    -60.0900
54.7500         240.0750      0.1699    576.6800     60.8550     27.6450      0.3180   2378.7000     34.6450    -63.1350
54.8750         228.9500      0.2008    577.6000     60.2400     27.0650      0.3158   2357.3999     35.8650    -63.7650
55.0000         216.6000      0.2312    539.9600     57.5700     26.9350      0.3229   2340.8999     36.6000    -64.3950
55.1250         213.0000      0.2408    596.8000     53.0100     27.0650      0.3379   2298.8000     36.9050    -61.1250
55.2500         212.4000      0.2550    599.4000     50.5650     27.1950      0.3406   2241.5000     36.4750    -56.0250
55.3750         214.8000      0.2653    602.6000     49.7700     27.2600      0.3391   2238.5000     35.3800    -54.0750
55.5000         217.2000      0.3038    612.3200     48.7050     27.0650      0.3416   2220.2000     32.3900    -51.7200
55.6250         215.7000      0.3326    584.4000     50.1600     27.0650      0.3541   2167.7000     28.9150    -50.7000
55.7500         211.4750      0.3465    529.5200     52.3050     27.0650      0.3631   2088.5000     28.6100    -49.4400
55.8750         210.2750      0.3605    488.2800     55.2300     26.4200      0.3664   2066.5000     30.6250    -48.9600
56.0000         209.9750      0.3618    461.8000     58.6200     25.3400      0.3623   2063.5000     32.6350    -48.9900
56.1250         209.3750      0.3671    419.9600     60.5850     26.2750      0.3499   2062.2000     32.7550    -48.7650
56.2500         209.0750      0.3634    423.7600     62.1000     26.6650      0.3401   2051.3000     32.9400    -48.4500
56.3750         210.2750      0.3203    432.0400     62.3100     26.9850      0.3266   2036.6000     33.3650    -48.4950
56.5000         211.1750      0.3021    435.2800     61.9950     27.2450      0.3191   2041.5000     33.3650    -48.8850
56.6250         213.0000      0.2786    430.2000     61.4400     27.9550      0.3120   2086.0000     32.9400    -49.1550
56.7500         217.8000      0.2613    422.0000     60.7500     28.2150      0.3038   2148.8000     33.4900    -49.1850
