~Version : LASO    vs 4.00 - DATA COPYRIGHT - RILEYS DATASHARE INTERNATIONAL
 VERS.                2.0 :   CWLS Log ASCII Standard -VERSION 2.0
 WRAP.                 NO :   One line per depth step
~Well Information Block
#MNEM.UNIT       Data                        Description of Mnemonic
#----.----      -------------------------- : -----------------------------
 STRT.M             0.0000                 : Start Depth
 STOP.M           204.7500                 : End Depth
 STEP.M             0.1250                 : Depth Increment
 NULL.           -999.25                   : NULL Value
 COMP.                                     : COMPANY
 WELL.    MOBIL CLARKE OV 7-25             : WELL NAME
 FLD .    WILDCAT                          : FIELD NAME
 LOC .    07-25-090-08W4                   : WELL LOCATION
 PROV.    ALBERTA                          : PROVINCE
 SRVC.    DRESSER ATLAS                    : LOGGING SERVICE COMPANY
 DATE.    19-FEB-81                        : DATE LOGGED
 UWI .    AA/07-25-090-08W400              : UNIQUE WELL ID
~Curve Information Block
#MNEM.UNIT        API CODE                   Curve Description
#----.----      LG--CV-CL--M               : -----------------
 DEPT.M          0   1  0  0               : 1 DEPTH
 DT  .US/M      60 520 42  1               : 2 SONIC INTERVAL TRANSIT TIME (COMPENSATED)
 CALI.MM        42 280  1  1               : 3 DENSITY CALIPER
 GR  .GAPI      42 310  1  1               : 4 GAMMA RAY
 NPHI.V/V       42 890  3  1               : 5 NEUTRON POROSITY (SANDSTONE)
 RHOB.K/M3      42 350  1  1               : 6 BULK DENSITY
 IL  .OHMM       5 120 45  1               : 7 INDUCTION
 SFL .OHMM       5 220  6  1               : 8 FOCUSSED RESISTIVITY
 SP  .MV         5  10  1  1               : 9 SPONTANEOUS POTENTIAL
~Parameter Information Block
#MNEM.UNIT       Data                        Description of Mnemonic
#----.----      -------------------------- : -----------------------------
 RUN .                   1                 : Run Number
 GL  .M           449.0000                 : Ground Level Elevation
 DREF.                  KB                 : Depth Reference
 EREF.M           449.0000                 : Elevation of Depth Reference
 TDL .M           202.0000                 : Total Depth Logger
 TDD .M           205.0000                 : Total Depth Driller
 BHT .DEGC         20.0000                 : Bottom Hole Temperature
 BS  .MM          159.0000                 : Bit Size
 DFD .           9999.0000                 : Mud Weight (Density)
 DFV .            150.0000                 : Mud Viscosity
 RM  .OHMM          4.1000                 : Mud Resistivity
 RMT .DEGC         20.0000                 : Mud Resistivity Temperature
 RMF .OHMM          3.9000                 : Mud Filtrate Resistivity
 RMFT.DEGC          8.0000                 : RMF Temperature
 RMC .OHMM          7.8000                 : Mud Cake Resistivity
 RMCT.DEGC          8.0000                 : RMC Temperature
~Asc DEPTH      DT         CALI       GR         NPHI       RHOB       IL         SFL        SP   
# ...
  151.8750   417.9600   155.5000    45.1050     0.3238  2136.2000    35.2850    41.2350  -141.4050
  152.0000   419.6800   155.8000    49.8900     0.3297  2142.3000    33.4450    56.5500  -142.1400
  152.1250   422.3600   155.8000    54.4950     0.3275  2136.2000    31.9700    69.1000  -144.1800
  152.2500   420.1600   156.1250    56.3400     0.3213  2121.5000    31.5450    68.7500  -144.9300
  152.3750   415.7600   156.4250    55.2450     0.3198  2108.6001    31.9700    63.3500  -143.8050
  152.5000   412.5600   156.1250    53.0250     0.3227  2112.3000    32.7700    52.9000  -141.0300
  152.6250   404.4400   156.4250    53.0250     0.3224  2120.8999    33.6900    37.3150  -136.7700
  152.7500   399.2800   156.1250    52.6650     0.3217  2130.7000    34.6100    31.6150  -134.9250
  152.8750   394.6000   155.8000    53.0250     0.3209  2138.7000    35.5300    33.0850  -134.9250
  153.0000   396.0800   155.8000    55.2450     0.3279  2144.8000    36.1450    41.6650  -137.3250
  153.1250   399.2800   155.5000    54.8700     0.3286  2149.7000    37.2500    55.4500  -140.6700
  153.2500   399.7600   155.2000    50.4450     0.3275  2141.7000    39.2100    72.1500  -144.3750
  153.3750   398.2800   155.5000    45.1050     0.3106  2118.5000    42.2150    79.1500  -147.8850
  153.5000   394.8400   155.5000    40.6800     0.3040  2100.1001    45.8350    81.1500  -151.2000
  153.6250   384.8000   155.5000    38.1000     0.3022  2095.8000    49.3950    84.6000  -153.8100
  153.7500   377.4000   155.8000    37.3650     0.3037  2099.5000    52.4000    85.1000  -155.6700
  153.8750   378.1600   157.0250    38.2800     0.3106  2106.8000    54.7500    79.3500  -156.0450
  154.0000   382.8400   157.9500    38.4750     0.3158  2119.1001    55.5500    76.1500  -156.6000
  154.1250   396.3200   157.6500    39.5700     0.3242  2129.5000    55.1500    80.9999  -158.4450
  154.2500   402.9600   157.6500    40.5000     0.3227  2130.7000    53.9500    91.2500  -161.4150
  154.3750   405.6800   157.3500    41.0550     0.3103  2128.3000    52.4000    98.5000  -162.7050
  154.5000   408.3600   157.6500    41.2350     0.3037  2135.0000    51.1000   101.8000  -162.7050
  154.6250   403.9600   158.2500    40.6800     0.3029  2145.3999    50.2550   100.4500  -161.4150
  154.7500   401.2400   159.1750    39.0300     0.3018  2146.0000    49.8250    91.9000  -158.8200
  154.8750   398.0400   159.1750    37.5450     0.2978  2138.7000    49.3350    76.1500  -154.5600
  155.0000   398.8000   158.2500    38.1000     0.3007  2129.5000    48.4750    60.2500  -149.5500
  155.1250   422.6400   156.1250    38.8350     0.3037  2123.3999    47.0650    54.2000  -146.2200
  155.2500   425.3200   155.2000    40.6800     0.3113  2112.8999    45.1000    61.4500  -145.2900
  155.3750   430.0000   154.9000    43.6350     0.3209  2112.8999    42.2800    76.7500  -145.8450
  155.5000   431.4800   155.2000    46.0200     0.3231  2119.1001    39.4550    90.1000  -146.9550
  155.6250   430.9600   155.2000    46.9500     0.3117  2123.3999    36.8200    84.4000  -146.5950
  155.7500   424.6000   154.9000    46.0200     0.3037  2116.6001    34.2400    69.8500  -143.6250
  155.8750   419.6800   154.9000    43.6350     0.3022  2111.1001    31.6650    55.6000  -140.4750
  156.0000   420.1600   154.9000    42.5250     0.3025  2115.3999    29.7650    47.3650  -138.4350
  156.1250   418.9200   154.9000    42.1500     0.3073  2127.6001    28.1700    39.7650  -136.9650
  156.2500   416.9600   154.9000    45.4800     0.3176  2140.5000    26.8800    36.5150  -135.8400
  156.3750   417.4800   155.2000    48.7950     0.3257  2155.2000    25.7750    30.2050  -134.9250
  156.5000   420.4000   155.2000    54.8700     0.3345  2172.3999    24.9150    25.6700  -133.2600
  156.6250   450.6400   155.2000    63.7200     0.3451  2182.8000    24.1800    24.3850  -131.5800
  156.7500   467.8400   155.2000    67.3950     0.3518  2185.8999    23.8750    28.7950  -132.1350
  156.8750   449.6400   155.5000    71.2650     0.3569  2181.6001    23.6900    33.7000  -133.8150
  157.0000   422.3600   155.5000    72.3750     0.3481  2171.8000    23.8750    34.1900  -135.4800
  157.1250   417.7200   155.5000    71.4600     0.3470  2161.3000    24.4850    32.2300  -136.2150
  157.2500   414.2800   155.5000    69.2400     0.3463  2147.8999    25.3450    32.3500  -137.5200
  157.3750   407.4000   154.9000    65.9250     0.3433  2137.5000    26.0850    34.0650  -138.8100
  157.5000   401.7200   154.9000    64.6350     0.3352  2127.0000    27.1250    34.9250  -140.1000
  157.6250   411.0800   155.2000    62.0550     0.3334  2116.0000    28.4750    36.8250  -141.7800
  157.7500   411.8000   155.8000    60.2100     0.3334  2109.3000    29.7000    38.1100  -143.8050
  157.8750   412.0400   155.5000    56.1600     0.3364  2105.6001    30.5000    38.6600  -145.6650
  158.0000   414.0400   155.2000    52.8450     0.3345  2109.8999    31.1150    39.7050  -146.4000
  158.1250   418.9200   155.8000    47.3100     0.3356  2114.2000    31.7900    47.7300  -146.9550
  158.2500   417.7200   156.4250    43.8150     0.3378  2110.5000    32.5850    59.9999  -147.7050
  158.3750   415.4800   156.4250    43.0800     0.3290  2103.1001    33.4450    65.2500  -147.5100
  158.5000   414.5200   156.4250    42.7050     0.3260  2100.7000    34.8550    55.8500  -146.4000
  158.6250   411.0800   156.1250    43.0800     0.3275  2103.7000    36.3300    43.9900  -144.9300
  158.7500   407.6400   155.8000    44.3700     0.3326  2105.6001    37.4950    36.5800  -143.4450
  158.8750   406.6400   155.8000    46.5750     0.3316  2104.3999    38.1700    35.3550  -142.3350
  159.0000   409.1200   155.8000    48.7950     0.3330  2106.2000    38.4750    44.0550  -143.0700
  159.1250   412.8000   155.8000    49.3350     0.3316  2109.8999    38.5350    58.0500  -145.2900
  159.2500   414.2800   155.8000    46.7700     0.3323  2112.8999    38.6000    67.5500  -146.5950
  159.3750   415.7600   156.1250    41.6100     0.3411  2108.0000    39.0900    68.3500  -146.9550
  159.5000   417.4800   155.8000    39.0300     0.3437  2101.3000    39.7000    66.6000  -146.7750
  159.6250   425.0800   155.5000    38.6550     0.3444  2092.7000    40.3150    68.7500  -146.4000
  159.7500   429.2400   155.2000    38.1000     0.3440  2081.1001    40.2550    68.5500  -145.8450
  159.8750   430.2400   155.2000    37.1850     0.3389  2070.7000    39.7650    57.4500  -143.6250
  160.0000   431.7200   154.9000    38.4750     0.3316  2073.1001    39.1500    44.0550  -140.6700
  160.1250   432.4400   155.5000    39.5700     0.3316  2079.8000    38.3500    46.7500  -138.4350
  160.2500   433.4400   155.8000    40.1250     0.3385  2085.3999    37.3700    54.3500  -137.8800
  160.3750   435.1600   156.1250    40.5000     0.3514  2084.1001    36.3900    56.0500  -137.8800
  160.5000   435.8800   155.8000    40.1250     0.3492  2083.5000    35.7750    41.6650  -137.5200
  160.6250   435.6400   155.8000    39.0300     0.3433  2086.6001    35.5900    39.5800  -137.3250
  160.7500   438.8400   155.8000    38.4750     0.3411  2094.6001    34.8550    42.4000  -136.9650
  160.8750   444.0000   155.8000    38.6550     0.3404  2094.6001    33.4450    39.2750  -136.2150
  161.0000   445.2400   155.8000    38.6550     0.3392  2091.5000    32.3400    34.4350  -135.4800
  161.1250   449.8800   156.4250    41.0550     0.3407  2088.3999    30.6850    33.7600  -134.9250
  161.2500   461.2000   156.4250    44.5500     0.3418  2097.0000    28.5350    31.5550  -134.9250
  161.3750   480.6000   156.7250    46.9500     0.3397  2106.2000    26.0850    28.6150  -134.5500
  161.5000   500.7200   156.7250    50.0850     0.3440  2116.0000    23.8750    32.7800  -134.1750
  161.6250   505.9200   156.1250    52.8450     0.3510  2127.0000    21.9100    37.5000  -136.3950
  161.7500   470.5200   156.4250    54.6900     0.3518  2130.1001    20.0100    32.3500  -138.4350
  161.8750   450.6400   156.7250    55.4250     0.3492  2127.0000    18.6600    25.4900  -139.5450
