~VERSION INFORMATION
 VERS.                 2.0:   CWLS LOG ASCII STANDARD -VERSION 2.0
 WRAP.                  NO:   ONE LINE PER DEPTH STEP
~WELL INFORMATION BLOCK
#MNEM.UNIT           DATA                    DESCRIPTION OF MNEMONIC
#---------    -------------------            -------------------------------
# Generated from Intellog Unique Number	CN_94_101/WELL/1065
WELL.         07-20-094-14W4                 : Well_name    - WELL
LOC .         AA/07-20-094-14W4/0            : Location     - LOCATION
UWI .         AA/07-20-094-14W400            : Uwi          - UNIQUE WELL ID
ENTR.         JOETTE                         : Entered      - ENTERED BY
SRVC.         SCHLUMBERGER                   : Scn          - SERVICE COMPANY
DATE.         05\03\92                       : Date         - LOG DATE
STRT.M        70                             : top_depth    - START DEPTH
STOP.M        190                            : bot_depth    - STOP DEPTH
STEP.M        0.25                           : increment    - STEP LENGTH
 NULL. -999.2500:NULL Value
~CURVE INFORMATION BLOCK
#MNEM UNIT       ERCB CURVE CODE    CURVE DESCRIPTION
#-----------   ------------------   ----------------------------------
DEPT.M        00 001 00 00         : DEPTH        - DEPTH
ILD .OHMM     00 120 00 00         : RESD         - DEEP RESISTIVITY (DIL)
DPHI.V/V      00 890 00 00         : PHID         - DENSITY POROSITY (SANDSTONE)
NPHI.V/V      00 330 00 00         : PHIN         - NEUTRON POROSITY (SANDSTONE)
GR  .API      00 310 00 00         : GR           - GAMMA RAY
CALI.MM       00 280 01 00         : CAL          - CALIPER
~PARAMETER INFORMATION
#MNEM.UNIT           DATA             DESCRIPTION OF MNEMONIC
#---------         -----------     ------------------------------
GL  .M        479.4                : gl           - GROUND LEVEL ELEVATION
EREF.M        429.4                : kb           - ELEVATION OF DEPTH REFERENCE
DATM.M        429.4                : datum        - DATUM ELEVATION
TDD .M        197                  : tdd          - TOTAL DEPTH DRILLER
RUN .         ONE                  : Run          - RUN NUMBER
ENG .         JO                   : Engineer     - RECORDING ENGINEER
WIT .         TIM                  : Witness      - WITNESSED BY
MUD .         GEL                  : Mud_type     - MUD TYPE
MATR.         SANDSTONE            : Logunit      - NEUTRON MATRIX
TMAX.C        19                   : BHT          - MAXIMUM RECORDED TEMPERATURE
BHTD.M        197                  : BHTDEP       - MAXIMUM RECORDED TEMPERATURE
RMT .C        13                   : MDTP         - TEMPERATURE OF MUD
MUDD.KG/M     1060                 : MWT          - MUD DENSITY
NEUT.         1                    : NEUTRON      - NEUTRON TYPE
RESI.         0                    : RESIST       - RESISTIVITY TYPE
RM  .OHMM     2.71                 : RM           - RESISTIVITY OF MUD
RMC .OHMM     2.71                 : RMC          - RESISTIVITY OF MUD CAKE
RMF .OHMM     2.71                 : RMF          - RESISTIVITY OF MUD FILTRATE
SUFT.C        4                    : SUFT         - SURFACE TEMPERATURE
~A  DEPTH     RESD     PHID     PHIN       GR      CAL
   70.000    7.382    0.237    0.438   87.540  206.386
   70.250    7.656    0.236    0.444   84.556  200.422
   70.500    7.656    0.224    0.439   82.765  191.479
   70.750    7.519    0.204    0.414   82.162  186.505
   71.000    7.384    0.230    0.412   81.560  186.495
   71.250    6.993    0.245    0.441   80.362  188.467
   71.500    6.867    0.252    0.469   79.760  192.426
   71.750    6.744    0.242    0.491   81.542  196.388
   72.000    6.745    0.246    0.498   84.513  208.288
   72.250    6.869    0.251    0.508   85.102  214.230
   72.500    6.870    0.250    0.517   85.096  218.192
   72.750    6.870    0.242    0.524   85.685  211.234
   73.000    6.871    0.237    0.510   87.465  212.215
   73.250    6.871    0.237    0.468   89.245  203.272
   73.500    6.872    0.233    0.461   89.835  202.266
   73.750    7.127    0.238    0.462   89.826  207.218
   74.000    7.391    0.242    0.463   88.629  212.170
   74.250    8.395    0.247    0.457   86.240  211.170
   74.500    8.706    0.249    0.448   83.854  204.211
   74.750    8.866    0.234    0.434   79.677  193.282
   75.000    8.550    0.218    0.417   76.695  186.324
   75.250    8.097    0.219    0.404   76.688  191.276
   75.500    7.395    0.240    0.397   75.491  199.203
   75.750    6.877    0.255    0.404   73.102  187.285
   76.000    6.395    0.263    0.431   70.714  169.405
   76.250    6.280    0.249    0.437   70.707  167.410
   76.500    6.396    0.247    0.452   73.085  173.354
   76.750    6.879    0.265    0.460   74.266  182.279
   77.000    7.134    0.280    0.459   72.473  194.182
   77.250    7.265    0.274    0.442   73.661  187.223
   77.500    7.266    0.246    0.452   77.228  187.213
   77.750    7.267    0.228    0.459   73.648  174.299
   78.000    7.268    0.240    0.461   72.451  170.315
   78.250    7.137    0.258    0.460   77.208  176.260
   78.500    6.518    0.255    0.458   83.156  180.219
   78.750    6.061    0.249    0.452   84.340  187.154
   79.000    5.952    0.252    0.448   84.931  190.123
   79.250    6.402    0.249    0.448   83.138  195.078
   79.500    6.520    0.245    0.452   78.963  202.015
   79.750    6.886    0.243    0.454   73.001  205.975
   80.000    6.886    0.252    0.455   73.590  197.031
   80.250    6.887    0.255    0.460   77.156  186.103
   80.500    6.763    0.257    0.470   80.127  180.137
   80.750    6.642    0.257    0.476   77.144  185.089
   81.000    6.177    0.257    0.484   75.351  193.018
   81.250    5.957    0.268    0.486   74.749  190.030
   81.500    5.641    0.270    0.479   77.721  192.004
   81.750    5.745    0.255    0.485   83.669  200.927
   82.000    5.958    0.251    0.505   89.021  209.849
   82.250    6.179    0.248    0.503   86.633  212.816
   82.500    6.180    0.261    0.510   82.458  202.877
   82.750    6.180    0.263    0.520   79.474  208.824
   83.000    5.960    0.272    0.528   77.085  223.702
   83.250    5.644    0.280    0.492   78.867  225.676
   83.500    5.154    0.239    0.460   83.029  181.994
   83.750    4.539    0.277    0.463   87.789  200.841
   84.000    3.717    0.344    0.496   87.187  202.813
   84.250    4.378    0.352    0.510   81.225  201.812
   84.500    4.972    0.363    0.507   79.432  219.667
   84.750    4.883    0.358    0.506   81.806  195.836
   85.000    3.927    0.309    0.503   82.992  189.867
   85.250    2.633    0.308    0.532   82.984  194.825
   85.500    2.196    0.318    0.564   88.935  201.762
   85.750    2.196    0.302    0.590   87.140  196.788
   86.000    2.586    0.315    0.609   85.347  194.793
   86.250    3.720    0.331    0.581   84.747  210.663
   86.500    5.449    0.321    0.574   84.740  223.555
   86.750    5.754    0.324    0.552   84.139  221.559
   87.000    6.077    0.339    0.545   82.941  212.616
   87.250    6.189    0.347    0.537   80.553  201.687
   87.500    6.303    0.297    0.542   79.355  201.676
   87.750    6.190    0.251    0.525   81.729  190.748
   88.000    6.079    0.241    0.506   84.702  173.861
   88.250    6.080    0.246    0.501   93.031  193.704
   88.500    6.305    0.242    0.519   92.430  200.641
   88.750    6.539    0.233    0.545   90.043  205.593
   89.000    6.906    0.233    0.533   90.036  195.654
   89.250    7.428    0.218    0.504   93.007  195.646
   89.500    7.564    0.195    0.470   94.192  200.596
   89.750    7.989    0.207    0.433   93.590  183.715
   90.000    8.136    0.239    0.450   94.179  171.793
   90.250    8.438    0.249    0.461   95.959  181.708
   90.500    8.593    0.243    0.452   94.762  185.668
   90.750    8.594    0.219    0.430   90.587  173.747
   91.000    8.752    0.213    0.427   87.601  182.669
   91.250    8.753    0.187    0.437   86.999  186.626
   91.500    8.754    0.193    0.444   86.993  180.662
   91.750    8.915    0.216    0.439   88.773  174.696
   92.000    8.915    0.229    0.433   85.791  175.676
   92.250    8.916    0.236    0.425   84.595  166.735
   92.500    8.916    0.230    0.424   86.969  158.784
   92.750    8.600    0.227    0.422   89.346  160.755
   93.000    8.600    0.228    0.420   91.126  165.710
   93.250    8.758    0.220    0.418   93.502  172.647
   93.500    8.759    0.216    0.418   89.327  179.584
   93.750    9.084    0.210    0.419   85.747  188.507
   94.000    9.085    0.213    0.426   84.550  183.536
   94.250    9.086    0.222    0.440   86.926  177.567
   94.500    9.086    0.229    0.451   89.895  181.527
   94.750    8.923    0.224    0.446   89.292  180.526
   95.000    8.763    0.215    0.443   88.693  181.508
   95.250    8.764    0.223    0.448   87.496  191.423
   95.500    8.926    0.216    0.449   87.489  170.569
   95.750    8.926    0.225    0.440   86.887  173.536
   96.000    9.257    0.241    0.423   90.454  171.537
   96.250    9.258    0.229    0.423   92.233  167.559
   96.500    9.429    0.236    0.447   88.059  160.601
   96.750    9.602    0.256    0.436   79.715  157.607
   97.000    9.603    0.254    0.419   73.754  157.602
   97.250    9.780    0.252    0.414   72.553  158.578
   97.500    9.781    0.218    0.417   73.741  158.578
   97.750    9.782    0.204    0.411   76.710  160.542
   98.000    9.782    0.217    0.417   78.492  158.546
   98.250    9.607    0.244    0.424   79.675  158.538
   98.500    9.608    0.252    0.416   79.671  158.528
   98.750    9.435    0.235    0.408   79.069  157.527
   99.000    9.436    0.242    0.415   77.276  157.514
   99.250    9.267    0.243    0.424   76.078  157.500
   99.500    9.268    0.237    0.430   74.285  157.495
   99.750    9.269    0.239    0.432   73.088  157.482
  100.000    9.102    0.246    0.436   71.295  158.464
  100.250    8.939    0.257    0.438   70.693  159.445
  100.500    8.779    0.261    0.432   71.280  161.417
  100.750    8.779    0.252    0.422   72.465  162.404
  101.000    8.622    0.238    0.423   73.057  164.376
  101.250    9.106    0.232    0.428   71.860  168.338
  101.500    9.444    0.218    0.416   67.683  176.265
  101.750   10.922    0.133    0.419   64.701  177.250
  102.000   16.591    0.067    0.450   60.526  164.336
  102.250   19.189    0.047    0.472   58.733  162.340
  102.500   19.542    0.104    0.484   62.895  163.320
  102.750   12.867    0.157    0.498   70.630  164.307
  103.000   11.331    0.214    0.475   81.939  167.274
  103.250    8.320    0.226    0.502   89.674  175.203
  103.500    6.813    0.260    0.509   97.410  189.088
  103.750    6.110    0.246    0.496   94.426  198.010
  104.000    5.786    0.247    0.496   92.037  198.990
  104.250    5.284    0.258    0.506   91.435  197.986
  104.500    4.914    0.259    0.499   91.427  201.946
  104.750    4.654    0.245    0.489   90.824  205.908
  105.000    4.915    0.244    0.481   90.224  213.838
  105.250    5.582    0.245    0.478   89.028  214.820
  105.500    6.003    0.245    0.468   87.830  209.843
  105.750    6.696    0.246    0.444   86.633  206.855
  106.000    6.696    0.243    0.443   85.434  209.822
  106.250    6.697    0.238    0.463   84.236  214.777
