~VERSION INFORMATION
 VERS.                 2.0:   CWLS LOG ASCII STANDARD -VERSION 2.0
 WRAP.                  NO:   ONE LINE PER DEPTH STEP
~WELL INFORMATION BLOCK
#MNEM.UNIT           DATA                    DESCRIPTION OF MNEMONIC
#---------    -------------------            -------------------------------
# Generated from Intellog Unique Number	CN_94_101/WELL/4984
WELL.         06-29-101-14W4                 : Well_name    - WELL
LOC .         AA/06-29-101-14W4/0            : Location     - LOCATION
UWI .         AA/06-29-101-14W400            : Uwi          - UNIQUE WELL ID
ENTR.         TIM                            : Entered      - ENTERED BY
SRVC.         SCHLUMBERGER                   : Scn          - SERVICE COMPANY
DATE.         08/11/92                       : Date         - LOG DATE
STRT.M        350                            : top_depth    - START DEPTH
STOP.M        540                            : bot_depth    - STOP DEPTH
STEP.M        0.25                           : increment    - STEP LENGTH
NULL. -999.2500:NULL Value
~CURVE INFORMATION BLOCK
#MNEM UNIT       ERCB CURVE CODE    CURVE DESCRIPTION
#-----------   ------------------   ----------------------------------
DEPT.M        00 001 00 00         : DEPTH        - DEPTH
GR  .API      00 310 00 00         : GR           - GAMMA RAY
ILD .OHMM     00 120 00 00         : RESD         - DEEP RESISTIVITY (DIL)
NPHI.V/V      00 330 00 00         : PHIN         - NEUTRON POROSITY (SANDSTONE)
DPHI.V/V      00 890 00 00         : PHID         - DENSITY POROSITY (SANDSTONE)
~PARAMETER INFORMATION
#MNEM.UNIT           DATA             DESCRIPTION OF MNEMONIC
#---------         -----------     ------------------------------
GL  .M        774.8                : gl           - GROUND LEVEL ELEVATION
EREF.M        778                  : kb           - ELEVATION OF DEPTH REFERENCE
DATM.M        778                  : datum        - DATUM ELEVATION
TDD .M        545                  : tdd          - TOTAL DEPTH DRILLER
RUN .         ONE                  : Run          - RUN NUMBER
ENG .         JO                   : Engineer     - RECORDING ENGINEER
WIT .         TIM                  : Witness      - WITNESSED BY
MUD .         GEL                  : Mud_type     - MUD TYPE
MATR.         SANDSTONE            : Logunit      - NEUTRON MATRIX
TMAX.C        17                   : BHT          - MAXIMUM RECORDED TEMPERATURE
BHTD.M        545                  : BHTDEP       - MAXIMUM RECORDED TEMPERATURE
RMT .C        10                   : MDTP         - TEMPERATURE OF MUD
MUDD.KG/M     1130                 : MWT          - MUD DENSITY
NEUT.         1                    : NEUTRON      - NEUTRON TYPE
RESI.         0                    : RESIST       - RESISTIVITY TYPE
RM  .OHMM     0.8                  : RM           - RESISTIVITY OF MUD
RMC .OHMM     0.8                  : RMC          - RESISTIVITY OF MUD CAKE
RMF .OHMM     0.8                  : RMF          - RESISTIVITY OF MUD FILTRATE
SUFT.C        4                    : SUFT         - SURFACE TEMPERATURE
~A  DEPTH       GR     RESD     PHIN     PHID
# ...
  437.000   72.664    5.021    0.504    0.334
  437.250   72.047    5.118    0.481    0.331
  437.500   72.052    5.118    0.459    0.321
  437.750   72.057    5.117    0.445    0.301
  438.000   72.684    4.737    0.457    0.281
  438.250   75.176    4.557    0.490    0.269
  438.500   80.782    4.384    0.510    0.287
  438.750   86.386    4.137    0.521    0.307
  439.000   85.769    4.058    0.533    0.308
  439.250   84.531    3.904    0.544    0.318
  439.500   83.913    3.903    0.537    0.329
  439.750   83.919    3.903    0.529    0.333
  440.000   83.922    3.902    0.519    0.343
  440.250   84.550    3.902    0.523    0.353
  440.500   84.555    3.901    0.540    0.376
  440.750   83.939    3.901    0.559    0.407
  441.000   83.320    4.053    0.575    0.424
  441.250   82.080    4.053    0.568    0.445
  441.500   82.085    4.131    0.507    0.454
  441.750   83.335    4.130    0.489    0.440
  442.000   85.207    4.292    0.474    0.361
  442.250   85.834    4.375    0.484    0.335
  442.500   86.460    4.459    0.502    0.341
  442.750   87.090    4.634    0.512    0.343
  443.000   88.336    4.723    0.503    0.338
  443.250   90.831    4.814    0.492    0.325
  443.500   93.325    4.907    0.476    0.299
  443.750   95.818    5.002    0.467    0.303
  444.000   96.445    4.906    0.466    0.309
  444.250   95.827    4.541    0.475    0.313
  444.500   94.587    4.124    0.497    0.308
  444.750   93.349    3.817    0.529    0.318
  445.000   94.600    3.672    0.551    0.323
  445.250   96.470    3.602    0.570    0.332
  445.500  100.208    3.465    0.569    0.315
  445.750  103.945    3.465    0.558    0.314
  446.000  108.305    3.398    0.543    0.317
  446.250  111.421    3.397    0.537    0.296
  446.500  113.295    3.397    0.535    0.291
  446.750  113.298    3.397    0.540    0.294
  447.000  112.681    3.462    0.545    0.306
  447.250  110.820    3.529    0.553    0.301
  447.500  107.713    3.597    0.549    0.282
  447.750  104.607    3.811    0.533    0.268
  448.000  103.370    4.036    0.509    0.251
  448.250  102.751    4.115    0.490    0.230
  448.500  103.379    4.530    0.476    0.225
  448.750  104.628    4.987    0.475    0.255
  449.000  104.011    5.597    0.471    0.273
  449.250  102.770    6.045    0.464    0.288
  449.500  100.910    6.527    0.475    0.296
  449.750  100.292    6.654    0.507    0.310
  450.000   98.431    6.782    0.486    0.334
  450.250   97.813    6.913    0.476    0.334
  450.500   97.197    6.912    0.470    0.318
  450.750   96.579    6.911    0.476    0.321
  451.000   95.339    6.778    0.485    0.319
  451.250   92.858    6.648    0.508    0.309
  451.500   91.619    6.520    0.509    0.319
  451.750   92.246    6.519    0.480    0.321
  452.000   94.117    6.645    0.452    0.293
  452.250   94.743    6.773    0.434    0.267
  452.500   96.615    6.772    0.429    0.252
  452.750   96.620    6.642    0.425    0.256
  453.000   95.380    6.268    0.426    0.266
  453.250   92.275    6.148    0.444    0.293
  453.500   90.414    6.029    0.456    0.314
  453.750   89.798    6.028    0.460    0.318
  454.000   89.179    6.264    0.455    0.307
  454.250   90.428    6.509    0.446    0.303
  454.500   94.166    6.635    0.440    0.282
  454.750   97.281    6.895    0.426    0.272
  455.000   99.153    7.027    0.410    0.264
  455.250   99.781    7.027    0.399    0.292
  455.500   98.542    7.026    0.431    0.300
  455.750   96.057    6.759    0.446    0.309
  456.000   94.817    6.257    0.473    0.363
  456.250   93.579    5.792    0.482    0.348
  456.500   92.962    5.572    0.463    0.323
  456.750   92.345    5.465    0.458    0.326
  457.000   92.350    5.361    0.467    0.330
  457.250   92.976    5.360    0.473    0.341
  457.500   92.981    5.463    0.479    0.357
  457.750   89.879    5.677    0.492    0.382
  458.000   89.259    5.786    0.515    0.434
  458.250   89.265    5.675    0.518    0.463
  458.500   89.891    5.356    0.503    0.429
  458.750   90.521    4.958    0.482    0.393
  459.000   90.523    4.590    0.491    0.372
  459.250   90.528    4.501    0.500    0.404
  459.500   90.533    4.861    0.514    0.420
  459.750   90.538    4.955    0.516    0.441
  460.000   89.301    5.149    0.497    0.472
  460.250   88.681    5.248    0.489    0.468
  460.500   88.066    5.349    0.490    0.445
  460.750   88.070    5.348    0.486    0.435
  461.000   88.698    5.348    0.479    0.420
  461.250   88.704    5.245    0.473    0.392
  461.500   88.706    4.950    0.461    0.355
  461.750   88.712    4.582    0.511    0.353
  462.000   89.338    4.161    0.532    0.377
  462.250   91.211    3.778    0.557    0.416
  462.500   94.326    3.498    0.572    0.395
  462.750   97.442    3.301    0.578    0.364
  463.000  101.180    3.115    0.577    0.356
  463.250  102.428    2.997    0.571    0.354
  463.500  103.677    2.996    0.541    0.343
  463.750  103.061    2.939    0.521    0.338
  464.000  103.066    2.669    0.516    0.331
  464.250  105.560    2.423    0.545    0.330
  464.500  107.431    2.243    0.573    0.335
  464.750  108.059    2.243    0.585    0.342
  465.000  106.820    2.286    0.588    0.347
  465.250  104.336    2.376    0.547    0.341
  465.500  100.607    2.718    0.522    0.343
  465.750   97.501    2.993    0.506    0.347
  466.000   94.396    3.424    0.493    0.351
  466.250   93.779    3.917    0.488    0.354
  466.500   96.272    4.231    0.482    0.352
  466.750   96.277    4.658    0.471    0.346
  467.000   98.770    5.030    0.458    0.330
  467.250  100.020    5.328    0.457    0.314
  467.500  100.026    5.866    0.459    0.302
  467.750  100.031    6.214    0.457    0.297
  468.000  100.036    6.582    0.454    0.315
  468.250  100.042    6.710    0.462    0.307
  468.500  100.044    6.709    0.470    0.299
  468.750  100.049    6.580    0.477    0.300
  469.000  100.677    6.453    0.483    0.305
  469.250  101.305    6.208    0.475    0.309
  469.500  101.309    6.207    0.475    0.321
  469.750  100.072    6.088    0.478    0.331
  470.000   99.453    5.971    0.479    0.339
  470.250   98.836    5.970    0.477    0.330
  470.500  100.087    5.969    0.456    0.288
  470.750  100.714    5.855    0.454    0.278
  471.000  101.962    5.632    0.462    0.306
  471.250  102.589    5.524    0.469    0.332
  471.500  103.839    5.418    0.474    0.339
  471.750  103.844    5.314    0.481    0.341
  472.000  103.228    5.212    0.490    0.336
  472.250  101.986    5.211    0.521    0.337
  472.500   99.505    5.210    0.554    0.365
  472.750   98.263    5.210    0.569    0.375
  473.000   94.538    5.413    0.541    0.386
  473.250   93.297    5.735    0.504    0.375
  473.500   91.437    5.959    0.481    0.336
  473.750   90.818    6.435    0.458    0.271
  474.000   90.823    6.687    0.443    0.261
  474.250   89.583    6.816    0.437    0.249
  474.500   86.479    6.815    0.420    0.208
  474.750   83.995    6.814    0.390    0.168
  475.000   82.756    6.813    0.396    0.146
  475.250   85.870    6.682    0.407    0.200
  475.500   89.609    6.429    0.420    0.222
  475.750   90.236    6.305    0.441    0.265
  476.000   90.240    5.837    0.459    0.277
  476.250   90.248    5.403    0.475    0.287
  476.500   90.250    5.002    0.499    0.303
  476.750   91.500    4.720    0.520    0.311
  477.000   95.239    4.541    0.533    0.327
  477.250   96.489    4.629    0.538    0.340
  477.500   96.492    4.718    0.534    0.342
  477.750   96.499    4.717    0.532    0.339
  478.000   96.502    4.627    0.527    0.334
  478.250   95.886    4.283    0.521    0.329
  478.500   95.269    4.201    0.518    0.321
  478.750   95.896    3.964    0.522    0.321
  479.000   98.390    3.670    0.542    0.328
  479.250  100.883    3.463    0.553    0.333
  479.500  101.510    3.332    0.560    0.350
  479.750  101.514    3.145    0.564    0.359
  480.000   99.653    2.967    0.570    0.358
  480.250   98.413    2.747    0.575    0.349
