~VERSION INFORMATION
 VERS.                 2.0:   CWLS LOG ASCII STANDARD -VERSION 2.0
 WRAP.                  NO:   ONE LINE PER DEPTH STEP
~WELL INFORMATION BLOCK
#MNEM.UNIT           DATA                    DESCRIPTION OF MNEMONIC
#---------    -------------------            -------------------------------
# Generated from Intellog Unique Number	CN_94_101/WELL/3242
WELL.         01-36-096-09W4                 : Well_name    - WELL
LOC .         AA/01-36-096-09W4/0            : Location     - LOCATION
UWI .         AA/01-36-096-09W400            : Uwi          - UNIQUE WELL ID
ENTR.         JOETTE                         : Entered      - ENTERED BY
SRVC.         SCHLUMBERGER                   : Scn          - SERVICE COMPANY
DATE.         07/20/92                       : Date         - LOG DATE
STRT.M        0                              : top_depth    - START DEPTH
STOP.M        90                             : bot_depth    - STOP DEPTH
STEP.M        0.25                           : increment    - STEP LENGTH
 NULL. -999.2500:NULL Value
~CURVE INFORMATION BLOCK
#MNEM UNIT       ERCB CURVE CODE    CURVE DESCRIPTION
#-----------   ------------------   ----------------------------------
DEPT.M        00 001 00 00         : DEPTH        - DEPTH
GR  .API      00 310 00 00         : GR           - GAMMA RAY
ILD .OHMM     00 120 00 00         : RESD         - DEEP RESISTIVITY (DIL)
RHOB.KG/M3    00 350 00 00         : DENS         - BULK DENSITY
NPHI.V/V      00 330 00 00         : PHIN         - NEUTRON POROSITY (SANDSTONE)
DPHI.V/V      00 890 00 00         : PHID         - DENSITY POROSITY (SANDSTONE)
~PARAMETER INFORMATION
#MNEM.UNIT           DATA             DESCRIPTION OF MNEMONIC
#---------         -----------     ------------------------------
GL  .M        289.24               : gl           - GROUND LEVEL ELEVATION
EREF.M        289.24               : kb           - ELEVATION OF DEPTH REFERENCE
DATM.M        289.24               : datum        - DATUM ELEVATION
TDD .M        94.8                 : tdd          - TOTAL DEPTH DRILLER
RUN .         ONE                  : Run          - RUN NUMBER
ENG .         JO                   : Engineer     - RECORDING ENGINEER
WIT .         TIM                  : Witness      - WITNESSED BY
MUD .         GEL                  : Mud_type     - MUD TYPE
MATR.         SANDSTONE            : Logunit      - NEUTRON MATRIX
TMAX.C        5                    : BHT          - MAXIMUM RECORDED TEMPERATURE
BHTD.M        94.8                 : BHTDEP       - MAXIMUM RECORDED TEMPERATURE
RMT .C        5                    : MDTP         - TEMPERATURE OF MUD
MUDD.KG/M     1090                 : MWT          - MUD DENSITY
NEUT.         1                    : NEUTRON      - NEUTRON TYPE
RESI.         0                    : RESIST       - RESISTIVITY TYPE
RM  .OHMM     5.75                 : RM           - RESISTIVITY OF MUD
RMC .OHMM     5.75                 : RMC          - RESISTIVITY OF MUD CAKE
RMF .OHMM     5.75                 : RMF          - RESISTIVITY OF MUD FILTRATE
SUFT.C        4                    : SUFT         - SURFACE TEMPERATURE
~A  DEPTH       GR     RESD     DENS     PHIN     PHID
    0.000    8.505    0.000 1925.820    0.590    0.439
    0.250    6.650    0.000 1923.920    0.593    0.440
    0.500    6.206    0.000 1924.020    0.595    0.440
    0.750    5.299    0.000 1910.070    0.595    0.448
    1.000    5.336    0.000 1902.150    0.596    0.453
    1.250    5.832    0.000 1920.310    0.596    0.442
    1.500    6.813    0.000 1958.500    0.596    0.419
    1.750    7.790    0.000 2066.860    0.596    0.353
    2.000    7.819    0.000 2028.870    0.596    0.376
    2.250    7.383    0.000 2026.960    0.596    0.378
    2.500    7.888    0.000 1978.940    0.596    0.407
    2.750   10.285    0.000 1950.980    0.596    0.424
    3.000   12.678    0.000 1997.180    0.593    0.396
    3.250   16.955    0.000 2007.300    0.590    0.390
    3.500   21.241    0.000 2101.640    0.587    0.332
    3.750   26.470    0.000 2751.360    0.579   -0.061
    4.000   30.747    0.000 2781.540    0.569   -0.080
    4.250   37.393    0.000 2781.630    0.562   -0.080
    4.500   37.422    0.000 2777.710    0.562   -0.077
    4.750   32.262    0.000 2759.770    0.562   -0.067
    5.000   33.711    0.000 2743.840    0.562   -0.057
    5.250   30.911    0.000 2755.950    0.559   -0.064
    5.500   23.391    0.000 2794.160    0.550   -0.087
    5.750   17.291    0.000 2806.290    0.543   -0.095
    6.000   17.791    0.000 2800.370    0.536   -0.091
    6.250   17.352    0.000 2832.530    0.531   -0.111
    6.500   16.917    0.000 2814.600    0.532   -0.100
    6.750   17.430    0.000 2756.560    0.533   -0.065
    7.000   17.922    0.000 2788.730    0.539   -0.084
    7.250   18.427    0.000 2766.790    0.542   -0.071
    7.500   18.459    0.000 2740.810    0.542   -0.055
    7.750   15.188    0.000 2748.930    0.542   -0.060
    8.000   16.165    0.000 2749.030    0.543   -0.060
    8.250   16.673    0.000 2737.100    0.543   -0.053
    8.500   19.066    0.000 2723.160    0.544   -0.044
    8.750   22.876    0.000 2777.390    0.544   -0.077
    9.000   22.908    0.000 2793.540    0.545   -0.087
    9.250   27.662    0.000 2799.640    0.549   -0.091
    9.500   30.999    0.000 2789.710    0.552   -0.085
    9.750   30.559    0.000 2765.780    0.556   -0.070
   10.000   25.404    0.000 2755.830    0.556   -0.064
   10.250   24.016    0.000 2667.710    0.556   -0.011
   10.500   22.160    0.000 2693.870    0.557   -0.027
   10.750   20.305    0.000 2702.000    0.558   -0.032
   11.000   20.350    0.000 2736.170    0.558   -0.052
   11.250   21.318    0.000 2615.980    0.558    0.021
   11.500   20.883    0.000 2614.070    0.558    0.022
   11.750   23.280    0.000 2674.310    0.558   -0.015
   12.000   24.721    0.000 2722.540    0.559   -0.044
   12.250   22.865    0.000 2760.730    0.559   -0.067
   12.500   24.786    0.000 2897.160    0.552   -0.150
   12.750   25.295    0.000 2873.220    0.542   -0.135
   13.000   24.384    0.000 2855.260    0.540   -0.124
   13.250   25.357    0.000 2787.190    0.538   -0.083
   13.500   27.758    0.000 2773.250    0.538   -0.075
   13.750   29.671    0.000 2779.370    0.537   -0.078
   14.000   26.403    0.000 2699.270    0.536   -0.030
   14.250   24.551    0.000 2657.280    0.538   -0.004
   14.500   26.468    0.000 2637.320    0.544    0.008
   14.750   28.865    0.000 2723.620    0.545   -0.045
   15.000   29.842    0.000 2836.010    0.543   -0.113
   15.250   29.871    0.000 2878.210    0.537   -0.138
   15.500   30.375    0.000 2792.110    0.533   -0.086
   15.750   32.769    0.000 2858.360    0.524   -0.126
   16.000   36.586    0.000 2828.380    0.524   -0.108
   16.250   34.250    0.000 2790.380    0.528   -0.085
   16.500   27.206    0.000 2796.510    0.535   -0.089
   16.750   23.934    0.000 2808.640    0.539   -0.096
   17.000   20.190    0.000 2794.690    0.536   -0.088
   17.250   18.335    0.000 2794.800    0.533   -0.088
   17.500   20.728    0.000 2776.850    0.530   -0.077
   17.750   22.177    0.000 2760.900    0.529   -0.067
   18.000   19.381    0.000 2791.070    0.527   -0.085
   18.250   16.581    0.000 2803.200    0.522   -0.093
   18.500   17.086    0.000 2831.380    0.505   -0.110
   18.750   17.591    0.000 2845.500    0.506   -0.118
   19.000   19.984    0.000 2777.430    0.513   -0.077
   19.250   19.073    0.000 2759.480    0.520   -0.066
   19.500   18.157    0.000 2805.700    0.523   -0.094
   19.750   19.134    0.000 2825.860    0.521   -0.107
   20.000   21.531    2.209 2819.940    0.520   -0.103
   20.250   19.671    2.211 2818.040    0.520   -0.102
   20.500   18.292    2.212 2776.030    0.519   -0.076
   20.750   19.741    2.283 2659.830    0.515   -0.006
   21.000   24.494    2.466 2465.450    0.509    0.112
   21.250   24.063   28.691 2249.010    0.500    0.243
   21.500   23.624   86.026 2188.960    0.465    0.279
   21.750   23.180  118.564 2205.100    0.472    0.270
   22.000   25.569  103.451 2125.010    0.490    0.318
   22.250   31.267   75.188 2197.270    0.485    0.274
   22.500   34.604   67.628 2259.540    0.478    0.237
   22.750   35.112   53.852 2203.480    0.487    0.271
   23.000   33.725   61.818 2173.520    0.494    0.289
   23.250   33.294   61.867 2217.740    0.494    0.262
   23.500   32.854   41.662 2203.790    0.497    0.270
   23.750   32.411   30.742 2173.820    0.499    0.289
   24.000   26.783   54.898 2153.890    0.499    0.301
   24.250   25.867  150.219 2168.000    0.492    0.292
   24.500   22.604  369.425 2244.280    0.479    0.246
   24.750   20.272  867.995 2204.280    0.469    0.270
   25.000   17.000 1178.320 2196.360    0.461    0.275
   25.250   16.557 1332.020 2220.520    0.458    0.260
   25.500   18.478 1254.380 2232.650    0.457    0.253
   25.750   18.038 1236.520 2178.610    0.457    0.286
   26.000   19.491 1146.600 2142.630    0.462    0.307
   26.250   20.936 1000.360 2142.720    0.469    0.307
   26.500   22.857  643.551 2148.840    0.479    0.304
   26.750   22.890  296.086 2130.890    0.482    0.315
   27.000   26.707  158.646 2120.960    0.483    0.321
   27.250   31.461   59.867 2151.130    0.482    0.302
   27.500   39.514   10.387 2257.500    0.479    0.238
   27.750   57.013    9.632 2357.840    0.489    0.177
   28.000   58.466    8.029 2394.030    0.498    0.155
   28.250   62.280    6.591 2416.200    0.506    0.142
   28.500   57.588    7.452 2322.050    0.509    0.199
   28.750   43.931   18.893 2125.680    0.503    0.318
   29.000   42.079   26.444 2244.060    0.488    0.246
   29.250   41.168   21.707 2364.450    0.462    0.173
   29.500   40.256   15.300 2280.340    0.458    0.224
   29.750   38.397   10.787 2314.520    0.464    0.203
   30.000   39.373    9.128 2232.420    0.474    0.253
   30.250   32.801    8.998 2118.240    0.478    0.322
   30.500   20.556   10.488 2150.430    0.470    0.303
   30.750   16.812   14.902 2142.490    0.466    0.308
   31.000   19.681   27.856 2130.570    0.466    0.315
   31.250   23.959   38.985 2128.660    0.472    0.316
   31.500   31.544   25.077 2130.760    0.483    0.315
   31.750   44.799   15.412 2259.180    0.497    0.237
   32.000   37.747   37.332 2177.070    0.496    0.287
   32.250   22.673   69.785 2195.240    0.459    0.276
   32.500   19.410   89.123 2201.340    0.455    0.272
   32.750   22.747   90.573 2203.440    0.456    0.271
   33.000   27.500   43.620 2163.450    0.471    0.295
   33.250   32.721   25.220 2191.610    0.475    0.278
   33.500   40.779   16.226 2177.670    0.469    0.286
   33.750   38.452   20.410 2219.870    0.461    0.261
   34.000   34.708   21.060 2276.110    0.455    0.227
   34.250   28.608   20.131 2292.240    0.450    0.217
   34.500   28.169   17.565 2216.160    0.450    0.263
   34.750   26.785   18.684 2204.220    0.450    0.270
   35.000   26.341   20.489 2228.380    0.451    0.256
   35.250   27.326   20.507 2222.480    0.456    0.259
   35.500   28.295   19.310 2184.470    0.462    0.282
   35.750   28.328   17.906 2090.350    0.462    0.339
   36.000   24.588   20.247 2130.530    0.460    0.315
   36.250   25.565   20.573 2128.630    0.462    0.316
