~VERSION INFORMATION
 VERS.                 2.0:   CWLS LOG ASCII STANDARD -VERSION 2.0
 WRAP.                  NO:   ONE LINE PER DEPTH STEP
~WELL INFORMATION BLOCK
#MNEM.UNIT           DATA                    DESCRIPTION OF MNEMONIC
#---------    -------------------            -------------------------------
# Generated from Intellog Unique Number	CN_94_101/WELL/3562
WELL.         09-24-096-11W4                 : Well_name    - WELL
LOC .         AA/09-24-096-11W4/0            : Location     - LOCATION
UWI .         AA/09-24-096-11W400            : Uwi          - UNIQUE WELL ID
ENTR.         JOETTE                         : Entered      - ENTERED BY
SRVC.         SCHLUMBERGER                   : Scn          - SERVICE COMPANY
DATE.         07/30/92                       : Date         - LOG DATE
STRT.M        12                             : top_depth    - START DEPTH
STOP.M        151.25                         : bot_depth    - STOP DEPTH
STEP.M        0.25                           : increment    - STEP LENGTH
 NULL. -999.2500:NULL Value
~CURVE INFORMATION BLOCK
#MNEM UNIT       ERCB CURVE CODE    CURVE DESCRIPTION
#-----------   ------------------   ----------------------------------
DEPT.M        00 001 00 00         : DEPTH        - DEPTH
ILD .OHMM     00 120 00 00         : RESD         - DEEP RESISTIVITY (DIL)
GR  .API      00 310 00 00         : GR           - GAMMA RAY
NPHI.V/V      00 330 00 00         : PHIN         - NEUTRON POROSITY (SANDSTONE)
~PARAMETER INFORMATION
#MNEM.UNIT           DATA             DESCRIPTION OF MNEMONIC
#---------         -----------     ------------------------------
GL  .M        0                    : gl           - GROUND LEVEL ELEVATION
EREF.M        285                  : kb           - ELEVATION OF DEPTH REFERENCE
DATM.M        285                  : datum        - DATUM ELEVATION
TDD .M        154.4                : tdd          - TOTAL DEPTH DRILLER
RUN .         ONE                  : Run          - RUN NUMBER
ENG .         TIM                  : Engineer     - RECORDING ENGINEER
WIT .         JIM                  : Witness      - WITNESSED BY
MUD .         GEL                  : Mud_type     - MUD TYPE
MATR.         SANDSTONE            : Logunit      - NEUTRON MATRIX
TMAX.C        18                   : BHT          - MAXIMUM RECORDED TEMPERATURE
BHTD.M        154.4                : BHTDEP       - MAXIMUM RECORDED TEMPERATURE
RMT .C        18                   : MDTP         - TEMPERATURE OF MUD
MUDD.KG/M     1100                 : MWT          - MUD DENSITY
NEUT.         1                    : NEUTRON      - NEUTRON TYPE
RESI.         0                    : RESIST       - RESISTIVITY TYPE
RM  .OHMM     4.18                 : RM           - RESISTIVITY OF MUD
RMC .OHMM     4.18                 : RMC          - RESISTIVITY OF MUD CAKE
RMF .OHMM     4.18                 : RMF          - RESISTIVITY OF MUD FILTRATE
SUFT.C        4                    : SUFT         - SURFACE TEMPERATURE
~A  DEPTH     RESD       GR     PHIN
   12.000   28.577   51.685    0.422
   12.250   28.253   46.048    0.415
   12.500   28.607   52.378    0.434
   12.750   27.304   59.338    0.418
   13.000   21.073   59.996    0.407
   13.250   19.416   40.486    0.423
   13.500   26.088   36.103    0.447
   13.750   22.926   51.256    0.459
   14.000   21.372   52.544    0.446
   14.250   15.921   55.723    0.473
   14.500   18.794   54.490    0.430
   14.750   16.514   72.171    0.412
   15.000   13.521   72.198    0.426
   15.250   21.429   65.924    0.481
   15.500   25.293   83.605    0.511
   15.750   15.975   94.339    0.523
   16.000   11.764   85.544    0.530
   16.250   12.051   91.250    0.538
   16.500   11.777   93.799    0.566
   16.750   11.643   83.113    0.540
   17.000   11.513   77.475    0.535
   17.250   11.384   78.126    0.524
   17.500   14.251   86.347    0.540
   17.750   17.843   80.703    0.514
   18.000   18.495   92.704    0.508
   18.250    9.905   96.513    0.537
   18.500    9.678   78.265    0.574
   18.750    8.113   86.485    0.594
   19.000    8.511   91.555    0.565
   19.250    8.316   92.850    0.552
   19.500    8.031   85.315    0.561
   19.750    8.327   94.172    0.586
   20.000    7.946   86.631    0.575
   20.250    7.951   77.205    0.549
   20.500    8.950   82.281    0.536
   20.750   15.773   82.302    0.490
   21.000   15.414   96.195    0.451
   21.250    7.511   96.853    0.550
   21.500    8.456   83.015    0.547
   21.750    7.976   88.085    0.544
   22.000    7.349   96.942    0.596
   22.250    7.440  100.752    0.592
   22.500    7.270  108.979    0.586
   22.750    6.465  100.807    0.590
   23.000    6.027  112.179    0.577
   23.250    6.396  114.727    0.574
   23.500    7.913  109.713    0.576
   23.750    8.301  107.220    0.587
   24.000    7.381  109.138    0.597
   24.250    6.564   92.780    0.596
   24.500    7.217   87.136    0.565
   24.750    9.034   84.012    0.535
   25.000    9.039  112.414    0.550
   25.250    5.320  114.956    0.592
   25.500    5.018   97.337    0.610
   25.750    6.663   97.365    0.603
   26.000    6.285   89.199    0.560
   26.250    8.151   94.899    0.573
   26.500    8.350   81.069    0.594
   26.750    6.296   97.482    0.600
   27.000    6.602  111.375    0.557
   27.250    6.376  124.637    0.540
   27.500    6.609  132.228    0.520
   27.750    7.894  137.297    0.514
   28.000   13.270  105.814    0.494
   28.250   13.122   89.455    0.488
   28.500   11.263   76.872    0.532
   28.750    9.898   92.039    0.599
   29.000    9.118   93.320    0.620
   29.250    4.444   69.399    0.603
   29.500    4.343   83.299    0.599
   29.750    4.294   87.101    0.602
   30.000    4.297   88.389    0.609
   30.250    4.299   75.189    0.611
   30.500    4.404   78.991    0.612
   30.750    4.458   80.279    0.620
   31.000    4.513  100.481    0.606
   31.250    4.623   77.183    0.601
   31.500    4.907   82.890    0.619
   31.750    5.332   83.555    0.529
   32.000    6.293   87.987    0.511
   32.250   13.239   84.233    0.529
   32.500    8.263   96.872    0.546
   32.750    5.282   95.002    0.550
   33.000    5.807   76.754    0.566
   33.250    6.236   69.225    0.573
   33.500    7.447   64.835    0.533
   33.750    9.890   66.753    0.516
   34.000    9.329   75.604    0.496
   34.250    5.176   86.982    0.532
   34.500    5.057   85.750    0.560
   34.750    5.431  100.272    0.604
   35.000    5.434   83.284    0.581
   35.250    5.503   83.942    0.580
   35.500    5.129   83.339    0.581
   35.750    5.706   75.805    0.596
   36.000    5.709   84.025    0.600
   36.250    5.450   84.690    0.573
   36.500    5.202   99.850    0.568
   36.750    5.143  103.652    0.567
   37.000    5.207   99.268    0.588
   37.250    5.397   89.849    0.597
   37.500    6.917   84.828    0.537
   37.750    9.977   82.335    0.519
   38.000    8.463   96.228    0.548
   38.250    6.086   88.693    0.594
   38.500    6.309   99.441    0.576
   38.750    7.714   86.857    0.551
   39.000    5.884   85.624    0.580
   39.250    5.550  111.498    0.598
   39.500    5.754   97.661    0.602
   39.750    5.557  103.368    0.606
   40.000    6.109   80.063    0.604
   40.250    6.408   59.294    0.586
   40.500    6.963   70.035    0.571
   40.750   47.084   75.118    0.425
   41.000   32.684   68.837    0.479
   41.250   13.662   19.070    0.484
   41.500   27.093   24.140    0.456
   41.750   40.004   26.688    0.431
   42.000   81.227   27.976    0.415
   42.250   77.525   23.599    0.400
   42.500  150.160   24.250    0.393
   42.750  261.521   29.950    0.388
   43.000  171.143   28.101    0.386
   43.250  214.243   28.122    0.388
   43.500  312.675   19.326    0.389
   43.750  183.989   30.705    0.401
   44.000  320.482   28.842    0.408
   44.250  356.561   26.341    0.387
   44.500  356.753   26.999    0.403
   44.750  295.565   35.220    0.400
   45.000  144.014   30.206    0.404
   45.250  225.591   30.864    0.411
   45.500  152.946   33.412    0.416
   45.750  166.198   39.119    0.432
   46.000  210.548   35.365    0.427
   46.250  164.426   39.174    0.426
   46.500  137.841   44.244    0.393
   46.750  101.509   43.641    0.385
   47.000   90.254   33.585    0.397
   47.250   95.787   34.243    0.418
   47.500  101.660   39.313    0.436
   47.750  105.378   41.238    0.423
   48.000   81.340   39.368    0.428
   48.250  101.824   38.149    0.412
   48.500   41.082   36.909    0.411
   48.750   87.445   51.432    0.418
   49.000   44.672   58.392    0.415
   49.250   44.696   61.571    0.437
   49.500   54.007   54.036    0.451
   49.750   83.596   42.720    0.431
   50.000  109.718   41.487    0.425
   50.250   45.867   54.119    0.428
   50.500   40.781   63.614    0.465
   50.750   39.385   53.551    0.459
   51.000   38.488   49.798    0.448
   51.250   40.368   47.935    0.444
   51.500   37.190   50.483    0.426
   51.750   47.673   52.401    0.425
   52.000   44.434   49.908    0.445
   52.250   89.164   56.868    0.453
   52.500   54.364   36.729    0.430
   52.750   69.679   40.538    0.412
   53.000  194.529   48.759    0.447
   53.250   95.908   58.246    0.409
   53.500   55.782   50.074    0.404
   53.750   74.949   56.411    0.434
   54.000   55.187   71.564    0.442
   54.250   68.275  103.740    0.442
   54.500   38.329  105.028    0.436
   54.750   22.554   56.522    0.454
   55.000   27.580   33.861    0.492
   55.250   42.690   63.510    0.449
   55.500   47.496   79.300    0.405
   55.750  195.710   74.286    0.393
   56.000  292.406   52.879    0.379
   56.250  225.705   27.698    0.391
   56.500  153.024   40.960    0.409
   56.750   90.045   29.651    0.437
   57.000  178.594   45.434    0.402
   57.250  102.641   59.957    0.406
   57.500   56.939   67.547    0.421
   57.750   44.472   51.819    0.428
   58.000   35.564   37.359    0.407
   58.250   68.884   55.026    0.391
   58.500   47.810   63.246    0.390
   58.750   39.610   65.802    0.403
   59.000   43.559   60.788    0.420
   59.250   46.771   64.597    0.432
   59.500   43.606   65.261    0.399
   59.750   40.167   70.324    0.396
   60.000   36.141   58.377    0.415
   60.250   34.495   64.077    0.434
   60.500   50.940   65.995    0.447
   60.750   75.216   42.075    0.441
   61.000   59.452   42.102    0.430
   61.250   55.413   50.953    0.415
   61.500   40.802   56.023    0.406
   61.750   37.594   56.050    0.400
   62.000   39.894   54.818    0.408
   62.250   41.353   65.566    0.423
   62.500   31.550   61.182    0.425
   62.750   27.723   69.403    0.458
   63.000   25.540   70.691    0.466
   63.250   28.415   82.700    0.451
   63.500   14.862   96.599    0.458
   63.750   19.504   79.604    0.446
   64.000   13.862  101.696    0.454
   64.250   15.242  101.717    0.489
   64.500   15.799   91.661    0.476
   64.750   12.936   94.210    0.476
   65.000   14.736   98.649    0.479
   65.250   12.650  101.828    0.478
   65.500   14.926   93.032    0.506
   65.750   13.431  109.453    0.478
   66.000   15.120  113.269    0.449
