~Version : LASO    vs 4.00
VERS.                2.00:   CWLS Log ASCII Standard -VERSION 2.0
WRAP.                  NO:
~Well Information Block
#MNEM.UNIT       Data                        Description of Mnemonic
#----.----      -------------------------- : -----------------------------
STRT.M            11.0000:
STOP.M           176.0000:
STEP.M             0.1000:
NULL.           -999.2500:
COMP.  MOBIL OIL CANADA LTD.  :COMPANY
WELL.  MOBIL CLARKE OV 5-32   :WELL
FLD.   CLARKE                 :FIELD
LOC.   05-32-089-08W4         :LOCATION
CTRY.  CANADA                 :COUNTRY
PROV.  ALBERTA                :PROVINCE
SRVC.  SCHLUMBERGER           :SERVICE COMPANY
DATE.  04-MAR-81              :LOG DATE
UWI.   AA/05-32-089-08W400    :UNIQUE WELL ID
~Parameter Information Block
#MNEM.UNIT       Data                        Description of Mnemonic
#----.----      -------------------------- : -----------------------------
RUN .                   1                 : Run Number
GL  .M           391.1000                 : Ground Level Elevation
DREF.                  KB                 : Depth Reference
EREF.M           394.5000                 : Elevation of Depth Reference
TDL .M           176.5000                 : Total Depth Logger
TDD .M           174.0000                 : Total Depth Driller
CSGL.M            16.0000                 : Casing Bottom Logger
CSGD.M            14.6000                 : Casing Bottom Driller
CSGS.MM          219.0000                 : Casing Size
CSGW.KG/M          0.0000                 : Casing Weight
BHT .DEGC         23.0000                 : Bottom Hole Temperature
BS  .MM          159.0000                 : Bit Size
DFD .           1110.0000                 : Mud Weight (Density)
DFV .             90.0000                 : Mud Viscosity
DFPH.             10.0000                 : Mud pH
RM  .OHMM          1.9600                 : Mud Resistivity
RMT .DEGC         20.0000                 : Mud Resistivity Temperature
~Curve Information Block
#MNEM.UNIT        API CODE    Curve Description
#---------    ------------    -------------------------------------------
DEPT.M                    :   DEPTH
CALI.MM       42 280  1  1:   3 DENSITY CALIPER
DPHI.V/V                  :   DPHI
DT  .US/M     60 520  0  1:   2 SONIC INTERVAL TRANSIT TIME (COMPENSATED)
GR  .GAPI     42 310  1  1:   4 GAMMA RAY
ILD .OHMM      5 120 46  1:   6 DEEP INDUCTION
ILM .OHMM      5 120 44  1:   7 MEDIUM INDUCTION
NPHI.V/V                  :   NPHI
RHOB.K/M3     42 350  1  1:   5 BULK DENSITY
SFLU.OHMM      5 220  1  1:   8 FOCUSSED RESISTIVITY
SP  .MV        5  10  1  1:   9 SPONTANEOUS POTENTIAL
~A  Depth           CALI        DPHI          DT          GR         ILD         ILM        NPHI        RHOB        SFLU          SP
# ...
59.8000         185.1250      0.2553    544.4400    108.7500      2.9911      2.6292      0.4876   2197.0000      2.4201    -88.5000
59.9000         185.1250      0.2499    536.2800    107.3850      2.9911      2.6292      0.4832   2197.0000      2.4201    -88.5000
60.0000         183.8750      0.2452    529.8000    106.0350      3.4027      3.0749      0.4807   2214.0000      2.5109    -88.7550
60.1000         183.8750      0.2421    524.0400    104.6700      3.4027      3.0749      0.4764   2214.0000      2.5109    -88.7550
60.2000         183.8750      0.2382    518.1600    104.1750      3.6629      3.4027      0.4754   2237.0000      3.1610    -89.0100
60.3000         183.8750      0.2332    513.2800    103.6800      3.6629      3.4027      0.4744   2237.0000      3.1610    -89.0100
60.4000         183.8750      0.2300    511.9600    103.1850      3.9069      3.6968      0.4733   2246.0000      4.2056    -89.2500
60.5000         183.8750      0.2262    512.2800    102.8250      3.9069      3.6968      0.4731   2246.0000      4.2056    -89.2500
60.6000         183.8750      0.2212    513.0800    104.0100      4.2056      3.9795      0.4740   2250.8999      5.1031    -89.5050
60.7000         183.8750      0.2212    514.3600    104.9250      4.2056      3.9795      0.4746   2250.8999      5.1031    -89.5050
60.8000         183.8750      0.2242    515.4000    105.8550      4.8287      4.4446      0.4752   2280.0000      5.0099    -89.7600
60.9000         183.8750      0.2295    516.2400    106.8600      4.8287      4.4446      0.4787   2280.0000      5.0099    -89.7600
61.0000         183.8750      0.2307    517.0000    108.0750      5.1031      4.6540      0.4811   2292.0000      5.0563    -89.7600
61.1000         183.8750      0.2288    517.3200    107.2650      5.1031      4.6540      0.4865   2292.0000      5.0563    -89.7600
61.2000         185.1250      0.2285    517.6400    106.2600      5.2946      4.7844      0.4873   2267.0000      5.1979    -89.7600
61.3000         185.1250      0.2302    517.3200    105.4500      5.2946      4.7844      0.4823   2267.0000      5.1979    -89.7600
61.4000         186.4000      0.2351    516.0400    106.1850      5.6472      5.1031      0.4772   2278.0000      4.7406    -90.0000
61.5000         186.4000      0.2412    513.8000    106.8000      5.6472      5.1031      0.4727   2278.0000      4.7406    -90.0000
61.6000         185.1250      0.2438    511.4400    107.4000      5.8591      5.3930      0.4706   2270.0000      4.6971    -90.2550
61.7000         185.1250      0.2445    508.3600    107.8650      5.8591      5.3930      0.4725   2270.0000      4.6971    -90.2550
61.8000         182.5750      0.2474    505.5600    108.3300      6.0232      5.6994      0.4754   2256.0000      5.2460    -90.2550
61.9000         182.5750      0.2475    503.2000    108.7950      6.0232      5.6994      0.4789   2256.0000      5.2460    -90.2550
62.0000         181.3000      0.2437    503.7200    109.6500      6.1920      6.0232      0.4826   2238.0000      6.8522    -90.5100
62.1000         181.3000      0.2389    504.3600    110.7900      6.1920      6.0232      0.4847   2238.0000      6.8522    -90.5100
62.2000         180.0250      0.2345    505.4800    111.9300      6.3071      5.9680      0.4810   2240.0000      7.2415    -90.7500
62.3000         180.0250      0.2266    507.1600    113.1000      6.3071      5.9680      0.4740   2240.0000      7.2415    -90.7500
62.4000         180.0250      0.2193    508.8000    114.3300      6.3655      5.8591      0.4677   2245.0000      6.8522    -90.7500
62.5000         180.0250      0.2149    509.7200    114.3600      6.3655      5.8591      0.4615   2245.0000      6.8522    -90.7500
62.6000         185.1250      0.2126    508.8400    114.3900      6.6043      5.9680      0.4554   2306.0000      5.1979    -90.5100
62.7000         185.1250      0.2093    503.6000    114.4200      6.6043      5.9680      0.4501   2306.0000      5.1979    -90.5100
62.8000         183.8750      0.2092    499.6800    114.4500      6.6655      6.0790      0.4467   2299.0000      5.0563    -90.2550
62.9000         183.8750      0.2107    499.6800    114.4500      6.6655      6.0790      0.4418   2299.0000      5.0563    -90.2550
63.0000         185.1250      0.2104    495.5600    114.4500      6.7894      6.3071      0.4375   2295.0000      5.3436    -90.5100
63.1000         185.1250      0.2120    489.6400    114.1800      6.7894      6.3071      0.4345   2295.0000      5.3436    -90.5100
63.2000         182.5750      0.2159    484.8000    113.5050      7.1751      6.9796      0.4324   2298.0000      6.6043    -91.5000
63.3000         182.5750      0.2153    481.0400    112.8450      7.1751      6.9796      0.4303   2298.0000      6.6043    -91.5000
63.4000         181.3000      0.2151    478.3200    112.2750      7.5828      7.3085      0.4273   2298.0000      7.9402    -92.0100
63.5000         181.3000      0.2205    476.6400    111.7050      7.5828      7.3085      0.4243   2298.0000      7.9402    -92.0100
63.6000         180.0250      0.2296    475.0400    109.7700      7.9402      7.6530      0.4239   2294.0000      9.4587    -93.0000
63.7000         180.0250      0.2368    474.0000    107.8350      7.9402      7.6530      0.4288   2294.0000      9.4587    -93.0000
63.8000         180.0250      0.2464    473.4400    104.3850      8.3144      7.9402      0.4309   2283.0000     10.5640    -94.0050
63.9000         180.0250      0.2520    472.9600    100.9350      8.3144      7.9402      0.4310   2283.0000     10.5640    -94.0050
64.0000         176.2000      0.2468    476.8400     97.9200      8.9501      8.3913      0.4240   2276.0000      9.5462    -97.2600
64.1000         176.2000      0.2400    479.0000     95.2200      8.9501      8.3913      0.3950   2276.0000      9.5462    -97.2600
64.2000         173.6500      0.2179    480.5200     92.5200      9.2009      8.4690      0.3651   2244.0000      9.3720   -100.5150
64.3000         173.6500      0.1996    480.5200     90.8100      9.2009      8.4690      0.3396   2244.0000      9.3720   -100.5150
64.4000         173.6500      0.1875    475.8000     89.1900      9.6345      8.5473      0.3268   2230.0000     10.0886   -102.7500
64.5000         173.6500      0.1699    455.1600     87.6600      9.6345      8.5473      0.3367   2230.0000     10.0886   -102.7500
64.6000         173.6500      0.1536    417.2400     86.8650     11.4770      9.6345      0.3585   2282.0000      8.3144   -101.5050
64.7000         173.6500      0.1362    380.6800     85.8300     11.4770      9.6345      0.3766   2282.0000      8.3144   -101.5050
64.8000         174.9250      0.1177    356.5600     85.9950     12.8183     11.4770      0.3875   2358.0000      8.0878    -98.0100
64.9000         174.9250      0.0912    332.4400     86.2350     12.8183     11.4770      0.4009   2358.0000      8.0878    -98.0100
65.0000         174.9250      0.0703    308.3200     87.0150     13.6719     14.1850      0.4157   2457.0000     11.1643    -95.0100
65.1000         174.9250      0.0572    306.0000     90.0000     13.6719     14.1850      0.4280   2457.0000     11.1643    -95.0100
65.2000         174.9250      0.1752    329.8400     92.9850     14.1850     15.8427      0.4382   2581.0000     48.7338    -91.7550
65.3000         174.9250      0.1986    351.1200     95.0550     14.1850     15.8427      0.4496   2581.0000     48.7338    -91.7550
65.4000         174.9250      0.2114    389.0400     97.0950     13.7984     13.9261      0.4596   2540.0000     28.0434    -92.7600
65.5000         174.9250      0.2187    434.7200     96.8700     13.7984     13.9261      0.4679   2540.0000     28.0434    -92.7600
65.6000         173.6500      0.2220    480.5200     96.6000     12.9369     12.1291      0.4725   2453.0000     13.1774    -95.0100
65.7000         173.6500      0.2206    488.7200     96.4350     12.9369     12.1291      0.4796   2453.0000     13.1774    -95.0100
65.8000         176.2000      0.2188    496.9600     98.4450     10.3712      8.8681      0.4857   2276.0000      8.3913    -97.2600
