~VERSION INFORMATION
 VERS.                 2.0:   CWLS LOG ASCII STANDARD -VERSION 2.0
 WRAP.                  NO:   ONE LINE PER DEPTH STEP
~WELL INFORMATION BLOCK
#MNEM.UNIT           DATA                    DESCRIPTION OF MNEMONIC
#---------    -------------------            -------------------------------
# Generated from Intellog Unique Number	CC_84_87/WELL/1179
NULL.         -999.25                        : NULL_VALUE
WELL.         TEXACO HANGINGSTONE            : Well_name    - WELL
LOC .         09-17-085-11W4                 : Location     - LOCATION          
UWI .         AA/09-17-085-11W400            : Uwi          - UNIQUE WELL ID    
ENTR.         DW                             : Entered      - ENTERED BY        
SRVC.         SCHLUMBERGER                   : Scn          - SERVICE COMPANY   
DATE.         12 FEB 80                      : Date         - LOG DATE
STRT.M        50                             : top_depth    - START DEPTH       
STOP.M        280.101                        : bot_depth    - STOP DEPTH        
STEP.M        0.3                            : increment    - STEP LENGTH       
~CURVE INFORMATION BLOCK
#MNEM UNIT       ERCB CURVE CODE    CURVE DESCRIPTION
#-----------   ------------------   ----------------------------------
DEPT.M        00 001 00 00         : DEPTH        - DEPTH                       
DPHI.V/V      00 890 00 00         : PHID         - DENSITY POROSITY (LIMESTONE)
NPHI.V/V      00 330 00 00         : PHIN         - NEUTRON POROSITY (LIMESTONE)
GR  .API      00 310 00 00         : GR           - GAMMA RAY                   
ILD .OHMM     00 120 00 00         : RESD         - DEEP RESISTIVITY (DIL)      
~PARAMETER INFORMATION       
#MNEM.UNIT           DATA             DESCRIPTION OF MNEMONIC
#---------         -----------     ------------------------------
GL  .M        534                  : gl           - GROUND LEVEL ELEVATION      
EREF.M        535.6                : kb           - ELEVATION OF DEPTH REFERENCE
DATM.M        535.6                : datum        - DATUM ELEVATION             
TDD .M        229                  : tdd          - TOTAL DEPTH DRILLER         
RUN .         ONE                  : Run          - RUN NUMBER                  
ENG .         BILL                 : Engineer     - RECORDING ENGINEER          
WIT .         JIM                  : Witness      - WITNESSED BY                
MUD .         GEL                  : Mud_type     - MUD TYPE                    
MATR.         LIMESTONE            : Logunit      - NEUTRON MATRIX              
TMAX.C        21                   : BHT          - MAXIMUM RECORDED TEMPERATURE
BHTD.M        281                  : BHTDEP       - MAXIMUM RECORDED TEMPERATURE
MATR.         1                    : LOGUNIT      - NEUTRON MATRIX              
RMT .C        25                   : MDTP         - TEMPERATURE OF MUD          
NEUT.         1                    : NEUTRON      - NEUTRON TYPE                
RESI.         0                    : RESIST       - RESISTIVITY TYPE            
RMC .OHMM     0.25                 : RMC          - RESISTIVITY OF MUD CAKE     
RMF .OHMM     0.25                 : RMF          - RESISTIVITY OF MUD FILTRATE 
SUFT.C        15                   : SUFT         - SURFACE TEMPERATURE         
~A  DEPTH     PHID     PHIN       GR     RESD
# ...
  102.200    0.283    0.523   61.184    0.000
  102.500    0.264    0.518   58.726    0.000
  102.800    0.254    0.537   51.965    0.000
  103.100    0.262    0.555   53.812    0.000
  103.400    0.279    0.549   54.428    0.000
  103.700    0.285    0.508   53.200    0.000
  104.000    0.281    0.493   50.743    0.000
  104.300    0.279    0.492   52.589    0.000
  104.600    0.277    0.486   59.354    0.000
  104.900    0.275    0.489   62.430    0.000
  105.200    0.262    0.504   64.891    0.000
  105.500    0.261    0.533   67.352    0.000
  105.800    0.266    0.535   66.124    0.000
  106.100    0.260    0.521   61.207    0.000
  106.400    0.277    0.524   56.290    0.000
  106.700    0.296    0.544   52.604    0.000
  107.000    0.298    0.560   52.605    0.000
  107.300    0.290    0.545   53.837    0.000
  107.600    0.274    0.578   56.298    0.000
  107.900    0.232    0.527   59.373    0.000
  108.200    0.276    0.518   59.375    0.000
  108.500    0.287    0.518   56.918    0.000
  108.800    0.271    0.512   53.846    0.000
  109.100    0.270    0.522   52.003    0.000
  109.400    0.275    0.552   48.316    0.000
  109.700    0.275    0.542   44.014    0.000
  110.000    0.290    0.519   41.557    0.000
  110.300    0.274    0.512   41.558    0.000
  110.600    0.272    0.519   41.560    0.000
  110.900    0.274    0.538   40.332    0.000
  111.200    0.270    0.534   40.949    0.000
  111.500    0.250    0.504   42.181    0.000
  111.800    0.236    0.489   42.797    0.000
  112.100    0.255    0.493   40.955    0.000
  112.400    0.277    0.508   42.186    0.000
  112.700    0.291    0.518   44.032    0.000
  113.000    0.294    0.538   43.419    0.000
  113.300    0.292    0.527   41.577    0.000
  113.600    0.282    0.526   39.734    0.000
  113.900    0.274    0.532   39.121    0.000
  114.200    0.255    0.531   39.122    0.000
  114.500    0.224    0.518   40.969    0.000
  114.800    0.194    0.504   42.815    0.000
  115.100    0.224    0.502   45.276    0.000
  115.400    0.244    0.555   47.737    0.000
  115.700    0.246    0.546   50.199    0.000
  116.000    0.250    0.553   52.045    0.000
  116.300    0.257    0.567   54.506    0.000
  116.601    0.257    0.536   56.967    0.000
  116.901    0.252    0.551   56.354    0.000
  117.201    0.251    0.572   56.356    0.000
  117.501    0.254    0.569   56.973    0.000
  117.801    0.257    0.552   55.130    0.000
  118.101    0.262    0.570   56.361    0.000
  118.401    0.259    0.590   61.282    0.000
  118.701    0.266    0.602   63.743    0.000
  119.001    0.267    0.603   63.130    0.000
  119.301    0.269    0.554   59.443    0.000
  119.601    0.264    0.532   62.519    0.000
  119.901    0.259    0.531   65.595    0.000
  120.201    0.255    0.539   64.981    0.000
  120.501    0.252    0.527   58.835    0.000
  120.801    0.275    0.514   56.377    0.000
  121.101    0.265    0.504   56.379    0.000
  121.401    0.242    0.499   55.767    0.000
  121.701    0.256    0.499   55.768    0.000
  122.001    0.254    0.508   57.615    0.000
  122.301    0.229    0.536   64.994    0.000
  122.601    0.241    0.508   64.381    0.000
  122.901    0.244    0.513   61.309    0.000
  123.201    0.246    0.526   57.622    0.000
  123.501    0.260    0.523   55.164    0.000
  123.801    0.247    0.517   52.707    0.000
  124.101    0.247    0.506   50.249    0.000
  124.401    0.269    0.492   48.407    0.000
  124.701    0.257    0.487   48.408    0.000
  125.001    0.252    0.496   52.714    0.000
  125.301    0.259    0.489   58.864    0.000
  125.601    0.264    0.489   60.711    0.000
  125.901    0.266    0.524   53.334    0.000
  126.201    0.271    0.526   45.343    0.000
  126.501    0.274    0.511   39.197    0.000
  126.801    0.270    0.499   41.658    0.000
  127.101    0.259    0.519   45.964    0.000
  127.401    0.251    0.546   47.810    0.000
  127.701    0.257    0.538   48.427    0.000
  128.001    0.267    0.514   47.813    0.000
  128.301    0.286    0.504   44.127    0.000
  128.601    0.304    0.553   44.744    0.000
  128.901    0.320    0.588   44.745    0.000
  129.201    0.311    0.588   41.058    0.000
  129.501    0.292    0.564   33.067    0.000
  129.801    0.315    0.524   32.454    0.000
  130.101    0.290    0.504   34.300    0.000
  130.401    0.276    0.488   33.687    0.000
  130.701    0.275    0.482   29.386    0.000
  131.001    0.291    0.492   28.158    0.000
  131.301    0.296    0.507   28.774    0.000
  131.601    0.294    0.494   32.465    0.000
  131.901    0.291    0.491   33.696    0.000
  132.201    0.282    0.487   34.313    0.000
  132.501    0.266    0.509   38.004    0.000
  132.801    0.240    0.489   44.769    0.000
  133.101    0.194    0.438   45.385    0.000
  133.401    0.153    0.380   38.009    0.000
  133.701    0.183    0.393   33.093    0.000
  134.001    0.269    0.470   33.709    0.000
  134.301    0.287    0.539   36.170    0.000
  134.601    0.287    0.503   38.631    0.000
  134.901    0.279    0.494   40.478    0.000
  135.201    0.267    0.507   41.709    0.000
  135.501    0.264    0.487   38.637    0.000
  135.801    0.271    0.467   35.565    0.000
  136.101    0.271    0.506   36.181    0.000
  136.401    0.274    0.534   40.487    0.000
  136.701    0.219    0.526   41.103    0.000
  137.001    0.254    0.518   40.490    0.000
  137.301    0.276    0.544   41.107    0.000
  137.601    0.285    0.543   43.568    0.000
  137.901    0.275    0.516   47.259    0.000
  138.201    0.255    0.495   50.950    0.000
  138.501    0.240    0.518   57.715    0.000
  138.801    0.233    0.517   62.635    0.000
  139.101    0.238    0.509   61.407    0.000
  139.401    0.249    0.539   64.483    0.000
  139.701    0.260    0.556   68.174    0.000
  140.001    0.265    0.582   68.176    0.000
  140.301    0.269    0.571   66.947    0.000
  140.601    0.270    0.551   63.261    0.000
  140.901    0.243    0.553   62.033    0.000
  141.201    0.230    0.554   60.805    0.000
  141.501    0.251    0.549   57.732    0.000
  141.801    0.259    0.574   54.660    0.000
  142.101    0.261    0.606   54.047    0.000
  142.401    0.278    0.568   55.279    0.000
  142.701    0.264    0.568   57.125    0.000
  143.001    0.258    0.593   58.357    0.000
  143.301    0.258    0.604   57.743    0.000
  143.601    0.259    0.611   52.212    0.000
  143.901    0.243    0.607   53.444    0.000
  144.201    0.260    0.592   55.290    0.000
  144.501    0.258    0.574   55.906    0.000
  144.801    0.261    0.566   57.138    0.000
  145.101    0.260    0.587   60.214    0.000
  145.401    0.259    0.616   60.830    0.000
  145.701    0.263    0.623   61.447    0.000
  146.001    0.278    0.619   60.834    0.000
  146.301    0.281    0.594   57.762    0.000
  146.601    0.285    0.571   57.149    0.000
  146.901    0.280    0.577   55.921    0.000
  147.201    0.274    0.614   53.463    0.000
  147.501    0.275    0.628   53.465    0.000
  147.801    0.283    0.639   55.926    0.000
  148.101    0.286    0.621   54.699    0.000
  148.401    0.279    0.606   54.085    0.000
  148.701    0.260    0.596   53.472    0.000
  149.001    0.260    0.599   53.474    0.000
  149.301    0.265    0.609   55.935    0.000
  149.601    0.270    0.609   57.782    0.000
  149.901    0.275    0.612   55.324    0.000
  150.201    0.281    0.632   51.022    0.000
  150.501    0.286    0.618   49.794    0.000
  150.801    0.274    0.618   49.797    0.000
  151.101    0.266    0.614   51.028    0.000
  151.401    0.251    0.604   53.489    0.000
  151.701    0.264    0.593   54.720    0.000
  152.001    0.264    0.571   54.722    0.000
  152.301    0.265    0.581   55.339    0.000
  152.601    0.271    0.584   55.340    0.000
  152.901    0.265    0.561   57.802    0.000
  153.201    0.253    0.547   60.263    0.000
  153.501    0.249    0.557   57.190    0.000
  153.801    0.236    0.547   49.814    0.000
  154.101    0.220    0.511   49.816    0.000
