~VERSION INFORMATION
 VERS.                 2.0:   CWLS LOG ASCII STANDARD -VERSION 2.0
 WRAP.                  NO:   ONE LINE PER DEPTH STEP
~WELL INFORMATION BLOCK
#MNEM.UNIT           DATA                    DESCRIPTION OF MNEMONIC
#---------    -------------------            -------------------------------
# Generated from Intellog Unique Number	CN_94_101/WELL/3244
WELL.         02-03-096-10W4                 : Well_name    - WELL
LOC .         AA/02-03-096-10W4/0            : Location     - LOCATION
UWI .         AA/02-03-096-10W400            : Uwi          - UNIQUE WELL ID
ENTR.         JOETTE                         : Entered      - ENTERED BY
SRVC.         SCHLUMBERGER                   : Scn          - SERVICE COMPANY
DATE.         07/20/92                       : Date         - LOG DATE
STRT.M        0                              : top_depth    - START DEPTH
STOP.M        110.5                          : bot_depth    - STOP DEPTH
STEP.M        0.25                           : increment    - STEP LENGTH
 NULL. -999.2500:NULL Value
~CURVE INFORMATION BLOCK
#MNEM UNIT       ERCB CURVE CODE    CURVE DESCRIPTION
#-----------   ------------------   ----------------------------------
DEPT.M        00 001 00 00         : DEPTH        - DEPTH
GR  .API      00 310 00 00         : GR           - GAMMA RAY
ILD .OHMM     00 120 00 00         : RESD         - DEEP RESISTIVITY (DIL)
NPHI.V/V      00 330 00 00         : PHIN         - NEUTRON POROSITY (SANDSTONE)
DPHI.V/V      00 890 00 00         : PHID         - DENSITY POROSITY (SANDSTONE)
~PARAMETER INFORMATION
#MNEM.UNIT           DATA             DESCRIPTION OF MNEMONIC
#---------         -----------     ------------------------------
GL  .M        299.8                : gl           - GROUND LEVEL ELEVATION
EREF.M        299.8                : kb           - ELEVATION OF DEPTH REFERENCE
DATM.M        299.8                : datum        - DATUM ELEVATION
TDD .M        112.2                : tdd          - TOTAL DEPTH DRILLER
RUN .         ONE                  : Run          - RUN NUMBER
ENG .         JO                   : Engineer     - RECORDING ENGINEER
WIT .         TIM                  : Witness      - WITNESSED BY
MUD .         GEL                  : Mud_type     - MUD TYPE
MATR.         SANDSTONE            : Logunit      - NEUTRON MATRIX
TMAX.C        16                   : BHT          - MAXIMUM RECORDED TEMPERATURE
BHTD.M        112.2                : BHTDEP       - MAXIMUM RECORDED TEMPERATURE
RMT .C        16                   : MDTP         - TEMPERATURE OF MUD
MUDD.KG/M     0                    : MWT          - MUD DENSITY
NEUT.         1                    : NEUTRON      - NEUTRON TYPE
RESI.         0                    : RESIST       - RESISTIVITY TYPE
RM  .OHMM     6.5                  : RM           - RESISTIVITY OF MUD
RMC .OHMM     6.5                  : RMC          - RESISTIVITY OF MUD CAKE
RMF .OHMM     6.5                  : RMF          - RESISTIVITY OF MUD FILTRATE
SUFT.C        4                    : SUFT         - SURFACE TEMPERATURE
~A  DEPTH       GR     RESD     PHIN     PHID
# ...
   43.500  102.419   15.592    0.489    0.200
   43.750   85.614   15.396    0.466    0.219
   44.000   78.476   20.394    0.423    0.226
   44.250   74.549   24.587    0.413    0.235
   44.500   68.056   33.729    0.435    0.236
   44.750   64.141   38.806    0.422    0.252
   45.000   58.925   49.034    0.413    0.265
   45.250   54.377   67.284    0.415    0.265
   45.500   45.939   42.011    0.412    0.238
   45.750   67.816   27.493    0.427    0.205
   46.000   86.458   24.138    0.452    0.228
   46.250   81.254   30.500    0.432    0.247
   46.500   72.827   33.868    0.422    0.253
   46.750   65.690   39.883    0.424    0.245
   47.000   59.841   42.255    0.423    0.236
   47.250   53.324   38.429    0.418    0.177
   47.500   59.733   40.239    0.410    0.209
   47.750   66.787   40.200    0.417    0.227
   48.000   64.160   43.094    0.429    0.261
   48.250   67.335   49.002    0.440    0.273
   48.500   62.763   45.624    0.433    0.268
   48.750   58.848   44.512    0.415    0.255
   49.000   67.179   49.416    0.411    0.238
   49.250   58.752   47.114    0.416    0.245
   49.500   58.704   48.758    0.418    0.244
   49.750   70.901   63.073    0.420    0.246
   50.000   56.030   62.292    0.442    0.260
   50.250   50.181   79.640    0.461    0.278
   50.500   64.312   97.170    0.466    0.244
   50.750   66.830  100.559    0.469    0.263
   51.000   50.037  111.664    0.446    0.279
   51.250   40.942  123.995    0.421    0.288
   51.500   37.039  153.039    0.409    0.302
   51.750   35.702  193.422    0.412    0.295
   52.000   51.122  135.821    0.436    0.271
   52.250   62.042  123.523    0.433    0.288
   52.500   58.772  138.784    0.428    0.308
   52.750   37.443  204.340    0.415    0.306
   53.000   32.884  267.457    0.406    0.279
   53.250   27.023  345.983    0.402    0.243
   53.500   26.975  345.654    0.393    0.236
   53.750   35.317  329.476    0.374    0.220
   54.000   62.983  121.268    0.394    0.207
   54.250   69.392   50.778    0.397    0.199
   54.500   70.621   34.020    0.402    0.213
   54.750   73.795   30.578    0.414    0.216
   55.000   73.747   30.192    0.422    0.219
   55.250   73.055   31.245    0.417    0.236
   55.500   69.784   32.335    0.408    0.269
   55.750   33.632   75.287    0.401    0.292
   56.000   30.994  113.456    0.399    0.302
   56.250   30.301  350.092    0.415    0.308
   56.500   30.253  349.675    0.423    0.311
   56.750   30.217  345.428    0.417    0.317
   57.000   30.802  329.025    0.402    0.218
   57.250   33.976  321.233    0.395    0.203
   57.500   39.096  306.272    0.389    0.181
   57.750   48.071  262.654    0.389    0.149
   58.000   58.979  112.594    0.395    0.167
   58.250   82.145   59.643    0.464    0.174
   58.500  102.733   34.706    0.494    0.184
   58.750  115.563   18.602    0.542    0.238
   59.000  112.949   13.216    0.583    0.300
   59.250   78.730   13.678    0.635    0.554
   59.500   67.726   16.301    0.653    0.509
   59.750   77.978   20.352    0.649    0.390
   60.000   82.453   15.892    0.548    0.243
   60.250  101.096   11.696    0.434    0.168
   60.500  116.528   10.887    0.452    0.166
   60.750  122.280   11.537    0.465    0.169
   61.000  106.095   13.116    0.484    0.167
   61.250   94.458   13.252    0.467    0.164
   61.500   86.676   12.787    0.425    0.162
   61.750   75.003   12.478    0.410    0.160
   62.000   71.733   15.044    0.393    0.161
   62.250   74.919   15.935    0.378    0.162
   62.500   82.605   16.302    0.388    0.160
   62.750   83.201   17.890    0.393    0.157
   63.000   77.353   19.639    0.377    0.159
   63.250   75.359   20.802    0.377    0.166
   63.500   78.546   20.544    0.376    0.172
   63.750   84.931   19.119    0.397    0.179
   64.000   96.508   18.440    0.414    0.186
   64.250  105.483   16.774    0.430    0.184
   64.500  121.547   14.727    0.447    0.170
   64.750  130.522   12.630    0.464    0.161
   65.000  133.696   11.086    0.499    0.169
   65.250  123.981   10.689    0.532    0.179
   65.500  119.409   10.554    0.545    0.182
   65.750  116.139   10.179    0.551    0.199
   66.000  112.224   10.051    0.560    0.203
   66.250  114.121   10.041    0.562    0.205
   66.500  123.728    9.917    0.570    0.194
   66.750  118.536    9.792    0.569    0.185
   67.000  112.019    9.780    0.567    0.175
   67.250  122.295    9.544    0.564    0.170
   67.500  124.837    9.426    0.555    0.176
   67.750  133.800    9.198    0.563    0.190
   68.000  129.885    9.082    0.575    0.206
   68.250  124.049    8.967    0.589    0.216
   68.500   98.853    8.852    0.601    0.306
   68.750   92.992   10.427    0.607    0.400
   69.000  108.424   11.177    0.605    0.423
   69.250  116.098   10.163    0.608    0.250
   69.500  116.038    9.802    0.608    0.225
   69.750  118.592    9.792    0.607    0.211
   70.000  124.333    9.901    0.604    0.211
   70.250  122.351   10.006    0.596    0.206
   70.500  119.092   10.477    0.584    0.198
   70.750  114.533   11.234    0.568    0.187
   71.000  110.618   12.326    0.552    0.173
   71.250   95.090   13.217    0.535    0.173
   71.500   82.152   13.678    0.553    0.179
   71.750   69.202   14.835    0.576    0.200
   72.000   63.353   17.064    0.591    0.279
   72.250   54.927   22.872    0.505    0.324
   72.500   40.688   59.190    0.437    0.317
   72.750   32.261  110.197    0.410    0.287
   73.000   23.190  112.736    0.413    0.301
   73.250   12.806  132.757    0.408    0.307
   73.500   13.414  161.940    0.401    0.313
   73.750   14.655  227.490    0.392    0.306
   74.000   15.252  294.212    0.375    0.289
   74.250   15.836  270.798    0.336    0.269
   74.500   15.776  234.975    0.330    0.257
   74.750   15.107  199.111    0.338    0.262
   75.000   15.704  226.408    0.346    0.263
   75.250   16.300  260.427    0.348    0.267
   75.500   16.885  257.141    0.347    0.268
   75.750   18.770  242.244    0.360    0.265
   76.000   21.945   92.337    0.382    0.239
   76.250   27.709   55.008    0.388    0.224
   76.500   37.985   35.163    0.392    0.201
   76.750   32.769   27.130    0.400    0.212
   77.000   26.920   28.744    0.398    0.252
   77.250   24.282   32.287    0.390    0.270
   77.500   24.234   33.031    0.382    0.269
   77.750   24.186   32.234    0.383    0.253
   78.000   28.017   32.968    0.385    0.248
   78.250   32.481   33.310    0.383    0.267
   78.500   27.921   33.294    0.380    0.277
   78.750   23.994   33.647    0.385    0.279
   79.000   24.602   34.406    0.393    0.274
   79.250   32.933   34.788    0.397    0.271
   79.500   32.240   35.173    0.399    0.275
   79.750   20.579   34.730    0.402    0.285
   80.000   26.988   34.291    0.405    0.298
   80.250   28.229   34.251    0.400    0.302
   80.500   24.947   33.826    0.394    0.299
   80.750   24.254   33.400    0.393    0.293
   81.000   34.530   32.585    0.398    0.289
   81.250   44.149   33.722    0.406    0.268
   81.500   54.413   35.736    0.395    0.247
   81.750   56.299   34.873    0.390    0.223
   82.000   41.427   31.345    0.398    0.210
   82.250   35.566   26.874    0.405    0.210
   82.500   33.573   29.142    0.413    0.284
   82.750   38.048   30.522    0.415    0.299
   83.000   45.090   30.479    0.406    0.292
   83.250   54.721   29.757    0.385    0.264
   83.500   61.763   29.381    0.380    0.249
   83.750   36.567   29.011    0.387    0.251
   84.000   32.008   27.973    0.442    0.287
   84.250   26.159   26.979    0.430    0.281
   84.500   32.556   28.256    0.390    0.268
   84.750   39.585   30.283    0.386    0.257
   85.000   36.959   30.612    0.393    0.284
   85.250   33.689   29.524    0.405    0.309
   85.500   29.786   29.151    0.494    0.304
   85.750   31.671   26.819    0.511    0.296
   86.000   32.243   25.576    0.509    0.293
   86.250   27.696   25.847    0.472    0.293
   86.500   29.581   25.521    0.469    0.292
   86.750   30.822   27.045    0.473    0.290
