~Version : LASO    vs 4.00
VERS.                2.00:   CWLS Log ASCII Standard -VERSION 2.0
WRAP.                  NO:
~Well Information Block
#MNEM.UNIT       Data                        Description of Mnemonic
#----.----      -------------------------- : -----------------------------
COMP.                                     : COMPANY
FLD .    WILDCAT                          : FIELD NAME
LOC .    02-32-090-08W4                   : WELL LOCATION
UWI .    AA/02-32-090-08W400              : UNIQUE WELL ID
STRT.M             0.0000:
STOP.M           201.3750:
STEP.M             0.1250:
NULL.           -999.2500:
COMP.  :COMPANY
WELL.  MOBIL CLARKE OV 2-32:WELL
FLD.   :FIELD
LOC.   :LOCATION
CTRY.  :COUNTRY
PROV.  ALBERTA:PROVINCE
SRVC.  DRESSER ATLAS:SERVICE COMPANY
DATE.  17-FEB-81:LOG DATE
UWI.   :UNIQUE WELL ID
~Parameter Information Block
#MNEM.UNIT       Data                        Description of Mnemonic
#----.----      -------------------------- : -----------------------------
RUN .                   1                 : Run Number
GL  .M           431.8000                 : Ground Level Elevation
DREF.                  KB                 : Depth Reference
EREF.M           431.8000                 : Elevation of Depth Reference
TDL .M           202.0000                 : Total Depth Logger
TDD .M           201.6000                 : Total Depth Driller
BHT .DEGC         20.0000                 : Bottom Hole Temperature
BS  .MM          159.0000                 : Bit Size
DFD .             10.3000                 : Mud Weight (Density)
DFV .             85.0000                 : Mud Viscosity
DFPH.             10.0000                 : Mud pH
RM  .OHMM          4.9000                 : Mud Resistivity
RMT .DEGC         20.0000                 : Mud Resistivity Temperature
RMF .OHMM          4.7000                 : Mud Filtrate Resistivity
RMFT.DEGC         10.0000                 : RMF Temperature
RMC .OHMM          9.5000                 : Mud Cake Resistivity
RMCT.DEGC         10.0000                 : RMC Temperature
~Curve Information Block
#MNEM.UNIT        API CODE    Curve Description
#---------    ------------    -------------------------------------------
DEPT.M                    :   DEPTH
CALI.MM       42 280  1  1:   3 DENSITY CALIPER
DPHI.V/V                  :   DPHI
DT  .US/M     60 520 42  1:   2 SONIC INTERVAL TRANSIT TIME (COMPENSATED)
GR  .GAPI     42 310  1  1:   4 GAMMA RAY
IL  .OHMM      5 120 45  1:   7 INDUCTION
NPHI.V/V      42 890  3  1:   5 NEUTRON POROSITY (SANDSTONE)
RHOB.K/M3     42 350  1  1:   6 BULK DENSITY
SFL .OHMM      5 220  6  1:   8 FOCUSSED RESISTIVITY
SP  .MV        5  10  1  1:   9 SPONTANEOUS POTENTIAL
~A  Depth           CALI        DPHI          DT          GR          IL        NPHI        RHOB         SFL          SP
# ...
142.3750        158.4750      0.2604    440.9600     91.5750     13.0700      0.3679   2213.6001     17.3700    -43.0200
142.5000        157.7500      0.2623    441.2000     90.6900     13.1950      0.3784   2210.3000     18.7800    -43.5200
142.6250        157.7500      0.2672    439.4800     93.3450     13.3750      0.3769   2206.8999     18.6600    -44.2600
142.7500        158.5500      0.2720    437.0400     90.7500     13.5000      0.3779   2197.5000     19.0900    -44.3900
142.8750        158.7250      0.2732    410.2800     88.4550     13.6250      0.3644   2184.7000     19.2100    -44.5100
143.0000        160.5750      0.2732    419.1200     84.5700     13.8050      0.3682   2180.6001     22.2150    -44.5100
143.1250        158.8250      0.2732    434.6000     84.3600     13.9300      0.3680   2176.3999     25.2750    -45.2600
143.2500        156.8500      0.2709    437.7600     84.1200     14.0500      0.3630   2181.2000     24.8450    -45.1400
143.3750        157.6250      0.2693    442.4400     80.7300     14.1150      0.3535   2186.1001     19.4550    -42.7700
143.5000        158.6750      0.2673    444.4000     81.9300     14.2350      0.3434   2198.7000     18.3500    -40.9000
143.6250        158.6750      0.2671    440.7200     82.8000     14.3000      0.3373   2195.3999     18.3500    -41.0300
143.7500        157.6000      0.2660    438.0400     81.5550     14.2350      0.3463   2205.1001     18.1050    -40.9000
143.8750        156.7750      0.2668    436.0400     82.3350     14.1150      0.3522   2209.8999     17.4350    -41.4000
144.0000        158.2250      0.2669    436.5600     86.1900     14.1150      0.3512   2206.5000     19.2100    -41.7700
144.1250        159.6250      0.2679    439.0000     85.1250     14.2350      0.3476   2203.1001     21.8450    -43.0200
144.2500        159.6250      0.2700    440.0000     83.2050     14.3600      0.3445   2208.3999     23.1300    -43.5200
144.3750        159.6250      0.2704    444.8800     84.3600     14.6050      0.3488   2194.5000     21.1100    -41.4000
144.5000        159.6000      0.2714    444.1600     83.7600     15.0950      0.3456   2187.0000     20.0700    -40.7800
144.6250        158.1750      0.2698    436.8000     84.4200     15.4650      0.3521   2183.3000     19.6400    -40.9000
144.7500        157.3500      0.2684    428.2000     83.6550     15.8300      0.3651   2187.3000     19.3950    -41.1500
144.8750        156.5750      0.2654    434.3600     85.2000     16.1400      0.3656   2191.3000     19.8850    -40.9000
145.0000        157.8750      0.2629    432.3600     87.2700     16.5050      0.3575   2197.1001     23.6850    -42.5200
145.1250        159.2250      0.2596    431.1600     89.3250     16.8750      0.3508   2203.5000     27.6650    -45.6300
145.2500        159.5500      0.2561    430.1600     86.0700     17.0600      0.3470   2217.3000     25.4600    -46.2600
145.3750        159.5500      0.2534    430.9200     83.5950     17.2400      0.3470   2222.2000     23.5600    -45.3900
145.5000        159.5500      0.2508    426.2400     82.8300     17.4250      0.3470   2217.3000     24.7850    -45.0100
145.6250        158.5250      0.2484    418.8800     81.1050     17.6100      0.3422   2220.1001     26.6250    -46.0100
145.7500        158.0500      0.2483    417.1600     79.7400     17.6700      0.3388   2224.8999     25.5200    -47.3800
145.8750        157.5250      0.2471    436.5600     81.3150     17.7350      0.3275   2230.2000     23.5600    -47.0000
146.0000        158.5500      0.2459    434.6000     83.1450     17.7350      0.3256   2236.5000     23.1950    -47.1300
146.1250        158.9500      0.2436    432.1200     85.2150     17.8550      0.3323   2241.3000     22.9500    -46.6300
146.2500        157.9250      0.2426    432.6400     84.4500     17.9150      0.3442   2248.1001     24.4200    -45.7600
146.3750        157.2750      0.2411    422.5600     82.4250     18.1000      0.3530   2249.8000     25.0900    -45.7600
146.5000        156.6000      0.2408    426.0000     84.8400     18.3450      0.3638   2245.6001     23.9900    -44.7600
146.6250        157.4500      0.2407    427.2400     83.6850     18.6550      0.3598   2248.6001     24.2950    -43.8900
146.7500        157.4500      0.2426    427.2400     80.5950     18.8400      0.3617   2251.8999     27.0550    -43.8900
146.8750        157.2250      0.2478    432.1200     78.4200     19.0200      0.3683   2253.6001     29.5650    -45.1400
147.0000        156.2000      0.2568    432.1200     80.9700     19.3300      0.3751   2221.8999     30.3600    -45.8800
147.1250        155.9500      0.2624    428.9600     83.0550     19.8200      0.3781   2190.1001     30.0550    -46.1300
147.2500        157.2000      0.2655    426.7200     80.4750     20.3100      0.3759   2197.6001     28.9550    -45.2600
147.3750        158.4000      0.2651    430.9200     79.2300     21.0450      0.3633   2203.5000     26.4400    -43.8900
147.5000        157.5500      0.2644    428.2000     81.1050     22.2750      0.3507   2208.2000     26.5650    -43.7700
147.6250        157.4000      0.2630    425.0000     82.4400     23.6850      0.3593   2211.5000     27.6050    -44.7600
147.7500        157.3750      0.2627    422.8000     80.3250     25.1550      0.3642   2220.6001     28.6450    -46.0100
147.8750        157.3750      0.2617    427.4800     76.6800     26.8150      0.3704   2200.7000     29.5650    -48.5000
148.0000        157.3750      0.2631    430.4000     77.7750     28.5900      0.3719   2186.3000     37.1650    -50.1200
148.1250        157.3500      0.2679    434.0800     79.2150     30.6150      0.3744   2179.8000     63.6000    -48.3700
148.2500        157.3500      0.2746    435.5600     75.0600     32.0300      0.3652   2164.0000    110.4500    -49.9900
148.3750        157.3250      0.2800    431.4000     71.4300     33.6250      0.3686   2164.0000    177.8500    -51.3600
148.5000        157.3250      0.2859    432.6400     64.5600     35.1550      0.3628   2150.3000    172.3000    -51.2400
148.6250        157.3250      0.2920    433.6000     61.4100     36.7500      0.3437   2136.3000     81.2500    -49.7400
148.7500        157.3000      0.2953    433.3600     57.7500     37.3050      0.3308   2146.1001     61.1000    -48.6200
148.8750        157.9500      0.2953    431.6400     56.5050     36.5700      0.3259   2152.5000     47.3350    -46.8800
149.0000        157.6250      0.2936    430.6400     58.7550     35.3400      0.3296   2158.2000     43.5350    -45.6300
149.1250        157.2750      0.2922    423.0400     62.0850     34.4200      0.3358   2159.8000     42.8000    -45.7600
149.2500        156.5500      0.2902    426.4800     63.4650     33.5600      0.3468   2157.8999     50.8500    -47.1300
149.3750        157.0250      0.2887    430.1600     66.6750     32.8850      0.3553   2167.3000     54.2500    -49.6200
149.5000        157.5500      0.2867    429.2000     70.3350     32.7050      0.3658   2170.1001     47.0300    -46.8800
149.6250        158.8750      0.2855    424.7600     73.1850     33.0700      0.3700   2162.5000     42.3700    -42.7700
149.7500        162.2500      0.2843    412.2400     74.2950     33.0100      0.3738   2156.2000     42.3100    -42.6500
149.8750        157.5000      0.2834    425.5200     72.6000     32.2100      0.3763   2159.3999     48.3750    -42.4000
150.0000        156.6250      0.2819    432.1200     70.7400     31.4750      0.3778   2177.0000     68.5500    -43.3900
150.1250        157.2250      0.2827    443.1600     70.3350     31.2900      0.3729   2179.8000    102.4500    -45.2600
150.2500        157.2000      0.2828    462.8000     67.7250     31.2900      0.3778   2178.8999    127.6000    -47.1300
150.3750        157.2000      0.2818    433.3600     65.0700     31.5350      0.3853   2176.3999     55.5000    -47.3800
150.5000        156.8500      0.2796    429.9200     62.1450     32.2100      0.3855   2173.8999     37.3450    -44.8900
150.6250        156.1750      0.2792    430.6400     59.6550     32.1500      0.3712   2176.3999     34.0400    -44.8900
