~Version : LASO    vs 4.00
VERS.                2.00:   CWLS Log ASCII Standard -VERSION 2.0
WRAP.                  NO:
~Well Information Block
#MNEM.UNIT       Data                        Description of Mnemonic
#----.----      -------------------------- : -----------------------------
STRT.M            30.0000:
STOP.M           204.0000:
STEP.M             0.2000:
NULL.           -999.2500:
COMP.  MOBIL OIL OF CANADA                    :COMPANY
WELL.  MOBIL CLARKE OV PROGRAM 2-81 4-3       :WELL
FLD.                                          :FIELD
LOC.   04-03-090-07W4                         :LOCATION
CTRY.  CANADA                                 :COUNTRY
PROV.  ALBERTA                                :PROVINCE
SRVC.  SCHLUMBERGER                           :SERVICE COMPANY
DATE.  26-JAN-81                              :LOG DATE
UWI.   AA/04-03-090-07W400                    :UNIQUE WELL ID
~Parameter Information Block
#MNEM.UNIT       Data                        Description of Mnemonic
#----.----      -------------------------- : -----------------------------
RUN .                   1                 : Run Number
GL  .M           466.8000                 : Ground Level Elevation
DREF.                  GD                 : Depth Reference
EREF.M           466.8000                 : Elevation of Depth Reference
TDL .M           205.0000                 : Total Depth Logger
TDD .M           205.0000                 : Total Depth Driller
BHT .DEGC         19.0000                 : Bottom Hole Temperature
BS  .MM          159.0000                 : Bit Size
DFD .            980.0000                 : Mud Weight (Density)
DFV .             38.0000                 : Mud Viscosity
DFPH.             10.0000                 : Mud pH
~Curve Information Block
#MNEM.UNIT        API CODE    Curve Description
#---------    ------------    -------------------------------------------
DEPT.M                    :   DEPTH
CALI.MM       42 280  1  1:   3 DENSITY CALIPER
DPHI.V/V                  :   DPHI
DT  .US/M     60 520  0  1:   2 SONIC INTERVAL TRANSIT TIME (COMPENSATED)
GR  .GAPI     42 310  1  1:   4 GAMMA RAY
ILD .OHMM      5 120 46  1:   7 DEEP INDUCTION
ILM .OHMM      5 120 44  1:   8 MEDIUM INDUCTION
NPHI.V/V      42 890  3  1:   5 NEUTRON POROSITY (SANDSTONE)
RHOB.K/M3     42 350  1  1:   6 BULK DENSITY
SFLU.OHMM      5 220  1  1:   9 FOCUSSED RESISTIVITY
SP  .MV        5  10  1  1:   10 SPONTANEOUS POTENTIAL
~A  Depth           CALI        DPHI          DT          GR         ILD         ILM        NPHI        RHOB        SFLU          SP
# ...
139.8000        184.9500      0.3152    534.9200     93.2850      3.5631      3.8711      0.4914   2104.0000      4.1289    -45.0750
140.0000        184.9500      0.3077    530.0000     92.4750      3.5961      3.9069      0.4962   2102.0000      4.6114    -45.5850
140.2000        184.9500      0.3073    520.5200     93.6750      3.6968      3.8711      0.4906   2154.1001      4.0910    -45.8400
140.4000        186.2250      0.3051    512.9200     94.4850      3.7310      3.8711      0.4840   2152.0000      3.6968    -45.5850
140.6000        191.3000      0.2972    500.1600     94.6800      3.7310      3.8711      0.4652   2133.0000      3.5631    -45.0750
140.8000        193.8250      0.2929    500.1600     94.5750      3.7656      4.0535      0.4718   2164.1001      3.5304    -45.5850
141.0000        191.3000      0.2959    504.5200     95.2800      3.7310      4.0910      0.4892   2160.1001      3.8711    -45.8400
141.2000        187.5000      0.3057    521.1600     95.1750      3.7656      4.0535      0.4820   2176.1001      4.3634    -46.0950
141.4000        184.9500      0.3031    523.6000     93.3750      4.0163      4.0163      0.4668   2133.0000      4.1289    -45.3300
141.6000        187.5000      0.3005    518.2800     90.5850      4.2838      4.1671      0.4524   2144.0000      3.4660    -44.8200
141.8000        191.3000      0.3029    506.9600     87.9750      4.5691      4.4857      0.4368   2152.0000      3.0749    -44.5650
142.0000        190.0250      0.3075    504.7200     83.6850      5.3436      5.5954      0.4406   2154.1001      4.1671    -47.1150
142.2000        176.0500      0.3062    511.9200     81.0750      5.9680      6.3655      0.4504   2154.1001      5.9680    -50.4300
142.4000        169.7000      0.3060    531.8400     76.8750      6.8522      7.3762      0.4676   2132.0000      8.1626    -54.5100
142.6000        167.1750      0.3093    531.8400     74.7750      9.0330      9.8136      0.4462   2144.0000     14.4487    -61.3800
142.8000        167.1750      0.3143    524.8400     75.8850      9.9961     10.4672      0.4084   2142.0000     20.3156    -63.1650
143.0000        167.1750      0.3207    540.4800     77.4750     10.3712     10.6618      0.3192   2132.0000     23.1116    -64.1850
143.2000        167.1750      0.3217    563.0800     77.6850     10.2761     10.3712      0.3000   2104.0000     18.6995    -63.6750
143.4000        168.4250      0.3160    565.9600     83.3850      9.2009      9.2009      0.2900   2128.0000     13.1774    -61.1250
143.6000        170.9750      0.3060    584.0400     87.4800      8.6264      8.4690      0.2852   2137.0000     11.4770    -59.0850
143.8000        170.9750      0.3121    598.0000     88.8750      8.2382      8.0878      0.3178   2161.1001      8.7868    -56.7900
144.0000        172.2500      0.3207    599.2400     85.0800      8.4690      8.0136      0.3408   2146.0000      8.0878    -56.0400
144.2000        173.5250      0.3285    589.3600     80.8800      9.0330      8.4690      0.3632   2110.0000      7.7238    -57.8100
144.4000        173.5250      0.3375    633.7600     76.8750      9.8136      9.4587      0.3764   2094.0000      6.9156    -60.1050
144.6000        173.5250      0.3048    610.7600     67.6800     11.9078     12.7008      0.3694   2021.9000     12.8183    -69.0300
144.8000        173.5250      0.2766    563.4800     62.5800     12.8183     14.3163      0.3456   1980.8000     25.3414    -74.3700
145.0000        173.5250      0.2355    582.2000     60.5700     13.7984     15.2697      0.2868   1963.8000     40.9100    -78.1950
145.2000        173.5250      0.2425    586.0800     61.5750     14.7174     14.4487      0.2546   1989.8000     36.6294    -79.9800
145.4000        173.5250      0.2676    609.9200     62.2800     14.4487     13.5466      0.2312   2017.9000     22.8997    -78.7050
145.6000        173.5250      0.2895    625.1200     64.7700     13.9261     13.0566      0.2348   2042.9000     14.9910    -76.6650
145.8000        173.5250      0.3066    609.3200     68.3850     12.8183     12.8183      0.2566   2126.0000     13.5466    -74.3700
146.0000        173.5250      0.3169    592.0400     68.0700     12.5843     12.8183      0.2886   2129.0000     16.5894    -74.3700
146.2000        173.5250      0.3170    539.4400     67.0800     12.4690     13.1774      0.3444   2118.0000     21.6686    -74.3700
146.4000        173.5250      0.3170    517.0400     67.9800     12.3546     13.1774      0.3548   2106.0000     25.8125    -74.6250
146.6000        172.2500      0.3087    487.0400     76.1850     11.6904     12.2414      0.3596   2131.0000     25.3414    -71.8350
146.8000        172.2500      0.2976    481.6800     79.5750     11.2676     11.1643      0.3620   2142.0000     22.0714    -69.0300
147.0000        172.2500      0.2793    470.4000     82.3800     10.9605     10.2761      0.3584   2141.0000     14.4487    -65.2050
147.2000        174.7750      0.2655    475.5200     90.6750     10.4672     10.0886      0.3484   2194.1001      6.7894    -59.3400
147.4000        174.7750      0.2739    463.2000     90.8850      9.9961     10.2761      0.3434   2218.1001      7.5133    -60.6150
147.6000        168.4250      0.2719    472.0400     88.4850      9.6345     10.2761      0.3554   2208.1001     10.6618    -64.1850
147.8000        160.8250      0.2635    472.2400     88.3800      9.2009      9.5462      0.3760   2198.1001     14.7174    -65.9700
148.0000        159.5500      0.2529    477.1600     89.8800      9.0330      9.2009      0.3868   2228.2000     11.5832    -62.1450
148.2000        160.8250      0.2701    488.6800     90.8850      8.5473      8.4690      0.3548   2242.2000      8.5473    -56.0400
148.4000        163.3500      0.2802    469.3600     93.2850      7.8674      7.8674      0.3380   2218.1001      8.0878    -55.0200
148.6000        163.3500      0.2871    450.8800     93.3750      7.6530      7.7238      0.3376   2202.1001      7.8674    -53.7450
148.8000        163.3500      0.2898    438.5600     93.4800      7.5828      7.6530      0.3742   2181.1001      7.1751    -52.7250
149.0000        167.1750      0.2918    446.1600     91.9800      7.5828      7.7238      0.3966   2165.1001      7.5828    -53.2350
149.2000        167.1750      0.2952    461.9600     91.2750      7.7238      7.7238      0.4156   2166.1001      8.3913    -54.0000
149.4000        170.9750      0.3010    476.3600     91.5750      8.0136      7.8674      0.4216   2164.1001      8.0878    -54.5100
149.6000        168.4250      0.3095    480.8800     90.8850      8.4690      8.3144      0.4240   2161.1001      7.5828    -54.5100
149.8000        168.4250      0.3140    482.1200     87.0750      9.3720      9.3720      0.4252   2158.1001      9.1165    -56.5500
150.0000        167.1750      0.3088    475.1200     83.6850      9.9961      9.9961      0.4048   2152.0000     10.1819    -57.3000
150.2000        165.9000      0.3026    461.5600     82.0800     10.5640     10.8600      0.3992   2126.0000     11.5832    -57.8100
150.4000        162.0750      0.2996    460.9600     78.6750     11.7986     12.0179      0.4144   2148.0000     17.6942    -56.5500
150.6000        163.3500      0.3063    460.9600     76.8750     12.2414     12.3546      0.4228   2170.1001     17.5319    -56.0400
150.8000        159.5500      0.3089    464.0400     77.2800     12.2414     12.4690      0.3900   2173.1001     16.1373    -56.5500
151.0000        160.8250      0.3065    449.2400     78.4800     11.9078     11.3718      0.3862   2125.0000     18.0231    -59.0850
151.2000        159.5500      0.3029    427.6400     77.4750     11.9078     10.8600      0.3856   2134.0000     15.5536    -58.5750
151.4000        159.5500      0.3332    439.1600     76.8750     12.0179     10.9605      0.3860   2153.1001     11.0619    -57.0450
151.6000        162.0750      0.3353    461.3600     77.1750     12.4690     11.9078      0.3832   2142.0000     11.5832    -58.8300
151.8000        162.0750      0.3319    491.1600     75.0750     13.1774     12.4690      0.3740   2100.0000     14.7174    -60.6150
