~VERSION INFORMATION
 VERS.                 2.0:   CWLS LOG ASCII STANDARD -VERSION 2.0
 WRAP.                  NO:   ONE LINE PER DEPTH STEP
~WELL INFORMATION BLOCK
#MNEM.UNIT           DATA                    DESCRIPTION OF MNEMONIC
#---------    -------------------            -------------------------------
# Generated from Intellog Unique Number	CN_91_93/WELL/1074
WELL.         06-11-091-10W4                 : Well_name    - WELL
LOC .         AA/06-11-091-10W4/0            : Location     - LOCATION
UWI .         AA/06-11-091-10W400            : Uwi          - UNIQUE WELL ID
ENTR.         JOETTE                         : Entered      - ENTERED BY
SRVC.         SCHLUMBERGER                   : Scn          - SERVICE COMPANY
DATE.         01/22/92                       : Date         - LOG DATE
STRT.F        32.808                        : top_depth    - START DEPTH
STOP.F        328.084                        : bot_depth    - STOP DEPTH
STEP.F        0.8202                         : increment    - STEP LENGTH
 NULL. -999.2500:NULL Value
~CURVE INFORMATION BLOCK
#MNEM UNIT       ERCB CURVE CODE    CURVE DESCRIPTION
#-----------   ------------------   ----------------------------------
DEPT.F        00 001 00 00         : DEPTH        - DEPTH
GR  .API      00 310 00 00         : GR           - GAMMA RAY
CALI.IN       00 280 01 00         : CAL          - CALIPER
NPHI.V/V      00 330 00 00         : PHIN         - NEUTRON POROSITY (SANDSTONE)
DPHI.V/V      00 890 00 00         : PHID         - DENSITY POROSITY (SANDSTONE)
ILD .OHMM     00 120 00 00         : RESD         - DEEP RESISTIVITY (DIL)
~PARAMETER INFORMATION
#MNEM.UNIT           DATA             DESCRIPTION OF MNEMONIC
#---------         -----------     ------------------------------
GL  .M        335.82               : gl           - GROUND LEVEL ELEVATION
EREF.M        335.82               : kb           - ELEVATION OF DEPTH REFERENCE
DATM.M        335.82               : datum        - DATUM ELEVATION
TDD .M        107.29               : tdd          - TOTAL DEPTH DRILLER
RUN .         ONE                  : Run          - RUN NUMBER
ENG .         JO                   : Engineer     - RECORDING ENGINEER
WIT .         TIM                  : Witness      - WITNESSED BY
MUD .         GEL                  : Mud_type     - MUD TYPE
MATR.         SANDSTONE            : Logunit      - NEUTRON MATRIX
TMAX.F        42.08                : BHT          - MAXIMUM RECORDED TEMPERATURE
BHTD.F        352.001              : BHTDEP       - MAXIMUM RECORDED TEMPERATURE
RMT .F        64.4                 : MDTP         - TEMPERATURE OF MUD
MUDD.LB/G     9.08333              : MWT          - MUD DENSITY
NEUT.         1                    : NEUTRON      - NEUTRON TYPE
RESI.         0                    : RESIST       - RESISTIVITY TYPE
RM  .OHMM     6.2                  : RM           - RESISTIVITY OF MUD
RMC .OHMM     19.8                 : RMC          - RESISTIVITY OF MUD CAKE
RMF .OHMM     11                   : RMF          - RESISTIVITY OF MUD FILTRATE
SUFT.F        39.2                 : SUFT         - SURFACE TEMPERATURE
~A  DEPTH       GR      CAL     PHIN     PHID     RESD
# ...
  152.559   35.907    4.439    0.365    0.300   67.433
  153.379   34.106    4.446    0.389    0.270  116.748
  154.199   27.554    4.469    0.401    0.280  115.742
  155.020   24.565    4.492    0.406    0.273   42.068
  155.840   28.105    4.538    0.415    0.275   80.602
  156.660   24.822    4.584    0.388    0.284  376.929
  157.480   28.659    4.623    0.397    0.303  337.608
  158.301   34.282    4.653    0.406    0.306  241.959
  159.121   33.666    4.700    0.407    0.307  152.006
  159.941   34.833    4.715    0.398    0.310  250.169
  160.761   35.110    4.730    0.397    0.305  297.697
  161.581   39.840    4.745    0.414    0.310  295.078
  162.402   35.367    4.744    0.418    0.292  176.218
  163.222   34.750    4.751    0.436    0.283   88.582
  164.042   32.355    4.759    0.431    0.288   56.227
  164.862   30.254    4.766    0.437    0.296  146.003
  165.682   28.747    4.781    0.430    0.303   89.883
  166.503   26.357    4.788    0.399    0.304  122.020
  167.323   29.009    4.803    0.393    0.294  231.429
  168.143   30.471    4.803    0.406    0.300  281.036
  168.963   21.544    4.787    0.406    0.293  249.226
  169.783   23.899    4.747    0.394    0.301  276.266
  170.604   28.033    4.661    0.419    0.308  235.177
  171.424   32.468    4.660    0.432    0.310  204.374
  172.244   31.261    4.660    0.416    0.301  129.701
  173.064   30.048    4.659    0.402    0.288  190.944
  173.885   31.814    4.620    0.412    0.285  176.369
  174.705   31.495    4.557    0.398    0.284  249.241
  175.525   34.446    4.510    0.392    0.292  299.669
  176.345   34.129    4.478    0.430    0.297   48.393
  177.165   30.244    4.446    0.432    0.306   76.467
  177.986   30.224    4.422    0.437    0.323  113.720
  178.806   34.957    4.391    0.418    0.311   68.604
  179.626   42.359    4.351    0.410    0.285  197.178
  180.446   34.617    4.327    0.421    0.279  239.487
  181.266   35.189    4.311    0.442    0.306  142.993
  182.087   48.236    4.303    0.507    0.326  114.566
  182.907   61.873    4.294    0.436    0.306   34.342
  183.727   47.899    4.294    0.486    0.282   16.410
  184.547   36.593    4.293    0.499    0.261   13.282
  185.367   38.950    4.293    0.495    0.267   69.422
  186.188   43.383    4.292    0.470    0.289   76.179
  187.008   47.520    4.300    0.449    0.304   26.050
  187.828   55.812    4.307    0.423    0.278   16.037
  188.648   46.886    4.322    0.477    0.269   18.326
  189.469   45.975    4.337    0.464    0.271   99.732
  190.289   60.205    4.368    0.445    0.282  105.071
  191.109   42.073    4.390    0.418    0.298   49.201
  191.929   37.302    4.429    0.463    0.273   22.807
  192.749   38.767    4.467    0.436    0.278   45.968
  193.570   47.356    4.490    0.406    0.317   85.435
  194.390   44.367    4.497    0.477    0.295  149.423
  195.210   45.238    4.497    0.426    0.308   33.719
  196.030   52.046    4.496    0.426    0.311   28.425
  196.850   79.339    4.488    0.428    0.288   12.399
  197.671   89.119    4.480    0.376    0.273    7.711
  198.491   87.315    4.471    0.386    0.261    7.491
  199.311   78.388    4.455    0.423    0.225   12.583
  200.131   68.571    4.439    0.442    0.195   11.271
  200.951   58.454    4.423    0.435    0.202   49.079
  201.772   48.637    4.407    0.459    0.252  159.300
  202.592   48.914    4.399    0.477    0.274  161.191
  203.412   49.485    4.382    0.419    0.311  127.844
  204.232   54.806    4.374    0.409    0.298   29.740
  205.052   57.758    4.358    0.440    0.282   60.564
  205.873   62.188    4.326    0.449    0.274   49.527
  206.693   69.887    4.310    0.407    0.281   28.978
  207.513   65.117    4.302    0.376    0.272    8.514
  208.333   62.427    4.301    0.382    0.236    9.530
  209.154   66.861    4.293    0.466    0.217   14.610
  209.974   85.544    4.292    0.461    0.240   30.056
  210.794   95.618    4.292    0.418    0.263   45.145
  211.614   90.551    4.291    0.370    0.240    9.021
  212.434   93.203    4.291    0.389    0.213    7.760
  213.255   89.620    4.298    0.391    0.230    9.050
  214.075   76.535    4.321    0.428    0.261   10.030
  214.895   74.139    4.305    0.412    0.261   14.466
  215.715   70.557    4.289    0.439    0.288   20.245
  216.535   65.190    4.296    0.378    0.292   11.038
  217.356   58.045    4.272    0.403    0.283   99.724
  218.176   66.338    4.264    0.455    0.281   43.053
  218.996   76.117    4.271    0.457    0.278   13.995
  219.816   82.332    4.294    0.437    0.280   33.517
  220.636   89.437    4.239    0.436    0.270   29.424
  221.457   90.901    4.230    0.360    0.256   21.742
  222.277   90.879    4.230    0.399    0.201   44.269
  223.097   84.921    4.237    0.374    0.204    8.324
  223.917   77.474    4.237    0.389    0.207    7.089
  224.738   82.802    4.236    0.401    0.215    7.318
  225.558   81.595    4.212    0.437    0.227    7.257
  226.378   85.137    4.196    0.377    0.223    6.633
  227.198   87.195    4.180    0.396    0.217   12.201
  228.018   82.422    4.171    0.419    0.219   11.498
  228.839   82.699    4.210    0.434    0.219    6.594
  229.659   70.210    4.287    0.438    0.238    8.007
  230.479   71.674    4.287    0.439    0.238    8.019
  231.299   86.202    4.310    0.428    0.253    6.557
  232.119   84.994    4.340    0.417    0.260    9.085
  232.940   77.252    4.340    0.398    0.233   10.377
  233.760   60.310    4.316    0.453    0.210   11.620
  234.580   57.912    4.315    0.452    0.206    6.870
  235.400   57.298    4.330    0.446    0.250    6.344
  236.220   54.013    4.338    0.414    0.264    7.940
  237.041   56.961    4.345    0.442    0.291   12.549
  237.861   59.019    4.344    0.473    0.286   16.691
  238.681   55.140    4.344    0.458    0.287   39.973
  239.501   60.167    4.343    0.435    0.291   29.833
  240.322   57.475    4.350    0.448    0.282   43.047
  241.142   68.142    4.358    0.452    0.275   45.343
  241.962   75.544    4.365    0.438    0.279   17.872
  242.782   71.959    4.364    0.434    0.255   16.502
  243.602   73.124    4.364    0.423    0.243   17.040
  244.423   82.013    4.363    0.448    0.231   13.652
  245.243   71.899    4.371    0.431    0.225    7.673
  246.063   63.863    4.393    0.466    0.224    8.248
  246.883   51.965    4.323    0.458    0.247   11.543
  247.703   56.101    4.322    0.438    0.266    8.357
  248.524   65.581    4.322    0.430    0.269    8.369
  249.344   53.389    4.321    0.408    0.262   11.247
  250.164   44.163    4.305    0.435    0.257   15.740
  250.984   50.081    4.289    0.427    0.253    9.495
  251.804   61.048    4.218    0.394    0.255    8.769
  252.625   72.012    4.210    0.414    0.258   15.810
  253.445   80.602    4.217    0.344    0.233   13.598
  254.265   89.783    4.224    0.373    0.219   20.847
  255.085   89.468    4.255    0.383    0.195    8.557
  255.906   90.339    4.293    0.424    0.196   20.283
  256.726   91.803    4.277    0.425    0.191    7.677
  257.546   97.721    4.246    0.433    0.192    7.235
  258.366   97.998    4.230    0.429    0.196    6.417
  259.186   97.680    4.213    0.411    0.186    7.329
  260.007  103.296    4.205    0.397    0.192    7.048
  260.827  100.903    4.181    0.442    0.203    7.427
  261.647  108.306    4.165    0.400    0.195    7.071
  262.467  115.411    4.157    0.425    0.200    6.463
  263.287  115.685    4.156    0.414    0.208    7.536
  264.108  121.308    4.202    0.397    0.219    7.547
  264.928  119.507    4.194    0.403    0.197    6.760
  265.748  122.455    4.201    0.427    0.205    7.344
  266.568  118.576    4.177    0.417    0.184    7.895
  267.388  112.024    4.169    0.436    0.189    6.520
  268.209  101.908    4.169    0.442    0.197    7.681
  269.029  104.559    4.176    0.455    0.204    6.743
  269.849  103.946    4.175    0.439    0.211    6.822
  270.669   97.394    4.175    0.428    0.211    6.901
  271.490   98.853    4.182    0.447    0.199    8.995
