~VERSION INFORMATION
 VERS.                 2.0:   CWLS LOG ASCII STANDARD -VERSION 2.0
 WRAP.                  NO:   ONE LINE PER DEPTH STEP
~WELL INFORMATION BLOCK
#MNEM.UNIT           DATA                    DESCRIPTION OF MNEMONIC
#---------    -------------------            -------------------------------
# Generated from Intellog Unique Number	CN_94_101/WELL/2816
WELL.         03-02-096-15W4                 : Well_name    - WELL
LOC .         AA/03-02-096-15W4/0            : Location     - LOCATION
UWI .         AA/03-02-096-15W400            : Uwi          - UNIQUE WELL ID
ENTR.         JOETTE                         : Entered      - ENTERED BY
SRVC.         SCHLUMBERGER                   : Scn          - SERVICE COMPANY
DATE.         07/07/92                       : Date         - LOG DATE
STRT.M        50                             : top_depth    - START DEPTH
STOP.M        330                            : bot_depth    - STOP DEPTH
STEP.M        0.25                           : increment    - STEP LENGTH
 NULL. -999.2500:NULL Value
~CURVE INFORMATION BLOCK
#MNEM UNIT       ERCB CURVE CODE    CURVE DESCRIPTION
#-----------   ------------------   ----------------------------------
DEPT.M        00 001 00 00         : DEPTH        - DEPTH
CALI.MM       00 280 01 00         : CAL          - CALIPER
GR  .API      00 310 00 00         : GR           - GAMMA RAY
NPHI.V/V      00 330 00 00         : PHIN         - NEUTRON POROSITY (SANDSTONE)
DPHI.V/V      00 890 00 00         : PHID         - DENSITY POROSITY (SANDSTONE)
ILD .OHMM     00 120 00 00         : RESD         - DEEP RESISTIVITY (DIL)
~PARAMETER INFORMATION
#MNEM.UNIT           DATA             DESCRIPTION OF MNEMONIC
#---------         -----------     ------------------------------
GL  .M        577.32               : gl           - GROUND LEVEL ELEVATION
EREF.M        580.67               : kb           - ELEVATION OF DEPTH REFERENCE
DATM.M        580.67               : datum        - DATUM ELEVATION
TDD .M        330                  : tdd          - TOTAL DEPTH DRILLER
RUN .         ONE                  : Run          - RUN NUMBER
ENG .         JO                   : Engineer     - RECORDING ENGINEER
WIT .         TIM                  : Witness      - WITNESSED BY
MUD .         GEL                  : Mud_type     - MUD TYPE
MATR.         SANDSTONE            : Logunit      - NEUTRON MATRIX
TMAX.C        19                   : BHT          - MAXIMUM RECORDED TEMPERATURE
BHTD.M        330                  : BHTDEP       - MAXIMUM RECORDED TEMPERATURE
RMT .C        13                   : MDTP         - TEMPERATURE OF MUD
MUDD.KG/M     1000                 : MWT          - MUD DENSITY
NEUT.         1                    : NEUTRON      - NEUTRON TYPE
RESI.         0                    : RESIST       - RESISTIVITY TYPE
RM  .OHMM     2.5                  : RM           - RESISTIVITY OF MUD
RMC .OHMM     2.5                  : RMC          - RESISTIVITY OF MUD CAKE
RMF .OHMM     2.5                  : RMF          - RESISTIVITY OF MUD FILTRATE
SUFT.C        4                    : SUFT         - SURFACE TEMPERATURE
~A  DEPTH      CAL       GR     PHIN     PHID     RESD
# ...
  196.000  178.714   79.940    0.542    0.267    6.129
  196.250  175.829   75.796    0.533    0.288    6.369
  196.500  171.971   72.254    0.518    0.306    7.129
  196.750  168.080   67.506    0.506    0.301    7.988
  197.000  166.201   62.758    0.483    0.244    8.301
  197.250  166.300   61.027    0.474    0.193    8.626
  197.500  165.459   59.295    0.504    0.219    8.965
  197.750  165.559   58.771    0.509    0.266    9.321
  198.000  165.691   57.664    0.504    0.264    9.520
  198.250  165.823   56.516    0.496    0.244    8.867
  198.500  165.955   56.012    0.484    0.317    8.560
  198.750  166.120   56.675    0.473    0.319    7.828
  199.000  166.252   57.377    0.468    0.313    7.553
  199.250  167.390   57.437    0.464    0.308    6.781
  199.500  169.534   59.346    0.471    0.300    6.543
  199.750  172.717   61.859    0.476    0.303    5.870
  200.000  174.827   63.709    0.469    0.295    5.368
  200.250  177.977   66.806    0.472    0.262    4.819
  200.500  184.176   71.129    0.481    0.293    4.650
  200.750  189.337   74.226    0.498    0.298    4.496
  201.000  190.475   77.322    0.511    0.283    4.419
  201.250  186.584   79.815    0.509    0.284    4.431
  201.500  186.683   82.328    0.498    0.288    4.438
  201.750  186.849   81.201    0.497    0.283    4.450
  202.000  187.954   80.073    0.503    0.280    4.455
  202.250  189.091   80.736    0.500    0.270    4.467
  202.500  190.229   82.062    0.512    0.254    4.562
  202.750  191.367   82.725    0.506    0.247    4.569
  203.000  191.533   82.201    0.500    0.252    4.577
  203.250  190.659   81.093    0.516    0.261    4.423
  203.500  189.818   80.549    0.534    0.260    4.270
  203.750  187.873   79.421    0.526    0.244    3.835
  204.000  186.027   78.274    0.527    0.212    3.633
  204.250  184.114   82.637    0.531    0.185    3.324
  204.500  183.241   85.110    0.527    0.167    3.331
  204.750  185.418   88.810    0.528    0.180    3.335
  205.000  186.555   91.887    0.595    0.227    3.467
  205.250  187.660   93.776    0.606    0.265    3.605
  205.500  188.864   93.876    0.588    0.274    3.968
  205.750  188.963   92.748    0.561    0.267    4.200
  206.000  190.068   92.224    0.554    0.270    4.365
  206.250  190.234   92.283    0.545    0.277    4.453
  206.500  190.399   92.363    0.538    0.282    4.631
  206.750  190.498   91.838    0.531    0.278    4.727
  207.000  189.657   88.297    0.523    0.278    4.828
  207.250  188.784   81.739    0.522    0.273    4.931
  207.500  188.916   81.818    0.514    0.271    5.028
  207.750  188.042   81.917    0.498    0.271    5.041
  208.000  187.169   82.016    0.489    0.271    5.055
  208.250  186.295   82.056    0.484    0.282    5.060
  208.500  185.389   81.531    0.476    0.283    5.261
  208.750  184.548   77.406    0.491    0.286    5.575
  209.000  183.675   73.845    0.502    0.288    5.905
  209.250  180.823   67.890    0.508    0.288    6.028
  209.500  179.883   64.932    0.492    0.290    5.612
  209.750  174.986   61.411    0.474    0.278    5.035
  210.000  173.074   63.320    0.464    0.254    4.858
  210.250  176.289   65.170    0.455    0.229    4.607
  210.500  176.389   71.907    0.494    0.221    4.972
  210.750  176.587   76.211    0.514    0.232    5.073
  211.000  176.653   76.894    0.527    0.266    5.376
  211.250  176.818   73.956    0.534    0.294    5.390
  211.500  174.972   68.000    0.538    0.298    5.300
  211.750  174.032   62.045    0.512    0.302    5.120
  212.000  171.147   59.107    0.483    0.309    5.131
  212.250  169.268   58.603    0.456    0.313    5.139
  212.500  170.439   58.643    0.450    0.301    5.246
  212.750  173.588   59.929    0.473    0.287    5.457
  213.000  174.693   63.045    0.473    0.320    5.568
  213.250  177.843   70.366    0.463    0.324    5.687
  213.500  180.992   77.103    0.452    0.315    5.696
  213.750  183.169   80.200    0.483    0.293    5.607
  214.000  184.340   81.506    0.507    0.283    5.122
  214.250  184.406   80.378    0.513    0.272    4.598
  214.500  185.610   78.627    0.521    0.278    4.444
  214.750  185.709   76.916    0.521    0.270    4.370
  215.000  185.808   78.805    0.512    0.262    4.377
  215.250  185.808   80.675    0.499    0.278    4.470
  215.500  184.127   81.378    0.493    0.282    4.558
  215.750  187.276   80.250    0.511    0.279    4.570
  216.000  187.442   78.499    0.507    0.282    4.580
  216.250  187.508   78.618    0.497    0.283    4.587
  216.500  187.640   78.658    0.485    0.290    4.597
  216.750  187.805   80.548    0.490    0.295    4.612
  217.000  187.937   81.231    0.496    0.290    4.620
  217.250  186.058   81.330    0.501    0.281    4.543
  217.500  182.167   78.372    0.507    0.272    4.315
  217.750  178.309   76.037    0.515    0.264    4.163
  218.000  177.403   78.531    0.513    0.237    4.023
  218.250  176.496   84.061    0.477    0.250    3.954
  218.500  177.634   85.950    0.496    0.288    3.890
  218.750  179.811   89.067    0.505    0.276    3.829
  219.000  182.960   91.560    0.516    0.243    3.770
  219.250  186.110   94.073    0.518    0.253    3.776
  219.500  187.214   95.923    0.527    0.257    3.717
  219.750  189.358   99.623    0.549    0.248    3.723
  220.000  189.490   97.892    0.533    0.229    3.729
  220.250  189.622   94.974    0.546    0.237    3.810
  220.500  189.788   91.412    0.552    0.241    3.817
  220.750  189.920   91.511    0.556    0.234    3.821
  221.000  190.019   92.778    0.547    0.232    3.831
  221.250  189.145   95.271    0.536    0.220    3.839
  221.500  180.226   97.804    0.521    0.254    3.845
  221.750  180.358   96.676    0.535    0.254    3.856
  222.000  183.507   94.905    0.552    0.238    3.862
  222.250  185.651   92.591    0.554    0.230    3.944
  222.500  185.816   93.857    0.555    0.239    4.257
  222.750  185.916   96.390    0.555    0.233    4.422
  223.000  186.081   97.073    0.549    0.212    4.859
  223.250  185.174   94.115    0.539    0.148    5.442
  223.500  185.174   92.384    0.525    0.178    6.094
  223.750  185.505   93.067    0.506    0.203    6.571
  224.000  187.681   93.146    0.503    0.251    7.358
  224.250  187.780   93.829    0.497    0.267    7.789
  224.500  188.951   94.531    0.463    0.262    7.806
  224.750  190.023   95.798    0.458    0.258    7.138
  225.000  190.155   90.466    0.444    0.259    6.769
  225.250  190.288   86.885    0.434    0.248    6.538
  225.500  190.420   82.136    0.427    0.252    6.436
  225.750  189.579   80.425    0.428    0.273    6.443
  226.000  189.678   80.524    0.440    0.285    6.580
  226.250  189.811   82.394    0.452    0.318    6.713
  226.500  191.954   83.077    0.476    0.326    6.980
  226.750  196.109   80.723    0.491    0.353    7.262
  227.000  216.423   77.201    0.506    0.370    7.273
  227.250  215.516   74.886    0.507    0.392    7.567
  227.500  225.706   73.739    0.500    0.383    7.579
  227.750  222.821   72.591    0.493    0.344    7.741
  228.000  213.901   73.274    0.485    0.337    7.902
  228.250  202.970   76.391    0.476    0.306    8.061
  228.500  195.023   78.884    0.457    0.283    7.931
  228.750  181.075   78.379    0.449    0.290    7.812
  229.000  172.188   77.212    0.457    0.295    7.820
  229.250  171.282   74.294    0.451    0.291    7.833
  229.500  171.447   71.979    0.447    0.285    7.850
  229.750  171.546   72.039    0.443    0.281    7.871
  230.000  172.684   72.742    0.443    0.280    7.892
  230.250  173.855   73.404    0.456    0.275    7.900
  230.500  177.004   74.671    0.479    0.265    7.917
  230.750  181.126   77.204    0.481    0.257    7.934
  231.000  179.247   78.470    0.482    0.272    7.811
  231.250  176.395   79.776    0.472    0.273    7.680
  231.500  174.549   77.422    0.458    0.257    7.697
  231.750  174.615   72.693    0.438    0.221    7.577
  232.000  174.747   72.129    0.436    0.241    7.593
  232.250  175.918   72.832    0.431    0.254    7.470
