~Version : LASO    vs 4.00
VERS.                2.00:   CWLS Log ASCII Standard -VERSION 2.0
WRAP.                  NO:
~Well Information Block
#MNEM.UNIT       Data                        Description of Mnemonic
#----.----      -------------------------- : -----------------------------
STRT.M            13.0000:
STOP.M           191.0000:
STEP.M             0.2000:
NULL.           -999.2500:
COMP.  MOBIL OIL OF CANADA          :COMPANY
WELL.  MOBIL CLARKE OV 4-1          :WELL
FLD.                                :FIELD
LOC.   04-01-091-08W4               :LOCATION
CTRY.  CANADA                       :COUNTRY
PROV.  ALBERTA                      :PROVINCE
SRVC.  SCHLUMBERGER                 :SERVICE COMPANY
DATE.  12-FEB-81                    :LOG DATE
UWI.   AA/04-01-091-08W400          :UNIQUE WELL ID
~Parameter Information Block
#MNEM.UNIT       Data                        Description of Mnemonic
#----.----      -------------------------- : -----------------------------
RUN .                   1                 : Run Number
GL  .M           444.1000                 : Ground Level Elevation
DREF.                  GD                 : Depth Reference
EREF.M           444.1000                 : Elevation of Depth Reference
TDL .M           191.5000                 : Total Depth Logger
TDD .M           192.0000                 : Total Depth Driller
CSGL.M            15.0000                 : Casing Bottom Logger
CSGD.M            15.0000                 : Casing Bottom Driller
CSGS.MM          179.0000                 : Casing Size
CSGW.KG/M          0.0000                 : Casing Weight
BHT .DEGC         12.0000                 : Bottom Hole Temperature
BS  .MM          158.0000                 : Bit Size
DFD .           1080.0000                 : Mud Weight (Density)
DFV .             85.0000                 : Mud Viscosity
DFPH.             12.6000                 : Mud pH
~Curve Information Block
#MNEM.UNIT        API CODE    Curve Description
#---------    ------------    -------------------------------------------
DEPT.M                    :   DEPTH
CALI.MM       42 280  1  1:   3 DENSITY CALIPER
DPHI.V/V                  :   DPHI
DT  .US/M     60 520  0  1:   2 SONIC INTERVAL TRANSIT TIME (COMPENSATED)
GR  .GAPI     42 310  1  1:   4 GAMMA RAY
ILD .OHMM      5 120 46  1:   7 DEEP INDUCTION
ILM .OHMM      5 120 44  1:   8 MEDIUM INDUCTION
NPHI.V/V      42 890  3  1:   5 NEUTRON POROSITY (SANDSTONE)
RHOB.K/M3     42 350  1  1:   6 BULK DENSITY
SFLU.OHMM      5 220  1  1:   9 FOCUSSED RESISTIVITY
SP  .MV        5  10  1  1:   10 SPONTANEOUS POTENTIAL
~A  Depth           CALI        DPHI          DT          GR         ILD         ILM        NPHI        RHOB        SFLU          SP
# ...
37.4000         192.0500      0.0919    469.1200     67.9200     21.8892    406.4713      0.2987   2509.8000     36.9683    -60.2100
37.6000         178.4250      0.0930    476.0400     65.8200     24.0010    399.0524      0.2909   2489.1001     43.2345    -60.7050
37.8000         180.9000      0.1026    437.0400     63.3150     24.6735    381.0921      0.2975   2447.5000     43.2345    -60.9600
38.0000         178.4250      0.1155    430.9200     62.6100     24.6735    395.3939      0.2979   2416.8000     41.6706    -60.9600
38.2000         180.9000      0.1327    484.3200     65.6100     24.0010    406.4713      0.3195   2433.6001     35.3045    -60.4650
38.4000         183.3750      0.1355    576.9600     68.8200     23.5630    402.7448      0.3257   2428.7000     32.1981    -60.2100
38.6000         193.2750      0.1360    615.1200     72.8250     22.9208    402.7448      0.3236   2478.2000     31.3206    -59.9550
38.8000         192.0500      0.1339    611.1600     77.2200     22.7107    399.0524      0.3152   2473.2000     30.7489    -59.9550
39.0000         201.9500      0.1218    498.6800     79.3350     22.5025    425.6277      0.2956   2441.5000     30.7489    -60.2100
39.2000         205.6750      0.1138    477.6400     80.7300     22.5025    410.2324      0.2963   2477.2000     31.9029    -60.2100
39.4000         189.5750      0.1051    429.6000     84.5400     22.0917    402.7448      0.3037   2493.0000     33.1001    -60.2100
39.6000         177.1750      0.0975    449.3200     94.6500     21.6885    377.5982      0.3170   2518.8000     35.6312    -59.9550
39.8000         184.6000      0.0867    476.0400     92.4450     21.4897    391.7689      0.3121   2535.6001     36.9683    -59.9550
40.0000         183.3750      0.0908    478.0400     80.6250     21.6885    410.2324      0.3080   2510.8000     34.0275    -59.9550
40.2000         178.4250      0.1221    566.2800     61.6050     24.0010    406.4713      0.3098   2423.7000     25.3414    -60.7050
40.4000         178.4250      0.1470    601.2800     57.5100     25.5994    410.2324      0.2992   2388.1001     23.7591    -61.7100
40.6000         175.9250      0.1623    615.2800     52.6950     26.8059    402.7448      0.2744   2344.5000     28.5647    -62.9700
40.8000         175.9250      0.1924    516.2400     46.8900     30.7773    417.8592      0.1992   2217.8000     92.8603    -66.2250
41.0000         179.6500      0.2375    500.5600     49.5000     33.4372    417.8592      0.1897   2215.8000    201.2936    -67.4850
41.2000         180.9000      0.2557    553.2000     52.6050     37.6903    406.4713      0.1945   2201.8999    248.7883    -67.4850
41.4000         183.3750      0.2667    585.0000     54.0000     40.9477    406.4713      0.1992   2178.2000    139.2611    -66.4800
41.6000         180.9000      0.2810    564.1200     52.0950     44.4867    395.3939      0.1564   2143.5000    117.9859    -65.9700
41.8000         179.6500      0.2946    568.5200     50.2050     45.3137    410.2324      0.1250   2093.0000    244.2474    -66.7200
42.0000         179.6500      0.3165    572.3200     48.3900     45.3137    410.2324      0.1083   2049.5000    636.5462    -66.9750
42.2000         179.6500      0.3445    561.6400     48.9000     47.4493    410.2324      0.0992   2049.5000   2268.9758    -67.4850
42.4000         179.6500      0.3556    543.3600     50.4000     48.7787    399.0524      0.1034   2079.2000   1922.3386    -67.9800
42.6000         179.6500      0.3697    527.9600     51.0000     49.2300    410.2324      0.1077   2068.3000    496.3979    -67.9800
42.8000         179.6500      0.3785    533.1200     49.2000     48.7787    417.8592      0.1090   2021.7000    258.1249    -67.7250
43.0000         179.6500      0.3836    536.7600     45.9900     48.3315    399.0524      0.1079   2005.9000    205.0359    -67.9800
43.2000         179.6500      0.3792    537.5200     41.5950     47.8884    399.0524      0.1058   2016.8000    255.7584    -68.4750
43.4000         180.9000      0.3724    525.2800     40.8900     49.6855    395.3939      0.1079   2031.6000    717.5132    -69.9900
43.6000         180.9000      0.3632    524.7200     41.3850     51.0775    410.2324      0.1096   2048.5000    630.7103    -69.9900
43.8000         182.1250      0.3534    524.4400     39.3900     52.9944    410.2324      0.1139   2075.2000   2012.9357    -69.9900
44.0000         183.3750      0.3445    523.8800     34.6800     56.5236    433.5407      0.1223   2079.2000   2375.9094    -70.2300
44.2000         182.1250      0.3368    523.5200     34.4850     58.1072    445.6870      0.1270   2093.0000   2442.4736    -70.4850
44.4000         182.1250      0.3343    523.3600     35.2800     60.2879    466.6915      0.1332   2100.8999   2465.0735    -70.7400
44.6000         183.3750      0.3339    526.9200     36.4800     62.5504    466.6915      0.1396   2097.0000   2442.4736    -70.9950
44.8000         187.0750      0.3350    535.0000     37.5900     64.3028    441.6009      0.1556   2091.0000   2420.0808    -71.9850
45.0000         187.0750      0.3445    536.0400     36.9900     64.3028    445.6870      0.1490   2087.1001   2420.0808    -72.2400
45.2000         187.0750      0.3638    544.1600     35.0850     64.8978    421.7256      0.1260   2065.3000   2420.0808    -72.4950
45.4000         187.0750      0.3844    536.4000     31.6800     67.3333    475.3680      0.1040   2024.7000   2510.9028    -72.9900
45.6000         187.0750      0.3907    528.3200     30.7800     67.3333    466.6915      0.1093   1978.2000   2465.0735    -72.7500
45.8000         187.0750      0.3834    527.9600     29.7750     68.5851    466.6915      0.1174   1983.1001   2465.0735    -72.7500
46.0000         185.8500      0.3741    535.2400     31.1850     66.7160    437.5522      0.1264   2020.7000   2420.0808    -72.2400
46.2000         185.8500      0.3634    541.6000     31.1850     65.4983    458.1735      0.1305   2029.6000   2442.4736    -72.7500
46.4000         185.8500      0.3572    541.9600     31.5750     66.1043    466.6915      0.1330   2041.5000   2442.4736    -72.9900
46.6000         185.8500      0.3509    541.9600     33.0750     67.3333    445.6870      0.1293   2064.3000   2442.4736    -73.7400
46.8000         185.8500      0.3457    539.2400     33.5850     66.7160    458.1735      0.1340   2064.3000   2465.0735    -73.9950
47.0000         185.8500      0.3406    534.1600     33.0750     66.7160    421.7256      0.1457   2081.1001   2420.0808    -74.5050
47.2000         185.8500      0.3422    526.4400     32.1750     64.8978    453.9729      0.1649   2100.0000   2375.9094    -76.5000
47.4000         184.6000      0.3459    526.5600     30.7800     64.3028    462.4129      0.1764   2076.2000   2397.8936    -77.7600
47.6000         184.6000      0.3404    527.1600     30.6750     66.1043    466.6915      0.1972   2073.2000   2442.4736    -79.0050
47.8000         184.6000      0.3315    527.5200     32.5800     64.8978    425.6277      0.2227   2093.0000   2354.1270    -80.0100
48.0000         190.8000      0.3237    527.8000     36.7800     63.7133    449.8109      0.2457   2140.5000   2354.1270    -81.5250
48.2000         189.5750      0.3200    527.8000     37.4850     63.1292    466.6915      0.2364   2120.7000   2397.8936    -82.2750
48.4000         188.3250      0.3223    527.6801     37.4850     63.1292    437.5522      0.2241   2130.6001   2375.9094    -82.7700
48.6000         187.0750      0.3317    529.4000     37.4850     63.1292    437.5522      0.1980   2093.0000   2375.9094    -82.7700
48.8000         187.0750      0.3385    536.2800     37.3800     64.8978    425.6277      0.1838   2089.1001   2420.0808    -82.5150
49.0000         187.0750      0.3348    538.0400     35.8800     64.8978    453.9729      0.1795   2085.1001   2465.0735    -82.2750
49.2000         185.8500      0.3441    532.9600     34.9800     64.8978    449.8109      0.1858   2095.0000   2420.0808    -81.7650
49.4000         185.8500      0.3478    533.6400     32.7750     66.7160    462.4129      0.1737   2081.1001   2465.0735    -81.0150
