~VERSION INFORMATION
 VERS.                 2.0:   CWLS LOG ASCII STANDARD -VERSION 2.0
 WRAP.                  NO:   ONE LINE PER DEPTH STEP
~WELL INFORMATION BLOCK
#MNEM.UNIT           DATA                    DESCRIPTION OF MNEMONIC
#---------    -------------------            -------------------------------
# Generated from Intellog Unique Number	CN_94_101/WELL/2553
WELL.         03-34-094-10W4                 : Well_name    - WELL
LOC .         AA/03-34-094-10W4/0            : Location     - LOCATION
UWI .         AA/03-34-094-10W400            : Uwi          - UNIQUE WELL ID
ENTR.         JOETTE                         : Entered      - ENTERED BY
SRVC.         SCHLUMBERGER                   : Scn          - SERVICE COMPANY
DATE.         05/17/92                       : Date         - LOG DATE
STRT.M        0                              : top_depth    - START DEPTH
STOP.M        40                             : bot_depth    - STOP DEPTH
STEP.M        0.25                           : increment    - STEP LENGTH
 NULL. -999.2500:NULL Value
~CURVE INFORMATION BLOCK
#MNEM UNIT       ERCB CURVE CODE    CURVE DESCRIPTION
#-----------   ------------------   ----------------------------------
DEPT.M        00 001 00 00         : DEPTH        - DEPTH
GR  .API      00 310 00 00         : GR           - GAMMA RAY
NPHI.V/V      00 330 00 00         : PHIN         - NEUTRON POROSITY (SANDSTONE)
RHOB.KG/M3    00 350 00 00         : DENS         - BULK DENSITY
ILD .OHMM     00 120 00 00         : RESD         - DEEP RESISTIVITY (DIL)
~PARAMETER INFORMATION
#MNEM.UNIT           DATA             DESCRIPTION OF MNEMONIC
#---------         -----------     ------------------------------
GL  .M        288.9                : gl           - GROUND LEVEL ELEVATION
EREF.M        288.9                : kb           - ELEVATION OF DEPTH REFERENCE
DATM.M        288.9                : datum        - DATUM ELEVATION
TDD .M        44.2                 : tdd          - TOTAL DEPTH DRILLER
RUN .         ONE                  : Run          - RUN NUMBER
ENG .         JO                   : Engineer     - RECORDING ENGINEER
WIT .         TIM                  : Witness      - WITNESSED BY
MUD .         GEL                  : Mud_type     - MUD TYPE
MATR.         SANDSTONE            : Logunit      - NEUTRON MATRIX
TMAX.C        16                   : BHT          - MAXIMUM RECORDED TEMPERATURE
BHTD.M        44.2                 : BHTDEP       - MAXIMUM RECORDED TEMPERATURE
RMT .C        4                    : MDTP         - TEMPERATURE OF MUD
MUDD.KG/M     1010                 : MWT          - MUD DENSITY
NEUT.         1                    : NEUTRON      - NEUTRON TYPE
RESI.         0                    : RESIST       - RESISTIVITY TYPE
RM  .OHMM     7                    : RM           - RESISTIVITY OF MUD
RMC .OHMM     7                    : RMC          - RESISTIVITY OF MUD CAKE
RMF .OHMM     7                    : RMF          - RESISTIVITY OF MUD FILTRATE
SUFT.C        4                    : SUFT         - SURFACE TEMPERATURE
~A  DEPTH       GR     PHIN     DENS     RESD
    0.000   23.506    0.258 2674.210    0.000
    0.250   46.635    0.282 2654.470    0.000
    0.500   52.452    0.537 2649.150    0.000
    0.750   52.727    0.541 2650.260    0.000
    1.000   47.492    0.543 2643.000    0.000
    1.250   47.732    0.546 2650.040    0.000
    1.500   43.695    0.544 2626.310    0.000
    1.750   45.270    0.535 2676.860    0.000
    2.000   47.357    0.533 2669.730    0.000
    2.250   49.479    0.540 2652.170    0.000
    2.500   49.753    0.538 2648.910    0.000
    2.750   54.338    0.530 2647.710    0.000
    3.000   66.964    0.517 2642.520    0.000
    3.250   53.039    0.491 2558.790    0.000
    3.500   75.553    0.482 2247.570    0.000
    3.750   59.164    0.476 2139.000    0.000
    4.000   54.511    0.454 2098.660    0.000
    4.250   58.515    0.455 2091.520    0.000
    4.500   49.517    0.454 2106.930    0.000
    4.750   39.321    0.460 2091.430    0.000
    5.000   46.370    0.462 2108.780  373.080
    5.250   52.187    0.454 2120.180  823.173
    5.500   50.614    0.462 2131.590  417.127
    5.750   42.882    0.453 2122.030  265.464
    6.000   47.432    0.460 2125.320  696.054
    6.250   47.125    0.457 2140.610  487.757
    6.500   42.438    0.460 2125.230  551.605
    6.750   52.019    0.442 2111.670 1313.540
    7.000   65.842    0.438 2114.720  805.441
    7.250   70.461    0.466 2130.120  683.632
    7.500   46.067    0.461 2141.530  227.072
    7.750   54.929    0.457 2123.970  311.041
    8.000   69.436    0.455 2122.900  987.833
    8.250   59.822    0.460 2129.940  203.310
    8.500   76.212    0.464 2153.830  400.092
    8.750   83.842    0.460 2121.610  218.807
    9.000  102.661    0.457 2143.200  168.667
    9.250  102.353    0.436 2196.060   90.500
    9.500  111.865    0.382 2228.070   71.105
    9.750   88.668    0.398 2257.890   93.665
   10.000   96.367    0.451 2281.660  161.135
   10.250  112.072    0.483 2286.770   55.709
   10.500  112.346    0.506 2198.800   36.903
   10.750  115.734    0.538 2160.640   30.701
   11.000  125.280    0.554 2118.110   12.351
   11.250  128.018    0.557 2067.350   13.446
   11.500  115.359    0.555 1985.680   13.293
   11.750  126.103    0.542 1932.850   15.019
   12.000  132.570    0.538 1946.320   17.295
   12.250  114.299    0.530 2083.770   16.776
   12.500  109.031    0.512 2130.450   14.792
   12.750   92.608    0.494 2156.030    9.987
   13.000  113.274    0.492 2223.190   15.035
   13.250  114.164    0.491 2259.440   23.069
   13.500   93.430    0.483 2260.300   13.603
   13.750   50.491    0.470 2253.050   17.919
   14.000   35.300    0.460 2266.520   24.994
   14.250   16.448    0.432 2190.910   39.088
   14.500   27.877    0.410 2125.720   37.914
   14.750   28.151    0.406 2147.430   44.544
   15.000   34.584    0.422 2212.520   84.377
   15.250   43.514    0.432 2219.810   67.570
   15.500   46.286    0.444 2218.740   92.468
   15.750   42.796    0.427 2219.600   55.629
   16.000   38.759    0.441 2212.340   46.324
   16.250   50.153    0.465 2205.090   67.126
   16.500   51.659    0.457 2241.220   42.720
   16.750   58.776    0.433 2254.560   33.597
   17.000   54.090    0.429 2241.130   27.950
   17.250   47.555    0.443 2213.150   37.599
   17.500   42.902    0.446 2224.430   50.433
   17.750   36.983    0.443 2225.540   44.470
   18.000   28.019    0.438 2170.650   40.698
   18.250   18.440    0.437 2146.920   43.466
   18.500   14.369    0.414 2131.420   83.841
   18.750   10.913    0.408 2144.640  304.001
   19.000   10.024    0.424 2160.290  209.004
   19.250   12.728    0.458 2150.850  602.834
   19.500   36.473    0.483 2126.990  502.003
   19.750   58.371    0.500 2113.430  130.382
   20.000  104.356    0.517 2108.240   20.159
   20.250  116.982    0.525 2134.070   11.025
   20.500  116.025    0.527 2211.530   12.221
   20.750  116.915    0.526 2183.550   10.562
   21.000   64.087    0.529 2112.180   10.859
   21.250   59.400    0.537 1939.490   25.858
   21.500   57.861    0.491 1919.870   49.028
   21.750   53.174    0.461 2094.530   37.793
   22.000   96.080    0.469 2229.920   45.214
   22.250   64.842    0.368 2272.230   13.394
   22.500   28.061    0.380 2304.370   31.926
   22.750   27.754    0.399 2288.750   85.323
   23.000   36.650    0.408 2221.500   87.634
   23.250   42.502    0.416 2181.160  111.012
   23.500   45.273    0.430 2206.860   44.705
   23.750   52.322    0.426 2240.930   61.178
   24.000   62.450    0.431 2229.560  205.536
   24.250   52.870    0.453 2228.480   24.826
   24.500   45.104    0.452 2200.500   55.830
   24.750   55.882    0.464 2242.940   73.544
   25.000   52.461    0.466 2219.070   23.092
   25.250   70.664    0.465 2228.300   74.678
   25.500   96.873    0.488 2239.590   23.899
   25.750  122.466    0.522 2236.450   18.795
   26.000  135.776    0.534 2241.680   17.887
   26.250  140.943    0.531 2277.810   10.348
   26.500  138.138    0.527 2276.730    9.867
   26.750  135.333    0.520 2281.960   10.720
   27.000  125.719    0.518 2276.640   11.222
   27.250  138.960    0.514 2275.690   10.896
   27.500  115.147    0.491 2280.670    9.783
   27.750   94.413    0.464 2310.620    9.681
   28.000  103.344    0.485 2313.790   12.488
   28.250  105.466    0.498 2312.590   15.550
   28.500  102.661    0.505 2280.490   11.749
   28.750   49.833    0.473 2289.720   13.287
   29.000   37.140    0.413 2346.570    9.311
   29.250   27.526    0.374 2450.940   13.000
   29.500   18.528    0.256 2567.660   14.673
   29.750   15.107    0.212 2529.380   53.255
   30.000   13.568    0.158 2602.720   68.959
   30.250   14.423    0.110 2616.190   64.262
   30.500   20.275    0.085 2668.800   68.568
   30.750   27.973    0.124 2690.510   99.358
   31.000   22.123    0.149 2606.660  114.418
   31.250   25.408    0.186 2663.510  100.986
   31.500   28.796    0.195 2635.530   72.059
   31.750   35.845    0.203 2655.430   74.081
   32.000   34.921    0.219 2658.230   66.516
   32.250   32.732    0.261 2669.510   75.223
   32.500   49.019    0.312 2682.980   62.581
   32.750   70.917    0.413 2632.220   55.182
   33.000   84.808    0.439 2569.210   16.694
   33.250   64.690    0.395 2547.410   16.489
   33.500   42.109    0.285 2589.720   12.722
   33.750   33.727    0.230 2642.460   68.915
   34.000   28.458    0.208 2616.540   61.996
   34.250   30.580    0.223 2617.520   62.412
   34.500   33.968    0.246 2595.840   58.273
   34.750   28.083    0.255 2592.590   58.776
   35.000   32.703    0.207 2595.630   55.934
   35.250   26.750    0.187 2555.290   54.203
   35.500   26.408    0.161 2570.820   57.890
   35.750   14.946    0.130 2546.960   73.333
   36.000   23.261    0.109 2572.910   82.854
   36.250   45.775    0.323 2577.890   99.311
   36.500   68.323    0.362 2638.870   87.485
   36.750   67.365    0.402 2569.560   33.880
   37.000   60.831    0.421 2556.000   19.267
   37.250   70.993    0.425 2544.620   18.689
   37.500   70.035    0.416 2558.090   17.433
   37.750   69.112    0.408 2548.650   17.566
   38.000   69.386    0.386 2518.860   18.743
   38.250   57.890    0.357 2544.440   19.622
   38.500   60.012    0.342 2595.120   27.895
   38.750   62.134    0.370 2639.490   51.843
   39.000   51.322    0.362 2578.420   14.244
   39.250   60.253    0.371 2544.260   27.501
   39.500   64.838    0.378 2543.190   20.406
   39.750   66.344    0.355 2564.900   18.010
   40.000   46.226    0.347 2601.030   16.483
