~VERSION INFORMATION
 VERS.                 2.0:   CWLS LOG ASCII STANDARD -VERSION 2.0
 WRAP.                  NO:   ONE LINE PER DEPTH STEP
~WELL INFORMATION BLOCK
#MNEM.UNIT           DATA                    DESCRIPTION OF MNEMONIC
#---------    -------------------            -------------------------------
# Generated from Intellog Unique Number	CC_84_87/WELL/1046
NULL.         -999.25                        : NULL_VALUE
WELL.         COSEKA TOTAL LYNTON            : Well_name    - WELL              
LOC .         01-35-087-07W4                 : Location     - LOCATION          
UWI .         AA/01-35-087-07W400            : Uwi          - UNIQUE WELL ID    
ENTR.         DW                             : Entered      - ENTERED BY        
SRVC.         SCHLUMBERGER                   : Scn          - SERVICE COMPANY   
DATE.         17 FEB 81                      : Date         - LOG DATE
STRT.M        30                             : top_depth    - START DEPTH       
STOP.M        165.001                        : bot_depth    - STOP DEPTH        
STEP.M        0.3                            : increment    - STEP LENGTH       
~CURVE INFORMATION BLOCK
#MNEM UNIT       ERCB CURVE CODE    CURVE DESCRIPTION
#-----------   ------------------   ----------------------------------
DEPT.M        00 001 00 00         : DEPTH        - DEPTH                       
DPHI.V/V      00 890 00 00         : PHID         - DENSITY POROSITY (LIMESTONE)
NPHI.V/V      00 330 00 00         : PHIN         - NEUTRON POROSITY (LIMESTONE)
GR  .API      00 310 00 00         : GR           - GAMMA RAY                   
ILD .OHMM     00 120 00 00         : RESD         - DEEP RESISTIVITY (DIL)      
~PARAMETER INFORMATION       
#MNEM.UNIT           DATA             DESCRIPTION OF MNEMONIC
#---------         -----------     ------------------------------
GL  .M        411.42               : gl           - GROUND LEVEL ELEVATION      
EREF.M        412.92               : kb           - ELEVATION OF DEPTH REFERENCE
DATM.M        412.92               : datum        - DATUM ELEVATION             
TDD .M        166                  : tdd          - TOTAL DEPTH DRILLER         
RUN .         ONE                  : Run          - RUN NUMBER                  
ENG .         BILL                 : Engineer     - RECORDING ENGINEER          
WIT .         JIM                  : Witness      - WITNESSED BY                
MUD .         GEL                  : Mud_type     - MUD TYPE                    
MATR.         LIMESTONE            : Logunit      - NEUTRON MATRIX              
TMAX.C        13.3                 : BHT          - MAXIMUM RECORDED TEMPERATURE
BHTD.M        165                  : BHTDEP       - MAXIMUM RECORDED TEMPERATURE
MATR.         1                    : LOGUNIT      - NEUTRON MATRIX              
RMT .C        25                   : MDTP         - TEMPERATURE OF MUD          
NEUT.         1                    : NEUTRON      - NEUTRON TYPE                
RESI.         0                    : RESIST       - RESISTIVITY TYPE            
RMC .OHMM     0.25                 : RMC          - RESISTIVITY OF MUD CAKE     
RMF .OHMM     0.25                 : RMF          - RESISTIVITY OF MUD FILTRATE 
SUFT.C        4                    : SUFT         - SURFACE TEMPERATURE         
~A  DEPTH     PHID     PHIN       GR     RESD
   30.000    0.301    0.586   79.835    8.262
   30.300    0.286    0.576   82.911    8.250
   30.600    0.231    0.573   89.106    8.399
   30.900    0.283    0.574   95.930    8.393
   31.200    0.319    0.572  107.736    8.383
   31.500    0.324    0.562  108.318    8.220
   31.800    0.282    0.562  103.914    7.903
   32.100    0.286    0.562  103.251    7.744
   32.400    0.291    0.549  101.958    7.738
   32.700    0.299    0.530  100.672    7.879
   33.000    0.303    0.518  104.997    7.724
   33.300    0.307    0.515  107.447    7.425
   33.600    0.308    0.537  109.275    7.278
   33.900    0.299    0.559  110.485    7.137
   34.200    0.281    0.575  108.574    7.128
   34.500    0.293    0.590  105.414    6.986
   34.800    0.302    0.553  102.877    6.719
   35.100    0.306    0.561  109.701    6.585
   35.400    0.310    0.558  109.662    6.578
   35.700    0.313    0.549  102.755    6.960
   36.000    0.308    0.544  105.829    7.646
   36.300    0.260    0.560  107.664    7.640
   36.600    0.289    0.575  106.998    7.345
   36.900    0.300    0.563  106.954    6.929
   37.200    0.280    0.548  108.163    6.794
   37.500    0.294    0.562  107.501    6.411
   37.800    0.310    0.578  104.346    6.050
   38.100    0.311    0.582  100.557    5.817
   38.400    0.273    0.571   97.401    5.812
   38.700    0.275    0.588   99.858    5.805
   39.000    0.288    0.524  104.179    6.141
   39.300    0.276    0.514  107.885    6.133
   39.600    0.292    0.523  102.225    6.011
   39.900    0.303    0.524   95.953    6.005
   40.200    0.309    0.545  101.524    6.232
   40.500    0.301    0.558   98.989    6.720
   40.800    0.282    0.572   92.707    6.972
   41.100    0.276    0.542   90.799    6.705
   41.400    0.272    0.514   95.118    6.448
   41.700    0.276    0.486   96.330    6.443
   42.000    0.302    0.481   93.166    6.560
   42.300    0.301    0.515   96.866    6.678
   42.600    0.283    0.533   95.574    6.546
   42.900    0.308    0.520   93.668    5.946
   43.200    0.320    0.494   95.503    4.728
   43.500    0.323    0.506  106.065    3.980
   43.800    0.304    0.527  109.136    3.754
   44.100    0.293    0.544  109.096    3.752
   44.400    0.309    0.566  108.434    3.893
   44.700    0.322    0.576  104.030    4.278
   45.000    0.316    0.560  107.107    4.354
   45.300    0.326    0.570  110.187    4.434
   45.600    0.308    0.596  103.904    4.871
   45.900    0.316    0.586  100.745    5.153
   46.200    0.322    0.575   97.590    5.770
   46.500    0.337    0.594   93.803    6.220
   46.800    0.342    0.583   96.261    6.833
   47.100    0.292    0.537   96.841    7.366
   47.400    0.306    0.512   96.173    8.093
   47.700    0.263    0.526   98.002    8.725
   48.000    0.289    0.516   93.602    9.769
   48.300    0.315    0.494   84.829   10.734
   48.600    0.299    0.480   75.434   11.138
   48.900    0.117    0.458   69.774   10.916
   49.200    0.167    0.403   64.125   10.703
   49.500    0.247    0.412   66.574    9.719
   49.800    0.308    0.443   72.771    8.182
   50.100    0.303    0.420   78.971    7.294
   50.400    0.296    0.432   87.038    6.023
   50.700    0.281    0.454   98.847    5.577
   51.000    0.295    0.482  100.680    5.262
   51.300    0.292    0.513  103.127    5.256
   51.600    0.295    0.547  103.714    5.667
   51.900    0.325    0.529  100.556    6.226
   52.200    0.321    0.521   99.892    6.220
   52.500    0.329    0.512   99.220    7.515
   52.800    0.306    0.518   97.310   10.180
   53.100    0.314    0.533   92.909   13.786
   53.400    0.349    0.500   87.878   14.304
   53.700    0.325    0.443   83.470   13.245
   54.000    0.318    0.436   88.417   10.531
   54.300    0.305    0.440   87.130    8.696
   54.600    0.286    0.448   87.090    8.687
   54.900    0.266    0.469   89.544    9.015
   55.200    0.296    0.500   89.502    9.536
   55.500    0.306    0.502   88.215    9.896
   55.800    0.293    0.479   87.548   11.081
   56.100    0.270    0.477   88.754   12.648
   56.400    0.294    0.488   87.471   13.127
   56.700    0.274    0.483   84.309   13.618
   57.000    0.272    0.435   79.902   13.095
   57.300    0.290    0.450   77.990   13.591
   57.600    0.309    0.465   79.196   14.651
   57.900    0.183    0.475   80.404   15.496
   58.200    0.073    0.465   80.365   15.777
   58.500    0.080    0.249   74.710   14.331
   58.800    0.126    0.246   67.186   13.270
   59.100    0.309    0.284   70.886   12.051
   59.400    0.307    0.359   89.555   10.947
   59.700    0.307    0.430   90.759   10.135
   60.000    0.312    0.455   85.097    9.032
   60.300    0.290    0.439   86.938    8.052
   60.600    0.300    0.449   91.262    7.039
   60.900    0.296    0.463   90.596    6.770
   61.200    0.298    0.471   90.552    7.162
   61.500    0.306    0.489   91.759    7.152
   61.800    0.301    0.504   91.721    6.878
   62.100    0.310    0.519   89.191    6.248
   62.400    0.293    0.539   89.768    5.897
   62.700    0.275    0.506   93.469    5.255
   63.000    0.273    0.503   97.796    5.054
   63.300    0.278    0.501  101.498    5.146
   63.600    0.272    0.500  102.081    5.340
   63.900    0.272    0.521   98.295    5.757
   64.200    0.289    0.526   95.763    6.324
   64.500    0.294    0.509   95.096    6.948
   64.800    0.308    0.516   94.431    7.931
   65.100    0.319    0.516   93.772    8.712
   65.400    0.300    0.510   93.106    7.915
   65.700    0.243    0.498   92.441    5.944
   66.000    0.148    0.518   85.539    4.216
   66.300    0.175    0.496   81.134    3.829
   66.600    0.246    0.397   84.828    3.546
   66.900    0.267    0.442  100.385    3.346
   67.200    0.302    0.507  104.707    3.097
   67.500    0.334    0.532  104.044    2.867
   67.800    0.315    0.563  102.761    2.810
   68.100    0.334    0.578  102.720    2.808
   68.400    0.325    0.572  106.422    2.858
   68.700    0.349    0.551  106.375    3.081
   69.000    0.339    0.562  107.587    3.259
   69.300    0.328    0.589  111.284    3.650
   69.600    0.324    0.615  109.997    4.326
   69.900    0.316    0.605  106.836    5.129
   70.200    0.303    0.585  103.679    5.745
   70.500    0.276    0.550  100.519    6.311
   70.800    0.293    0.529   99.855    6.547
   71.100    0.267    0.512   96.693    6.668
   71.400    0.272    0.503   94.785    6.919
   71.700    0.259    0.498   96.609    7.319
   72.000    0.275    0.514   97.822    7.742
   72.300    0.265    0.522   97.777    7.733
   72.600    0.286    0.498   95.242    7.874
   72.900    0.289    0.502   98.944    8.169
   73.200    0.281    0.526  109.510    8.640
   73.500    0.293    0.507  105.102    9.316
   73.800    0.285    0.480  104.439   10.235
   74.100    0.237    0.484  105.636   11.681
   74.400    0.238    0.476  107.471   13.849
   74.700    0.237    0.444  105.564   13.835
   75.000    0.206    0.437  101.154   12.331
   75.300    0.089    0.404   91.760   10.782
   75.600    0.103    0.303   82.987    9.610
   75.900    0.221    0.305   87.937    8.896
   76.200    0.271    0.362   96.628    8.393
   76.500    0.274    0.436   97.200    8.227
   76.800    0.261    0.462   96.539    7.912
   77.100    0.270    0.489   94.629    7.467
   77.400    0.289    0.503   95.205    6.654
   77.700    0.285    0.448   95.800    6.278
   78.000    0.259    0.466   99.500    6.272
   78.300    0.260    0.467  105.071    6.510
   78.600    0.259    0.457  108.776    7.151
   78.900    0.269    0.460  107.476    8.161
   79.200    0.248    0.481  104.316    9.494
   79.500    0.232    0.494  102.416   10.632
   79.800    0.233    0.471  101.742   10.027
   80.100    0.248    0.447  101.707    9.648
   80.400    0.262    0.429   99.176    8.434
   80.700    0.276    0.437   90.403    7.374
   81.000    0.277    0.463   91.605    6.699
   81.300    0.270    0.478   94.685    6.202
   81.600    0.261    0.451   99.635    5.742
   81.900    0.257    0.444  105.825    5.419
