~Version : LASO    vs 4.00
VERS.                2.00:   CWLS Log ASCII Standard -VERSION 2.0
WRAP.                  NO:
~Well Information Block
#MNEM.UNIT       Data                        Description of Mnemonic
#----.----      -------------------------- : -----------------------------
STRT.M            13.0000:
STOP.M           191.0000:
STEP.M             0.2000:
NULL.           -999.2500:
COMP.  MOBIL OIL OF CANADA          :COMPANY
WELL.  MOBIL CLARKE OV 4-1          :WELL
FLD.                                :FIELD
LOC.   04-01-091-08W4               :LOCATION
CTRY.  CANADA                       :COUNTRY
PROV.  ALBERTA                      :PROVINCE
SRVC.  SCHLUMBERGER                 :SERVICE COMPANY
DATE.  12-FEB-81                    :LOG DATE
UWI.   AA/04-01-091-08W400          :UNIQUE WELL ID
~Parameter Information Block
#MNEM.UNIT       Data                        Description of Mnemonic
#----.----      -------------------------- : -----------------------------
RUN .                   1                 : Run Number
GL  .M           444.1000                 : Ground Level Elevation
DREF.                  GD                 : Depth Reference
EREF.M           444.1000                 : Elevation of Depth Reference
TDL .M           191.5000                 : Total Depth Logger
TDD .M           192.0000                 : Total Depth Driller
CSGL.M            15.0000                 : Casing Bottom Logger
CSGD.M            15.0000                 : Casing Bottom Driller
CSGS.MM          179.0000                 : Casing Size
CSGW.KG/M          0.0000                 : Casing Weight
BHT .DEGC         12.0000                 : Bottom Hole Temperature
BS  .MM          158.0000                 : Bit Size
DFD .           1080.0000                 : Mud Weight (Density)
DFV .             85.0000                 : Mud Viscosity
DFPH.             12.6000                 : Mud pH
~Curve Information Block
#MNEM.UNIT        API CODE    Curve Description
#---------    ------------    -------------------------------------------
DEPT.M                    :   DEPTH
CALI.MM       42 280  1  1:   3 DENSITY CALIPER
DPHI.V/V                  :   DPHI
DT  .US/M     60 520  0  1:   2 SONIC INTERVAL TRANSIT TIME (COMPENSATED)
GR  .GAPI     42 310  1  1:   4 GAMMA RAY
ILD .OHMM      5 120 46  1:   7 DEEP INDUCTION
ILM .OHMM      5 120 44  1:   8 MEDIUM INDUCTION
NPHI.V/V      42 890  3  1:   5 NEUTRON POROSITY (SANDSTONE)
RHOB.K/M3     42 350  1  1:   6 BULK DENSITY
SFLU.OHMM      5 220  1  1:   9 FOCUSSED RESISTIVITY
SP  .MV        5  10  1  1:   10 SPONTANEOUS POTENTIAL
~A  Depth           CALI        DPHI          DT          GR         ILD         ILM        NPHI        RHOB        SFLU          SP
13.0000        -999.2500   -999.2500   -999.2500     58.5000   -999.2500   -999.2500   -999.2500   -999.2500   -999.2500   -999.2500
13.2000        -999.2500      0.0783   -999.2500     56.8050   -999.2500   -999.2500   -999.2500   -999.2500   -999.2500   -999.2500
13.4000        -999.2500      0.0736   -999.2500     56.2050   -999.2500   -999.2500   -999.2500   -999.2500   -999.2500   -999.2500
13.6000        -999.2500      0.0762   -999.2500     55.8000   -999.2500   -999.2500   -999.2500   -999.2500   -999.2500   -999.2500
13.8000        -999.2500      0.0809   -999.2500     56.5050   -999.2500   -999.2500   -999.2500   -999.2500   -999.2500   -999.2500
14.0000        -999.2500      0.0894   -999.2500     61.1100   -999.2500   -999.2500   -999.2500   -999.2500   -999.2500   -999.2500
14.2000        -999.2500      0.1211   -999.2500     63.9150   -999.2500   -999.2500   -999.2500   -999.2500   -999.2500   -999.2500
14.4000        -999.2500      0.1595   -999.2500     65.5200   -999.2500   -999.2500   -999.2500   -999.2500   -999.2500   -999.2500
14.6000        -999.2500      0.1695   -999.2500     68.3100   -999.2500   -999.2500   -999.2500   -999.2500   -999.2500   -999.2500
14.8000        -999.2500      0.1779   -999.2500     70.0200   -999.2500   -999.2500   -999.2500   -999.2500   -999.2500   -999.2500
15.0000         223.0250      0.1837    618.2800     69.5250     27.0539   1041.9093      0.3721   2356.3999     31.0334    -54.4350
15.2000         225.5000      0.1821    502.7200     65.7150  99960.8281    406.4713      0.3880   2377.2000     30.4670    -56.9550
15.4000         220.5500      0.1364    526.1200     64.2150  99960.8281    507.0256      0.3826   2443.5000     42.8381    -57.4500
15.6000         216.8250      0.1388    524.7200     62.5050     86.3436   1730.7323      0.3670   2420.7000     51.5027    -58.4550
15.8000         214.3500      0.1495    492.6400     61.1100     20.1479    381.0921      0.3458   2410.8000     71.7513    -59.9550
16.0000         211.8750      0.1419    480.7600     64.0050     22.2962    381.0921      0.3411   2445.5000     71.7513    -60.9600
16.2000         215.5750      0.1288    488.4000     68.0100     20.7124    497.7714      0.3436   2465.3000     53.9299    -61.4550
16.4000         210.6250      0.1245    503.4000     71.8200     18.8899   2262.7151      0.3567   2456.3999     40.1634    -61.7100
16.6000         215.5750      0.1386    501.8400     81.6300     18.8899    402.7448      0.3966   2381.1001     21.6686    -61.7100
16.8000         203.2000      0.1749    505.0400     83.0250     25.3647    391.7689      0.4250   2355.3999     15.2697    -61.7100
17.0000         201.9500      0.1865    512.8400     83.7300     16.8978    414.0282      0.4583   2340.5000     12.7008    -61.9650
17.2000         203.2000      0.1857    523.2000     86.0400     12.2414    417.8592      0.4657   2340.5000     13.0566    -61.9650
17.4000         204.4250      0.1825    531.5600     87.8400     11.3718    402.7448      0.4583   2348.5000     12.8183    -61.7100
17.6000         208.1500      0.1982    537.8800     89.3400     10.7604    406.4713      0.4522   2337.6001     12.4690    -61.9650
17.8000         198.2500      0.1885    543.2000     89.5350     12.4690    391.7689      0.4600   2344.5000     14.4487    -62.2200
18.0000         199.4750      0.1856    543.1200     89.6400     12.7008    410.2324      0.4637   2357.3999     15.6975    -62.4600
18.2000         198.2500      0.2321    541.6000     91.0350     13.0566    410.2324      0.4719   2362.3000     16.4373    -62.9700
18.4000         192.0500      0.2463    537.6000     94.6500     13.4224    395.3939      0.4867   2274.2000     15.8427    -63.2100
18.6000         190.8000      0.2513    538.0000     95.0400     13.5466    402.7448      0.4994   2246.5000     14.7174    -63.4650
18.8000         195.7500      0.2484    545.8800     97.2450     13.6719    410.2324      0.5153   2249.5000     13.9261    -63.7200
19.0000         198.2500      0.2348    573.4000     92.7450     14.3163    417.8592      0.5159   2226.7000     13.6719    -63.7200
19.2000         200.7250      0.2293    578.0000     88.8300     14.7174    410.2324      0.5153   2251.3999     14.1850    -63.7200
19.4000         200.7250      0.2210    577.4000     86.4300     15.2697    410.2324      0.4974   2288.1001     16.4373    -63.9750
19.6000         201.9500      0.2232    569.2800     85.2300     15.8427    381.0921      0.4651   2279.2000     21.6686    -64.2150
19.8000         201.9500      0.2188    544.3200     83.3250     17.0541    417.8592      0.4390   2301.8999     26.5357    -64.7250
20.0000         201.9500      0.2126    535.2800     82.6350     18.0397    421.7256      0.4408   2294.0000     26.2924    -64.9650
20.2000         203.2000      0.2087    531.9200     83.2350     18.5451    410.2324      0.4418   2306.8999     28.0434    -65.2200
20.4000         204.4250      0.1965    535.6801     87.3300     19.0647    402.7448      0.4587   2332.6001     27.2791    -65.7300
20.6000         208.1500      0.1974    536.4400     86.4300     19.2411    410.2324      0.4760   2340.5000     24.6507    -65.9700
20.8000         198.2500      0.2007    540.8400     83.8350     19.5988    425.6277      0.4780   2281.1001     23.7591    -66.2250
21.0000         200.7250      0.1853    544.8800     78.0300     21.4897    395.3939      0.4361   2326.7000     24.2008    -66.7200
21.2000         199.4750      0.1697    536.8400     73.5150     23.1329    402.7448      0.4229   2342.5000     24.6507    -67.4850
21.4000         197.0000      0.1522    515.8400     65.0100     25.1322    381.0921      0.4036   2346.5000     28.5647    -68.4750
21.6000         183.3750      0.1344    492.7600     51.3000     29.1226    402.7448      0.3012   2407.8999     76.5297    -72.2400
21.8000         180.9000      0.1218    445.1600     50.2950     32.2277    402.7448      0.2770   2445.5000    154.1097    -73.9950
22.0000         180.9000      0.1219    428.6000     49.8000     34.6920    402.7448      0.2741   2475.2000    173.7120    -75.2550
22.2000         180.9000      0.1272    425.5200     49.9950     38.3910    395.3939      0.2782   2443.5000    210.7803    -77.0100
22.4000         180.9000      0.1372    449.1600     47.5950     39.1048    402.7448      0.2784   2420.7000    178.5788    -76.2600
22.6000         180.9000      0.1443    484.0400     46.5900     39.1048    414.0282      0.2755   2416.8000    164.3728    -75.4950
22.8000         182.1250      0.1268    512.9200     48.4950     37.6903    410.2324      0.2728   2447.5000    170.5414    -74.5050
23.0000         184.6000      0.1035    501.4800     52.5000     35.3370    406.4713      0.2683   2443.5000    129.3689    -71.4900
23.2000         182.1250      0.0842    487.4800     55.0050     34.3740    377.5982      0.2605   2499.0000     94.5867    -69.2400
23.4000         183.3750      0.0840    474.3200     57.9000     33.7466    395.3939      0.2549   2526.7000     80.1364    -66.9750
23.6000         187.0750      0.0821    458.2400     61.6050     32.5259    417.8592      0.2609   2530.6001     76.5297    -66.2250
23.8000         184.6000      0.0897    447.6000     61.2150     31.9323    410.2324      0.2554   2508.8999     73.7615    -66.4800
24.0000         182.1250      0.0987    431.0800     59.3100     31.9323    399.0524      0.2521   2502.8999     73.7615    -66.7200
24.2000         180.9000      0.0931    441.8000     54.0000     32.2277    410.2324      0.2584   2493.0000     74.4440    -67.4850
24.4000         180.9000      0.0794    446.3600     54.8100     32.5259    421.7256      0.2527   2488.1001     78.6738    -67.4850
24.6000         183.3750      0.0814    447.2000     56.0100     32.5259    414.0282      0.2502   2522.7000     83.1438    -67.4850
24.8000         185.8500      0.0871    434.6400     54.1950     33.1306    406.4713      0.2587   2583.1001     78.6738    -67.7250
25.0000         187.0750      0.1009    431.1200     53.8050     33.1306    388.1771      0.2636   2544.5000     89.5014    -68.7300
