~VERSION INFORMATION
 VERS.                 2.0:   CWLS LOG ASCII STANDARD -VERSION 2.0
 WRAP.                  NO:   ONE LINE PER DEPTH STEP
~WELL INFORMATION BLOCK
#MNEM.UNIT           DATA                    DESCRIPTION OF MNEMONIC
#---------    -------------------            -------------------------------
# Generated from Intellog Unique Number	CN_94_101/WELL/2800
WELL.         03-25-096-16W4                 : Well_name    - WELL
LOC .         AA/03-25-096-16W4/0            : Location     - LOCATION
UWI .         AA/03-25-096-16W400            : Uwi          - UNIQUE WELL ID
ENTR.         JOETTE                         : Entered      - ENTERED BY
SRVC.         SCHLUMBERGER                   : Scn          - SERVICE COMPANY
DATE.         07/07/92                       : Date         - LOG DATE
STRT.M        140                            : top_depth    - START DEPTH
STOP.M        395                            : bot_depth    - STOP DEPTH
STEP.M        0.25                           : increment    - STEP LENGTH
 NULL. -999.2500:NULL Value
~CURVE INFORMATION BLOCK
#MNEM UNIT       ERCB CURVE CODE    CURVE DESCRIPTION
#-----------   ------------------   ----------------------------------
DEPT.M        00 001 00 00         : DEPTH        - DEPTH
CALI.MM       00 280 01 00         : CAL          - CALIPER
GR  .API      00 310 00 00         : GR           - GAMMA RAY
NPHI.V/V      00 330 00 00         : PHIN         - NEUTRON POROSITY (SANDSTONE)
DPHI.V/V      00 890 00 00         : PHID         - DENSITY POROSITY (SANDSTONE)
ILD .OHMM     00 120 00 00         : RESD         - DEEP RESISTIVITY (DIL)
~PARAMETER INFORMATION
#MNEM.UNIT           DATA             DESCRIPTION OF MNEMONIC
#---------         -----------     ------------------------------
GL  .M        651.2                : gl           - GROUND LEVEL ELEVATION
EREF.M        655                  : kb           - ELEVATION OF DEPTH REFERENCE
DATM.M        655                  : datum        - DATUM ELEVATION
TDD .M        398                  : tdd          - TOTAL DEPTH DRILLER
RUN .         ONE                  : Run          - RUN NUMBER
ENG .         JO                   : Engineer     - RECORDING ENGINEER
WIT .         TIM                  : Witness      - WITNESSED BY
MUD .         GEL                  : Mud_type     - MUD TYPE
MATR.         SANDSTONE            : Logunit      - NEUTRON MATRIX
TMAX.C        20                   : BHT          - MAXIMUM RECORDED TEMPERATURE
BHTD.M        398                  : BHTDEP       - MAXIMUM RECORDED TEMPERATURE
RMT .C        13                   : MDTP         - TEMPERATURE OF MUD
MUDD.KG/M     1120                 : MWT          - MUD DENSITY
NEUT.         1                    : NEUTRON      - NEUTRON TYPE
RESI.         0                    : RESIST       - RESISTIVITY TYPE
RM  .OHMM     0.84                 : RM           - RESISTIVITY OF MUD
RMC .OHMM     0.84                 : RMC          - RESISTIVITY OF MUD CAKE
RMF .OHMM     0.88                 : RMF          - RESISTIVITY OF MUD FILTRATE
SUFT.C        4                    : SUFT         - SURFACE TEMPERATURE
~A  DEPTH      CAL       GR     PHIN     PHID     RESD
# ...
  213.000  168.390   81.247    0.508    0.258    4.235
  213.250  171.508   83.100    0.532    0.275    4.086
  213.500  171.632   84.359    0.571    0.278    3.872
  213.750  169.810   85.026    0.564    0.293    4.105
  214.000  168.914   82.117    0.549    0.278    4.265
  214.250  168.019   78.041    0.529    0.279    4.522
  214.500  168.173   76.337    0.514    0.266    4.706
  214.750  168.296   77.004    0.511    0.252    4.802
  215.000  169.408   78.263    0.533    0.249    4.903
  215.250  171.569   78.949    0.525    0.251    4.910
  215.500  172.619   79.023    0.498    0.250    5.013
  215.750  172.804   79.097    0.490    0.265    5.026
  216.000  171.909   79.171    0.487    0.261    5.033
  216.250  170.087   79.838    0.500    0.264    4.953
  216.500  169.160   80.505    0.520    0.256    4.966
  216.750  168.296   78.819    0.541    0.268    5.067
  217.000  167.462   77.114    0.547    0.285    5.476
  217.250  166.597   74.835    0.524    0.274    5.800
  217.500  165.702   74.279    0.515    0.270    6.259
  217.750  163.880   71.982    0.516    0.277    7.015
  218.000  163.972   71.463    0.516    0.263    7.574
  218.250  163.107   72.130    0.495    0.237    7.311
  218.500  164.250   75.798    0.476    0.206    6.554
  218.750  165.331   77.021    0.469    0.198    6.207
  219.000  168.449   78.299    0.487    0.267    5.464
  219.250  168.573   76.576    0.518    0.269    5.270
  219.500  168.696   77.262    0.536    0.279    5.283
  219.750  167.801   71.981    0.549    0.294    5.707
  220.000  163.014   65.515    0.564    0.329    6.041
  220.250  160.173   59.067    0.543    0.337    7.032
  220.500  159.277   57.974    0.509    0.345    7.314
  220.750  160.389   58.048    0.497    0.323    7.751
  221.000  160.512   55.139    0.521    0.320    8.686
  221.250  160.667   47.506    0.504    0.315   11.519
  221.500  160.790   48.191    0.470    0.264   12.443
  221.750  160.883   51.230    0.432    0.231   13.186
  222.000  161.006   53.657    0.419    0.217   12.723
  222.250  161.191   58.492    0.444    0.263   10.580
  222.500  161.315   62.717    0.456    0.300    8.959
  222.750  162.426   66.960    0.454    0.301    7.177
  223.000  164.557   68.812    0.459    0.283    6.801
  223.250  165.607   63.532    0.475    0.287    7.489
  223.500  166.718   55.898    0.513    0.296    8.077
  223.750  165.915   50.044    0.530    0.310    9.400
  224.000  165.020   51.303    0.500    0.322   11.357
  224.250  162.210   54.342    0.462    0.333   12.255
  224.500  161.283   57.973    0.446    0.328   11.398
  224.750  160.449   62.197    0.442    0.328    9.661
  225.000  160.542   66.440    0.451    0.321    7.323
  225.250  163.630   65.310    0.476    0.302    7.195
  225.500  165.729   60.641    0.488    0.320    7.483
  225.750  164.865   54.786    0.493    0.329    9.036
  226.000  165.976   48.357    0.490    0.338   12.912
  226.250  166.100   46.652    0.471    0.338   15.303
  226.500  163.290   49.098    0.453    0.331   17.801
  226.750  162.394   50.932    0.449    0.342   18.874
  227.000  162.517   55.749    0.440    0.347   16.919
  227.250  161.684   58.195    0.422    0.335   16.023
  227.500  161.776   62.456    0.424    0.318   15.175
  227.750  160.942   63.716    0.432    0.291   14.120
  228.000  161.127   63.197    0.442    0.298   13.631
  228.250  160.201   61.493    0.452    0.300   13.400
  228.500  160.324   60.400    0.462    0.310   13.179
  228.750  160.448   60.455    0.459    0.306   13.455
  229.000  159.645   58.157    0.456    0.293   13.737
  229.250  159.737   54.674    0.453    0.288   14.831
  229.500  159.861   52.951    0.451    0.301   16.021
  229.750  159.984   54.211    0.446    0.298   16.977
  230.000  160.077   56.657    0.431    0.313   17.668
  230.250  159.243   57.935    0.438    0.355   17.056
  230.500  159.397   56.823    0.445    0.356   16.457
  230.750  158.471   58.676    0.438    0.335   15.038
  231.000  158.594   61.103    0.438    0.317   14.510
  231.250  158.748   59.991    0.444    0.318   14.813
  231.500  158.841   56.508    0.455    0.345   16.294
  231.750  158.995   53.043    0.449    0.360   17.276
  232.000  160.076   52.506    0.433    0.356   17.628
  232.250  161.218   53.173    0.436    0.368   16.703
  232.500  162.299   53.247    0.429    0.361   15.819
  232.750  164.430   52.728    0.426    0.344   14.440
  233.000  168.506   52.802    0.423    0.334   12.706
  233.250  175.577   57.638    0.434    0.297   12.259
  233.500  174.682   58.879    0.453    0.261   13.499
  233.750  166.900   55.396    0.452    0.336   14.026
  234.000  162.082   51.931    0.446    0.377   14.597
  234.250  161.218   53.784    0.442    0.385   14.627
  234.500  162.360   55.618    0.443    0.379   14.113
  234.750  162.484   59.879    0.451    0.364   12.883
  235.000  163.564   63.511    0.452    0.350   11.329
  235.250  163.688   66.549    0.451    0.325    9.963
  235.500  163.842   68.383    0.469    0.285    8.762
  235.750  164.954   72.033    0.471    0.307    7.709
  236.000  166.065   74.479    0.471    0.293    7.166
  236.250  164.212   75.757    0.488    0.252    6.787
  236.500  164.305   74.053    0.476    0.241    6.552
  236.750  164.428   74.738    0.461    0.200    6.565
  237.000  165.571   77.147    0.487    0.252    6.582
  237.250  165.694   80.778    0.482    0.262    6.596
  237.500  166.806   80.259    0.476    0.263    6.864
  237.750  166.929   79.166    0.509    0.272    7.136
  238.000  167.053   76.294    0.511    0.275    7.853
  238.250  165.261   74.571    0.496    0.294    8.479
  238.500  163.378   72.848    0.468    0.312    8.815
  238.750  162.482   68.197    0.451    0.327    9.346
  239.000  161.617   64.696    0.466    0.318    8.860
  239.250  161.710   62.398    0.457    0.290    8.544
  239.500  163.871   65.437    0.433    0.259    7.800
  239.750  167.978   73.218    0.442    0.260    6.992
  240.000  169.028   79.240    0.480    0.279    6.499
  240.250  170.140   82.871    0.513    0.287    6.044
  240.500  169.306   83.538    0.511    0.289    5.730
  240.750  169.429   86.595    0.505    0.297    5.529
  241.000  171.529   88.466    0.513    0.290    5.340
  241.250  174.617   88.503    0.547    0.281    5.250
  241.500  175.698   87.410    0.540    0.255    5.168
  241.750  175.821   85.706    0.532    0.250    5.081
  242.000  174.987   84.001    0.521    0.254    5.094
  242.250  175.080   85.242    0.521    0.264    5.005
  242.500  174.246   86.502    0.531    0.244    5.015
  242.750  173.412   87.188    0.544    0.237    5.028
  243.000  172.516   86.076    0.548    0.223    5.044
  243.250  171.621   84.353    0.535    0.234    5.051
  243.500  169.768   85.612    0.504    0.264    5.154
  243.750  168.903   87.502    0.494    0.278    5.162
  244.000  175.079   86.983    0.505    0.280    5.270
  244.250  176.129   85.260    0.501    0.281    5.284
  244.500  177.210   87.132    0.494    0.274    5.200
  244.750  176.376   89.559    0.497    0.247    5.017
  245.000  174.523   94.376    0.527    0.236    4.841
  245.250  171.651   98.619    0.543    0.240    4.591
  245.500  170.786  102.880    0.544    0.239    4.516
  245.750  170.910  101.157    0.529    0.241    4.610
  246.000  171.064   98.248    0.522    0.247    4.704
  246.250  171.218   95.376    0.517    0.252    4.716
  246.500  171.280   94.820    0.516    0.247    4.724
  246.750  170.477   93.116    0.523    0.258    4.480
  247.000  169.612   88.447    0.536    0.265    4.402
  247.250  169.674   87.353    0.556    0.270    4.250
  247.500  169.797   90.373    0.549    0.279    3.956
  247.750  169.952   92.263    0.573    0.274    3.815
  248.000  170.044   91.133    0.576    0.266    3.683
  248.250  170.229   88.817    0.579    0.274    3.556
  248.500  170.322   86.519    0.581    0.270    3.630
  248.750  170.445   86.593    0.577    0.269    3.776
  249.000  169.612   87.279    0.561    0.280    4.001
  249.250  169.704   87.353    0.532    0.284    4.242
