~VERSION INFORMATION
 VERS.                 2.0:   CWLS LOG ASCII STANDARD -VERSION 2.0
 WRAP.                  NO:   ONE LINE PER DEPTH STEP
~WELL INFORMATION BLOCK
#MNEM.UNIT           DATA                    DESCRIPTION OF MNEMONIC
#---------    -------------------            -------------------------------
# Generated from Intellog Unique Number	CC_84_87/WELL/1171
NULL.         -999.25                        : NULL_VALUE
WELL.         ARCO ACI McMURRAY              : Well_name    - WELL              
LOC .         08-11-084-12W4                 : Location     - LOCATION          
UWI .         AA/08-11-084-12W400            : Uwi          - UNIQUE WELL ID    
ENTR.         RJA                            : Entered      - ENTERED BY        
SRVC.         SCHLUMBERGER                   : Scn          - SERVICE COMPANY   
DATE.         20 FEB 74                      : Date         - LOG DATE
STRT.M        91.44                          : top_depth    - START DEPTH       
STOP.M        321.259                        : bot_depth    - STOP DEPTH        
STEP.M        0.3048                         : increment    - STEP LENGTH       
~CURVE INFORMATION BLOCK
#MNEM UNIT       ERCB CURVE CODE    CURVE DESCRIPTION
#-----------   ------------------   ----------------------------------
DEPT.M        00 001 00 00         : DEPTH        - DEPTH                       
DPHI.V/V      00 890 00 00         : PHID         - DENSITY POROSITY (LIMESTONE)
GR  .API      00 310 00 00         : GR           - GAMMA RAY                   
NPHI.V/V      00 330 00 00         : PHIN         - NEUTRON POROSITY (LIMESTONE)
ILD .OHMM     00 120 00 00         : RESD         - DEEP RESISTIVITY (DIL)      
~PARAMETER INFORMATION       
#MNEM.UNIT           DATA             DESCRIPTION OF MNEMONIC
#---------         -----------     ------------------------------
GL  .M        567.69               : gl           - GROUND LEVEL ELEVATION      
EREF.M        569.366              : kb           - ELEVATION OF DEPTH REFERENCE
DATM.M        569.366              : datum        - DATUM ELEVATION             
TDD .M        321.564              : tdd          - TOTAL DEPTH DRILLER         
RUN .         ONE                  : Run          - RUN NUMBER                  
ENG .         BILL                 : Engineer     - RECORDING ENGINEER          
WIT .         JIM                  : Witness      - WITNESSED BY                
MUD .         GEL                  : Mud_type     - MUD TYPE                    
MATR.         LIMESTONE            : Logunit      - NEUTRON MATRIX              
TMAX.C        21.1111              : BHT          - MAXIMUM RECORDED TEMPERATURE
BHTD.M        321.564              : BHTDEP       - MAXIMUM RECORDED TEMPERATURE
MATR.         1                    : LOGUNIT      - NEUTRON MATRIX              
RMT .C        25                   : MDTP         - TEMPERATURE OF MUD          
NEUT.         0                    : NEUTRON      - NEUTRON TYPE                
RESI.         0                    : RESIST       - RESISTIVITY TYPE            
RMC .OHMM     0.25                 : RMC          - RESISTIVITY OF MUD CAKE     
RMF .OHMM     0.25                 : RMF          - RESISTIVITY OF MUD FILTRATE 
SUFT.C        4                    : SUFT         - SURFACE TEMPERATURE         
~A  DEPTH     PHID       GR     PHIN     RESD
# ...
  197.509    0.283  126.429    0.408    3.948
  197.814    0.285  122.138    0.417    4.219
  198.119    0.298  128.189    0.466    3.243
  198.424    0.295  121.330    0.450    3.206
  198.729    0.294  117.972    0.429    4.022
  199.033    0.290  112.596    0.416    5.630
  199.338    0.317  102.595    0.381    6.884
  199.643    0.329   95.145    0.363    7.708
  199.948    0.309   94.930    0.402    7.186
  200.252    0.290  100.815    0.427    6.712
  200.557    0.306  102.555    0.506    6.373
  200.862    0.358  100.266    0.548    6.277
  201.167    0.382  106.511    0.507    6.544
  201.472    0.352  105.994    0.444    7.207
  201.776    0.327   99.435    0.410    7.967
  202.081    0.316   99.633    0.391    8.872
  202.386    0.304  102.377    0.355   12.308
  202.691    0.344   98.425    0.315   15.841
  202.996    0.378   87.776    0.294   19.545
  203.300    0.395   82.754    0.313   16.872
  203.605    0.380   85.025    0.307   15.991
  203.910    0.377   79.119    0.298   17.970
  204.215    0.376   71.546    0.311   20.381
  204.520    0.305   66.942    0.241   22.121
  204.824    0.225   66.902    0.107   21.315
  205.129    0.067   58.917    0.099   16.244
  205.434    0.058   64.451    0.125   13.153
  205.739    0.121   71.708    0.287   10.806
  206.044    0.195   74.749    0.372   10.019
  206.348    0.289   84.256    0.404    9.869
  206.653    0.337   82.145    0.381    9.863
  206.958    0.332   79.197    0.368    9.787
  207.263    0.336   76.845    0.353    9.710
  207.568    0.346   74.254    0.374    9.687
  207.872    0.353   74.986    0.398    9.735
  208.177    0.348   76.077    0.386    9.819
  208.482    0.348   76.626    0.377    9.941
  208.787    0.346   78.484    0.394   10.046
  209.092    0.340   77.143    0.419   10.059
  209.396    0.337   80.364    0.406   10.129
  209.701    0.343   85.128    0.388   10.217
  210.006    0.347   80.758    0.405   10.267
  210.311    0.354   82.260    0.396   10.300
  210.615    0.357   80.618    0.398   10.389
  210.920    0.351   77.379    0.382   10.441
  211.225    0.339   77.279    0.381   10.475
  211.530    0.340   90.284    0.385   10.412
  211.835    0.349   89.059    0.394   10.331
  212.139    0.343   83.742    0.381   10.325
  212.444    0.341   78.662    0.401   10.283
  212.749    0.347   86.157    0.383   10.239
  213.054    0.345   89.141    0.369   10.160
  213.359    0.342   89.930    0.372   10.173
  213.663    0.341   89.830    0.377   10.130
  213.968    0.340   86.236    0.389   10.070
  214.273    0.345   83.881    0.405   10.137
  214.578    0.348   84.139    0.386   10.152
  214.883    0.348   85.640    0.389   10.184
  215.187    0.334   88.861    0.394   10.141
  215.492    0.336   86.272    0.400   10.173
  215.797    0.328   83.446    0.389   10.075
  216.102    0.324   83.645    0.407    9.998
  216.407    0.324   80.520    0.395    9.993
  216.711    0.333   81.019    0.364   10.024
  217.016    0.346   80.681    0.383   10.001
  217.321    0.335   85.564    0.370    9.975
  217.626    0.329   86.653    0.375   10.007
  217.931    0.335   81.746    0.371   10.003
  218.235    0.342   76.134    0.389    9.944
  218.540    0.349   76.983    0.404    9.830
  218.845    0.345   85.246    0.376    9.699
  219.150    0.338   88.526    0.394    9.695
  219.455    0.340   88.842    0.374    9.780
  219.759    0.340   78.903    0.371   10.139
  220.064    0.327   75.365    0.373   11.187
  220.369    0.311   72.182    0.276   12.829
  220.674    0.250   73.447    0.210   13.696
  220.979    0.164   71.569    0.227   12.492
  221.283    0.197   92.580    0.366    9.804
  221.588    0.312   97.697    0.396    7.336
  221.893    0.316   96.472    0.417    6.509
  222.198    0.305  109.062    0.427    6.226
  222.502    0.320  110.566    0.457    6.257
  222.807    0.316  106.791    0.461    6.511
  223.112    0.333  103.132    0.414    6.838
  223.417    0.374   99.775    0.437    7.433
  223.722    0.265  104.298    0.427    7.624
  224.026    0.303  106.752    0.414    7.818
  224.331    0.295  106.296    0.422    7.715
  224.636    0.326  106.314    0.418    7.232
  224.941    0.325  105.150    0.448    6.323
  225.246    0.340  103.035    0.493    5.842
  225.550    0.357  111.355    0.504    5.456
  225.855    0.314  119.794    0.426    5.423
  226.160    0.305  115.131    0.441    5.623
  226.465    0.303  109.936    0.393    6.048
  226.770    0.303  103.916    0.368    6.710
  227.074    0.308  102.384    0.373    7.596
  227.379    0.285  103.174    0.373    8.396
  227.684    0.284   98.864    0.382    8.817
  227.989    0.295   90.348    0.385    8.895
  228.294    0.283   91.197    0.395    8.777
  228.598    0.286   96.614    0.368    8.565
  228.903    0.309   96.101    0.385    8.497
  229.208    0.303  101.158    0.373    8.525
  229.513    0.296  105.803    0.386    8.662
  229.818    0.300   99.832    0.372    8.786
  230.122    0.290   93.983    0.363    8.878
  230.427    0.277   94.536    0.357    8.923
  230.732    0.287   99.239    0.357    8.999
  231.037    0.290  104.539    0.352    8.946
  231.342    0.284  109.182    0.383    8.747
  231.646    0.287  109.320    0.389    8.413
  231.951    0.293  108.690    0.416    8.018
  232.256    0.276  115.350    0.458    7.571
  232.561    0.298  114.360    0.474    7.216
  232.865    0.346  110.942    0.478    6.826
  233.170    0.323  106.573    0.501    6.613
  233.475    0.311  101.374    0.478    6.562
  233.780    0.291  109.576    0.443    6.741
  234.085    0.315  110.370    0.405    7.002
  234.389    0.302  102.502    0.378    6.999
  234.694    0.278  104.716    0.417    6.337
  234.999    0.246  118.018    0.460    5.254
  235.304    0.231  117.561    0.463    4.469
  235.609    0.298  122.327    0.456    4.017
  235.913    0.287  127.385    0.497    3.986
  236.218    0.283  121.476    0.435    5.101
  236.523    0.283  111.951    0.431    6.068
  236.828    0.304  107.522    0.381    6.302
  237.133    0.292  112.106    0.399    6.139
  237.437    0.269  125.052    0.402    5.692
  237.742    0.248  137.760    0.418    5.386
  238.047    0.243  134.937    0.410    5.218
  238.352    0.272  128.906    0.414    5.429
  238.657    0.275  125.725    0.404    5.850
  238.961    0.251  126.279    0.416    6.269
  239.266    0.270  115.567    0.428    7.374
  239.571    0.309  113.986    0.440    8.502
  239.876    0.306  120.234    0.368    9.731
  240.181    0.357  126.535    0.336   10.258
  240.485    0.333  132.428    0.313   10.752
  240.790    0.243  132.859    0.334   10.846
  241.095    0.227  131.931    0.337   10.528
  241.400    0.210  132.784    0.358   10.256
  241.705    0.223  132.096    0.353   10.138
  242.009    0.238  131.755    0.340   10.004
  242.314    0.243  131.894    0.330    9.746
  242.619    0.240  128.235    0.379    9.169
  242.924    0.243  126.539    0.396    8.484
  243.228    0.264  126.081    0.411    8.162
  243.533    0.263  120.883    0.420    7.540
  243.838    0.308  119.783    0.417    7.239
  244.143    0.315  121.578    0.377    8.315
  244.448    0.294  123.256    0.322    9.260
  244.752    0.278  121.508    0.345   10.235
  245.057    0.273  118.731    0.352   10.651
  245.362    0.299  114.958    0.380   10.902
  245.667    0.313  115.863    0.398   10.739
  245.972    0.289  110.073    0.383   10.385
  246.276    0.315  104.580    0.347    9.970
  246.581    0.285  103.472    0.337    9.676
  246.886    0.254  111.379    0.323    9.566
  247.191    0.266  106.239    0.343    9.544
  247.496    0.282  110.231    0.361    9.557
  247.800    0.289  110.666    0.349    9.534
  248.105    0.286  117.329    0.344    9.669
  248.410    0.272  117.350    0.364    9.915
  248.715    0.273  114.052    0.386   10.075
  249.020    0.280  111.635    0.423   10.051
  249.324    0.281  107.859    0.472    9.845
  249.629    0.289  111.793    0.463    9.681
  249.934    0.319  113.001    0.431    9.396
  250.239    0.316  113.139    0.454    9.289
