~VERSION INFORMATION
 VERS.                 2.0:   CWLS LOG ASCII STANDARD -VERSION 2.0
 WRAP.                  NO:   ONE LINE PER DEPTH STEP
~WELL INFORMATION BLOCK
#MNEM.UNIT           DATA                    DESCRIPTION OF MNEMONIC
#---------    -------------------            -------------------------------
# Generated from Intellog Unique Number	CS_73_76/WELL/1041
WELL.         06-14-076-07W4                 : Well_name    - WELL
LOC .         AA/06-14-076-07W4/0            : Location     - LOCATION
UWI .         AA/06-14-076-07W4/0            : Uwi          - UNIQUE WELL ID
ENTR.         SP                             : Entered      - ENTERED BY
SRVC.         SCHLUMBERGER                   : Scn          - SERVICE COMPANY
STRT.M        175                            : top_depth    - START DEPTH
STOP.M        415                            : bot_depth    - STOP DEPTH
STEP.M        0.25                           : increment    - STEP LENGTH
 NULL. -999.2500:NULL Value
~CURVE INFORMATION BLOCK
#MNEM UNIT       ERCB CURVE CODE    CURVE DESCRIPTION
#-----------   ------------------   ----------------------------------
DEPT.M        00 001 00 00         : DEPTH        - DEPTH
NPHI.V/V      00 330 00 00         : PHIN         - NEUTRON POROSITY (LIMESTONE)
DPHI.V/V      00 890 00 00         : PHID         - DENSITY POROSITY (LIMESTONE)
GR  .API      00 310 00 00         : GR           - GAMMA RAY
ILD .OHMM     00 120 00 00         : RESD         - DEEP RESISTIVITY (DIL)
~PARAMETER INFORMATION
#MNEM.UNIT           DATA             DESCRIPTION OF MNEMONIC
#---------         -----------     ------------------------------
GL  .M        607.14               : gl           - GROUND LEVEL ELEVATION
EREF.M        610.79               : kb           - ELEVATION OF DEPTH REFERENCE
DATM.M        607.14               : datum        - DATUM ELEVATION
TDD .M        414.9                : tdd          - TOTAL DEPTH DRILLER
RUN .         ONE                  : Run          - RUN NUMBER
ENG .         BILL                 : Engineer     - RECORDING ENGINEER
WIT .         JIM                  : Witness      - WITNESSED BY
MUD .         GEL                  : Mud_type     - MUD TYPE
MATR.         LIMESTONE            : Logunit      - NEUTRON MATRIX
TMAX.C        18                   : BHT          - MAXIMUM RECORDED TEMPERATURE
BHTD.M        414.9                : BHTDEP       - MAXIMUM RECORDED TEMPERATURE
MATR.         1                    : LOGUNIT      - NEUTRON MATRIX
RMT .C        25                   : MDTP         - TEMPERATURE OF MUD
NEUT.         1                    : NEUTRON      - NEUTRON TYPE
RESI.         0                    : RESIST       - RESISTIVITY TYPE
RMC .OHMM     0.25                 : RMC          - RESISTIVITY OF MUD CAKE
RMF .OHMM     0.25                 : RMF          - RESISTIVITY OF MUD FILTRATE
SUFT.C        15                   : SUFT         - SURFACE TEMPERATURE
~A  DEPTH     PHIN     PHID       GR     RESD
# ...
  349.000    0.545    0.252   92.870    3.719
  349.250    0.479    0.226   87.368    4.169
  349.500    0.461    0.202   86.151    4.499
  349.750    0.455    0.195   89.219    4.764
  350.000    0.480    0.203  100.860    5.546
  350.250    0.517    0.213  112.500    6.453
  350.500    0.536    0.225  100.263    7.800
  350.750    0.338    0.262   77.005   10.362
  351.000    0.266    0.285   74.563   12.760
  351.250    0.169    0.310   47.018   18.625
  351.500    0.141    0.327   40.292   26.679
  351.750    0.126    0.337   37.239   40.440
  352.000    0.106    0.340   34.797   52.715
  352.250    0.095    0.334   31.745   61.358
  352.500    0.104    0.324   30.526   71.422
  352.750    0.109    0.329   28.696   80.034
  353.000    0.110    0.336   26.869   93.165
  353.250    0.112    0.333   28.099  102.452
  353.500    0.114    0.323   28.723  106.473
  353.750    0.122    0.317   29.341  112.759
  354.000    0.131    0.320   29.346  121.706
  354.250    0.143    0.321   29.970  117.294
  354.500    0.156    0.321   30.589  102.861
  354.750    0.176    0.321   30.598   86.862
  355.000    0.185    0.319   31.217   73.353
  355.250    0.167    0.318   31.835   70.692
  355.500    0.174    0.319   31.843   74.890
  355.750    0.194    0.325   31.239   76.374
  356.000    0.219    0.327   30.634   76.420
  356.250    0.250    0.322   29.415   63.329
  356.500    0.267    0.319   27.590   45.130
  356.750    0.288    0.314   27.595   34.027
  357.000    0.328    0.304   29.444   27.154
  357.250    0.379    0.304   30.061   22.084
  357.500    0.404    0.306   31.904   19.006
  357.750    0.427    0.311   35.585   17.635
  358.000    0.444    0.306   37.429   16.368
  358.250    0.436    0.302   36.823   15.777
  358.500    0.401    0.304   34.384   15.492
  358.750    0.386    0.308   31.942   15.505
  359.000    0.403    0.329   30.113   15.812
  359.250    0.437    0.339   28.896   16.125
  359.500    0.452    0.348   28.292   17.405
  359.750    0.440    0.317   28.300   18.434
  360.000    0.398    0.306   28.917   20.277
  360.250    0.392    0.307   31.378   22.306
  360.500    0.404    0.308   31.996   23.617
  360.750    0.427    0.309   32.006   26.983
  361.000    0.440    0.306   30.787   28.036
  361.250    0.416    0.300   28.955   29.692
  361.500    0.388    0.302   26.515   31.439
  361.750    0.371    0.311   26.521   35.918
  362.000    0.379    0.333   28.981   38.032
  362.250    0.387    0.345   28.986   40.284
  362.500    0.389    0.341   28.996   44.309
  362.750    0.387    0.310   28.389   48.735
  363.000    0.396    0.304   25.339   51.599
  363.250    0.407    0.300   24.732   60.068
  363.500    0.413    0.313   24.126   66.057
  363.750    0.417    0.315   23.526   74.043
  364.000    0.420    0.310   24.143   76.941
  364.250    0.413    0.302   23.537   80.001
  364.500    0.406    0.299   23.548   81.566
  364.750    0.408    0.297   24.165   81.642
  365.000    0.413    0.299   24.785   80.170
  365.250    0.385    0.305   22.956   77.268
  365.500    0.382    0.306   22.351   74.484
  365.750    0.405    0.305   22.970   73.130
  366.000    0.403    0.300   24.815   70.494
  366.250    0.366    0.294   26.659   69.219
  366.500    0.325    0.288   26.667   65.458
  366.750    0.358    0.286   24.841   61.901
  367.000    0.390    0.286   24.846   52.267
  367.250    0.429    0.286   25.470   43.314
  367.500    0.419    0.289   26.087   36.586
  367.750    0.402    0.290   26.705   33.949
  368.000    0.399    0.300   27.941   32.716
  368.250    0.444    0.308   29.171   36.679
  368.500    0.466    0.310   30.401   39.576
  368.750    0.473    0.310   31.022   45.200
  369.000    0.472    0.312   29.805   57.808
  369.250    0.426    0.316   24.302   69.883
  369.500    0.407    0.307   21.862   81.326
  369.750    0.405    0.300   24.933   98.304
  370.000    0.424    0.302   26.162  112.279
  370.250    0.446    0.306   28.618  121.166
  370.500    0.449    0.308   27.402  128.317
  370.750    0.442    0.313   24.351  133.372
  371.000    0.442    0.322   24.355  130.996
  371.250    0.459    0.335   24.363  123.899
  371.500    0.479    0.342   29.270  114.992
  371.750    0.496    0.355   33.564  106.683
  372.000    0.530    0.343   33.571   91.804
  372.250    0.477    0.332   30.518   74.674
  372.500    0.431    0.348   30.525   66.721
  372.750    0.454    0.359   32.980   57.430
  373.000    0.469    0.373   34.214   53.282
  373.250    0.467    0.356   37.284   47.626
  373.500    0.461    0.310   39.738   45.041
  373.750    0.397    0.279   47.707   42.590
  374.000    0.344    0.252   55.673   38.789
  374.250    0.373    0.247   67.314   35.999
  374.500    0.395    0.260   74.056   32.783
  374.750    0.406    0.261   68.556   31.000
  375.000    0.407    0.247   65.695   33.768
  375.250    0.363    0.229   66.923   33.168
  375.500    0.283    0.113   61.952   35.115
  375.750    0.301    0.014   58.225   38.603
  376.000    0.372    0.011   52.636   46.642
  376.250    0.410    0.242   53.863   52.256
  376.500    0.431    0.268   59.427   53.275
  376.750    0.405    0.257   60.657   45.861
  377.000    0.410    0.250   56.926   40.991
  377.250    0.387    0.253   53.198   37.340
  377.500    0.400    0.262   49.465   37.363
  377.750    0.410    0.270   56.894   44.291
  378.000    0.417    0.280   69.277   52.503
  378.250    0.415    0.285   74.219   68.382
  378.500    0.410    0.284   75.449   94.234
  378.750    0.421    0.284   71.722  125.051
  379.000    0.428    0.286   74.187  148.251
  379.250    0.438    0.291   74.795  163.010
  379.500    0.448    0.292   76.646  175.878
  379.750    0.452    0.289   80.972  189.759
  380.000    0.410    0.284   86.535  208.631
  380.250    0.400    0.286   89.623  229.377
  380.500    0.399    0.290   89.616  247.440
  380.750    0.409    0.287   82.785  262.051
  381.000    0.416    0.285   79.677  238.631
  381.250    0.389    0.276   82.143  163.914
  381.500    0.372    0.253   88.328   86.488
  381.750    0.337    0.229   93.892   62.851
  382.000    0.366    0.227   94.503   56.203
  382.250    0.407    0.242   88.915   56.219
  382.500    0.446    0.259   83.326   62.995
  382.750    0.470    0.285   64.102   93.589
  383.000    0.421    0.294   52.934  128.972
  383.250    0.399    0.302   46.103  202.731
  383.500    0.387    0.306   48.567  227.141
  383.750    0.374    0.302   48.557  210.842
  384.000    0.387    0.297   44.206  195.681
  384.250    0.404    0.296   41.721  185.064
  384.500    0.424    0.299   38.610  188.765
  384.750    0.429    0.305   42.932  196.118
  385.000    0.428    0.305   45.404  203.735
  385.250    0.421    0.296   44.771  215.727
  385.500    0.403    0.289   40.422  224.154
  385.750    0.407    0.294   38.550  241.904
  386.000    0.403    0.301   36.679  228.763
  386.250    0.392    0.310   35.428  220.438
  386.500    0.401    0.317   36.656  212.488
  386.750    0.414    0.322   37.262  204.824
  387.000    0.425    0.327   36.636  204.908
  387.250    0.438    0.323   36.624  205.036
  387.500    0.450    0.315   40.326  205.179
  387.750    0.460    0.312   41.557  197.747
  388.000    0.350    0.304   42.167  170.216
  388.250    0.335    0.278   45.252  167.188
  388.500    0.352    0.265   45.243  180.379
  388.750    0.371    0.250   43.993  198.323
  389.000    0.389    0.259   41.502  213.967
  389.250    0.422    0.282   39.008  194.893
  389.500    0.436    0.299   37.755  152.687
  389.750    0.422    0.311   37.128  133.947
  390.000    0.433    0.322   38.355  124.309
  390.250    0.452    0.308   43.303  122.089
  390.500    0.448    0.298   45.772  131.722
  390.750    0.441    0.302   45.758  150.386
  391.000    0.449    0.305   45.128  171.688
  391.250    0.456    0.311   43.256  178.385
  391.500    0.460    0.318   42.006  162.474
  391.750    0.493    0.322   40.131  129.721
  392.000    0.502    0.327   39.500  105.534
  392.250    0.478    0.324   39.490   94.332
