~VERSION INFORMATION
 VERS.                 2.0:   CWLS LOG ASCII STANDARD -VERSION 2.0
 WRAP.                  NO:   ONE LINE PER DEPTH STEP
~WELL INFORMATION BLOCK
#MNEM.UNIT           DATA                    DESCRIPTION OF MNEMONIC
#---------    -------------------            -------------------------------
# Generated from Intellog Unique Number	CN_94_101/WELL/2710
WELL.         01-29-094-12W4                 : Well_name    - WELL
LOC .         AA/01-29-094-12W4/0            : Location     - LOCATION
UWI .         AA/01-29-094-12W400            : Uwi          - UNIQUE WELL ID
ENTR.         JOETTE                         : Entered      - ENTERED BY
SRVC.         SCHLUMBERGER                   : Scn          - SERVICE COMPANY
DATE.         06/19/92                       : Date         - LOG DATE
STRT.F        30                             : top_depth    - START DEPTH
STOP.F        323.635                        : bot_depth    - STOP DEPTH
STEP.F        0.8202                         : increment    - STEP LENGTH
 NULL. -999.2500:NULL Value
~CURVE INFORMATION BLOCK
#MNEM UNIT       ERCB CURVE CODE    CURVE DESCRIPTION
#-----------   ------------------   ----------------------------------
DEPT.F        00 001 00 00         : DEPTH        - DEPTH
GR  .API      00 310 00 00         : GR           - GAMMA RAY
NPHI.V/V      00 330 00 00         : PHIN         - NEUTRON POROSITY (SANDSTONE)
DPHI.V/V      00 890 00 00         : PHID         - DENSITY POROSITY (SANDSTONE)
ILD .OHMM     00 120 00 00         : RESD         - DEEP RESISTIVITY (DIL)
~PARAMETER INFORMATION
#MNEM.UNIT           DATA             DESCRIPTION OF MNEMONIC
#---------         -----------     ------------------------------
GL  .M        339.852              : gl           - GROUND LEVEL ELEVATION
EREF.M        339.852              : kb           - ELEVATION OF DEPTH REFERENCE
DATM.M        339.852              : datum        - DATUM ELEVATION
TDD .M        101.498              : tdd          - TOTAL DEPTH DRILLER
RUN .         ONE                  : Run          - RUN NUMBER
ENG .         BILL                 : Engineer     - RECORDING ENGINEER
WIT .         JIM                  : Witness      - WITNESSED BY
MUD .         GEL                  : Mud_type     - MUD TYPE
MATR.         SANDSTONE            : Logunit      - NEUTRON MATRIX
TMAX.F        50                   : BHT          - MAXIMUM RECORDED TEMPERATURE
BHTD.F        333                  : BHTDEP       - MAXIMUM RECORDED TEMPERATURE
RMT .F        50                   : MDTP         - TEMPERATURE OF MUD
MUDD.LB/G     1.1                  : MWT          - MUD DENSITY
NEUT.         1                    : NEUTRON      - NEUTRON TYPE
RESI.         0                    : RESIST       - RESISTIVITY TYPE
RM  .OHMM     6.5                  : RM           - RESISTIVITY OF MUD
RMC .OHMM     6.5                  : RMC          - RESISTIVITY OF MUD CAKE
RMF .OHMM     6.5                  : RMF          - RESISTIVITY OF MUD FILTRATE
SUFT.F        4                    : SUFT         - SURFACE TEMPERATURE
~A  DEPTH       GR     PHIN     PHID     RESD
   30.000   70.819    0.468    0.297 2172.090
   30.820   70.050    0.473    0.282 2060.980
   31.640   73.129    0.472    0.259 1883.570
   32.461   73.630    0.385    0.209 1106.600
   33.281   74.554    0.267    0.156   48.316
   34.101   81.401    0.265    0.060   55.150
   34.921   84.864    0.340    0.266   56.328
   35.742   83.673    0.414    0.310   53.447
   36.562   82.500    0.433    0.292   48.880
   37.382   85.136    0.423    0.293   43.857
   38.202   89.849    0.429    0.283   35.914
   39.022   89.946    0.437    0.284   32.845
   39.843   87.043    0.449    0.293   34.829
   40.663   87.986    0.461    0.300   31.271
   41.483   91.872    0.449    0.289   27.044
   42.303   92.373    0.451    0.291   25.678
   43.123   88.642    0.482    0.293   32.733
   43.944   86.181    0.479    0.294   28.289
   44.764   88.394    0.466    0.297   26.352
   45.584   88.914    0.447    0.293   25.004
   46.404   91.935    0.443    0.308   19.735
   47.224  100.494    0.454    0.310   14.207
   48.045  103.534    0.484    0.291    9.858
   48.865  104.901    0.493    0.292    9.176
   49.685  104.555    0.502    0.296    8.094
   50.505  103.364    0.518    0.299    7.675
   51.325  105.153    0.522    0.304    8.438
   52.146  106.481    0.515    0.299    9.277
   52.966  104.905    0.510    0.305   10.213
   53.786  105.829    0.515    0.312    9.514
   54.606  107.176    0.520    0.311    9.027
   55.426  106.408    0.481    0.300   10.109
   56.247  104.812    0.478    0.293   11.313
   57.067  106.121    0.501    0.281   12.913
   57.887  107.468    0.479    0.282   12.480
   58.707  106.699    0.462    0.275   11.001
   59.528  105.084    0.464    0.277    9.884
   60.348  103.893    0.482    0.283    9.911
   61.168  103.124    0.493    0.283   10.495
   61.988  104.087    0.486    0.278   14.139
   62.808  105.415    0.486    0.263   13.171
   63.629  108.070    0.458    0.254    8.177
   64.449  108.590    0.454    0.245    8.050
   65.269  108.206    0.459    0.234    8.375
   66.089  105.745    0.484    0.211    7.659
   66.909  104.169    0.492    0.256    6.512
   67.730  103.785    0.516    0.269    5.951
   68.550  103.036    0.530    0.296    5.651
   69.370  104.806    0.570    0.307    5.559
   70.190  107.422    0.586    0.321    5.182
   71.010  109.193    0.566    0.310    4.827
   71.831  108.001    0.561    0.321    4.494
   72.651  106.809    0.557    0.329    5.032
   73.471  106.464    0.562    0.336    6.534
   74.291  109.080    0.591    0.335    7.876
   75.112  111.274    0.595    0.324    7.617
   75.932  113.929    0.549    0.334    7.096
   76.752  114.873    0.539    0.295    7.247
   77.572  115.335    0.513    0.276    7.968
   78.392  115.855    0.528    0.279    9.257
   79.213  115.933    0.502    0.271   11.382
   80.033  113.472    0.497    0.263   11.405
   80.853  111.434    0.492    0.248   10.240
   81.673  109.396    0.498    0.234    9.033
   82.493  108.223    0.500    0.244    9.565
   83.314  107.416    0.486    0.258   11.328
   84.134  106.667    0.449    0.263   10.552
   84.954  106.321    0.440    0.254    8.959
   85.774  106.419    0.430    0.223  108.238
   86.594  107.323    0.433    0.218  222.840
   87.415  109.093    0.402    0.207    9.033
   88.235  110.441    0.354    0.152   10.502
   89.055  112.653    0.321    0.116   10.338
   89.875  114.443    0.344    0.165   10.763
   90.695  115.367    0.425    0.233   11.825
   91.516  116.291    0.451    0.223   10.233
   92.336  117.235    0.448    0.229    7.930
   93.156  116.466    0.423    0.226    8.255
   93.976  115.678    0.427    0.227    8.272
   94.797  114.063    0.454    0.245    7.849
   95.617  112.468    0.478    0.256    7.321
   96.437  110.853    0.492    0.266    7.198
   97.257  109.642    0.492    0.264   11.444
   98.077  111.412    0.465    0.250   11.273
   98.898  114.048    0.443    0.229    9.057
   99.718  116.242    0.463    0.228    8.754
  100.538  115.916    0.479    0.247    7.716
  101.358  114.724    0.488    0.244    7.326
  102.178  113.128    0.493    0.254    7.217
  102.999  112.340    0.491    0.262    7.095
  103.819  111.553    0.498    0.262    8.249
  104.639  111.207    0.469    0.256    9.591
  105.459  111.285    0.466    0.250    8.294
  106.280  112.651    0.469    0.250    7.047
  107.100  113.575    0.490    0.256    6.691
  107.920  114.096    0.507    0.247   10.638
  108.740  114.597    0.511    0.245   11.483
  109.560  115.117    0.508    0.254   10.689
  110.381  115.156    0.472    0.259    9.082
  111.201  115.233    0.454    0.249    7.163
  112.021  114.081    0.491    0.211    4.617
  112.841  112.889    0.530    0.277    4.381
  113.661  112.101    0.555    0.297    6.600
  114.482  110.506    0.589    0.310    6.985
  115.302  110.141    0.530    0.300    7.827
  116.122  108.968    0.486    0.280    8.143
  116.942  108.604    0.462    0.260    7.580
  117.762  107.855    0.457    0.242    6.682
  118.583  111.317    0.488    0.234    6.111
  119.403  112.241    0.502    0.249    6.016
  120.223  111.896    0.497    0.267    6.032
  121.043  109.858    0.507    0.268    6.396
  121.864  107.377    0.520    0.261    8.300
  122.684  102.801    0.528    0.249    7.452
  123.504   99.070    0.531    0.235    4.980
  124.324   94.474    0.549    0.245    3.931
  125.144   89.474    0.577    0.298    3.221
  125.965   87.456    0.594    0.340    2.999
  126.785   88.360    0.609    0.390    2.954
  127.605   89.284    0.622    0.382    3.019
  128.425   90.208    0.639    0.371    3.079
  129.245   90.728    0.629    0.390    3.204
  130.066   89.960    0.608    0.382    7.503
  130.886   88.365    0.579    0.364    9.390
  131.706   86.327    0.547    0.358    8.909
  132.526   85.135    0.513    0.292    6.899
  133.346   87.732    0.458    0.256   10.580
  134.167   89.099    0.429    0.241   16.213
  134.987   87.464    0.436    0.247   16.867
  135.807   85.465    0.431    0.244   14.587
  136.627   85.100    0.405    0.264    9.402
  137.448   90.679    0.434    0.236    7.018
  138.268  102.643    0.507    0.230    5.146
  139.088  106.529    0.580    0.258    4.369
  139.908  111.261    0.591    0.290    4.899
  140.728  113.917    0.560    0.280    4.735
  141.549  113.148    0.550    0.282    4.748
  142.369  111.533    0.542    0.293    4.849
  143.189  109.899    0.528    0.279    5.139
  144.009  112.516    0.510    0.268    5.970
  144.829  116.421    0.516    0.261    4.539
  145.650  118.634    0.516    0.273    7.351
  146.470  117.865    0.481    0.274    4.321
  147.290  117.500    0.475    0.272    4.417
  148.110  115.059    0.479    0.265    4.856
  148.930  113.425    0.505    0.285    5.142
  149.751  110.117    0.544    0.294    5.256
  150.571  106.387    0.582    0.292    5.885
  151.391  103.906    0.581    0.275   21.840
  152.211   99.329    0.572    0.266   17.250
  153.031   94.753    0.516    0.230   11.521
  153.852   89.733    0.447    0.191    8.142
  154.672   83.464    0.420    0.140   11.807
  155.492   79.291    0.392    0.133   18.772
  156.312   57.327    0.439    0.262   22.216
  157.133   47.230    0.456    0.292   21.471
  157.953   49.866    0.403    0.298   19.291
  158.773   53.771    0.389    0.283   21.603
  159.593   55.099    0.381    0.287   20.879
  160.413   58.178    0.379    0.294   19.449
  161.234   59.928    0.383    0.287   19.516
  162.054   63.834    0.387    0.289   20.666
  162.874   69.432    0.394    0.283   16.924
  163.694   67.797    0.383    0.286   13.357
  164.514   63.663    0.384    0.279   13.906
  165.335   60.760    0.383    0.274   15.009
  166.155   56.606    0.378    0.273   18.093
  166.975   57.107    0.379    0.269   15.647
  167.795   58.454    0.389    0.278   15.403
  168.615   59.801    0.387    0.304   18.926
  169.436   59.879    0.383    0.313   21.989
  170.256   59.553    0.383    0.303   19.383
  171.076   58.784    0.383    0.310   18.068
  171.896   60.574    0.383    0.312   19.851
