~VERSION INFORMATION
 VERS.                 2.0:   CWLS LOG ASCII STANDARD -VERSION 2.0
 WRAP.                  NO:   ONE LINE PER DEPTH STEP
~WELL INFORMATION BLOCK
#MNEM.UNIT           DATA                    DESCRIPTION OF MNEMONIC
#---------    -------------------            -------------------------------
# Generated from Intellog Unique Number	CN_91_93/WELL/3670
WELL.         04-04-093-09W4                 : Well_name    - WELL
LOC .         AA/04-04-093-09W4/0            : Location     - LOCATION
UWI .         AA/04-04-093-09W400            : Uwi          - UNIQUE WELL ID
ENTR.         JOETTE                         : Entered      - ENTERED BY
SRVC.         SCHLUMBERGER                   : Scn          - SERVICE COMPANY
DATE.         03\22\92                       : Date         - LOG DATE
STRT.M        0                              : top_depth    - START DEPTH
STOP.M        125                            : bot_depth    - STOP DEPTH
STEP.M        0.25                           : increment    - STEP LENGTH
 NULL. -999.2500:NULL Value
~CURVE INFORMATION BLOCK
#MNEM UNIT       ERCB CURVE CODE    CURVE DESCRIPTION
#-----------   ------------------   ----------------------------------
DEPT.M        00 001 00 00         : DEPTH        - DEPTH
CALI.MM       00 280 01 00         : CAL          - CALIPER
GR  .API      00 310 00 00         : GR           - GAMMA RAY
NPHI.V/V      00 330 00 00         : PHIN         - NEUTRON POROSITY (SANDSTONE)
DPHI.V/V      00 890 00 00         : PHID         - DENSITY POROSITY (SANDSTONE)
ILD .OHMM     00 120 00 00         : RESD         - DEEP RESISTIVITY (DIL)
~PARAMETER INFORMATION
#MNEM.UNIT           DATA             DESCRIPTION OF MNEMONIC
#---------         -----------     ------------------------------
GL  .M        341.6                : gl           - GROUND LEVEL ELEVATION
EREF.M        341.6                : kb           - ELEVATION OF DEPTH REFERENCE
DATM.M        341.6                : datum        - DATUM ELEVATION
TDD .M        125.8                : tdd          - TOTAL DEPTH DRILLER
RUN .         ONE                  : Run          - RUN NUMBER
ENG .         JO                   : Engineer     - RECORDING ENGINEER
WIT .         TIM                  : Witness      - WITNESSED BY
MUD .         GEL                  : Mud_type     - MUD TYPE
MATR.         SANDSTONE            : Logunit      - NEUTRON MATRIX
TMAX.C        16                   : BHT          - MAXIMUM RECORDED TEMPERATURE
BHTD.M        125.8                : BHTDEP       - MAXIMUM RECORDED TEMPERATURE
RMT .C        14                   : MDTP         - TEMPERATURE OF MUD
MUDD.KG/M     9000                 : MWT          - MUD DENSITY
NEUT.         1                    : NEUTRON      - NEUTRON TYPE
RESI.         0                    : RESIST       - RESISTIVITY TYPE
RM  .OHMM     4.8                  : RM           - RESISTIVITY OF MUD
RMC .OHMM     4.8                  : RMC          - RESISTIVITY OF MUD CAKE
RMF .OHMM     4.8                  : RMF          - RESISTIVITY OF MUD FILTRATE
SUFT.C        4                    : SUFT         - SURFACE TEMPERATURE
~A  DEPTH      CAL       GR     PHIN     PHID     RESD
# ...
   36.500  129.701   98.867    0.391    0.260   73.248
   36.750  129.792   92.738    0.388    0.277   83.309
   37.000  129.906   87.857    0.385    0.266   90.841
   37.250  129.975   91.614    0.395    0.242   89.621
   37.500  130.043  101.554    0.414    0.251   83.593
   37.750  130.180  103.460    0.421    0.270   81.289
   38.000  130.180   97.976    0.411    0.293   79.084
   38.250  128.329   96.166    0.404    0.304   75.855
   38.500  128.329   99.306    0.401    0.295   71.731
   38.750  128.535  103.679    0.414    0.288   62.306
   39.000  127.529  111.152    0.417    0.284   57.257
   39.250  127.621  115.526    0.416    0.285   53.381
   39.500  127.735  110.645    0.399    0.269   50.490
   39.750  127.804  111.947    0.400    0.263   49.121
   40.000  127.941  109.520    0.403    0.258   48.462
   40.250  128.009  110.192    0.396    0.240   48.516
   40.500  128.100  107.779    0.383    0.257   48.549
   40.750  128.169  102.911    0.378    0.263   48.593
   41.000  129.289   99.237    0.349    0.271   44.665
   41.250  129.403   98.675    0.366    0.239   37.170
   41.500  129.471  107.998    0.389    0.217   32.740
   41.750  129.631  117.925    0.402    0.216   30.101
   42.000  129.654  121.696    0.440    0.237   29.703
   42.250  128.717  118.035    0.434    0.237   31.475
   42.500  128.831  125.507    0.444    0.249   31.939
   42.750  128.923  115.676    0.442    0.265   32.889
   43.000  128.991  101.554    0.429    0.266   38.493
   43.250  129.128  100.361    0.418    0.287   46.339
   43.500  129.197   94.246    0.402    0.274   50.505
   43.750  129.288   88.130    0.392    0.255   47.087
   44.000  129.380   90.653    0.398    0.273   42.068
   44.250  129.471   95.644    0.407    0.264   40.350
   44.500  129.562   98.167    0.413    0.267   40.387
   44.750  129.654   99.456    0.407    0.268   41.020
   45.000  129.768   98.290    0.400    0.191   41.048
   45.250  129.859  105.132    0.386    0.238   41.076
   45.500  129.928  107.669    0.395    0.253   40.543
   45.750  130.065  103.391    0.404    0.254   41.160
   46.000  130.133   97.262    0.410    0.265   46.813
   46.250  130.247   89.913    0.408    0.277   53.243
   46.500  130.293   89.981    0.400    0.279   61.422
   46.750  130.407   88.788    0.387    0.270   61.478
   47.000  130.476   84.538    0.371    0.279   57.316
   47.250  130.567   88.281    0.383    0.270   54.213
   47.500  130.659   90.187    0.388    0.280   62.541
   47.750  129.744   78.519    0.372    0.282   72.149
   48.000  129.859   76.105    0.338    0.035   73.247
   48.250  129.927   77.408    0.304    0.050   70.256
   48.500  130.041   80.534    0.336    0.091   60.151
   48.750  130.156   88.007    0.366    0.131   53.752
   49.000  130.224   95.465    0.387    0.180   56.130
   49.250  130.293   91.818    0.394    0.209   60.314
   49.500  130.430   86.320    0.390    0.241   70.575
   49.750  129.470   83.907    0.383    0.262   86.194
   50.000  129.584   82.111    0.375    0.274   93.987
   50.250  129.653   80.314    0.345    0.282   90.108
   50.500  129.721   84.071    0.351    0.288   77.165
   50.750  129.858   88.459    0.362    0.282   71.925
   51.000  129.927   88.514    0.375    0.270   76.198
   51.250  129.995   86.717    0.387    0.276  110.325
   51.500  130.109   79.355    0.388    0.287  130.969
   51.750  130.201   71.388    0.366    0.293  155.441
   52.000  130.269   72.074    0.345    0.290  181.884
   52.250  130.406   67.179    0.347    0.294  195.444
   52.500  130.475   62.915    0.345    0.302  213.066
   52.750  129.515   61.118    0.339    0.302  219.403
   53.000  129.675   61.804    0.343    0.301  213.453
   53.250  129.721   64.327    0.354    0.301  199.004
   53.500  128.829   63.765    0.366    0.304  188.228
   53.750  128.921   63.806    0.375    0.309  183.082
   54.000  128.989   63.861    0.371    0.314  185.869
   54.250  128.075   53.426    0.364    0.312  202.628
   54.500  128.144   54.112    0.366    0.311  217.735
   54.750  128.235   52.302    0.371    0.310  227.468
   55.000  128.303   52.988    0.369    0.305  227.571
   55.250  128.441   56.731    0.363    0.301  221.450
   55.500  128.509   59.870    0.355    0.304  215.444
   55.750  128.578   51.301    0.340    0.307  209.602
   56.000  128.692   53.810    0.327    0.307  203.917
   56.250  127.778   54.496    0.338    0.307  201.270
   56.500  127.846   53.934    0.361    0.304  207.209
   56.750  127.915   54.592    0.356    0.303  222.657
   57.000  127.001   56.511    0.349    0.301  249.669
   57.250  127.069   56.566    0.335    0.300  272.119
   57.500  127.206   54.770    0.328    0.299  268.526
   57.750  127.297   52.356    0.334    0.300  261.243
   58.000  127.366   50.560    0.344    0.308  236.739
   58.250  127.503   53.069    0.359    0.317  211.509
   58.500  127.549   58.691    0.375    0.318  178.534
   58.750  127.663   55.057    0.391    0.316  132.620
   59.000  127.754   53.234    0.381    0.311   99.923
   59.250  127.846   57.621    0.360    0.311   66.240
   59.500  127.937   70.633    0.333    0.310   52.826
   59.750  128.006  103.403    0.345    0.205   47.206
   60.000  128.097  106.556    0.379    0.229   47.239
   60.250  128.188  101.058    0.412    0.259   67.447
   60.500  127.251  102.361    0.417    0.265   82.355
   60.750  127.365   97.452    0.426    0.281   95.006
   61.000  127.457   78.380    0.391    0.295   95.092
   61.250  127.525   69.797    0.386    0.293   84.958
   61.500  127.640   79.724    0.385    0.272   72.738
   61.750  127.731   87.182    0.396    0.251   67.814
   62.000  127.822   98.974    0.407    0.257   74.969
   62.250  127.936   90.391    0.405    0.268   86.525
   62.500  127.982   85.496    0.406    0.274   92.955
   62.750  128.119   78.160    0.411    0.277   99.907
   63.000  128.188   73.882    0.402    0.283  101.428
   63.250  128.279   70.235    0.391    0.285  101.543
   63.500  128.370   75.240    0.377    0.297  101.589
   63.750  128.462   74.678    0.386    0.297  103.135
   64.000  128.553   72.251    0.390    0.292  110.824
   64.250  127.639   69.838    0.388    0.294  126.103
   64.500  127.753   71.757    0.391    0.295  137.443
   64.750  127.822   73.032    0.387    0.298  126.303
   65.000  127.890   68.151    0.371    0.305  114.457
   65.250  127.982   65.738    0.375    0.299  102.258
   65.500  128.073   68.878    0.381    0.300   91.381
   65.750  128.164   74.499    0.388    0.299   86.394
   66.000  128.256   75.788    0.383    0.293   80.546
   66.250  128.370   74.609    0.388    0.288   75.093
   66.500  127.410   80.217    0.394    0.282   76.254
   66.750  127.524   83.974    0.390    0.281   84.299
   67.000  127.616   84.028    0.403    0.275   90.563
   67.250  127.707   80.998    0.396    0.275   89.367
   67.500  127.798   75.500    0.383    0.282   78.717
   67.750  127.913   71.853    0.387    0.289   73.389
   68.000  127.981   90.431    0.395    0.283   65.582
   68.250  128.095   94.805    0.401    0.273   62.017
   68.500  128.187   95.491    0.406    0.267   60.349
   68.750  127.227   98.000    0.397    0.265   60.376
   69.000  127.341   99.906    0.399    0.254   62.172
   69.250  127.410   92.556    0.402    0.252   63.132
   69.500  126.496   86.441    0.406    0.260   64.093
   69.750  126.610   85.879    0.392    0.271   62.355
   70.000  126.655   95.806    0.381    0.271   54.150
   70.250  126.747  102.661    0.391    0.249   51.939
   70.500  125.833   91.597    0.402    0.230   74.140
   70.750  125.947   72.524    0.409    0.260   93.136
   71.000  125.993   68.877    0.414    0.281   68.209
   71.250  126.107   80.655    0.394    0.292   51.392
   71.500  125.147  101.084    0.402    0.248   44.000
   71.750  125.284  105.472    0.417    0.243   40.453
   72.000  125.352  106.747    0.435    0.254   41.068
   72.250  125.421   94.462    0.470    0.249   48.044
   72.500  125.558   74.759    0.519    0.249   61.230
   72.750  125.627   61.240    0.547    0.289   59.570
