~VERSION INFORMATION
 VERS.                 2.0:   CWLS LOG ASCII STANDARD -VERSION 2.0
 WRAP.                  NO:   ONE LINE PER DEPTH STEP
~WELL INFORMATION BLOCK
#MNEM.UNIT           DATA                    DESCRIPTION OF MNEMONIC
#---------    -------------------            -------------------------------
# Generated from Intellog Unique Number	CN_94_101/WELL/3616
WELL.         07-24-096-13W4                 : Well_name    - WELL
LOC .         AA/07-24-096-13W4/0            : Location     - LOCATION
UWI .         AA/07-24-096-13W400            : Uwi          - UNIQUE WELL ID
ENTR.         JOETTE                         : Entered      - ENTERED BY
SRVC.         SCHLUMBERGER                   : Scn          - SERVICE COMPANY
DATE.         08\04\92                       : Date         - LOG DATE
STRT.F        50                             : top_depth    - START DEPTH
STOP.F        674.18                         : bot_depth    - STOP DEPTH
STEP.F        0.8202                         : increment    - STEP LENGTH
 NULL. -999.2500:NULL Value
~CURVE INFORMATION BLOCK
#MNEM UNIT       ERCB CURVE CODE    CURVE DESCRIPTION
#-----------   ------------------   ----------------------------------
DEPT.F        00 001 00 00         : DEPTH        - DEPTH
ILD .OHMM     00 120 00 00         : RESD         - DEEP RESISTIVITY (DIL)
GR  .API      00 310 00 00         : GR           - GAMMA RAY
DPHI.V/V      00 890 00 00         : PHID         - DENSITY POROSITY (SANDSTONE)
~PARAMETER INFORMATION
#MNEM.UNIT           DATA             DESCRIPTION OF MNEMONIC
#---------         -----------     ------------------------------
GL  .M        413.309              : gl           - GROUND LEVEL ELEVATION
EREF.M        414.528              : kb           - ELEVATION OF DEPTH REFERENCE
DATM.M        414.528              : datum        - DATUM ELEVATION
TDD .M        209.55               : tdd          - TOTAL DEPTH DRILLER
RUN .         ONE                  : Run          - RUN NUMBER
ENG .         JO                   : Engineer     - RECORDING ENGINEER
WIT .         TIM                  : Witness      - WITNESSED BY
MUD .         GEL                  : Mud_type     - MUD TYPE
MATR.         SANDSTONE            : Logunit      - NEUTRON MATRIX
TMAX.F        89.6                 : BHT          - MAXIMUM RECORDED TEMPERATURE
BHTD.F        687.5                : BHTDEP       - MAXIMUM RECORDED TEMPERATURE
RMT .F        66.2                 : MDTP         - TEMPERATURE OF MUD
MUDD.LB/G     9                    : MWT          - MUD DENSITY
NEUT.         1                    : NEUTRON      - NEUTRON TYPE
RESI.         0                    : RESIST       - RESISTIVITY TYPE
RM  .OHMM     5.3                  : RM           - RESISTIVITY OF MUD
RMC .OHMM     5.3                  : RMC          - RESISTIVITY OF MUD CAKE
RMF .OHMM     5.3                  : RMF          - RESISTIVITY OF MUD FILTRATE
SUFT.F        39.2                 : SUFT         - SURFACE TEMPERATURE
~A  DEPTH     RESD       GR     PHID
# ...
  405.971    2.725   63.828    0.242
  406.791    2.991   58.296    0.227
  407.612    3.342   53.163    0.202
  408.432    4.657   50.420    0.199
  409.252    6.853   53.650    0.216
  410.072    7.663   54.103    0.223
  410.892    7.131   52.941    0.218
  411.713    7.141   51.404    0.230
  412.533    9.588   54.235    0.225
  413.353   13.359   70.629    0.200
  414.173    4.215   74.246    0.192
  414.993    3.712   78.682    0.232
  415.814    3.652   79.522    0.228
  416.634    3.936   80.772    0.234
  417.454    4.012   84.002    0.227
  418.274    4.092   82.852    0.219
  419.094    4.025   80.517    0.228
  419.915    4.030   82.154    0.224
  420.735    4.264   82.198    0.213
  421.555    4.515   80.638    0.200
  422.375    4.199   81.490    0.171
  423.196    3.838   78.746    0.142
  424.016    4.134   73.215    0.157
  424.836    5.255   78.436    0.186
  425.656    6.096   87.651    0.185
  426.476    5.175   86.500    0.187
  427.297    4.394   82.562    0.177
  428.117    4.015   80.614    0.203
  428.937    3.947   80.260    0.208
  429.757    3.953   78.711    0.171
  430.577    4.032   76.764    0.144
  431.398    4.428   78.401    0.134
  432.218    4.858   77.262    0.114
  433.038    5.738   73.710    0.100
  433.858    7.707   59.020    0.072
  434.678   10.734   53.477    0.034
  435.499   10.948   48.355    0.037
  436.319   12.028   50.391    0.195
  437.139   12.721   52.835    0.201
  437.959    9.326   54.472    0.216
  438.780    6.593   52.525    0.233
  439.600    5.914   51.762    0.249
  440.420    6.262   56.994    0.255
  441.240    6.620   55.047    0.235
  442.060    7.540   52.314    0.236
  442.881    7.014   54.338    0.263
  443.701    6.649   60.367    0.275
  444.521    6.784   65.588    0.222
  445.341    7.312   73.210    0.184
  446.161    8.171   75.654    0.177
  446.982    9.475   77.291    0.174
  447.802    8.818   82.512    0.138
  448.622   10.042   80.167    0.137
  449.442   10.432   76.228    0.140
  450.262   10.071   80.266    0.140
  451.083    9.372   80.719    0.156
  451.903    9.559   79.569    0.156
  452.723   11.084   76.814    0.131
  453.543   14.091   67.300    0.103
  454.364   13.356   69.734    0.103
  455.184   11.135   78.948    0.130
  456.004   11.567   78.992    0.152
  456.824   11.798   78.251    0.159
  457.644   12.037   76.304    0.165
  458.465   13.211   74.755    0.130
  459.285   12.989   70.407    0.118
  460.105   11.657   72.443    0.114
  460.925   10.268   85.639    0.112
  461.745   10.096   86.502    0.103
  462.566   10.488   86.933    0.103
  463.386   10.499   87.376    0.119
  464.206    9.951   86.623    0.122
  465.026    9.435   85.074    0.122
  465.846    9.284   93.503    0.123
  466.667    9.121   92.353    0.124
  467.487    8.968   91.589    0.111
  468.307    8.821   89.653    0.107
  469.127    8.361   88.502    0.114
  469.948    6.968   91.733    0.115
  470.768    7.107   93.768    0.114
  471.588    8.244   94.210    0.111
  472.408    8.411   83.103    0.147
  473.228    9.061   74.773    0.173
  474.049   10.899   63.269    0.208
  474.869   14.373   60.525    0.200
  475.689   17.288   61.365    0.194
  476.509   16.695   61.420    0.199
  477.329   17.984   60.270    0.212
  478.150   20.861   58.312    0.228
  478.970   22.896   55.170    0.222
  479.790   25.128   54.019    0.221
  480.610   25.629   55.667    0.208
  481.430   21.367   59.694    0.173
  482.251   17.491   68.908    0.171
  483.071   13.807   71.751    0.178
  483.891   15.713   59.029    0.190
  484.711   19.614   48.719    0.207
  485.531   21.143   49.161    0.229
  486.352   22.370   49.217    0.187
  487.172   24.542   54.438    0.215
  487.992   19.366   55.676    0.225
  488.812   22.064   53.729    0.197
  489.633   23.768   51.395    0.179
  490.453   20.936   57.413    0.177
  491.273   14.805   66.229    0.174
  492.093   13.778   64.282    0.168
  492.913   13.542   60.742    0.162
  493.734   17.210   57.191    0.181
  494.554   19.244   56.847    0.199
  495.374   18.241   57.301    0.208
  496.194   17.289   57.345    0.189
  497.014   16.387   57.787    0.178
  497.835   14.172   59.822    0.187
  498.655   10.980   62.654    0.214
  499.475   12.732   66.680    0.231
  500.295   15.037   50.397    0.254
  501.115   19.116   46.846    0.245
  501.936   19.143   49.688    0.214
  502.756   13.783   53.316    0.201
  503.576   13.552   58.151    0.210
  504.396   16.301   49.821    0.214
  505.217   20.340   49.876    0.211
  506.037   18.935   51.513    0.227
  506.857   20.034   52.364    0.227
  507.677   22.394   53.990    0.229
  508.497   23.702   58.824    0.227
  509.318   18.697   61.656    0.216
  510.138   16.175   66.091    0.201
  510.958   18.409   69.731    0.203
  511.778   19.484   68.569    0.192
  512.598   16.238   70.206    0.167
  513.419   12.132   71.865    0.171
  514.239   15.138   63.524    0.185
  515.059   18.209   59.187    0.196
  515.879   20.355   61.234    0.200
  516.699   16.662   58.092    0.179
  517.520   16.394   57.350    0.174
  518.340   17.339   56.200    0.188
  519.160   17.369   55.038    0.187
  519.980   14.744   57.073    0.187
  520.801   15.048   59.507    0.193
  521.621   15.621   58.367    0.223
  522.441   17.462   54.418    0.217
  523.261   15.381   54.882    0.201
  524.081   11.917   57.703    0.189
  524.902    9.758   62.548    0.171
  525.722   10.515   60.601    0.201
  526.542   12.887   55.446    0.191
  527.362   12.210   55.501    0.170
  528.182   10.180   62.713    0.147
  529.003    8.333   74.317    0.153
  529.823    8.193   82.337    0.177
  530.643    9.328   81.983    0.196
  531.463   10.623   72.082    0.186
  532.283   11.659   68.929    0.174
  533.104   12.801   64.194    0.188
  533.924   13.056   58.652    0.200
  534.744   13.567   56.306    0.200
  535.564   14.084   53.164    0.173
  536.385   12.635   58.795    0.142
  537.205   10.534   59.635    0.168
  538.025   10.173   60.874    0.173
  538.845   11.165   65.310    0.169
  539.665   11.602   69.347    0.168
  540.486   20.507   67.798    0.214
  541.306   24.667   69.435    0.270
  542.126   27.573   61.105    0.253
  542.946   28.643   54.380    0.237
  543.766   27.661   45.253    0.243
  544.587   33.888   44.910    0.233
  545.407   40.762   41.370    0.218
  546.227   44.753   36.624    0.230
  547.047   35.955   47.033    0.276
  547.867   23.621   49.080    0.244
  548.688   23.654   43.537    0.232
  549.508   35.464   39.610    0.230
  550.328   34.236   43.636    0.264
  551.148   29.619   51.247    0.250
  551.969   29.651   55.284    0.195
  552.789   23.830   55.328    0.148
  553.609   13.520   72.109    0.152
  554.429   14.839   58.613    0.179
  555.249   20.292   52.684    0.209
  556.070   29.329   49.929    0.246
  556.890   36.595   53.967    0.270
  557.710   52.892   62.783    0.203
  558.530   10.170   70.814    0.172
  559.350   11.161   74.431    0.145
  560.171   17.044   80.847    0.193
  560.991   21.660   59.375    0.235
  561.811   26.063   50.260    0.263
  562.631   32.520   44.728    0.263
  563.451   39.840   41.188    0.280
  564.272   52.539   36.442    0.273
  565.092   66.769   42.471    0.286
  565.912   53.663   45.701    0.300
  566.732   41.576   46.143    0.271
  567.552   38.692   48.588    0.238
  568.373   38.747   51.021    0.219
  569.193   26.894   56.264    0.222
  570.013   21.229   57.094    0.235
  570.833   29.021   52.757    0.240
  571.654   39.007   48.023    0.251
  572.474   39.035   44.095    0.270
  573.294   42.842   42.535    0.284
  574.114   56.498   38.199    0.285
  574.934   63.154   34.659    0.285
  575.755   52.652   31.108    0.288
  576.575   39.339   34.349    0.252
  577.395   42.376   37.578    0.240
  578.215   35.330   39.215    0.237
  579.035   20.415   42.855    0.218
  579.856   20.822   46.483    0.187
  580.676   38.178   53.308    0.193
  581.496   70.026   64.912    0.205
  582.316  104.989   45.830    0.220
  583.136  117.359   35.508    0.286
