~VERSION INFORMATION
 VERS.                 2.0:   CWLS LOG ASCII STANDARD -VERSION 2.0
 WRAP.                  NO:   ONE LINE PER DEPTH STEP
~WELL INFORMATION BLOCK
#MNEM.UNIT           DATA                    DESCRIPTION OF MNEMONIC
#---------    -------------------            -------------------------------
# Generated from Intellog Unique Number	CX_WELLS/WELL/3877
WELL.         H.B. S.M.T.                    : Well_name    - WELL
LOC .         AA/05-30-087-16W4/0            : Location     - LOCATION
UWI .         AA/05-30-087-16W400            : Uwi          - UNIQUE WELL ID
ENTR.         TIM                            : Entered      - ENTERED BY
SRVC.         SCHLUMBERGER                   : Scn          - SERVICE COMPANY
STRT.F        100                            : top_depth    - START DEPTH
STOP.F        739.764                        : bot_depth    - STOP DEPTH
STEP.F        0.82                           : increment    - STEP LENGTH
 NULL. -999.2500:NULL Value
~CURVE INFORMATION BLOCK
#MNEM UNIT       ERCB CURVE CODE    CURVE DESCRIPTION
#-----------   ------------------   ----------------------------------
DEPT.F        00 001 00 00         : DEPTH        - DEPTH
GR  .API      00 310 00 00         : GR           - GAMMA RAY
NPHI.V/V      00 330 00 00         : PHIN         - NEUTRON POROSITY (SANDSTONE)
ILD .OHMM     00 120 00 00         : RESD         - DEEP RESISTIVITY (DIL)
~PARAMETER INFORMATION
#MNEM.UNIT           DATA             DESCRIPTION OF MNEMONIC
#---------         -----------     ------------------------------
GL  .F        1686                 : gl           - GROUND LEVEL ELEVATION
EREF.F        1686                 : kb           - ELEVATION OF DEPTH REFERENCE
DATM.F        1686                 : datum        - DATUM ELEVATION
TDD .F        747                  : tdd          - TOTAL DEPTH DRILLER
RUN .         ONE                  : Run          - RUN NUMBER
ENG .         BILL                 : Engineer     - RECORDING ENGINEER
WIT .         JIM                  : Witness      - WITNESSED BY
MUD .         GEL                  : Mud_type     - MUD TYPE
MATR.         SANDSTONE            : Logunit      - NEUTRON MATRIX
TMAX.F        50                   : BHT          - MAXIMUM RECORDED TEMPERATURE
BHTD.F        747                  : BHTDEP       - MAXIMUM RECORDED TEMPERATURE
MATR.         1                    : LOGUNIT      - NEUTRON MATRIX
RMT .F        50                   : MDTP         - TEMPERATURE OF MUD
NEUT.         1                    : NEUTRON      - NEUTRON TYPE
RESI.         6                    : RESIST       - RESISTIVITY TYPE
RMC .OHMM     6                    : RMC          - RESISTIVITY OF MUD CAKE
RMF .OHMM     6                    : RMF          - RESISTIVITY OF MUD FILTRATE
SUFT.F        39.2                 : SUFT         - SURFACE TEMPERATURE
~A  DEPTH       GR     PHIN     RESD
# ...
  633.957   91.639    0.403   17.341
  634.777   89.370    0.362   18.791
  635.597   83.980    0.329   23.153
  636.417   75.469    0.359   23.869
  637.238   73.670    0.394   22.770
  638.058   67.834    0.412   21.303
  638.878   67.803    0.415   20.567
  639.698   78.919    0.417   20.558
  640.518   81.109    0.420   20.548
  641.339   82.423    0.423   20.177
  642.159   82.384    0.417   20.167
  642.979   80.569    0.398   20.525
  643.799   78.746    0.387   20.883
  644.619   76.040    0.373   23.058
  645.440   73.787    0.342   27.418
  646.260   70.634    0.323   30.689
  647.080   67.028    0.311   33.230
  647.900   64.767    0.366   31.399
  648.720   62.060    0.380   29.572
  649.541   58.454    0.386   27.742
  650.361   61.990    0.389   27.006
  651.181   68.655    0.384   26.267
  652.001   69.961    0.379   26.255
  652.822   71.690    0.378   26.248
  653.642   72.112    0.377   26.238
  654.462   73.865    0.382   26.232
  655.282   74.279    0.385   26.223
  656.102   73.810    0.386   24.756
  656.923   73.317    0.391   23.657
  657.743   73.301    0.396   21.826
  658.563   73.692    0.399   20.361
  659.383   73.223    0.404   19.260
  660.203   72.754    0.409   18.526
  661.024   72.722    0.421   16.692
  661.844   72.691    0.425   15.958
  662.664   73.552    0.430   14.857
  663.484   78.425    0.411   15.577
  664.304   69.914    0.354   17.390
  665.125   60.519    0.331   21.023
  665.945   42.628    0.314   29.391
  666.765   39.030    0.313   36.667
  667.585   35.439    0.320   39.936
  668.406   29.611    0.323   42.475
  669.226   21.992    0.328   47.929
  670.046   17.055    0.335   92.718
  670.866   14.795    0.341  108.005
  671.686   13.410    0.344  127.299
  672.507   13.379    0.344  122.918
  673.327   12.901    0.343  127.282
  674.147   11.970    0.340  135.286
  674.967   11.509    0.333  149.117
  675.787   11.923    0.332  163.676
  676.608   13.222    0.355  169.130
  677.428   15.858    0.370  170.577
  678.248   18.056    0.368  168.750
  679.068   20.262    0.365  168.013
  679.888   24.244    0.371  168.000
  680.709   27.334    0.383  165.445
  681.529   29.532    0.389  161.795
  682.349   31.730    0.383  158.509
  683.169   33.475    0.375  153.766
  683.990   34.781    0.365  146.108
  684.810   36.979    0.370  146.824
  685.630   37.394    0.376  147.182
  686.450   37.370    0.384  148.266
  687.270   36.885    0.385  148.988
  688.091   35.962    0.389  150.437
  688.911   35.039    0.390  148.241
  689.731   34.562    0.389  138.398
  690.551   33.639    0.385  129.287
  691.371   34.499    0.382  109.975
  692.192   35.798    0.377   93.942
  693.012   34.867    0.370   81.552
  693.832   33.952    0.381   70.616
  694.652   33.029    0.395   61.503
  695.472   33.889    0.400   51.662
  696.293   38.317    0.408   54.567
  697.113   44.528    0.411   61.478
  697.933   44.051    0.411   71.303
  698.753   46.241    0.403   46.528
  699.573   56.473    0.402   29.039
  700.394   61.792    0.433   15.553
  701.214   66.666    0.459   12.632
  702.034   71.540    0.471   11.165
  702.854   78.643    0.491   10.792
  703.675   83.962    0.499   10.418
  704.495   87.944    0.499   10.409
  705.315   92.364    0.486   10.399
  706.135   92.332    0.472   10.759
  706.955   91.863    0.462   11.841
  707.776   90.932    0.452   12.563
  708.596   90.009    0.452   12.915
  709.416   88.640    0.455   12.547
  710.236   85.917    0.457   11.077
  711.056   85.010    0.456   10.341
  711.877   84.979    0.448    9.970
  712.697   88.061    0.437   12.511
  713.517   88.029    0.183   25.250
  714.337   77.735    0.141   57.289
  715.157   67.894    0.109   72.579
  715.978   56.269    0.091   99.156
  716.798   36.165    0.081  111.166
  717.618   29.437    0.080  125.361
  718.438   24.501    0.090  125.353
  719.259   21.786    0.102  120.974
  720.079   21.747    0.110  114.409
  720.899   23.053    0.223  108.573
  721.719   25.252    0.301   96.183
  722.539   28.349    0.333   75.050
  723.360   32.331    0.337   64.116
  724.180   30.962    0.355   58.281
  725.000   27.810    0.369   68.834
  725.820   23.311    0.384   86.306
  726.640   23.272    0.390  115.431
  727.461   22.795    0.391  113.603
  728.281   21.880    0.392  110.680
  729.101   20.949    0.394  107.396
  729.921   23.155    0.396   72.059
  730.741   29.366    0.398   64.401
  731.562   32.894    0.396   68.399
  732.382   34.639    0.390   77.862
  733.202   35.507    0.384   84.406
  734.022   37.251    0.386   82.941
  734.843   39.442    0.388   96.044
  735.663   42.093    0.388   98.221
  736.483   45.191    0.387   86.558
  737.303   47.389    0.386   25.729
  738.123   46.904    0.385   22.441
  738.944   46.427    0.384   24.618
  739.764   45.058    0.384   26.064
