~VERSION INFORMATION
 VERS.                 2.0:   CWLS LOG ASCII STANDARD -VERSION 2.0
 WRAP.                  NO:   ONE LINE PER DEPTH STEP
~WELL INFORMATION BLOCK
#MNEM.UNIT           DATA                    DESCRIPTION OF MNEMONIC
#---------    -------------------            -------------------------------
# Generated from Intellog Unique Number	CC_88_90/WELL/1077
WELL.         09-09-089-15W4                 : Well_name    - WELL
LOC .         AA/09-09-089-15W4/0            : Location     - LOCATION
UWI .         AA/09-09-089-15W400            : Uwi          - UNIQUE WELL ID
ENTR.         DW                             : Entered      - ENTERED BY
SRVC.         SCHLUMBERGER                   : Scn          - SERVICE COMPANY
STRT.M        70                             : top_depth    - START DEPTH
STOP.M        259.75                         : bot_depth    - STOP DEPTH
STEP.M        0.25                           : increment    - STEP LENGTH
 NULL. -999.2500:NULL Value
~CURVE INFORMATION BLOCK
#MNEM UNIT       ERCB CURVE CODE    CURVE DESCRIPTION
#-----------   ------------------   ----------------------------------
DEPT.M        00 001 00 00         : DEPTH        - DEPTH
GR  .API      00 310 00 00         : GR           - GAMMA RAY
DPHI.V/V      00 890 00 00         : PHID         - DENSITY POROSITY (SANDSTONE)
NPHI.V/V      00 330 00 00         : PHIN         - NEUTRON POROSITY (SANDSTONE)
ILD .OHMM     00 120 00 00         : RESD         - DEEP RESISTIVITY (DIL)
~PARAMETER INFORMATION
#MNEM.UNIT           DATA             DESCRIPTION OF MNEMONIC
#---------         -----------     ------------------------------
GL  .M        505.38               : gl           - GROUND LEVEL ELEVATION
EREF.M        508.58               : kb           - ELEVATION OF DEPTH REFERENCE
DATM.M        508.58               : datum        - DATUM ELEVATION
TDD .M        265                  : tdd          - TOTAL DEPTH DRILLER
RUN .         ONE                  : Run          - RUN NUMBER
ENG .         BILL                 : Engineer     - RECORDING ENGINEER
WIT .         JIM                  : Witness      - WITNESSED BY
MUD .         GEL                  : Mud_type     - MUD TYPE
MATR.         SANDSTONE            : Logunit      - NEUTRON MATRIX
TMAX.C        25                   : BHT          - MAXIMUM RECORDED TEMPERATURE
BHTD.M        265                  : BHTDEP       - MAXIMUM RECORDED TEMPERATURE
MATR.         1                    : LOGUNIT      - NEUTRON MATRIX
RMT .C        25                   : MDTP         - TEMPERATURE OF MUD
NEUT.         1                    : NEUTRON      - NEUTRON TYPE
RESI.         0                    : RESIST       - RESISTIVITY TYPE
RMC .OHMM     0.25                 : RMC          - RESISTIVITY OF MUD CAKE
RMF .OHMM     0.25                 : RMF          - RESISTIVITY OF MUD FILTRATE
SUFT.C        15                   : SUFT         - SURFACE TEMPERATURE
~A  DEPTH       GR     PHID     PHIN     RESD
# ...
  157.000  104.435    0.232    0.637    3.774
  157.250   99.867    0.205    0.632    4.461
  157.500   95.248    0.193    0.593    4.899
  157.750   92.972    0.156    0.513    6.121
  158.000   94.182    0.136    0.457    7.236
  158.250   97.769    0.180    0.454    7.950
  158.500  100.692    0.213    0.444    7.957
  158.750  100.643    0.200    0.440    7.683
  159.000  102.278    0.185    0.439    7.548
  159.250  106.268    0.176    0.451    7.559
  159.500  106.771    0.173    0.471    7.851
  159.750  103.207    0.173    0.480    8.308
  160.000  101.304    0.172    0.467    8.792
  160.250   99.651    0.190    0.440    9.657
  160.500  104.483    0.207    0.410   10.030
  160.750  105.592    0.202    0.391   10.822
  161.000  100.229    0.199    0.387   11.031
  161.250   95.694    0.207    0.400   11.460
  161.500   93.264    0.208    0.425   11.905
  161.750   89.725    0.209    0.443   12.368
  162.000   86.178    0.209    0.456   12.850
  162.250   84.567    0.218    0.460   13.607
  162.500   84.832    0.211    0.441   14.132
  162.750   85.190    0.180    0.399   15.522
  163.000   83.984    0.153    0.354   16.416
  163.250   80.653    0.121    0.323   18.036
  163.500   76.291    0.115    0.329   17.399
  163.750   83.183    0.146    0.357   15.885
  164.000   87.607    0.188    0.381   13.977
  164.250   82.463    0.199    0.398   12.761
  164.500   86.406    0.185    0.412   11.872
  164.750   89.120    0.201    0.427   11.246
  165.000   91.784    0.205    0.432   11.470
  165.250   97.576    0.196    0.423   12.138
  165.500   94.760    0.181    0.432   12.845
  165.750   82.771    0.148    0.440   13.345
  166.000   80.838    0.134    0.408   13.864
  166.250   86.513    0.196    0.410   14.136
  166.500   89.899    0.222    0.427   14.153
  166.750   89.761    0.215    0.439   14.171
  167.000   88.066    0.201    0.438   13.934
  167.250   86.047    0.197    0.428   13.692
  167.500   85.151    0.213    0.429   13.717
  167.750   85.679    0.194    0.425   13.726
  168.000   85.530    0.203    0.432   13.752
  168.250   84.354    0.214    0.435   13.765
  168.500   82.499    0.205    0.405   13.291
  168.750   82.431    0.194    0.384   13.056
  169.000   85.739    0.191    0.427   11.924
  169.250   86.575    0.174    0.450   10.883
  169.500   83.907    0.044    0.464   10.697
  169.750   73.350   -0.005    0.463   11.531
  170.000   60.127    0.035    0.359   12.430
  170.250   58.608    0.076    0.239   13.399
  170.500   72.095    0.157    0.291   13.171
  170.750   84.213    0.179    0.336   12.032
  171.000   93.609    0.174    0.430   11.395
  171.250   95.498    0.149    0.468   10.791
  171.500   92.895    0.145    0.452    9.855
  171.750   92.645    0.177    0.456    9.507
  172.000   94.343    0.193    0.446    9.180
  172.250   96.863    0.207    0.439    9.191
  172.500   99.097    0.191    0.459    9.029
  172.750   95.995    0.183    0.464    9.043
  173.000   95.585    0.194    0.446    9.054
  173.250   99.325    0.193    0.438    9.066
  173.500   95.582    0.179    0.451    9.077
  173.750   94.107    0.177    0.462    9.085
  174.000   96.268    0.174    0.476    8.936
  174.250   98.497    0.162    0.495    8.313
  174.500   96.580    0.134    0.512    7.870
  174.750   93.586    0.122    0.518    7.736
  175.000   96.151    0.167    0.506    7.892
  175.250   98.991    0.195    0.478    7.900
  175.500   99.214    0.198    0.460    8.207
  175.750  100.056    0.193    0.453    9.017
  176.000  101.402    0.194    0.488    9.362
  176.250   99.858    0.199    0.555   10.098
  176.500   95.546    0.195    0.569   10.296
  176.750   92.584    0.189    0.516   10.697
  177.000   93.415    0.187    0.454   10.325
  177.250   95.241    0.185    0.436    9.960
  177.500   95.312    0.184    0.440    9.608
  177.750   96.997    0.187    0.436    9.272
  178.000  104.120    0.182    0.433    9.638
  178.250  108.352    0.174    0.433    9.827
  178.500  101.372    0.185    0.447   10.026
  178.750   95.992    0.177    0.465   10.416
  179.000   97.868    0.183    0.460   10.429
  179.250   99.946    0.217    0.438   10.640
  179.500  100.418    0.219    0.433   10.650
  179.750  104.560    0.225    0.437   10.660
  180.000  106.721    0.203    0.423   10.680
  180.250  105.827    0.189    0.401   10.687
  180.500  104.055    0.196    0.391   10.703
  180.750  103.645    0.202    0.395   10.713
  181.000  105.338    0.192    0.405   10.341
  181.250  106.071    0.151    0.416   10.354
  181.500  105.334    0.127    0.420   10.567
  181.750  108.980    0.138    0.411   10.577
  182.000  114.496    0.169    0.405   10.590
  182.250  116.725    0.187    0.409   10.406
  182.500  115.223    0.177    0.422   10.045
  182.750  107.557    0.187    0.448    9.873
  183.000  107.431    0.193    0.467    9.882
  183.250  112.768    0.195    0.455    9.717
  183.500  108.019    0.189    0.440    9.726
  183.750   95.623    0.162    0.453    8.885
  184.000   94.189    0.137    0.466    8.569
  184.250   99.094    0.160    0.446    7.540
  184.500  110.507    0.196    0.474    6.762
  184.750  116.938    0.203    0.471    6.523
  185.000  112.211    0.183    0.463    6.410
  185.250  105.045    0.161    0.489    6.300
  185.500  104.055    0.155    0.472    6.308
  185.750  104.145    0.159    0.444    6.434
  186.000  108.988    0.181    0.422    6.442
  186.250  113.889    0.203    0.436    6.574
  186.500  113.906    0.199    0.475    6.578
  186.750  109.866    0.178    0.482    6.470
  187.000  104.671    0.152    0.452    6.474
  187.250  102.466    0.079    0.466    6.247
  187.500  111.431    0.103    0.464    6.030
  187.750  114.123    0.167    0.452    5.817
  188.000  112.338    0.183    0.457    5.722
  188.250  115.586    0.179    0.467    5.836
  188.500  115.743    0.197    0.470    5.952
  188.750  114.732    0.192    0.477    6.185
  189.000  114.003    0.178    0.474    6.422
  189.250  116.594    0.170    0.458    6.671
  189.500  121.094    0.166    0.444    7.062
  189.750  123.255    0.164    0.450    7.471
  190.000  120.071    0.163    0.467    8.059
  190.250  110.238    0.155    0.455    8.370
  190.500  103.557    0.117    0.425    8.857
  190.750  103.343    0.081    0.434    9.376
  191.000  108.265    0.127    0.421    9.744
  191.250  113.105    0.198    0.370    9.938
  191.500  112.012    0.167    0.386    9.947
  191.750  108.709    0.155    0.404    9.774
  192.000  108.116    0.135    0.418    9.262
  192.250  108.563    0.124    0.427    8.935
  192.500  115.730    0.143    0.434    8.315
  192.750  126.006    0.167    0.455    8.170
  193.000  123.732    0.179    0.476    8.178
  193.250  116.471    0.195    0.441    8.191
  193.500  110.878    0.205    0.431    8.351
  193.750  108.322    0.190    0.444    8.676
  194.000  108.720    0.119    0.481    9.017
  194.250  104.378    0.047    0.463    9.367
  194.500   91.626    0.080    0.328   10.098
  194.750   91.586    0.155    0.322   10.689
  195.000   98.424    0.161    0.375   11.105
  195.250  102.957    0.160    0.396   10.716
  195.500  104.296    0.170    0.392   10.151
  195.750  103.478    0.162    0.400    9.441
  196.000  102.059    0.161    0.418    8.783
  196.250  106.714    0.170    0.425    8.315
  196.500  108.494    0.177    0.420    7.879
  196.750  105.380    0.176    0.409    7.330
  197.000  102.746    0.184    0.410    6.815
  197.250  106.613    0.199    0.426    6.574
  197.500  115.599    0.205    0.443    5.892
  197.750  117.587    0.211    0.464    5.381
  198.000  111.400    0.208    0.502    5.003
  198.250  104.340    0.207    0.521    4.653
  198.500   98.129    0.187    0.539    4.573
  198.750   85.691    0.160    0.524    4.334
  199.000   68.742    0.178    0.422    4.420
  199.250   67.657    0.198    0.393    5.224
  199.500   72.632    0.196    0.379    8.935
  199.750   73.044    0.191    0.367   13.677
  200.000   69.938    0.154    0.364   19.457
  200.250   66.746    0.123    0.364   19.482
