~VERSION INFORMATION
 VERS.                 2.0:   CWLS LOG ASCII STANDARD -VERSION 2.0
 WRAP.                  NO:   ONE LINE PER DEPTH STEP
~WELL INFORMATION BLOCK
#MNEM.UNIT           DATA                    DESCRIPTION OF MNEMONIC
#---------    -------------------            -------------------------------
# Generated from Intellog Unique Number	CN_91_93/WELL/2652
WELL.         06-16-091-13W4                 : Well_name    - WELL
LOC .         AA/06-16-091-13W4/0            : Location     - LOCATION
UWI .         AA/06-16-091-13W400            : Uwi          - UNIQUE WELL ID
ENTR.         joette                         : Entered      - ENTERED BY
SRVC.         WESTERN ATLAS                  : Scn          - SERVICE COMPANY
DATE.         02/05/92                       : Date         - LOG DATE
STRT.M        100                            : top_depth    - START DEPTH
STOP.M        165                            : bot_depth    - STOP DEPTH
STEP.M        0.25                           : increment    - STEP LENGTH
 NULL. -999.2500:NULL Value
~CURVE INFORMATION BLOCK
#MNEM UNIT       ERCB CURVE CODE    CURVE DESCRIPTION
#-----------   ------------------   ----------------------------------
DEPT.M        00 001 00 00         : DEPTH        - DEPTH
GR  .API      00 310 00 00         : GR           - GAMMA RAY
CALI.MM       00 280 01 00         : CAL          - CALIPER
NPHI.V/V      00 330 00 00         : PHIN         - NEUTRON POROSITY (SANDSTONE)
DPHI.V/V      00 890 00 00         : PHID         - DENSITY POROSITY (SANDSTONE)
ILD .OHMM     00 120 00 00         : RESD         - DEEP RESISTIVITY (DIL)
~PARAMETER INFORMATION
#MNEM.UNIT           DATA             DESCRIPTION OF MNEMONIC
#---------         -----------     ------------------------------
GL  .M        445.95               : gl           - GROUND LEVEL ELEVATION
EREF.M        449.32               : kb           - ELEVATION OF DEPTH REFERENCE
DATM.M        449.32               : datum        - DATUM ELEVATION
TDD .M        175                  : tdd          - TOTAL DEPTH DRILLER
RUN .         ONE                  : Run          - RUN NUMBER
ENG .         JO                   : Engineer     - RECORDING ENGINEER
WIT .         TIM                  : Witness      - WITNESSED BY
MUD .         GEL                  : Mud_type     - MUD TYPE
MATR.         SANDSTONE            : Logunit      - NEUTRON MATRIX
TMAX.C        17                   : BHT          - MAXIMUM RECORDED TEMPERATURE
BHTD.M        175                  : BHTDEP       - MAXIMUM RECORDED TEMPERATURE
RMT .C        16                   : MDTP         - TEMPERATURE OF MUD
MUDD.KG/M     1400                 : MWT          - MUD DENSITY
NEUT.         1                    : NEUTRON      - NEUTRON TYPE
RESI.         0                    : RESIST       - RESISTIVITY TYPE
RM  .OHMM     2                    : RM           - RESISTIVITY OF MUD
RMC .OHMM     2.4                  : RMC          - RESISTIVITY OF MUD CAKE
RMF .OHMM     1.3                  : RMF          - RESISTIVITY OF MUD FILTRATE
SUFT.C        4                    : SUFT         - SURFACE TEMPERATURE
~A  DEPTH       GR      CAL     PHIN     PHID     RESD
  100.000   47.576  191.667    0.432    0.230   10.767
  100.250   56.667  191.667    0.433    0.246   10.684
  100.500   55.758  189.646    0.424    0.255   11.316
  100.750   50.000  187.121    0.420    0.251   11.543
  101.000   50.606  185.101    0.417    0.287   11.343
  101.250   48.788  184.596    0.428    0.264   10.747
  101.500   46.061  185.101    0.372    0.017    9.896
  101.750   50.606  183.586    0.383    0.076    9.117
  102.000   62.424  183.081    0.417    0.230    8.962
  102.250   62.121  184.596    0.425    0.233    9.488
  102.500   64.849  186.111    0.438    0.235    9.588
  102.750   66.061  188.131    0.432    0.226    9.340
  103.000   61.515  189.646    0.434    0.226    8.524
  103.250   62.424  190.657    0.425    0.220    8.072
  103.500   62.727  190.657    0.438    0.214    7.934
  103.750   63.333  191.162    0.443    0.209    8.478
  104.000   50.909  190.657    0.429    0.227   10.417
  104.250   51.818  187.626    0.414    0.235   11.131
  104.500   54.242  187.626    0.413    0.231   11.674
  104.750   46.061  188.636    0.410    0.157   11.801
  105.000   45.455  187.121    0.416    0.135   11.389
  105.250   49.394  184.596    0.412    0.131   10.585
  105.500   53.333  186.111    0.420    0.180   10.025
  105.750   57.576  187.626    0.414    0.198   10.227
  106.000   61.818  189.646    0.415    0.212   11.034
  106.250   60.606  188.636    0.426    0.224   11.684
  106.500   59.394  188.131    0.425    0.227   11.805
  106.750   63.333  188.636    0.425    0.233   11.606
  107.000   53.939  189.646    0.436    0.256   11.303
  107.250   53.636  192.677    0.432    0.286   11.212
  107.500   56.364  194.697    0.435    0.275   11.440
  107.750   58.182  205.303    0.426    0.284   11.889
  108.000   60.303  200.253    0.420    0.276   12.589
  108.250   62.727  204.293    0.377    0.245   12.843
  108.500   58.182  196.212    0.355    0.076   12.508
  108.750   57.576  189.646    0.385    0.133   11.101
  109.000   64.849  184.596    0.431    0.231   10.132
  109.250   67.273  188.131    0.435    0.254   10.146
  109.500   63.030  187.626    0.441    0.280   10.350
  109.750   59.394  192.677    0.451    0.268   10.172
  110.000   57.879  194.697    0.444    0.249    8.780
  110.250   62.424  188.636    0.462    0.247    7.650
  110.500   57.576  188.636    0.481    0.171    6.730
  110.750   59.091  189.141    0.491    0.195    6.431
  111.000   66.667  188.131    0.495    0.295    6.092
  111.250   61.212  187.626    0.492    0.284    5.878
  111.500   62.424  187.626    0.493    0.290    6.166
  111.750   62.424  188.636    0.490    0.301    6.650
  112.000   60.000  189.646    0.484    0.285    6.976
  112.250   60.606  190.657    0.485    0.255    7.184
  112.500   56.970  189.141    0.471    0.195    7.060
  112.750   58.788  186.111    0.441    0.205    6.748
  113.000   68.182  185.101    0.468    0.244    6.511
  113.250   65.758  188.131    0.482    0.242    6.523
  113.500   63.939  189.141    0.476    0.276    6.904
  113.750   65.151  188.131    0.479    0.288    7.449
  114.000   69.091  187.121    0.476    0.270    7.958
  114.250   66.061  187.121    0.462    0.267    8.829
  114.500   57.879  188.131    0.450    0.244    9.173
  114.750   58.788  188.636    0.459    0.211    9.445
  115.000   61.818  189.141    0.465    0.258    9.460
  115.250   62.121  189.141    0.432    0.278    9.042
  115.500   64.546  188.636    0.428    0.275    8.888
  115.750   68.182  189.141    0.433    0.278    9.151
  116.000   69.091  190.657    0.429    0.252   10.934
  116.250   65.758  189.646    0.424    0.242   11.471
  116.500   67.273  190.657    0.414    0.187   11.485
  116.750   61.212  191.162    0.414    0.214   11.183
  117.000   62.424  186.616    0.417    0.224   10.993
  117.250   63.939  188.636    0.413    0.217   11.426
  117.500   67.273  186.616    0.363    0.134   12.097
  117.750   61.212  184.091    0.329    0.058   11.672
  118.000   56.667  183.081    0.376    0.164   10.265
  118.250   62.727  184.091    0.446    0.255    8.227
  118.500   66.970  186.616    0.439    0.238    7.790
  118.750   67.576  191.162    0.433    0.241    7.517
  119.000   69.091  191.667    0.426    0.262    7.812
  119.250   67.879  190.152    0.409    0.254   10.055
  119.500   68.788  196.212    0.395    0.229   10.350
  119.750   64.546  187.626    0.372    0.228   10.350
  120.000   72.121  185.606    0.418    0.207   10.386
  120.250   67.576  186.616    0.429    0.194   10.299
  120.500   62.424  188.131    0.423    0.178   10.028
  120.750   63.333  191.667    0.402    0.195    9.952
  121.000   63.333  188.131    0.413    0.214   10.151
  121.250   63.636  188.636    0.421    0.207   10.357
  121.500   61.212  191.667    0.427    0.222   10.370
  121.750   66.061  200.758    0.440    0.235   10.193
  122.000   63.939  203.788    0.432    0.233   10.021
  122.250   62.121  203.283    0.451    0.246    9.760
  122.500   65.758  199.242    0.425    0.286    9.954
  122.750   58.485  190.657    0.390    0.242    9.968
  123.000   55.758  182.576    0.444    0.204    7.627
  123.250   60.000  185.101    0.457    0.262    6.707
  123.500   57.273  186.616    0.473    0.307    5.789
  123.750   59.091  190.152    0.487    0.301    5.044
  124.000   57.576  188.131    0.481    0.303    4.646
  124.250   55.758  184.596    0.467    0.291    4.482
  124.500   61.212  183.081    0.470    0.297    4.531
  124.750   67.879  184.091    0.461    0.295    4.979
  125.000   71.818  186.616    0.459    0.281    6.348
  125.250   74.242  186.616    0.436    0.243    7.104
  125.500   63.333  186.111    0.423    0.225    8.409
  125.750   66.970  185.101    0.441    0.262    9.326
  126.000   64.242  185.606    0.464    0.267    9.969
  126.250   63.333  187.121    0.465    0.330    9.530
  126.500   62.727  188.131    0.465    0.331    8.454
  126.750   57.576  189.141    0.462    0.346    5.895
  127.000   57.576  195.202    0.517    0.201    3.746
  127.250   46.667  187.626    0.549    0.257    2.893
  127.500   46.364  193.182    0.544    0.290    2.567
  127.750   44.849  191.667    0.532    0.441    2.258
  128.000   44.545  194.697    0.544    0.462    2.435
  128.250   40.303  194.697    0.541    0.447    3.668
  128.500   41.515  192.677    0.544    0.485    6.180
  128.750   43.939  192.172    0.521    0.523    7.802
  129.000   46.061  193.182    0.479    0.386   10.133
  129.250   50.303  195.202    0.450    0.349   11.238
  129.500   49.394  197.222    0.433    0.300    7.766
  129.750   34.545  194.697    0.447    0.318    6.764
  130.000   33.636  191.162    0.471    0.418    4.850
  130.250   43.636  190.657    0.492    0.385    4.344
  130.500   49.091  187.121    0.503    0.318    3.965
  130.750   58.788  182.576    0.498    0.273    3.687
  131.000   63.636  177.525    0.493    0.300    3.657
  131.250   67.879  177.020    0.481    0.282    3.982
  131.500   63.939  176.515    0.484    0.261    4.891
  131.750   65.758  176.010    0.484    0.262    5.274
  132.000   63.636  176.010    0.470    0.240    5.532
  132.250   64.849  176.010    0.465    0.257    5.592
  132.500   64.546  176.010    0.472    0.267    5.248
  132.750   63.636  176.010    0.459    0.223    5.016
  133.000   56.970  176.010    0.444    0.123    4.795
  133.250   48.485  175.505    0.436    0.175    4.628
  133.500   65.758  175.505    0.449    0.268    4.633
  133.750   74.546  175.505    0.447    0.250    4.860
  134.000   70.303  175.505    0.448    0.236    5.194
  134.250   67.879  176.010    0.440    0.211    5.869
  134.500   71.515  176.515    0.434    0.208    7.764
  134.750   67.273  177.020    0.406    0.234   11.588
  135.000   60.000  177.525    0.386    0.271   14.504
  135.250   53.333  176.515    0.347    0.268   17.646
  135.500   32.121  171.465    0.323    0.257   34.801
  135.750   18.485  164.899    0.301    0.313   45.619
  136.000   16.364  162.374    0.300    0.330   42.014
  136.250   26.667  161.869    0.344    0.313   31.560
