~Version : LASO    vs 4.00 
VERS.                2.00:   CWLS Log ASCII Standard -VERSION 2.0
WRAP.                  NO:
~Well Information Block
#MNEM.UNIT       Data                        Description of Mnemonic
#----.----      -------------------------- : -----------------------------
STRT.M            15.0000:
STOP.M           207.0000:
STEP.M             0.2000:
NULL.           -999.2500:
COMP.  MOBIL OIL CANADA                   :COMPANY
WELL.  MOBIL CLARKE OV 1-2                :WELL
FLD.                                      :FIELD
LOC.   01-02-090-08W4                     :LOCATION
CTRY.  CANADA                             :COUNTRY
PROV.  ALBERTA                            :PROVINCE
SRVC.  SCHLUMBERGER                       :SERVICE COMPANY
DATE.  05-MAR-81                          :LOG DATE
UWI.   AA/01-02-090-08W400                :UNIQUE WELL ID
~Parameter Information Block
#MNEM.UNIT       Data                        Description of Mnemonic
#----.----      -------------------------- : -----------------------------
RUN .                   1                 : Run Number
GL  .M           444.4000                 : Ground Level Elevation
DREF.                  KB                 : Depth Reference
EREF.M           444.4000                 : Elevation of Depth Reference
TDL .M           207.0000                 : Total Depth Logger
TDD .M           206.0000                 : Total Depth Driller
CSGL.M            27.0000                 : Casing Bottom Logger
CSGD.M            26.4000                 : Casing Bottom Driller
CSGS.MM          219.0000                 : Casing Size
CSGW.KG/M          0.0000                 : Casing Weight
BS  .MM          159.0000                 : Bit Size
DFD .           9999.0000                 : Mud Weight (Density)
~Curve Information Block
#MNEM.UNIT        API CODE    Curve Description
#---------    ------------    -------------------------------------------
DEPT.M                    :   DEPTH
CALI.MM       42 280  1  1:   3 DENSITY CALIPER
DPHI.V/V                  :   DPHI
DT  .US/M     60 520  0  1:   2 SONIC INTERVAL TRANSIT TIME (COMPENSATED)
GR  .GAPI     42 310  1  1:   4 GAMMA RAY
ILD .OHMM      5 120 46  1:   7 DEEP INDUCTION
ILM .OHMM      5 120 44  1:   8 MEDIUM INDUCTION
NPHI.V/V      42 890  3  1:   5 NEUTRON POROSITY (SANDSTONE)
RHOB.K/M3     42 350  1  1:   6 BULK DENSITY
SFLU.OHMM      5 220  1  1:   9 FOCUSSED RESISTIVITY
SP  .MV        5  10  1  1:   10 SPONTANEOUS POTENTIAL
~A  Depth           CALI        DPHI          DT          GR         ILD         ILM        NPHI        RHOB        SFLU          SP
# ...
161.4000        155.5750      0.1884    396.2400     55.1850     12.7008     12.0290      0.3598   2358.0000     13.6719    106.5600
161.6000        158.1250      0.1827    400.4800     54.1800     13.0566     11.9187      0.3720   2338.0000     10.5640    109.3650
161.8000        159.4000      0.1774    396.5600     48.2850     13.9261     13.4348      0.3800   2386.8999     10.1819    109.8600
162.0000        160.6750      0.1703    396.7200     46.9800     14.3163     14.4621      0.3894   2374.0000     15.5536    105.6600
162.2000        159.4000      0.1637    395.0800     46.2750     14.5824     15.2838      0.3846   2396.0000     21.0780     99.4050
162.4000        153.0500      0.1965    394.2400     46.4850     14.9910     15.8573      0.3856   2291.0000     27.7863     97.0050
162.6000        150.5000      0.2120    395.2400     45.9750     16.2866     15.7119      0.3874   2281.0000     20.8848    101.2050
162.8000        149.2500      0.2257    396.4000     44.3850     17.2119     16.0041      0.3924   2258.0000     15.6975    100.7550
163.0000        150.5000      0.2502    396.8800     42.1800     17.8579     16.7583      0.3972   2226.0000     14.4487    100.6650
163.2000        153.0500      0.2670    390.4800     38.2800     17.5319     19.5988      0.3948   2276.0000     18.5281     95.6100
163.4000        155.5750      0.2354    385.8800     39.5850     16.8978     19.9632      0.3906   2290.0000     31.6104     93.9600
163.6000        154.3250      0.2205    389.0000     41.7750     16.7429     18.7167      0.3742   2301.0000     53.4355     87.7050
163.8000        151.7750      0.2295    397.3600     48.5850     17.6942     16.1521      0.3698   2258.0000     19.7620     95.1600
164.0000        150.5000      0.2386    401.4800     48.0750     17.5319     16.4524      0.3718   2256.0000     11.4770    101.3550
164.2000        153.0500      0.2434    399.1600     45.3750     17.0541     17.3872      0.3994   2246.0000     11.3718    101.2650
164.4000        160.6750      0.2201    390.3200     44.3850     15.6975     17.5481      0.3974   2321.0000     27.0290     91.8600
164.6000        155.5750      0.2028    374.7200     46.9800     15.4110     17.0699      0.3742   2336.0000     34.9808     80.0550
164.8000        153.0500      0.2081    372.4400     49.6800     15.4110     16.4524      0.3544   2296.0000     34.9808     78.0000
165.0000        150.5000      0.2133    384.0800     52.0800     15.4110     14.8672      0.3540   2281.0000     17.2119     92.0100
165.2000        150.5000      0.2181    398.0400     51.0900     15.2697     14.7309      0.3606   2274.0000     10.5640    100.0650
165.4000        153.0500      0.2229    404.6000     49.3800     14.8535     14.8672      0.3916   2283.0000     10.3712    102.4650
165.6000        156.8500      0.2220    407.2000     48.6750     14.4487     14.8672      0.3896   2300.0000     14.4487     98.1150
165.8000        153.0500      0.2187    402.9600     48.4800     14.1850     14.4621      0.3778   2282.0000     17.8579     92.7600
166.0000        153.0500      0.2272    394.9200     48.3750     14.1850     14.4621      0.3724   2272.8999     17.2119     91.4100
166.2000        154.3250      0.2174    383.9200     48.8850     14.0550     14.4621      0.3824   2298.0000     16.7429     90.3150
166.4000        153.0500      0.2084    382.9200     52.0800     13.4224     13.9389      0.3778   2304.0000     18.0231     89.3550
166.6000        153.0500      0.2082    385.5600     54.8850     12.9369     13.3116      0.3730   2298.0000     17.5319     93.8100
166.8000        153.0500      0.2091    388.5200     57.3900     12.5843     12.5959      0.3860   2309.0000     13.7984    101.4600
167.0000        153.0500      0.2002    397.5200     58.5900     11.9078     11.8095      0.3984   2349.0000     10.7604    109.7100
167.2000        155.5750      0.1964    404.7600     56.7900     11.7986     11.7012      0.4070   2325.0000     10.7604    111.0600
167.4000        154.3250      0.1969    413.4400     54.9900     11.6904     11.3823      0.4066   2321.0000     10.7604    113.7600
167.6000        155.5750      0.1957    414.1200     48.9750     11.7986     11.3823      0.4030   2328.0000      9.0330    108.9150
167.8000        156.8500      0.1932    413.9200     44.7750     11.7986     11.7012      0.4064   2316.0000      9.3720    110.3550
168.0000        159.4000      0.1810    415.5600     41.2800     11.9078     12.0290      0.4138   2375.8999     12.0179    105.6600
168.2000        156.8500      0.1827    406.2400     37.5750     12.2414     12.0290      0.3966   2340.8999     15.9893     95.2650
168.4000        155.5750      0.1922    400.4800     37.5750     12.4690     12.1403      0.3784   2318.0000     15.5536     90.3150
168.6000        154.3250      0.2025    395.7200     38.4750     12.4690     12.2526      0.3674   2313.0000     15.2697     90.1050
168.8000        153.0500      0.2094    394.0800     39.8850     12.4690     12.3660      0.3608   2299.0000     13.5466     90.4050
169.0000        154.3250      0.2160    388.0400     39.3750     12.4690     12.3660      0.3622   2300.0000     13.4224     93.7650
169.2000        153.0500      0.2227    378.8400     36.5700     12.5843     12.2526      0.3682   2285.8999     15.2697     88.5000
169.4000        156.8500      0.2313    379.6400     35.2800     12.8183     12.3660      0.4136   2283.0000     17.0541     79.6500
169.6000        153.0500      0.2559    404.6000     38.2800     12.8183     12.9488      0.4204   2219.0000     18.6995     79.7550
169.8000        153.0500      0.2788    415.0800     39.2850     12.7008     13.0686      0.3964   2184.0000     17.6942     89.8500
170.0000        151.7750      0.2723    415.0800     38.5800     12.5843     12.9488      0.3780   2184.0000     16.5894     95.2650
170.2000        153.0500      0.2591    402.4400     34.4700     12.9369     12.2526      0.3892   2238.0000     13.2993     97.0650
170.4000        154.3250      0.2454    399.8400     31.0800     13.4224     12.0290      0.3950   2257.0000     13.2993     92.4150
170.6000        154.3250      0.2432    401.6400     26.4750     14.1850     12.3660      0.4184   2285.8999     14.4487     86.4600
170.8000        155.5750      0.2587    411.9600     25.4700     16.1373     14.5959      0.4240   2222.0000     20.5036     76.3500
171.0000        150.5000      0.2699    416.2400     26.3700     17.8579     16.6047      0.4182   2204.0000     26.5357     74.4600
171.2000        147.9750      0.2866    414.6000     26.6700     20.6933     19.4191      0.3844   2174.0000     34.9808     65.3100
171.4000        151.7750      0.2974    403.6000     24.7800     30.7489     30.4951      0.3828   2157.0000     66.6546     62.9999
171.6000        151.7750      0.2955    397.3600     24.3750     37.6556     40.9100      0.3870   2151.0000    117.9859     53.5950
171.8000        151.7750      0.2969    391.8000     24.1800     44.4457     52.4602      0.3984   2156.0000    192.2339     56.2050
172.0000        153.0500      0.2931    387.6800     22.9650     52.9456     65.4380      0.4022   2164.8999    216.6855     57.7050
172.2000        156.8500      0.2972    382.2800     23.3700     66.0435     91.1654      0.4022   2164.8999    147.1736     58.7550
172.4000        153.0500      0.2962    381.6400     23.5650     69.1560    103.7122      0.3952   2155.0000    149.9098     59.4450
172.6000        155.5750      0.2971    383.4400     23.5650     69.7959    110.6190      0.3908   2144.0000    222.7563     59.1000
172.8000        153.0500      0.2953    381.4800     24.5700     69.1560    104.6719      0.3866   2156.0000    307.4892     56.9999
173.0000        155.5750      0.2949    377.5200     25.2750     70.4417     99.9608      0.3798   2171.0000    251.0903     57.3450
173.2000        156.8500      0.2905    374.0800     26.1750     69.1560     96.3452      0.3708   2164.0000    188.7252     58.9050
173.4000        156.8500      0.2833    369.3200     28.4700     53.4355     90.3296      0.3758   2171.0000    161.3727     61.2450
