~VERSION INFORMATION
 VERS.                 2.0:   CWLS LOG ASCII STANDARD -VERSION 2.0
 WRAP.                  NO:   ONE LINE PER DEPTH STEP
~WELL INFORMATION BLOCK
#MNEM.UNIT           DATA                    DESCRIPTION OF MNEMONIC
#---------    -------------------            -------------------------------
# Generated from Intellog Unique Number	CN_94_101/WELL/2641
WELL.         CALSTAN TEST HOLE #9           : Well_name    - WELL
LOC .         07-24-094-13W4                 : Location     - LOCATION
UWI .         AA/07-24-094-13W400            : Uwi          - UNIQUE WELL ID
ENTR.         JOETTE                         : Entered      - ENTERED BY
SRVC.         SCHLUMBERGER                   : Scn          - SERVICE COMPANY
DATE.         03 FEB 59                      : Date         - LOG DATE
STRT.F        50                             : top_depth    - START DEPTH
STOP.F        369.882                        : bot_depth    - STOP DEPTH
STEP.F        0.8202                         : increment    - STEP LENGTH
 NULL. -999.2500:NULL Value
~CURVE INFORMATION BLOCK
#MNEM UNIT       ERCB CURVE CODE    CURVE DESCRIPTION
#-----------   ------------------   ----------------------------------
DEPT.F        00 001 00 00         : DEPTH        - DEPTH
GR  .API      00 310 00 00         : GR           - GAMMA RAY
NPHI.V/V      00 330 00 00         : PHIN         - NEUTRON POROSITY (SANDSTONE)
ILD .OHMM     00 120 00 00         : RESD         - DEEP RESISTIVITY (DIL)
~PARAMETER INFORMATION
#MNEM.UNIT           DATA             DESCRIPTION OF MNEMONIC
#---------         -----------     ------------------------------
GL  .F        1180.5               : gl           - GROUND LEVEL ELEVATION
EREF.F        1180.5               : kb           - ELEVATION OF DEPTH REFERENCE
DATM.F        1180.5               : datum        - DATUM ELEVATION
TDD .F        373                  : tdd          - TOTAL DEPTH DRILLER
RUN .         ONE                  : Run          - RUN NUMBER
ENG .         JO                   : Engineer     - RECORDING ENGINEER
WIT .         TIM                  : Witness      - WITNESSED BY
MUD .         GEL                  : Mud_type     - MUD TYPE
MATR.         SANDSTONE            : Logunit      - NEUTRON MATRIX
TMAX.F        60                   : BHT          - MAXIMUM RECORDED TEMPERATURE
BHTD.F        373                  : BHTDEP       - MAXIMUM RECORDED TEMPERATURE
RMT .F        60                   : MDTP         - TEMPERATURE OF MUD
MUDD.LB/G     1.13                 : MWT          - MUD DENSITY
NEUT.         1                    : NEUTRON      - NEUTRON TYPE
RESI.         0                    : RESIST       - RESISTIVITY TYPE
RM  .OHMM     5.5                  : RM           - RESISTIVITY OF MUD
RMC .OHMM     5.5                  : RMC          - RESISTIVITY OF MUD CAKE
RMF .OHMM     5.5                  : RMF          - RESISTIVITY OF MUD FILTRATE
SUFT.F        39.2                 : SUFT         - SURFACE TEMPERATURE
~A  DEPTH       GR     PHIN     RESD
# ...
  227.986   39.897    0.424   16.679
  228.806   40.279    0.415   16.602
  229.626   42.503    0.403   17.058
  230.446   45.093    0.409   15.080
  231.266   46.582    0.443   14.623
  232.087   46.592    0.439   16.600
  232.907   49.186    0.414   19.793
  233.727   52.886    0.400   23.823
  234.547   56.955    0.373   25.951
  235.367   61.024    0.376   23.974
  236.188   59.928    0.363   24.353
  237.008   56.248    0.320   26.178
  237.828   51.463    0.278   29.219
  238.648   49.259    0.356   29.827
  239.469   51.483    0.384   26.860
  240.289   53.708    0.373   24.578
  241.109   55.934    0.369   25.034
  241.929   55.947    0.362   24.425
  242.749   55.583    0.367   23.968
  243.570   53.379    0.406   25.261
  244.390   50.806    0.406   25.260
  245.210   50.078    0.381   25.031
  246.030   51.936    0.367   27.464
  246.850   50.472    0.372   30.429
  247.671   48.266    0.356   32.330
  248.491   42.741    0.320   35.599
  249.311   39.799    0.350   38.792
  250.131   42.023    0.361   40.388
  250.951   43.509    0.362   40.236
  251.772   40.937    0.360   38.638
  252.592   40.211    0.355   34.836
  253.412   42.438    0.354   33.010
  254.232   43.181    0.356   27.382
  255.052   41.346    0.372   26.925
  255.873   42.466    0.361   26.468
  256.693   45.428    0.370   26.164
  257.513   49.866    0.377   25.327
  258.333   53.566    0.381   27.532
  259.154   59.852    0.377   28.215
  259.974   60.598    0.377   32.625
  260.794   48.800    0.374   35.742
  261.614   40.692    0.341   37.643
  262.434   32.217    0.368   39.695
  263.255   34.808    0.365   39.771
  264.075   34.449    0.361   39.238
  264.895   28.188    0.319   39.541
  265.715   30.041    0.307   40.073
  266.535   30.054    0.303   39.769
  267.356   31.540    0.293   40.148
  268.176   33.395    0.326   40.147
  268.996   31.560    0.316   39.843
  269.816   30.094    0.317   39.614
  270.636   34.166    0.346   39.841
  271.457   36.388    0.340   39.993
  272.277   40.090    0.339   39.612
  273.097   37.517    0.346   39.840
  273.917   34.578    0.354   35.125
  274.738   32.002    0.348   39.306
  275.558   30.539    0.340   39.838
  276.378   33.130    0.353   39.989
  277.198   40.889    0.363   39.608
  278.018   49.756    0.358   39.912
  278.839   51.611    0.370   40.140
  279.659   42.398    0.399   39.987
  280.479   40.192    0.378   35.880
  281.299   36.881    0.375   31.926
  282.119   43.536    0.380   34.434
  282.940   49.819    0.365   33.065
  283.760   56.102    0.351   28.198
  284.580   55.374    0.348   28.273
  285.400   49.480    0.376   31.695
  286.220   48.753    0.376   33.595
  287.041   50.608    0.363   36.484
  287.861   49.882    0.371   34.886
  288.681   45.095    0.376   35.190
  289.501   40.308    0.344   35.722
  290.322   37.738    0.356   30.398
  291.142   36.641    0.418   20.968
  291.962   35.178    0.385   20.131
  292.782   34.076    0.357   20.359
  293.602   31.134    0.346   19.902
  294.423   24.502    0.337   18.685
  295.243   19.348    0.341   18.988
  296.063   20.096    0.363   18.988
  296.883   22.318    0.365   17.618
  297.703   24.911    0.378   18.378
  298.524   24.552    0.349   21.115
  299.344   24.565    0.337   21.115
  300.164   24.578    0.373   18.072
  300.984   24.588    0.391   28.642
  301.804   28.285    0.392   31.075
  302.625   31.986    0.346   35.484
  303.445   32.365    0.347   35.940
  304.265   29.054    0.356   35.559
  305.085   32.016    0.350   34.266
  305.906   32.026    0.338   33.733
  306.726   26.501    0.334   33.733
  307.546   28.728    0.331   36.469
  308.366   35.011    0.324   38.218
  309.186   38.343    0.387   38.293
  310.007   29.127    0.413   38.673
  310.827   30.614    0.386   38.672
  311.647   35.421    0.357   38.444
  312.467   27.684    0.345   38.367
  313.287   29.537    0.330   39.203
  314.108   33.975    0.366   38.898
  314.928   41.737    0.387   37.681
  315.748   48.389    0.421   37.984
  316.568   58.732    0.463   39.277
  317.388   67.970    0.458   39.580
  318.209   61.707    0.409   38.895
  319.029   58.396    0.416   38.742
  319.849   54.716    0.424   38.970
  320.669   55.095    0.377   37.600
  321.490   43.297    0.355   37.600
  322.310   34.817    0.343   36.383
  323.130   26.709    0.327   38.207
  323.950   23.032    0.296   39.347
  324.770   20.087    0.253   32.883
  325.591   19.364    0.234   26.799
  326.411   16.053    0.215   23.757
  327.231   13.109    0.213   22.464
  328.051   13.859    0.227   23.907
  328.871   15.343    0.277   24.135
  329.692   17.936    0.334   24.743
  330.512   22.375    0.349   25.047
  331.332   28.658    0.333   25.122
  332.152   24.978    0.306   25.045
  332.972   25.360    0.290   24.741
  333.793   31.274    0.259   24.284
  334.613   33.867    0.267   24.131
  335.433   34.987    0.292   22.002
  336.253   34.997    0.295   20.404
  337.073   37.221    0.305   20.327
  337.894   39.812    0.312   19.947
  338.714   45.729    0.326   19.642
  339.534   45.370    0.354   19.869
  340.354   46.856    0.368   20.173
  341.175   50.556    0.403   19.868
  341.995   59.054    0.410   18.043
  342.815   62.388    0.427   17.890
  343.635   64.981    0.391   15.532
  344.455   66.098    0.366   16.064
  345.276   62.049    0.356   16.976
  346.096   51.727    0.343   16.823
  346.916   48.047    0.355   17.811
  347.736   44.367    0.373   16.061
  348.556   48.436    0.374   15.681
  349.377   44.756    0.343   16.060
  350.197   41.445    0.321   16.136
  351.017   39.982    0.293   15.907
  351.837   39.620    0.297   15.830
  352.657   38.892    0.324   15.449
  353.478   38.164    0.348   15.145
  354.298   38.913    0.357   14.460
  355.118   41.877    0.363   13.851
  355.938   44.102    0.352   14.307
  356.759   43.005    0.349   14.686
  357.579   39.325    0.354   14.457
  358.399   35.276    0.387   14.229
  359.219   31.598    0.429   13.924
  360.039   32.713    0.434   13.239
  360.860   34.199    0.210   12.630
  361.680   23.879   -0.062   11.565
  362.500   19.459   -0.038   10.120
  363.320   16.519   -0.047    8.750
  364.140   15.791   -0.079    7.685
  364.961   15.802   -0.095    6.848
  365.781   16.919   -0.135    7.456
  366.601   17.669   -0.149    8.292
  367.421   17.682   -0.180    5.706
  368.241   17.318   -0.182    5.249
  369.062   16.590   -0.021    7.301
  369.882   16.970    0.015    7.529
