~Version : LASO    vs 4.00
VERS.                2.00:   CWLS Log ASCII Standard -VERSION 2.0
WRAP.                  NO:
~Well Information Block
#MNEM.UNIT       Data                        Description of Mnemonic
#----.----      -------------------------- : -----------------------------
STRT.M            13.0000:
STOP.M           191.0000:
STEP.M             0.2000:
NULL.           -999.2500:
COMP.  MOBIL OIL OF CANADA          :COMPANY
WELL.  MOBIL CLARKE OV 4-1          :WELL
FLD.                                :FIELD
LOC.   04-01-091-08W4               :LOCATION
CTRY.  CANADA                       :COUNTRY
PROV.  ALBERTA                      :PROVINCE
SRVC.  SCHLUMBERGER                 :SERVICE COMPANY
DATE.  12-FEB-81                    :LOG DATE
UWI.   AA/04-01-091-08W400          :UNIQUE WELL ID
~Parameter Information Block
#MNEM.UNIT       Data                        Description of Mnemonic
#----.----      -------------------------- : -----------------------------
RUN .                   1                 : Run Number
GL  .M           444.1000                 : Ground Level Elevation
DREF.                  GD                 : Depth Reference
EREF.M           444.1000                 : Elevation of Depth Reference
TDL .M           191.5000                 : Total Depth Logger
TDD .M           192.0000                 : Total Depth Driller
CSGL.M            15.0000                 : Casing Bottom Logger
CSGD.M            15.0000                 : Casing Bottom Driller
CSGS.MM          179.0000                 : Casing Size
CSGW.KG/M          0.0000                 : Casing Weight
BHT .DEGC         12.0000                 : Bottom Hole Temperature
BS  .MM          158.0000                 : Bit Size
DFD .           1080.0000                 : Mud Weight (Density)
DFV .             85.0000                 : Mud Viscosity
DFPH.             12.6000                 : Mud pH
~Curve Information Block
#MNEM.UNIT        API CODE    Curve Description
#---------    ------------    -------------------------------------------
DEPT.M                    :   DEPTH
CALI.MM       42 280  1  1:   3 DENSITY CALIPER
DPHI.V/V                  :   DPHI
DT  .US/M     60 520  0  1:   2 SONIC INTERVAL TRANSIT TIME (COMPENSATED)
GR  .GAPI     42 310  1  1:   4 GAMMA RAY
ILD .OHMM      5 120 46  1:   7 DEEP INDUCTION
ILM .OHMM      5 120 44  1:   8 MEDIUM INDUCTION
NPHI.V/V      42 890  3  1:   5 NEUTRON POROSITY (SANDSTONE)
RHOB.K/M3     42 350  1  1:   6 BULK DENSITY
SFLU.OHMM      5 220  1  1:   9 FOCUSSED RESISTIVITY
SP  .MV        5  10  1  1:   10 SPONTANEOUS POTENTIAL
~A  Depth           CALI        DPHI          DT          GR         ILD         ILM        NPHI        RHOB        SFLU          SP
# ...
110.6000        173.4500      0.2553    548.6400     89.9400      2.4201    417.8592      0.5743   2245.5000      2.4201    -55.2000
110.8000        172.2250      0.2452    545.8400     89.4450      2.5109    381.0921      0.5681   2270.2000      2.2900    -55.2000
111.0000        172.2250      0.2382    542.8800     89.4450      2.6292    388.1771      0.5681   2270.2000      2.1869    -54.9450
111.2000        172.2250      0.2318    536.4400     91.1400      2.8565    417.8592      0.5718   2267.3000      2.6292    -54.6900
111.4000        173.4500      0.2265    532.9600     95.4450      3.0188    406.4713      0.5498   2277.2000      2.8043    -54.9450
111.6000        174.7000      0.2183    529.2800     97.8450      3.2198    414.0282      0.5241   2299.0000      2.7279    -55.2000
111.8000        173.4500      0.2107    526.0000     98.8500      3.4660    402.7448      0.5204   2297.0000      2.7029    -55.6950
112.0000        170.9750      0.2043    522.3600     96.2400      3.8004    417.8592      0.4996   2302.8999      3.9069    -56.7000
112.2000        172.2250      0.1969    516.7200     93.7500      3.9069    410.2324      0.4928   2328.7000      5.4429    -56.9550
112.4000        172.2250      0.1872    509.3600     93.2400      3.9430    395.3939      0.4822   2338.6001      6.5438    -56.7000
112.6000        170.9750      0.1795    500.4000     96.7500      4.2056    384.6183      0.4778   2376.2000      3.5961    -55.2000
112.8000        170.9750      0.1991    495.3200     98.0400      4.3634    391.7689      0.5011   2351.3999      2.8565    -55.2000
113.0000        170.9750      0.2072    494.1200     97.0500      4.4446    417.8592      0.5138   2329.6001      2.9365    -55.4400
113.2000        172.2250      0.1947    506.9600     89.8350      4.6540    421.7256      0.5077   2316.8000      4.2056    -57.1950
113.4000        172.2250      0.1824    503.8800     88.8300      4.8734    410.2324      0.4844   2344.5000      4.7844    -57.9450
113.6000        172.2250      0.1692    500.6400     88.6350      5.1031    402.7448      0.4669   2386.1001      6.2493    -57.9450
113.8000        169.7500      0.1693    481.8000     88.6350      5.5441    417.8592      0.4345   2473.2000     12.1291    -56.4450
114.0000        168.5000      0.1823    457.6400     91.6350      5.5441    417.8592      0.4274   2497.0000      8.2382    -56.7000
114.2000        170.9750      0.1807    430.2000     93.7500      5.2460    402.7448      0.4390   2566.3000      6.1920    -56.9550
114.4000        173.4500      0.1781    430.5600     96.4500      4.8734    410.2324      0.4604   2487.1001      5.7521    -56.7000
114.6000        170.9750      0.1852    463.1600    102.4500      4.0910    399.0524      0.5006   2362.3000      3.9069    -54.9450
114.8000        170.9750      0.1965    479.5600    104.9550      3.8356    410.2324      0.5159   2345.5000      2.6051    -54.9450
115.0000        172.2250      0.2066    515.3200    105.6600      3.5961    410.2324      0.5467   2313.8000      2.2900    -54.9450
115.2000        173.4500      0.2151    526.2400    105.2550      3.3100    402.7448      0.5632   2291.0000      3.0188    -54.9450
115.4000        175.9250      0.2199    524.5200    105.6600      3.2496    406.4713      0.5581   2295.0000      3.4027    -54.9450
115.6000        175.9250      0.2136    520.4800    106.6500      3.3100    417.8592      0.5476   2316.8000      3.3406    -54.9450
115.8000        174.7000      0.2067    519.4400    107.8500      3.3406    410.2324      0.5398   2328.7000      3.1033    -54.9450
116.0000        174.7000      0.2118    517.4800    108.6600      3.2797    410.2324      0.5447   2308.8999      3.4660    -55.2000
116.2000        174.7000      0.2129    514.9600    108.7650      3.2496    377.5982      0.5451   2314.8000      3.8356    -55.2000
116.4000        177.1750      0.2123    515.0000    107.7600      3.2797    410.2324      0.5383   2306.8999      2.7029    -55.2000
116.6000        172.2250      0.2145    516.9600    107.2500      3.2198    402.7448      0.5549   2306.8999      2.5812    -55.4400
116.8000        170.9750      0.2113    517.7200    106.4550      3.1610    399.0524      0.5692   2306.8999      3.1321    -55.4400
117.0000        179.6500      0.2044    515.0800    108.2550      3.1321    399.0524      0.5399   2336.6001      3.4660    -55.4400
117.2000        179.6500      0.2035    514.4800    108.1500      3.1033    395.3939      0.5315   2324.7000      3.1903    -55.2000
117.4000        177.1750      0.2034    514.8400    106.1550      3.1033    410.2324      0.5237   2324.7000      2.7786    -54.9450
117.6000        177.1750      0.2034    516.1600    104.8500      3.1033    414.0282      0.5225   2325.7000      2.7532    -54.6900
117.8000        177.1750      0.2034    517.6400    107.5500      3.1321    399.0524      0.5165   2328.7000      2.7532    -54.4350
118.0000        175.9250      0.2075    518.4800    108.2550      3.2198    414.0282      0.5216   2312.8000      2.7532    -54.1950
118.2000        174.7000      0.2050    518.6000    105.5550      3.2797    377.5982      0.5299   2306.8999      2.7279    -54.1950
118.4000        177.1750      0.2069    512.4000    104.8500      3.5631    417.8592      0.5268   2304.8999      3.2198    -54.4350
118.6000        180.9000      0.2094    507.6400    102.0450      3.6968    410.2324      0.5303   2328.7000      3.5631    -54.9450
118.8000        180.9000      0.2011    503.2000    102.1500      3.7656    402.7448      0.5282   2350.3999      4.2056    -55.4400
119.0000        182.1250      0.1912    494.6000    103.6500      3.8711    402.7448      0.5159   2392.0000      5.0099    -55.9500
119.2000        182.1250      0.1802    493.0800    104.4600      3.9069    402.7448      0.5006   2379.2000      4.4446    -55.6950
119.4000        182.1250      0.1727    493.3200    106.8600      3.9430    417.8592      0.4904   2356.3999      3.8004    -55.4400
119.6000        180.9000      0.1778    500.3200    106.2600      3.8711    402.7448      0.5196   2340.5000      3.1033    -55.2000
119.8000        180.9000      0.1885    500.3200    106.2600      3.7656    402.7448      0.5114   2358.3999      3.5631    -55.2000
120.0000        182.1250      0.1898    498.1200    105.4500      3.7310    381.0921      0.5078   2326.7000      4.1289    -55.2000
120.2000        182.1250      0.1887    495.6800    103.5600      3.9069    406.4713      0.5350   2334.6001      3.4027    -54.9450
120.4000        178.4250      0.1974    497.5600    100.5450      4.1289    425.6277      0.5319   2348.5000      3.1903    -55.2000
120.6000        184.6000      0.1953    499.6800     95.9400      4.4038    414.0282      0.5093   2336.6001      3.0749    -55.2000
120.8000        182.1250      0.1918    498.9200     90.7350      5.1503    399.0524      0.4751   2356.3999      3.7656    -56.7000
121.0000        182.1250      0.1891    488.7200     81.9300      6.4838    429.5660      0.4176   2348.5000      7.7952    -60.4650
121.2000        177.1750      0.1887    487.3600     80.5350      7.5828    417.8592      0.3985   2360.3000      9.2009    -62.4600
121.4000        175.9250      0.1863    508.5600     78.8250      8.7062    402.7448      0.3884   2376.2000     10.1819    -63.9750
121.6000        170.9750      0.1792    517.0800     76.1250     10.4672    381.0921      0.3771   2408.8999     17.6942    -65.2200
121.8000        170.9750      0.1672    501.6000     78.2250     10.7604    391.7689      0.3719   2425.7000     22.6898    -66.4800
122.0000        169.7500      0.1474    500.9200     83.0250     10.8600    421.7256      0.3649   2429.6001     16.4373    -67.4850
122.2000        168.5000      0.1294    452.6000     91.1400     10.0886    417.8592      0.3835   2439.6001      9.5462    -67.7250
122.4000        169.7500      0.1359    461.4000     95.5500      9.3720    402.7448      0.3888   2360.3000     12.3546    -68.2350
122.6000        167.2750      0.1808    484.4000    101.0550      8.9501    402.7448      0.3869   2353.3999     16.2866    -68.2350
