~VERSION INFORMATION
 VERS.                 2.0:   CWLS LOG ASCII STANDARD -VERSION 2.0
 WRAP.                  NO:   ONE LINE PER DEPTH STEP
~WELL INFORMATION BLOCK
#MNEM.UNIT           DATA                    DESCRIPTION OF MNEMONIC
#---------    -------------------            -------------------------------
# Generated from Intellog Unique Number	CC_84_87/WELL/1059
NULL.         -999.25                        : NULL_VALUE
WELL.         PCI PCEJ HANGST OV             : Well_name    - WELL              
LOC .         05-13-084-11W4                 : Location     - LOCATION          
UWI .         AA/05-13-084-11W400            : Uwi          - UNIQUE WELL ID    
ENTR.         DW                             : Entered      - ENTERED BY        
SRVC.         SCHLUMBERGER                   : Scn          - SERVICE COMPANY   
DATE.         30 JAN 84                      : Date         - LOG DATE
STRT.M        135                            : top_depth    - START DEPTH       
STOP.M        379.796                        : bot_depth    - STOP DEPTH        
STEP.M        0.3                            : increment    - STEP LENGTH       
~CURVE INFORMATION BLOCK
#MNEM UNIT       ERCB CURVE CODE    CURVE DESCRIPTION
#-----------   ------------------   ----------------------------------
DEPT.M        00 001 00 00         : DEPTH        - DEPTH                       
DPHI.V/V      00 890 00 00         : PHID         - DENSITY POROSITY (LIMESTONE)
NPHI.V/V      00 330 00 00         : PHIN         - NEUTRON POROSITY (LIMESTONE)
GR  .API      00 310 00 00         : GR           - GAMMA RAY                   
ILD .OHMM     00 120 00 00         : RESD         - DEEP RESISTIVITY (DIL)      
~PARAMETER INFORMATION       
#MNEM.UNIT           DATA             DESCRIPTION OF MNEMONIC
#---------         -----------     ------------------------------
GL  .M        615.3                : gl           - GROUND LEVEL ELEVATION      
EREF.M        618.5                : kb           - ELEVATION OF DEPTH REFERENCE
DATM.M        618.5                : datum        - DATUM ELEVATION             
TDD .M        388                  : tdd          - TOTAL DEPTH DRILLER         
RUN .         ONE                  : Run          - RUN NUMBER                  
ENG .         BILL                 : Engineer     - RECORDING ENGINEER          
WIT .         JIM                  : Witness      - WITNESSED BY                
MUD .         GEL                  : Mud_type     - MUD TYPE                    
MATR.         LIMESTONE            : Logunit      - NEUTRON MATRIX              
TMAX.C        19.4                 : BHT          - MAXIMUM RECORDED TEMPERATURE
BHTD.M        388                  : BHTDEP       - MAXIMUM RECORDED TEMPERATURE
MATR.         1                    : LOGUNIT      - NEUTRON MATRIX              
RMT .C        25                   : MDTP         - TEMPERATURE OF MUD          
NEUT.         1                    : NEUTRON      - NEUTRON TYPE                
RESI.         0                    : RESIST       - RESISTIVITY TYPE            
RMC .OHMM     0.25                 : RMC          - RESISTIVITY OF MUD CAKE     
RMF .OHMM     0.25                 : RMF          - RESISTIVITY OF MUD FILTRATE 
SUFT.C        4                    : SUFT         - SURFACE TEMPERATURE         
~A  DEPTH     PHID     PHIN       GR     RESD
# ...
  187.201    0.227    0.446  126.276   10.927
  187.501    0.235    0.476  112.303    8.251
  187.801    0.242    0.397  101.972    9.764
  188.101    0.231    0.402   95.885   11.772
  188.401    0.245    0.430   88.585   14.462
  188.701    0.272    0.414   84.314   18.445
  189.001    0.239    0.416   98.240   18.790
  189.301    0.259    0.436  103.066   18.439
  189.601    0.282    0.420   98.798   17.760
  189.901    0.283    0.371   83.008   17.427
  190.201    0.248    0.367   78.741   17.102
  190.501    0.195    0.373   80.536   14.721
  190.801    0.199    0.407   86.575   13.657
  191.101    0.221    0.433   89.585   13.402
  191.401    0.242    0.406   88.955   14.174
  191.701    0.270    0.408   76.195   15.275
  192.001    0.254    0.417   70.715   14.438
  192.301    0.208    0.428   72.509   13.395
  192.601    0.195    0.411   68.848   14.434
  192.901    0.147    0.356   57.909   16.453
  193.201    0.202    0.374   50.003   20.213
  193.501    0.267    0.393   49.373   20.981
  193.801    0.267    0.382   61.479   15.549
  194.101    0.230    0.378   69.338   13.136
  194.401    0.212    0.421   79.623   11.738
  194.701    0.223    0.436   91.120    9.552
  195.001    0.000    0.444   85.639   10.686
  195.301    0.097    0.289   58.326   13.630
  195.601    0.199    0.327   60.123   16.129
  195.901    0.260    0.409   72.835   16.126
  196.201    0.294    0.407   76.443   13.881
  196.501    0.302    0.396   78.239   12.404
  196.801    0.297    0.399   81.858   11.508
  197.101    0.233    0.443   89.113   10.093
  197.401    0.242    0.437  101.216    8.527
  197.701    0.231    0.443  112.108    7.070
  198.001    0.209    0.451  112.686    6.318
  198.301    0.197    0.450  112.669    5.972
  198.601    0.198    0.455  111.432    5.752
  198.901    0.277    0.478  104.739    5.970
  199.201    0.343    0.379   90.768    6.934
  199.501    0.352    0.359   79.827   26.690
  199.801    0.262    0.406   76.164   34.683
  200.101    0.000    0.170   67.047   40.281
  200.401    0.052    0.210   53.681   38.795
  200.701    0.165    0.321   57.904   30.411
  201.001    0.241    0.395   88.201   21.708
  201.301    0.236    0.432  101.517   13.092
  201.601    0.238    0.453  106.341    8.046
  201.901    0.225    0.443  102.681    7.464
  202.201    0.235    0.439   95.382    8.196
  202.501    0.294    0.405   91.722   10.453
  202.801    0.272    0.397  101.400   11.694
  203.101    0.252    0.411  100.770   11.913
  203.401    0.277    0.474   97.106   11.473
  203.701    0.304    0.441   94.659   11.259
  204.001    0.292    0.433   96.455   11.687
  204.301    0.293    0.434   92.793   12.132
  204.601    0.303    0.434   95.193   12.831
  204.901    0.282    0.438   96.986   13.071
  205.201    0.288    0.446   94.537   13.824
  205.501    0.282    0.442   91.486   14.350
  205.801    0.239    0.428   89.037   13.821
  206.101    0.243    0.414   86.588   13.818
  206.401    0.277    0.439   82.925   14.615
  206.701    0.318    0.485   78.051   15.170
  207.001    0.332    0.489   56.803   16.045
  207.301    0.341    0.410   42.225   18.634
  207.601    0.339    0.379   39.775   21.241
  207.901    0.327    0.377   46.422   21.639
  208.201    0.305    0.372   56.101   20.840
  208.501    0.300    0.406   63.353   20.451
  208.801    0.303    0.468   62.723   20.449
  209.101    0.327    0.460   50.571   21.226
  209.401    0.326    0.384   48.726   22.873
  209.701    0.324    0.374   49.314   22.871
  210.001    0.317    0.362   43.830   22.868
  210.301    0.304    0.367   45.021   22.440
  210.601    0.306    0.408   58.338   22.021
  210.901    0.287    0.414   60.131   22.018
  211.201    0.292    0.405   56.473   22.015
  211.501    0.311    0.387   49.775   22.428
  211.801    0.304    0.387   50.962   21.200
  212.101    0.316    0.396   55.188   20.039
  212.401    0.315    0.408   61.837   19.300
  212.701    0.264    0.418   65.447   18.940
  213.001    0.286    0.413   63.002   18.586
  213.301    0.300    0.408   64.797   17.242
  213.601    0.305    0.406   73.869   16.299
  213.901    0.302    0.401   85.365   14.295
  214.201    0.253    0.398   93.228   11.633
  214.501    0.237    0.431  108.970    8.304
  214.801    0.229    0.450  106.518    7.148
  215.101    0.213    0.457  101.641    7.147
  215.401    0.212    0.474  105.866    7.701
  215.701    0.230    0.487  108.262    7.846
  216.001    0.198    0.481  105.212    7.699
  216.301    0.203    0.476  107.007    7.416
  216.601    0.198    0.476  109.411    6.880
  216.901    0.189    0.467  108.780    6.382
  217.201    0.191    0.449  105.723    6.263
  217.501    0.191    0.449  105.097    6.262
  217.801    0.173    0.462  108.710    6.379
  218.101    0.169    0.467  109.294    6.379
  218.401    0.170    0.474  111.696    6.260
  218.701    0.184    0.504  116.522    5.917
  219.001    0.211    0.507  116.498    5.806
  219.301    0.220    0.492  120.114    5.592
  219.601    0.180    0.486  121.303    5.488
  219.901    0.201    0.477  118.853    5.591
  220.201    0.214    0.458  112.160    5.590
  220.501    0.216    0.447  102.436    5.589
  220.801    0.230    0.457   98.167    5.588
  221.101    0.233    0.491  104.206    5.588
  221.401    0.242    0.491  105.999    5.483
  221.701    0.259    0.459  101.732    5.183
  222.001    0.220    0.467  107.167    4.808
  222.301    0.215    0.541  107.144    4.545
  222.601    0.273    0.554   96.813    4.545
  222.901    0.274    0.519   91.938    4.630
  223.201    0.300    0.490   79.178    4.897
  223.501    0.297    0.430   69.454    7.120
  223.801    0.235    0.411   70.643    8.269
  224.101    0.265    0.478   76.077    8.745
  224.401    0.237    0.454   60.287    9.783
  224.701    0.118    0.273   46.923   10.945
  225.001    0.230    0.329   43.261   16.215
  225.301    0.262    0.407   54.758   21.874
  225.601    0.312    0.427   58.374   21.465
  225.901    0.305    0.445   63.807   18.826
  226.201    0.312    0.437   61.357   17.465
  226.501    0.310    0.436   55.267   16.820
  226.801    0.317    0.428   55.247   16.819
  227.101    0.317    0.411   59.467   17.134
  227.401    0.305    0.431   58.838   17.456
  227.701    0.303    0.436   60.634   17.783
  228.001    0.308    0.420   56.972   17.451
  228.301    0.297    0.418   58.160   17.125
  228.601    0.303    0.440   60.563   17.123
  228.901    0.300    0.462   59.932   18.110
  229.201    0.275    0.446   55.664   23.533
  229.501    0.154    0.227   49.573   28.910
  229.801    0.000    0.117   46.517   36.872
  230.101    0.004    0.121   46.498   38.274
  230.401    0.078    0.211   50.113   32.945
  230.701    0.138    0.282   56.759   29.441
  231.001    0.274    0.370   62.800   24.872
  231.301    0.296    0.419   63.986   19.135
  231.601    0.294    0.418   66.392   15.572
  231.901    0.261    0.415   72.430   12.437
  232.201    0.259    0.426   86.355    9.933
  232.501    0.270    0.476   85.726    7.642
  232.801    0.261    0.482   82.064    6.336
  233.101    0.256    0.471   79.007    6.218
  233.401    0.262    0.462   81.411    6.576
  233.701    0.284    0.477   82.598    7.496
  234.001    0.269    0.481   77.117    8.544
  234.301    0.236    0.454   71.636    9.208
  234.601    0.265    0.413   65.550    9.557
  234.901    0.270    0.432   63.705    8.866
  235.201    0.253    0.449   64.896    8.701
  235.501    0.254    0.477   75.181    8.538
  235.801    0.270    0.479   74.549    8.537
  236.101    0.282    0.445   70.283    8.862
  236.401    0.287    0.465   74.504    9.372
  236.701    0.310    0.465   73.875    9.548
  237.001    0.292    0.440   73.244    9.547
  237.301    0.252    0.431   76.859    9.195
  237.601    0.261    0.444   84.718    8.530
  237.901    0.270    0.472   86.513    8.063
  238.201    0.257    0.433   85.272    7.622
  238.501    0.251    0.424   82.220    7.341
  238.801    0.254    0.432   78.558    7.478
  239.101    0.282    0.413   79.143    7.339
