~VERSION INFORMATION
 VERS.                 2.0:   CWLS LOG ASCII STANDARD -VERSION 2.0
 WRAP.                  NO:   ONE LINE PER DEPTH STEP
~WELL INFORMATION BLOCK
#MNEM.UNIT           DATA                    DESCRIPTION OF MNEMONIC
#---------    -------------------            -------------------------------
# Generated from Intellog Unique Number	CN_91_93/WELL/2850
WELL.         04-04-092-10W4                 : Well_name    - WELL
LOC .         AA/04-04-092-10W4/0            : Location     - LOCATION
UWI .         AA/04-04-092-10W400            : Uwi          - UNIQUE WELL ID
ENTR.         JOETTE                         : Entered      - ENTERED BY
SRVC.         COMPUTALOG                     : Scn          - SERVICE COMPANY
DATE.         03\27\92                       : Date         - LOG DATE
STRT.M        0                              : top_depth    - START DEPTH
STOP.M        77                             : bot_depth    - STOP DEPTH
STEP.M        0.25                           : increment    - STEP LENGTH
 NULL. -999.2500:NULL Value
~CURVE INFORMATION BLOCK
#MNEM UNIT       ERCB CURVE CODE    CURVE DESCRIPTION
#-----------   ------------------   ----------------------------------
DEPT.M        00 001 00 00         : DEPTH        - DEPTH
CALI.MM       00 280 01 00         : CAL          - CALIPER
GR  .API      00 310 00 00         : GR           - GAMMA RAY
NPHI.V/V      00 330 00 00         : PHIN         - NEUTRON POROSITY (SANDSTONE)
ILD .OHMM     00 120 00 00         : RESD         - DEEP RESISTIVITY (DIL)
DPHI.V/V      00 890 00 00         : PHID         - DENSITY POROSITY (SANDSTONE)
~PARAMETER INFORMATION
#MNEM.UNIT           DATA             DESCRIPTION OF MNEMONIC
#---------         -----------     ------------------------------
GL  .M        320                  : gl           - GROUND LEVEL ELEVATION
EREF.M        320                  : kb           - ELEVATION OF DEPTH REFERENCE
DATM.M        320                  : datum        - DATUM ELEVATION
TDD .M        77.8                 : tdd          - TOTAL DEPTH DRILLER
RUN .         ONE                  : Run          - RUN NUMBER
ENG .         JO                   : Engineer     - RECORDING ENGINEER
WIT .         TIM                  : Witness      - WITNESSED BY
MUD .         GEL                  : Mud_type     - MUD TYPE
MATR.         SANDSTONE            : Logunit      - NEUTRON MATRIX
TMAX.C        15                   : BHT          - MAXIMUM RECORDED TEMPERATURE
BHTD.M        77.8                 : BHTDEP       - MAXIMUM RECORDED TEMPERATURE
RMT .C        14                   : MDTP         - TEMPERATURE OF MUD
MUDD.KG/M     9000                 : MWT          - MUD DENSITY
NEUT.         1                    : NEUTRON      - NEUTRON TYPE
RESI.         0                    : RESIST       - RESISTIVITY TYPE
RM  .OHMM     7.1                  : RM           - RESISTIVITY OF MUD
RMC .OHMM     7.1                  : RMC          - RESISTIVITY OF MUD CAKE
RMF .OHMM     7.1                  : RMF          - RESISTIVITY OF MUD FILTRATE
SUFT.C        4                    : SUFT         - SURFACE TEMPERATURE
~A  DEPTH      CAL       GR     PHIN     RESD     PHID
    0.000  153.642   59.027    0.276    5.858    0.234
    0.250  152.771   60.553    0.280    5.293    0.237
    0.500  151.294   58.783    0.288    4.827    0.234
    0.750  148.026   55.815    0.298    4.612    0.205
    1.000  144.156   67.230    0.339    4.488    0.188
    1.250  136.394   59.166    0.378    4.408    0.165
    1.500  132.231   63.088    0.525    4.370    0.139
    1.750  131.057   64.314    0.629    4.332    0.053
    2.000  131.687   71.834    0.598    4.217    0.016
    2.250  133.816   68.570    0.610    4.141   -0.009
    2.500  136.832   77.885    0.533    3.639   -0.021
    2.750  141.057   62.930    0.484    3.676   -0.026
    3.000  144.384   91.421    0.473    3.782   -0.030
    3.250  146.505  103.735    0.512    4.270   -0.027
    3.500  140.242   81.587    0.554    4.273   -0.014
    3.750  133.382   73.226    0.572    3.969   -0.003
    4.000  133.407   79.545    0.542    2.766    0.007
    4.250  132.839   80.775    0.512    1.330    0.008
    4.500  131.368   76.911    0.607    1.433    0.004
    4.750  130.494   79.032    0.648    1.860   -0.003
    5.000  130.222   72.466    0.670    1.878   -0.010
    5.250  130.256   72.493    0.603    1.532   -0.010
    5.500  130.277   86.904    0.538    1.934   -0.001
    5.750  130.305   81.240    0.638    2.463    0.126
    6.000  131.534  102.841    0.747    1.901    0.217
    6.250  144.144  128.036    0.666    7.302    0.316
    6.500  145.074  114.280    0.551    9.130    0.263
    6.750  144.203  109.814    0.568   11.957    0.251
    7.000  141.831  114.036    0.619    9.576    0.283
    7.250  134.968  108.671    0.675    8.261    0.324
    7.500  135.598  117.390    0.701    8.343    0.336
    7.750  136.228  104.233    0.717    8.504    0.312
    8.000  135.350  107.256    0.637    9.081    0.310
    8.250  136.876   94.402    0.554    8.837    0.306
    8.500  139.001  109.712    0.600   10.646    0.298
    8.750  140.530  116.929    0.631   10.459    0.243
    9.000  139.955  110.965    0.568    9.450    0.216
    9.250  136.990  108.596    0.605    9.722    0.270
    9.500  137.021  124.502    0.609   12.268    0.329
    9.750  137.645  122.732    0.516    7.168    0.336
   10.000  138.268  126.957    0.575    6.299    0.315
   10.250  138.895  113.800    0.552    5.961    0.323
   10.500  138.323  124.616    0.579    6.426    0.328
   10.750  138.055  124.344    0.691    6.311    0.317
   11.000  138.678  122.873    0.714    5.703    0.304
   11.250  139.012  128.294    0.623    5.499    0.300
   11.500  138.740  124.726    0.582    5.553    0.296
   11.750  138.465  133.142    0.642    5.505    0.298
   12.000  138.193  118.191    0.576    5.561    0.301
   12.250  137.322  133.797    0.575    5.564    0.307
   12.500  136.754  133.525    0.621    5.672    0.306
   12.750  137.980  123.067    0.674    6.403    0.303
   13.000  137.408  123.095    0.664    7.162    0.298
   13.250  137.143  129.414    0.582    6.471    0.284
   13.500  136.861  133.043    0.583    5.957    0.269
   13.750  136.596  106.105    0.571    6.420    0.217
   14.000  136.620  101.636    0.610    6.919    0.172
   14.250  136.645  120.237    0.640   10.035    0.203
   14.500  136.972  113.075    0.623    7.744    0.232
   14.750  137.902  120.592    0.576    5.600    0.250
   15.000  138.529  128.113    0.539    6.501    0.170
   15.250  137.957  107.766    0.439    7.905    0.140
   15.500  136.786  100.603    0.491   12.234    0.155
   15.750  137.114  114.116    0.550   14.466    0.191
   16.000  138.043  106.351    0.518   11.163    0.224
   16.250  137.768  103.083    0.485   10.088    0.241
   16.500  136.597  111.798    0.480   10.975    0.236
   16.750  134.228  107.332    0.476   10.779    0.206
   17.000  135.461  117.250    0.434   10.588    0.176
   17.250  135.486   90.312    0.446   10.894    0.190
   17.500  134.611  116.406    0.475   17.495    0.215
   17.750  133.447  119.430    0.510   11.639    0.237
   18.000  134.067  104.478    0.511   10.230    0.234
   18.250  135.593  121.582    0.520   10.622    0.240
   18.500  137.118  120.112    0.540   10.827    0.253
   18.750  138.348  122.536    0.505   10.935    0.271
   19.000  138.672  135.749    0.518   11.357    0.275
   19.250  138.407  115.402    0.547   12.127    0.277
   19.500  136.933   86.067    0.456    9.803    0.278
   19.750  134.860   75.909    0.408   15.599    0.284
   20.000  133.992   82.827    0.426   18.966    0.287
   20.250  134.320   79.260    0.420   18.979    0.293
   20.500  134.344   74.498    0.465   16.990    0.296
   20.750  133.772   80.513    0.466   14.256    0.292
   21.000  131.710   85.641    0.414   13.366    0.290
   21.250  130.832   74.581    0.407   14.541    0.293
   21.500  130.860   80.600    0.425   12.312    0.296
   21.750  133.590   82.728    0.434   19.959    0.298
   22.000  133.918   75.859    0.403   13.034    0.299
   22.250  134.248   67.797    0.393   18.384    0.302
   22.500  135.168   79.512    0.430   22.985    0.310
   22.750  136.700   98.413    0.468   24.094    0.319
   23.000  135.526  103.238    0.476   24.336    0.339
   23.250  133.157   97.876    0.444   23.244    0.358
   23.500  133.484   78.424    0.429   30.723    0.369
   23.750  134.710   97.329    0.469   58.859    0.286
   24.000  135.933  114.732    0.500   52.696    0.278
   24.250  137.159  104.574    0.474   29.940    0.291
   24.500  136.587  100.408    0.452   29.683    0.305
   24.750  135.424   97.443    0.433   35.758    0.301
   25.000  134.249   93.573    0.418   47.704    0.291
   25.250  135.176   95.398    0.450   73.829    0.274
   25.500  135.204   95.426    0.461   69.232    0.264
   25.750  134.332  109.833    0.460   45.633    0.250
   26.000  135.562  111.662    0.483   35.874    0.238
   26.250  135.590  106.896    0.487   34.589    0.231
   26.500  134.718  119.806    0.453   27.194    0.223
   26.750  134.443  112.344    0.485   20.222    0.217
   27.000  134.770  123.456    0.495   19.499    0.215
   27.250  136.296  134.275    0.488   22.216    0.225
   27.500  136.923  136.396    0.472   15.920    0.241
   27.750  137.553  132.530    0.480   15.637    0.259
   28.000  137.577  108.288    0.461   17.982    0.272
   28.250  134.909  105.020    0.420   22.904    0.286
   28.500  131.045   83.175    0.395   26.098    0.307
   28.750  129.572   80.806    0.376   54.351    0.319
   29.000  131.700  102.407    0.374   66.701    0.315
   29.250  134.727  106.629    0.397   84.166    0.316
   29.500  134.448  100.365    0.443   97.705    0.316
   29.750  133.880  109.084    0.448   68.716    0.309
   30.000  134.207  101.319    0.415   56.071    0.304
   30.250  134.534  101.950    0.433   53.564    0.297
   30.500  135.767  105.269    0.476   52.609    0.301
   30.750  136.387  105.596    0.437   46.231    0.304
   31.000  134.022   85.852    0.408   35.678    0.299
   31.250  131.949   87.677    0.389  102.808    0.285
   31.500  132.276   89.203    0.358   91.194    0.283
   31.750  133.202  116.495    0.394  133.486    0.284
   32.000  133.530  100.945    0.439   83.991    0.294
   32.250  134.762  100.973    0.448   40.012    0.297
   32.500  135.382   87.220    0.426   54.886    0.306
   32.750  135.716   79.159    0.409   54.921    0.314
   33.000  135.438   78.284    0.401  103.283    0.317
   33.250  134.570   83.105    0.398  156.909    0.309
   33.500  133.396   92.427    0.391   96.914    0.290
   33.750  132.828   93.649    0.384   65.682    0.268
   34.000  133.751  108.656    0.380   33.698    0.253
   34.250  134.082  107.186    0.360   24.373    0.231
   34.500  132.611  131.486    0.345   25.309    0.227
   34.750  131.437  117.433    0.389   15.633    0.237
   35.000  131.169  123.150    0.427   14.659    0.251
   35.250  134.192  100.705    0.414   22.269    0.264
   35.500  131.830  111.222    0.393   17.509    0.213
   35.750  131.262  124.431    0.385   18.869    0.192
   36.000  131.579  110.978    0.408   23.811    0.199
   36.250  131.906  108.908    0.426   16.137    0.211
