~VERSION INFORMATION
 VERS.                 2.0:   CWLS LOG ASCII STANDARD -VERSION 2.0
 WRAP.                  NO:   ONE LINE PER DEPTH STEP
~WELL INFORMATION BLOCK
#MNEM.UNIT           DATA                    DESCRIPTION OF MNEMONIC
#---------    -------------------            -------------------------------
# Generated from Intellog Unique Number	CN_94_101/WELL/2375
WELL.         02-01-098-11W4                 : Well_name    - WELL
LOC .         AA/02-01-098-11W4/0            : Location     - LOCATION
UWI .         AA/02-01-098-11W400            : Uwi          - UNIQUE WELL ID
ENTR.         TIM                            : Entered      - ENTERED BY
SRVC.         SCHLUMBERGER                   : Scn          - SERVICE COMPANY
DATE.         08/11/92                       : Date         - LOG DATE
STRT.M        0                              : top_depth    - START DEPTH
STOP.M        70                             : bot_depth    - STOP DEPTH
STEP.M        0.25                           : increment    - STEP LENGTH
 NULL. -999.2500:NULL Value
~CURVE INFORMATION BLOCK
#MNEM UNIT       ERCB CURVE CODE    CURVE DESCRIPTION
#-----------   ------------------   ----------------------------------
DEPT.M        00 001 00 00         : DEPTH        - DEPTH
NPHI.V/V      00 330 00 00         : PHIN         - NEUTRON POROSITY (SANDSTONE)
DPHI.V/V      00 890 00 00         : PHID         - DENSITY POROSITY (SANDSTONE)
ILD .OHMM     00 120 00 00         : RESD         - DEEP RESISTIVITY (DIL)
GR  .API      00 310 00 00         : GR           - GAMMA RAY
~PARAMETER INFORMATION
#MNEM.UNIT           DATA             DESCRIPTION OF MNEMONIC
#---------         -----------     ------------------------------
GL  .M        276.5                : gl           - GROUND LEVEL ELEVATION
EREF.M        276.5                : kb           - ELEVATION OF DEPTH REFERENCE
DATM.M        276.5                : datum        - DATUM ELEVATION
TDD .M        71.3                 : tdd          - TOTAL DEPTH DRILLER
RUN .         ONE                  : Run          - RUN NUMBER
ENG .         JO                   : Engineer     - RECORDING ENGINEER
WIT .         TIM                  : Witness      - WITNESSED BY
MUD .         GEL                  : Mud_type     - MUD TYPE
MATR.         SANDSTONE            : Logunit      - NEUTRON MATRIX
TMAX.C        10                   : BHT          - MAXIMUM RECORDED TEMPERATURE
BHTD.M        71.3                 : BHTDEP       - MAXIMUM RECORDED TEMPERATURE
RMT .C        10                   : MDTP         - TEMPERATURE OF MUD
MUDD.KG/M     1000                 : MWT          - MUD DENSITY
NEUT.         1                    : NEUTRON      - NEUTRON TYPE
RESI.         0                    : RESIST       - RESISTIVITY TYPE
RM  .OHMM     13.8                 : RM           - RESISTIVITY OF MUD
RMC .OHMM     13.8                 : RMC          - RESISTIVITY OF MUD CAKE
RMF .OHMM     13.8                 : RMF          - RESISTIVITY OF MUD FILTRATE
SUFT.C        4                    : SUFT         - SURFACE TEMPERATURE
~A  DEPTH     PHIN     PHID     RESD       GR
# ...
   43.500    0.575    0.379  167.773   44.697
   43.750    0.576    0.375  183.065   41.667
   44.000    0.561    0.383  186.043   44.183
   44.250    0.552    0.391  197.404   55.965
   44.500    0.554    0.398  186.758   56.632
   44.750    0.549    0.412  153.341   51.741
   45.000    0.541    0.407  120.646   51.804
   45.250    0.546    0.412  106.307   56.797
   45.500    0.566    0.417  131.959   56.822
   45.750    0.582    0.409  154.522   56.873
   46.000    0.573    0.383  166.386   60.004
   46.250    0.554    0.391  169.092   73.623
   46.500    0.554    0.395  166.945   67.512
   46.750    0.559    0.373  158.018   59.553
   47.000    0.572    0.402  141.230   56.510
   47.250    0.564    0.413   84.770   63.967
   47.500    0.574    0.408   97.910   65.250
   47.750    0.581    0.383   92.675   59.769
   48.000    0.603    0.378   59.724   62.887
   48.250    0.616    0.379   46.327   69.099
   48.500    0.617    0.346   40.283   66.686
   48.750    0.581    0.348   41.524   64.272
   49.000    0.579    0.349   39.867   69.868
   49.250    0.586    0.344   37.717   77.941
   49.500    0.576    0.338   32.302   84.782
   49.750    0.578    0.334   28.490   82.355
   50.000    0.585    0.332   31.087   78.709
   50.250    0.596    0.327   32.045   71.982
   50.500    0.604    0.324   30.766   71.429
   50.750    0.587    0.335   30.390   75.177
   51.000    0.594    0.344   30.033   75.844
   51.250    0.599    0.359   29.637   75.894
   51.500    0.585    0.364   29.275   75.933
   51.750    0.590    0.300   29.359   74.751
   52.000    0.579    0.336   29.822   74.802
   52.250    0.572    0.350   30.307   73.017
   52.500    0.582    0.346   30.800   70.590
   52.750    0.587    0.350   36.601   68.792
   53.000    0.578    0.375   37.196   63.310
   53.250    0.567    0.391   37.286   60.884
   53.500    0.566    0.385   36.812   66.480
   53.750    0.563    0.377   32.917   78.250
   54.000    0.560    0.370   32.071   73.988
   54.250    0.563    0.339   31.232   69.713
   54.500    0.566    0.333   29.547   67.915
   54.750    0.567    0.331   26.421   76.604
   55.000    0.567    0.325   23.303   80.968
   55.250    0.565    0.314   21.735   90.877
   55.500    0.575    0.298   20.867   93.405
   55.750    0.591    0.273   20.612   89.746
   56.000    0.585    0.274   20.652   80.555
   56.250    0.576    0.284   21.902   77.525
   56.500    0.572    0.294   22.912   81.272
   56.750    0.578    0.304   23.956   87.497
   57.000    0.583    0.316   31.003   86.931
   57.250    0.566    0.314   39.557   82.669
   57.500    0.553    0.306   57.388   78.407
   57.750    0.550    0.303   77.579   74.748
   58.000    0.574    0.317   59.298   73.567
   58.250    0.609    0.343   54.527   71.153
   58.500    0.648    0.370   36.689   67.507
   58.750    0.698    0.416   28.445   65.105
   59.000    0.772    0.473   27.310   63.295
   59.250    0.787    0.482   33.867   61.497
   59.500    0.618    0.437   44.478   69.570
   59.750    0.499    0.311   42.703   74.563
   60.000    0.449    0.210   36.590   74.614
   60.250    0.464    0.208   30.910   74.652
   60.500    0.457    0.234   25.730   75.331
   60.750    0.459    0.255   22.047   78.450
   61.000    0.487    0.275   19.714   84.046
   61.250    0.500    0.260   18.145   95.816
   61.500    0.525    0.258   17.413  106.341
   61.750    0.560    0.276   15.563  112.553
   62.000    0.601    0.298   13.916  112.629
   62.250    0.672    0.319   13.558  108.341
   62.500    0.719    0.315   14.578   99.766
   62.750    0.706    0.314   15.690   85.646
   63.000    0.667    0.321   16.878   77.070
   63.250    0.651    0.328   17.407   73.412
   63.500    0.643    0.335   17.944   71.639
   63.750    0.583    0.344   17.969   69.829
   64.000    0.554    0.337   18.262   67.403
   64.250    0.523    0.323   18.297   60.059
   64.500    0.535    0.303   18.870   57.029
   64.750    0.565    0.305   19.461   57.080
   65.000    0.586    0.320   20.041   57.747
   65.250    0.613    0.343   21.899   54.101
   65.500    0.572    0.304   23.547   41.213
   65.750    0.590    0.333   26.049   39.428
   66.000    0.612    0.372   32.319   40.711
   66.250    0.410    0.387   28.089   41.378
   66.500    0.392    0.394   24.401   42.661
   66.750    0.379    0.398   21.521   43.315
   67.000    0.377    0.386   32.108   44.598
   67.250    0.374    0.092   49.307   47.113
   67.500    0.370    0.063   51.555   50.257
   67.750    0.366    0.067   55.460   49.692
   68.000    0.366    0.079   64.088   50.358
   68.250    0.367    0.090   55.673   52.283
   68.500    0.371    0.091   38.033   52.308
   68.750    0.373    0.090   37.532   51.139
   69.000    0.378    0.089   37.091   47.480
   69.250    0.383    0.089   36.638   43.231
   69.500    0.386    0.090   35.679   42.037
   69.750    0.389    0.099   33.755   40.868
   70.000    0.394    0.107   32.871   40.302
