~VERSION INFORMATION
 VERS.                 2.0:   CWLS LOG ASCII STANDARD -VERSION 2.0
 WRAP.                  NO:   ONE LINE PER DEPTH STEP
~WELL INFORMATION BLOCK
#MNEM.UNIT           DATA                    DESCRIPTION OF MNEMONIC
#---------    -------------------            -------------------------------
# Generated from Intellog Unique Number	CX_WELLS/WELL/3969
WELL.         CANSTAR                        : Well_name    - WELL
LOC .         AA/07-24-098-12W4/0            : Location     - LOCATION
UWI .         AA/07-24-098-12W400            : Uwi          - UNIQUE WELL ID
ENTR.         T                              : Entered      - ENTERED BY
SRVC.         SCHLUMBERGER                   : Scn          - SERVICE COMPANY
STRT.F        0                              : top_depth    - START DEPTH
STOP.F        419.948                        : bot_depth    - STOP DEPTH
STEP.F        0.82021                        : increment    - STEP LENGTH
 NULL. -999.2500:NULL Value
~CURVE INFORMATION BLOCK
#MNEM UNIT       ERCB CURVE CODE    CURVE DESCRIPTION
#-----------   ------------------   ----------------------------------
DEPT.F        00 001 00 00         : DEPTH        - DEPTH
GR  .API      00 310 00 00         : GR           - GAMMA RAY
NPHI.V/V      00 330 00 00         : PHIN         - NEUTRON POROSITY (SANDSTONE)
DPHI.V/V      00 890 00 00         : PHID         - DENSITY POROSITY (SANDSTONE)
ILD .OHMM     00 120 00 00         : RESD         - DEEP RESISTIVITY (DIL)
~PARAMETER INFORMATION
#MNEM.UNIT           DATA             DESCRIPTION OF MNEMONIC
#---------         -----------     ------------------------------
GL  .F        1163.7               : gl           - GROUND LEVEL ELEVATION
EREF.F        1163.7               : kb           - ELEVATION OF DEPTH REFERENCE
DATM.F        1163.7               : datum        - DATUM ELEVATION
TDD .F        426                  : tdd          - TOTAL DEPTH DRILLER
RUN .         ONE                  : Run          - RUN NUMBER
ENG .         BILL                 : Engineer     - RECORDING ENGINEER
WIT .         JIM                  : Witness      - WITNESSED BY
MUD .         GEL                  : Mud_type     - MUD TYPE
MATR.         SANDSTONE            : Logunit      - NEUTRON MATRIX
TMAX.F        66.2                 : BHT          - MAXIMUM RECORDED TEMPERATURE
BHTD.F        426                  : BHTDEP       - MAXIMUM RECORDED TEMPERATURE
MATR.         1                    : LOGUNIT      - NEUTRON MATRIX
RMT .F        62.6                 : MDTP         - TEMPERATURE OF MUD
NEUT.         1                    : NEUTRON      - NEUTRON TYPE
RESI.         4                    : RESIST       - RESISTIVITY TYPE
RMC .OHMM     6.36                 : RMC          - RESISTIVITY OF MUD CAKE
RMF .OHMM     6.36                 : RMF          - RESISTIVITY OF MUD FILTRATE
SUFT.F        39.2                 : SUFT         - SURFACE TEMPERATURE
~A  DEPTH       GR     PHIN     PHID     RESD
# ...
  142.717   93.361    0.397    0.247    6.938
  143.537   95.456    0.401    0.246    5.785
  144.357   96.504    0.409    0.242    5.789
  145.177   97.037    0.417    0.244    6.032
  145.997   97.566    0.419    0.250    6.284
  146.818   98.097    0.418    0.253    6.415
  147.638   98.110    0.417    0.248    6.821
  148.458   98.642    0.416    0.237    6.554
  149.278  100.219    0.416    0.245    5.808
  150.098  101.265    0.414    0.250    5.580
  150.919  103.883    0.415    0.258    5.148
  151.739  104.412    0.418    0.274    4.946
  152.559  105.984    0.420    0.277    4.752
  153.379  105.996    0.422    0.257    4.660
  154.199  104.448    0.424    0.247    4.757
  155.020  102.378    0.422    0.253    4.858
  155.840   99.270    0.421    0.262    5.602
  156.660   88.885    0.419    0.261    6.204
  157.480   86.817    0.419    0.301    6.206
  158.301   92.548    0.419    0.333    5.726
  159.121  101.401    0.423    0.333    4.584
  159.941  107.132    0.426    0.307    4.405
  160.761  108.707    0.427    0.297    4.497
  161.581  105.597    0.424    0.280    4.686
  162.402   99.370    0.423    0.281    4.689
  163.222   94.183    0.421    0.281    4.506
  164.042   94.196    0.420    0.280    4.328
  164.862   96.810    0.419    0.285    4.161
  165.682   98.379    0.419    0.289    4.162
  166.503  102.030    0.418    0.290    4.249
  167.323  105.682    0.417    0.290    4.427
  168.143  108.296    0.416    0.290    4.902
  168.963  107.268    0.413    0.284    5.318
  169.783  106.238    0.409    0.248    6.009
  170.604  103.134    0.407    0.198    6.520
  171.424  101.063    0.408    0.250    5.220
  172.244   97.956    0.411    0.303    3.554
  173.064   94.332    0.416    0.357    2.678
  173.885   92.261    0.424    0.361    2.059
  174.705   88.637    0.431    0.369    2.019
  175.525   86.047    0.437    0.390    2.020
  176.345   81.380    0.435    0.396    2.021
  177.165   76.716    0.434    0.363    2.023
  177.986   73.086    0.434    0.353    2.065
  178.806   70.502    0.434    0.352    2.151
  179.626   72.590    0.431    0.340    2.531
  180.446   82.480    0.431    0.330    3.230
  181.266   82.498    0.427    0.310    3.957
  182.087   80.948    0.417    0.294    4.752
  182.907   78.360    0.414    0.296    4.851
  183.727   74.736    0.411    0.298    4.568
  184.547   74.228    0.411    0.299    4.479
  185.367   73.201    0.412    0.299    4.763
  186.188   72.693    0.414    0.300    4.962
  187.008   73.742    0.417    0.283    5.606
  187.828   77.913    0.413    0.242    6.464
  188.648   75.849    0.406    0.209    7.764
  189.469   72.222    0.395    0.220    7.767
  190.289   73.793    0.385    0.240    7.023
  191.109   78.481    0.389    0.275    5.399
  191.929   83.692    0.404    0.300    4.501
  192.749   82.665    0.415    0.354    3.753
  193.570   83.717    0.426    0.363    3.534
  194.390   87.891    0.431    0.364    3.396
  195.210   89.980    0.431    0.372    3.397
  196.030   89.472    0.429    0.374    3.762
  196.850   88.444    0.428    0.310    4.165
  197.671   85.857    0.427    0.287    4.429
  198.491   82.749    0.422    0.288    4.256
  199.311   92.642    0.419    0.320    4.172
  200.131   93.174    0.422    0.344    4.527
  200.951   89.547    0.420    0.338    5.547
  201.772   85.923    0.416    0.332    6.796
  202.592   81.776    0.411    0.143    7.679
  203.412   80.746    0.404    0.178    6.534
  204.232   96.354    0.409    0.250    5.559
  205.052   95.850    0.416    0.309    4.635
  205.873   90.660    0.412    0.339    8.015
  206.693   59.478    0.164    0.351  157.705
  207.513   45.451    0.106    0.367  167.682
  208.333   25.707    0.097    0.367  209.636
  209.154   16.881    0.084    0.362  308.254
  209.974   13.774    0.086    0.369  409.590
  210.794   12.226    0.124    0.373  444.540
  211.614   12.238   -0.035    0.378  378.226
  212.434   14.853    0.042    0.381  268.122
  213.255   11.743    0.082    0.378  164.958
  214.075    9.675    0.089    0.368  114.607
  214.895   10.210    0.094    0.357   76.463
  215.715   11.779    0.105    0.342   51.014
  216.535   12.840    0.183    0.326   32.679
  217.356   13.886    0.220    0.312   22.705
  218.176   18.057    0.242    0.312   22.717
  218.996   20.148    0.276    0.313   32.077
  219.816   20.680    0.352    0.308   43.495
  220.636   19.133    0.367    0.302   58.977
  221.457   18.628    0.371    0.305   75.252
  222.277   20.200    0.371    0.312   97.986
  223.097   20.729    0.371    0.316  112.980
  223.917   21.261    0.373    0.316  127.657
  224.738   20.233    0.368    0.318  144.260
  225.558   22.845    0.364    0.319  147.295
  226.378   29.096    0.364    0.321  130.505
  227.198   25.471    0.368    0.322  120.445
  228.018   21.844    0.368    0.322  118.078
  228.839   19.774    0.364    0.314  111.176
  229.659   20.312    0.361    0.302  100.506
  230.479   21.358    0.362    0.290   64.383
  231.299   24.489    0.363    0.284   52.603
  232.119   32.822    0.364    0.278   43.858
  232.940   48.434    0.368    0.285   38.080
  233.760   50.526    0.376    0.285   34.439
  234.580   50.018    0.378    0.284   33.081
  235.400   50.550    0.377    0.278   30.526
  236.220   52.642    0.378    0.273   27.604
  237.041   52.654    0.378    0.268   26.515
  237.861   52.146    0.377    0.266   25.998
  238.681   51.635    0.377    0.266   28.786
  239.501   54.247    0.377    0.269   32.525
  240.322   59.978    0.376    0.274   39.065
  241.142   67.788    0.374    0.274   46.906
  241.962   70.926    0.374    0.275   52.991
  242.782   62.097    0.375    0.282   62.351
  243.602   59.506    0.378    0.288   70.451
  244.423   54.839    0.375    0.298   93.611
  245.243   51.732    0.372    0.303  112.401
  246.063   51.744    0.374    0.297  114.765
  246.883   53.845    0.376    0.283  110.268
  247.703   54.894    0.374    0.271  110.330
  248.524   56.469    0.371    0.236  106.007
  249.344   58.034    0.364    0.061   99.824
  250.164   62.206    0.350    0.091   92.091
  250.984   69.496    0.353    0.161   79.957
  251.804   75.750    0.359    0.214   66.665
  252.625   64.847    0.366    0.260   62.777
  253.445   61.734    0.371    0.288   65.400
  254.265   57.070    0.372    0.302   73.906
  255.085   56.043    0.371    0.305   85.204
  255.906   55.015    0.368    0.307  100.254
  256.726   52.950    0.366    0.304  100.310
  257.546   50.363    0.368    0.306  102.420
  258.366   48.809    0.366    0.308  120.527
  259.186   45.185    0.361    0.308  150.684
  260.007   45.714    0.357    0.305  245.227
  260.827   52.485    0.358    0.304  319.308
  261.647   56.136    0.361    0.304  326.025
  262.467   49.390    0.361    0.303  283.068
  263.287   45.243    0.358    0.301  188.856
  264.108   49.414    0.356    0.303  163.973
  264.928   53.069    0.356    0.301  139.532
  265.748   55.683    0.360    0.295  134.083
  266.568   56.735    0.364    0.290  131.430
  267.388   58.307    0.369    0.294  128.883
  268.209   60.921    0.371    0.294  126.350
  269.029   61.970    0.373    0.293  121.400
  269.849   63.542    0.375    0.288  105.404
  270.669   63.557    0.376    0.285   82.710
  271.490   63.046    0.376    0.284   86.167
  272.310   62.538    0.378    0.284   93.493
  273.130   63.590    0.379    0.287  101.457
  273.950   64.119    0.380    0.290  103.591
  274.770   65.691    0.381    0.292   89.942
  275.591   67.266    0.382    0.294   79.679
  276.411   68.318    0.382    0.291   75.022
  277.231   70.929    0.382    0.289   73.558
  278.051   73.538    0.382    0.282   70.675
  278.871   76.669    0.381    0.252   63.901
  279.692   81.886    0.381    0.238   51.162
  280.512   83.975    0.379    0.233   41.801
  281.332   83.987    0.377    0.229   34.852
  282.152   85.559    0.375    0.226   32.161
  282.972   87.131    0.372    0.223   34.896
  283.793   77.265    0.369    0.235   38.633
  284.613   72.598    0.365    0.280   46.387
