~VERSION INFORMATION
 VERS.                 2.0:   CWLS LOG ASCII STANDARD -VERSION 2.0
 WRAP.                  NO:   ONE LINE PER DEPTH STEP
~WELL INFORMATION BLOCK
#MNEM.UNIT           DATA                    DESCRIPTION OF MNEMONIC
#---------    -------------------            -------------------------------
# Generated from Intellog Unique Number	CN_94_101/WELL/3400
WELL.         03-30-095-11W4                 : Well_name    - WELL
LOC .         AA/03-30-095-11W4/0            : Location     - LOCATION
UWI .         AA/03-30-095-11W4/0            : Uwi          - UNIQUE WELL ID
ENTR.         J                              : Entered      - ENTERED BY
SRVC.         SCHLUMBERGER                   : Scn          - SERVICE COMPANY
DATE.         07/28/92                       : Date         - LOG DATE
STRT.F        10                             : top_depth    - START DEPTH
STOP.F        210.131                        : bot_depth    - STOP DEPTH
STEP.F        0.8202                         : increment    - STEP LENGTH
 NULL. -999.2500:NULL Value
~CURVE INFORMATION BLOCK
#MNEM UNIT       ERCB CURVE CODE    CURVE DESCRIPTION
#-----------   ------------------   ----------------------------------
DEPT.F        00 001 00 00         : DEPTH        - DEPTH
GR  .API      00 310 00 00         : GR           - GAMMA RAY
NPHI.V/V      00 330 00 00         : PHIN         - NEUTRON POROSITY (SANDSTONE)
ILD .OHMM     00 120 00 00         : RESD         - DEEP RESISTIVITY (DIL)
~PARAMETER INFORMATION
#MNEM.UNIT           DATA             DESCRIPTION OF MNEMONIC
#---------         -----------     ------------------------------
GL  .M        308.823              : gl           - GROUND LEVEL ELEVATION
EREF.M        310.347              : kb           - ELEVATION OF DEPTH REFERENCE
DATM.M        310.347              : datum        - DATUM ELEVATION
TDD .M        69.7992              : tdd          - TOTAL DEPTH DRILLER
RUN .         ONE                  : Run          - RUN NUMBER
ENG .         JO                   : Engineer     - RECORDING ENGINEER
WIT .         TIM                  : Witness      - WITNESSED BY
MUD .         GEL                  : Mud_type     - MUD TYPE
MATR.         SANDSTONE            : Logunit      - NEUTRON MATRIX
TMAX.F        50                   : BHT          - MAXIMUM RECORDED TEMPERATURE
BHTD.F        229                  : BHTDEP       - MAXIMUM RECORDED TEMPERATURE
RMT .F        50                   : MDTP         - TEMPERATURE OF MUD
MUDD.LB/G     1140                 : MWT          - MUD DENSITY
NEUT.         1                    : NEUTRON      - NEUTRON TYPE
RESI.         0                    : RESIST       - RESISTIVITY TYPE
RM  .OHMM     6.5                  : RM           - RESISTIVITY OF MUD
RMC .OHMM     6.5                  : RMC          - RESISTIVITY OF MUD CAKE
RMF .OHMM     6.5                  : RMF          - RESISTIVITY OF MUD FILTRATE
SUFT.F        39.2                 : SUFT         - SURFACE TEMPERATURE
~A  DEPTH       GR     PHIN     RESD
   10.000   58.809    0.472   20.258
   10.820   55.820    0.430   18.828
   11.640   57.632    0.426   16.567
   12.461   59.444    0.409   15.397
   13.281   58.262    0.404   14.313
   14.101   57.674    0.399   13.809
   14.921   58.286    0.400   13.568
   15.742   58.895    0.394   12.848
   16.562   61.307    0.355   11.508
   17.382   63.719    0.348    9.577
   18.202   66.131    0.365    5.613
   19.022   67.343    0.384    5.514
   19.843   77.558    0.413    3.959
   20.663   85.971    0.455    3.547
   21.483   94.387    0.484    3.485
   22.303   94.399    0.500    3.554
   23.123   94.407    0.495    3.691
   23.944   97.426    0.548    3.762
   24.764  100.435    0.545    3.836
   25.584  104.650    0.512    3.840
   26.404  104.662    0.464    3.842
   27.224  104.074    0.447    3.639
   28.045  101.082    0.510    3.201
   28.865  100.497    0.458    2.976
   29.685  102.309    0.425    2.924
   30.505   98.120    0.437    2.980
   31.326   98.132    0.513    3.211
   32.146  101.744    0.532    3.524
   32.966  104.156    0.533    4.243
   33.786  107.169    0.528    4.922
   34.606  104.180    0.460    5.402
   35.426   99.995    0.424    6.267
   36.247   97.603    0.387    7.140
   37.067  100.618    0.362    7.551
   37.887  103.630    0.351    7.988
   38.707  103.642    0.377    8.295
   39.528  106.654    0.369    8.456
   40.348   91.665    0.376    8.312
   41.168   67.674    0.371    8.315
   41.988   58.685    0.336    8.324
   42.808   62.897    0.341    8.329
   43.629   70.110    0.366    8.491
   44.449   76.125    0.390    9.149
   45.269   74.340    0.384   10.618
   46.089   74.952    0.377   12.092
   46.910   70.760    0.358   13.269
   47.730   68.975    0.353   18.864
   48.550   70.784    0.351   19.589
   49.370   76.196    0.327   20.721
   50.190   78.614    0.310   22.748
   51.011   75.623    0.311   24.505
   51.831   69.034    0.320   26.399
   52.651   62.445    0.335   30.070
   53.471   56.456    0.329   34.889
   54.291   52.868    0.317   38.285
   55.111   57.080    0.316   44.421
   55.932   61.892    0.315   49.663
   56.752   67.305    0.339   53.522
   57.572   75.721    0.350   51.625
   58.392   82.333    0.339   47.991
   59.213   84.745    0.327   43.797
   60.033   84.157    0.306   37.818
   60.853   87.769    0.314   35.148
   61.673   93.181    0.305   31.490
   62.493   89.599    0.298   28.738
   63.314   87.810    0.313   25.753
   64.134   91.420    0.334   23.945
   64.954   95.635    0.330   22.259
   65.774   99.847    0.326   21.078
   66.594  103.459    0.320   20.705
   67.415   99.868    0.307   21.501
   68.235   93.282    0.293   22.337
   69.055   90.894    0.287   20.765
   69.875   99.906    0.302   19.659
   70.695  112.519    0.319   18.279
   71.516  118.532    0.319   18.290
   72.336   99.342    0.341   20.448
   73.156   82.552    0.339   24.162
   73.976   61.562    0.328   30.182
   74.797   61.577    0.319   35.665
   75.617   61.588    0.309   49.757
   76.437   60.400    0.304   53.623
   77.257   64.612    0.322   55.685
   78.077   76.025    0.317   53.723
   78.898   83.238    0.314   52.784
   79.718   74.849    0.318   50.903
   80.538   69.463    0.335   50.013
   81.358   76.073    0.343   53.889
   82.178   73.687    0.330   62.525
   82.999   62.898    0.319   68.625
   83.819   58.709    0.319   90.603
   84.639   63.525    0.328   92.348
   85.459   62.333    0.323  101.419
   86.279   57.545    0.314  103.351
   87.100   58.757    0.308  101.545
   87.920   62.969    0.312   96.155
   88.740   66.587    0.317   84.590
   89.560   68.999    0.328   75.770
   90.381   70.208    0.323   53.406
   91.201   72.620    0.314   55.459
   92.021   75.635    0.312   62.003
   92.841   72.644    0.306   74.661
   93.661   61.255    0.304   77.531
   94.482   56.466    0.301   69.462
   95.302   51.077    0.298   56.736
   96.122   50.492    0.290   45.504
   96.942   61.905    0.319   38.572
   97.763   72.118    0.332   34.558
   98.583   83.531    0.332   32.125
   99.403   90.743    0.321   29.870
  100.223   90.758    0.291   28.811
  101.043   84.169    0.305   28.841
  101.864   73.983    0.295   30.514
  102.684   72.792    0.298   31.095
  103.504   82.405    0.304   33.511
  104.324   79.416    0.311   34.800
  105.144   71.027    0.318   36.811
  105.965   72.842    0.316   42.702
  106.785   80.655    0.318   51.398
  107.605   74.066    0.339   74.418
  108.425   60.276    0.330   86.328
  109.245   53.688    0.312   98.332
  110.066   48.899    0.311  134.650
  110.886   48.311    0.339  147.817
  111.706   48.322    0.325  142.578
  112.526   47.734    0.318  165.429
  113.346   50.146    0.319  171.825
  114.167   51.958    0.318  175.133
  114.987   54.373    0.306  172.108
  115.807   59.786    0.314  159.993
  116.627   65.198    0.320  143.371
  117.448   70.611    0.329  135.705
  118.268   74.223    0.326  126.179
  119.088   72.434    0.326  123.974
  119.908   71.849    0.314  131.111
  120.728   65.260    0.315  138.688
  121.549   65.872    0.332   82.794
  122.369   72.485    0.316   37.475
  123.189   78.497    0.315   25.457
  124.009   86.310    0.310   18.277
  124.829   98.926    0.308   14.127
  125.650  112.742    0.294   13.133
  126.470  109.750    0.283   12.906
  127.290  105.565    0.281   12.914
  128.110  104.977    0.276   12.930
  128.930  106.186    0.278   12.704
  129.751  109.798    0.277   12.717
  130.571  112.813    0.278   12.722
  131.391  110.427    0.288   12.500
  132.211  111.636    0.290   12.510
  133.031  115.252    0.289   12.523
  133.852  115.263    0.284   12.769
  134.672  114.675    0.290   13.021
  135.492  117.087    0.296   13.268
  136.312  118.899    0.289   13.781
  137.133  120.114    0.287   14.047
  137.953  125.524    0.285   14.862
  138.773  129.736    0.284   15.433
  139.593  117.146    0.283   16.026
  140.413  107.557    0.283   16.649
  141.234   97.368    0.283   16.966
  142.054   93.780    0.285   17.304
  142.874   95.592    0.282   17.311
  143.694   96.210    0.274   17.329
  144.514   90.218    0.251   17.026
  145.335   90.830    0.285   16.422
  146.155   93.242    0.322   16.436
  146.975   90.853    0.332   17.068
  147.795   86.065    0.313   18.054
  148.615   83.076    0.301   19.820
  149.436   80.691    0.290   20.969
  150.256   81.900    0.285   20.982
  151.076   90.315    0.293   21.395
  151.896   94.528    0.296   21.408
  152.717   88.542    0.288   22.236
  153.537   86.153    0.287   24.410
  154.357   83.165    0.296   27.291
  155.177   81.374    0.321   29.947
  155.997   77.185    0.322   29.978
  156.818   71.196    0.317   27.364
  157.638   67.608    0.325   26.389
  158.458   74.826    0.334   24.087
  159.278   82.036    0.327   23.229
  160.098   90.449    0.316   21.996
  160.919   92.861    0.299   20.833
  161.739   77.871    0.287   20.846
  162.559   67.682    0.279   20.863
  163.379   64.093    0.292   21.669
  164.199   68.909    0.309   22.926
  165.020   71.324    0.322   23.372
  165.840   66.532    0.295   22.132
  166.660   59.946    0.291   20.198
  167.480   55.155    0.339   17.769
  168.301   68.368    0.330   16.212
  169.121   80.381    0.323   14.793
  169.941   97.797    0.338   12.542
  170.761  103.810    0.330   11.446
  171.581  108.622    0.356   10.838
  172.402  110.437    0.376   11.465
  173.222  108.649    0.395   12.353
  174.042  109.858    0.375   12.366
  174.862  109.272    0.356   12.147
  175.682  102.684    0.343   11.505
  176.503   95.498    0.342   10.894
  177.323   92.506    0.343   10.508
  178.143   95.518    0.382   10.914
  178.963  100.334    0.387   11.545
  179.783   99.742    0.372   12.671
  180.604   90.153    0.346   13.905
  181.424   75.764    0.320   16.434
  182.244   63.174    0.328   19.064
  183.064   59.586    0.332   21.715
  183.885   66.801    0.310   19.451
  184.705   72.814    0.313   19.111
  185.525   72.826    0.308   19.491
  186.345   74.037    0.308   19.507
  187.165   82.450    0.345   19.886
