~VERSION INFORMATION
 VERS.                 2.0:   CWLS LOG ASCII STANDARD -VERSION 2.0
 WRAP.                  NO:   ONE LINE PER DEPTH STEP
~WELL INFORMATION BLOCK
#MNEM.UNIT           DATA                    DESCRIPTION OF MNEMONIC
#---------    -------------------            -------------------------------
# Generated from Intellog Unique Number	CN_94_101/WELL/1064
WELL.         CHEVRON CANADA RESOURCES       : Well_name    - WELL
LOC .         AA/04-23-094-07W4/0            : Location     - LOCATION
UWI .         AA/04-23-094-07W400            : Uwi          - UNIQUE WELL ID
ENTR.         JOETTE                         : Entered      - ENTERED BY
SRVC.         SCHLUMBERGER                   : Scn          - SERVICE COMPANY
DATE.         04/12/92                       : Date         - LOG DATE
STRT.M        100                            : top_depth    - START DEPTH
STOP.M        270                            : bot_depth    - STOP DEPTH
STEP.M        0.25                           : increment    - STEP LENGTH
 NULL. -999.2500:NULL Value
~CURVE INFORMATION BLOCK
#MNEM UNIT       ERCB CURVE CODE    CURVE DESCRIPTION
#-----------   ------------------   ----------------------------------
DEPT.M        00 001 00 00         : DEPTH        - DEPTH
GR  .API      00 310 00 00         : GR           - GAMMA RAY
ILD .OHMM     00 120 00 00         : RESD         - DEEP RESISTIVITY (DIL)
NPHI.V/V      00 330 00 00         : PHIN         - NEUTRON POROSITY (SANDSTONE)
DPHI.V/V      00 890 00 00         : PHID         - DENSITY POROSITY (SANDSTONE)
~PARAMETER INFORMATION
#MNEM.UNIT           DATA             DESCRIPTION OF MNEMONIC
#---------         -----------     ------------------------------
GL  .M        529.3                : gl           - GROUND LEVEL ELEVATION
EREF.M        529.3                : kb           - ELEVATION OF DEPTH REFERENCE
DATM.M        529.3                : datum        - DATUM ELEVATION
TDD .M        261.6                : tdd          - TOTAL DEPTH DRILLER
RUN .         ONE                  : Run          - RUN NUMBER
ENG .         JO                   : Engineer     - RECORDING ENGINEER
WIT .         TIM                  : Witness      - WITNESSED BY
MUD .         GEL                  : Mud_type     - MUD TYPE
MATR.         SANDSTONE            : Logunit      - NEUTRON MATRIX
TMAX.C        112                  : BHT          - MAXIMUM RECORDED TEMPERATURE
BHTD.M        261.6                : BHTDEP       - MAXIMUM RECORDED TEMPERATURE
RMT .C        10                   : MDTP         - TEMPERATURE OF MUD
MUDD.KG/M     1010                 : MWT          - MUD DENSITY
NEUT.         1                    : NEUTRON      - NEUTRON TYPE
RESI.         0                    : RESIST       - RESISTIVITY TYPE
RM  .OHMM     4.5                  : RM           - RESISTIVITY OF MUD
RMC .OHMM     4                    : RMC          - RESISTIVITY OF MUD CAKE
RMF .OHMM     3.59                 : RMF          - RESISTIVITY OF MUD FILTRATE
SUFT.C        4                    : SUFT         - SURFACE TEMPERATURE
~A  DEPTH       GR     RESD     PHIN     PHID
# ...
  143.500  100.591    6.865    0.577    0.272
  143.750   99.406    7.966    0.586    0.279
  144.000  100.585    8.906    0.602    0.289
  144.250  101.174    8.904    0.572    0.285
  144.500   97.624    8.903    0.518    0.261
  144.750   96.439    9.069    0.440    0.241
  145.000   98.210    9.769    0.418    0.238
  145.250  101.753   11.127    0.426    0.235
  145.500  101.159   11.985    0.441    0.231
  145.750   98.792   12.437    0.470    0.229
  146.000   94.061   13.150    0.499    0.236
  146.250   88.147   13.646    0.525    0.248
  146.500   88.143   13.146    0.518    0.259
  146.750   91.688   11.754    0.501    0.261
  147.000   98.187   10.510    0.481    0.259
  147.250  102.913    9.398    0.472    0.254
  147.500  101.137    9.396    0.463    0.250
  147.750   99.952   10.311    0.452    0.249
  148.000  100.541   10.700    0.462    0.254
  148.250   98.764   10.699    0.486    0.262
  148.500   97.578   10.500    0.508    0.272
  148.750   91.073   10.114    0.500    0.279
  149.000   79.839   10.113    0.473    0.283
  149.250   69.787   11.735    0.440    0.286
  149.500   64.464   13.617    0.440    0.277
  149.750   62.096   15.225    0.403    0.219
  150.000   61.503   20.504    0.328    0.190
  150.250   65.047   35.178    0.364    0.275
  150.500   70.956   29.197    0.452    0.296
  150.750   74.499   20.494    0.447    0.280
  151.000   86.910   13.860    0.423    0.263
  151.250   98.730   11.720    0.410    0.256
  151.500   96.363   11.502    0.446    0.257
  151.750   92.813   11.287    0.466    0.262
  152.000   89.264   11.285    0.469    0.278
  152.250   86.896   11.283    0.473    0.302
  152.500   85.711   11.710    0.469    0.305
  152.750   83.935   12.152    0.445    0.304
  153.000   80.386   12.848    0.412    0.300
  153.250   77.427   13.584    0.424    0.290
  153.500   76.833   15.187    0.443    0.269
  153.750   77.421   15.470    0.441    0.256
  154.000   80.965   13.081    0.431    0.252
  154.250   79.189   11.269    0.424    0.264
  154.500   79.778   10.076    0.430    0.276
  154.750   81.547   10.854    0.443    0.264
  155.000   76.225   12.832    0.429    0.213
  155.250   69.129   16.343    0.384    0.064
  155.500   60.850   42.232    0.365    0.156
  155.750   69.715   34.405    0.429    0.250
  156.000   83.899   15.738    0.502    0.291
  156.250   86.852   13.307    0.501    0.291
  156.500   77.981   13.305    0.476    0.296
  156.750   79.752   13.807    0.473    0.296
  157.000   80.341   13.056    0.485    0.292
  157.250   92.751   12.117    0.503    0.291
  157.500  101.616   10.834    0.548    0.293
  157.750  103.385    9.161    0.564    0.300
  158.000   99.244    8.502    0.548    0.303
  158.250  101.606    8.501    0.544    0.292
  158.500   99.830    8.343    0.509    0.279
  158.750   96.281    8.341    0.480    0.267
  159.000   86.820    8.985    0.485    0.264
  159.250   77.359   10.233    0.485    0.269
  159.500   97.455   10.424    0.488    0.277
  159.750  104.545   10.041    0.498    0.289
  160.000  102.769    8.979    0.513    0.297
  160.250  104.540    7.452    0.544    0.298
  160.500  108.084    6.420    0.578    0.298
  160.750  110.445    5.328    0.593    0.304
  161.000  108.668    5.038    0.614    0.313
  161.250  109.849    4.944    0.640    0.313
  161.500  112.210    4.763    0.627    0.312
  161.750  114.571    4.762    0.582    0.309
  162.000  113.977    4.942    0.527    0.298
  162.250  108.064    5.225    0.551    0.281
  162.500   92.101    6.177    0.562    0.269
  162.750   76.138    7.303    0.563    0.269
  163.000   78.499    9.129    0.516    0.274
  163.250   87.954   10.793    0.493    0.283
  163.500   96.227   10.791    0.529    0.291
  163.750   97.407   10.015    0.562    0.288
  164.000   95.631    9.829    0.586    0.277
  164.250   90.898    9.827    0.517    0.255
  164.500   92.078   11.193    0.485    0.224
  164.750   94.440   11.616    0.460    0.157
  165.000   93.846   12.281    0.427    0.058
  165.250   89.114   13.229    0.393    0.127
  165.500   79.653   15.068    0.374    0.174
  165.750   82.015   22.692    0.431    0.302
  166.000   86.741   19.188    0.472    0.305
  166.250   86.738   12.976    0.466    0.301
  166.500   87.917   10.770    0.470    0.296
  166.750   83.777   11.177    0.486    0.289
  167.000   79.635   11.599    0.488    0.280
  167.250   85.544   11.597    0.482    0.270
  167.500   96.773   10.965    0.479    0.269
  167.750   96.179   10.563    0.474    0.270
  168.000   89.083   10.561    0.473    0.271
  168.250   84.351   10.365    0.475    0.283
  168.500   85.530    9.984    0.482    0.294
  168.750   86.119    9.618    0.486    0.287
  169.000   89.663    9.616    0.491    0.266
  169.250   99.118    9.615    0.491    0.278
  169.500   99.706    9.262    0.497    0.281
  169.750   89.063    8.281    0.539    0.263
  170.000   90.834    8.436    0.557    0.243
  170.250   99.698    9.608    0.517    0.242
  170.500  105.606   11.150    0.497    0.269
  170.750  103.829   10.157    0.494    0.313
  171.000  100.281    8.750    0.535    0.351
  171.250   98.504    7.971    0.540    0.378
  171.500   97.319    7.823    0.540    0.403
  171.750   97.317    7.535    0.547    0.392
  172.000  100.269    6.993    0.559    0.372
  172.250  107.951    6.253    0.577    0.339
  172.500  112.677    5.913    0.561    0.317
  172.750  111.492    6.136    0.552    0.296
  173.000  106.760    6.860    0.579    0.284
  173.250  109.122    7.669    0.595    0.277
  173.500  115.621    6.858    0.589    0.283
  173.750  111.481    6.132    0.571    0.281
  174.000   97.291    6.483    0.540    0.278
  174.250   90.195    7.384    0.506    0.291
  174.500  102.015    7.807    0.541    0.314
  174.750  102.012    6.981    0.558    0.325
  175.000   97.871    6.242    0.554    0.318
  175.250   96.095    7.109    0.547    0.306
  175.500   97.274    6.977    0.524    0.313
  175.750   99.636    6.721    0.516    0.309
  176.000  104.362    6.720    0.516    0.284
  176.250  107.315    7.654    0.523    0.262
  176.500  108.493    8.718    0.539    0.249
  176.750  110.856    9.391    0.512    0.252
  177.000  112.035    9.389    0.497    0.262
  177.250  107.303    9.215    0.500    0.273
  177.500  101.389    9.742    0.491    0.282
  177.750   96.657   10.691    0.493    0.279
  178.000   93.699   11.095    0.493    0.272
  178.250   91.923   11.302    0.488    0.270
  178.500   91.920   11.091    0.474    0.266
  178.750   93.099   10.684    0.463    0.259
  179.000   96.643   10.485    0.450    0.250
  179.250  100.778   10.290    0.442    0.223
  179.500   97.229   10.679    0.430    0.175
  179.750   88.359   11.939    0.392    0.081
  180.000   77.716   16.079    0.362    0.128
  180.250   80.669   25.607    0.412    0.201
  180.500   92.489   18.312    0.471    0.321
  180.750   88.939   10.473    0.540    0.381
  181.000   84.207    7.774    0.591    0.430
  181.250   81.839    4.880    0.662    0.452
  181.500   82.428    4.445    0.644    0.471
  181.750   88.337    4.878    0.649    0.445
  182.000   97.791    5.158    0.673    0.393
  182.250   94.242    5.157    0.666    0.385
  182.500   84.781    5.554    0.621    0.361
  182.750   85.369    5.873    0.556    0.337
  183.000   87.732    5.982    0.534    0.337
  183.250   93.048    6.094    0.517    0.303
  183.500   96.592    6.443    0.514    0.279
  183.750   97.772    7.203    0.507    0.296
  184.000   97.769    7.759    0.485    0.320
  184.250   98.357    8.514    0.482    0.322
  184.500   99.537    8.201    0.497    0.314
  184.750   97.761    7.334    0.503    0.299
  185.000   95.985    6.680    0.487    0.283
  185.250   88.889    7.063    0.479    0.281
  185.500   80.018    8.350    0.491    0.283
  185.750   77.059    8.829    0.502    0.287
  186.000   87.697    8.194    0.497    0.295
  186.250  101.290    6.552    0.495    0.301
  186.500   98.923    5.968    0.496    0.297
  186.750   96.555    6.194    0.507    0.299
