~VERSION INFORMATION
 VERS.                 2.0:   CWLS LOG ASCII STANDARD -VERSION 2.0
 WRAP.                  NO:   ONE LINE PER DEPTH STEP
~WELL INFORMATION BLOCK
#MNEM.UNIT           DATA                    DESCRIPTION OF MNEMONIC
#---------    -------------------            -------------------------------
# Generated from Intellog Unique Number	CN_91_93/WELL/3624
WELL.         02-21-093-07W4                 : Well_name    - WELL
LOC .         AA/02-21-093-07W4/0            : Location     - LOCATION
UWI .         AA/02-21-093-07W400            : Uwi          - UNIQUE WELL ID
ENTR.         JOETTE                         : Entered      - ENTERED BY
SRVC.         WESTERN ATLAS                  : Scn          - SERVICE COMPANY
DATE.         03/18/92                       : Date         - LOG DATE
STRT.F        50                             : top_depth    - START DEPTH
STOP.F        820.177                        : bot_depth    - STOP DEPTH
STEP.F        0.8202                         : increment    - STEP LENGTH
 NULL. -999.2500:NULL Value
~CURVE INFORMATION BLOCK
#MNEM UNIT       ERCB CURVE CODE    CURVE DESCRIPTION
#-----------   ------------------   ----------------------------------
DEPT.F        00 001 00 00         : DEPTH        - DEPTH
ILD .OHMM     00 120 00 00         : RESD         - DEEP RESISTIVITY (DIL)
CALI.IN       00 280 01 00         : CAL          - CALIPER
GR  .API      00 310 00 00         : GR           - GAMMA RAY
NPHI.V/V      00 330 00 00         : PHIN         - NEUTRON POROSITY (SANDSTONE)
~PARAMETER INFORMATION
#MNEM.UNIT           DATA             DESCRIPTION OF MNEMONIC
#---------         -----------     ------------------------------
GL  .M        506.578              : gl           - GROUND LEVEL ELEVATION
EREF.M        508.102              : kb           - ELEVATION OF DEPTH REFERENCE
DATM.M        508.102              : datum        - DATUM ELEVATION
TDD .M        508.102              : tdd          - TOTAL DEPTH DRILLER
RUN .         ONE                  : Run          - RUN NUMBER
ENG .         JO                   : Engineer     - RECORDING ENGINEER
WIT .         TIM                  : Witness      - WITNESSED BY
MUD .         GEL                  : Mud_type     - MUD TYPE
MATR.         SANDSTONE            : Logunit      - NEUTRON MATRIX
TMAX.F        47                   : BHT          - MAXIMUM RECORDED TEMPERATURE
BHTD.F        832                  : BHTDEP       - MAXIMUM RECORDED TEMPERATURE
RMT .F        40                   : MDTP         - TEMPERATURE OF MUD
MUDD.LB/G     0.541666             : MWT          - MUD DENSITY
NEUT.         1                    : NEUTRON      - NEUTRON TYPE
RESI.         0                    : RESIST       - RESISTIVITY TYPE
RM  .OHMM     9                    : RM           - RESISTIVITY OF MUD
RMC .OHMM     9                    : RMC          - RESISTIVITY OF MUD CAKE
RMF .OHMM     9                    : RMF          - RESISTIVITY OF MUD FILTRATE
SUFT.F        39.2                 : SUFT         - SURFACE TEMPERATURE
~A  DEPTH     RESD      CAL       GR     PHIN
# ...
  335.433   33.882    6.967   46.187    0.427
  336.253   30.440    7.009   47.425    0.429
  337.073   28.857    6.972   50.442    0.430
  337.894   27.356    6.895   54.055    0.431
  338.714   25.490    6.818   55.889    0.432
  339.534   25.055    6.782   53.552    0.433
  340.354   24.200    6.743   52.388    0.433
  341.175   23.787    6.707   51.234    0.434
  341.995   23.381    6.669   51.262    0.435
  342.815   21.006    6.632   53.683    0.435
  343.635   19.568    6.595   53.124    0.439
  344.455   18.556    6.597   48.990    0.437
  345.276   19.967    6.600   46.057    0.439
  346.096   23.534    6.602   44.903    0.439
  346.916   26.737    6.646   43.758    0.439
  347.736   30.412    6.647   44.987    0.439
  348.556   31.552    6.650   47.407    0.438
  349.377   32.754    6.692   49.223    0.436
  350.197   32.812    6.814   49.866    0.435
  351.017   32.242    6.539   50.499    0.434
  351.837   30.044    6.462   50.545    0.430
  352.657   28.473    6.385   51.169    0.426
  353.478   27.000    6.547   53.599    0.422
  354.298   25.144    6.748   56.011    0.418
  355.118   23.002    6.910   60.825    0.417
  355.938   20.294    6.951   58.478    0.416
  356.759   18.894    6.994   56.142    0.417
  357.579   17.285    6.958   54.400    0.419
  358.399   17.000    6.880   53.227    0.419
  359.219   17.320    6.842   52.687    0.419
  360.039   19.336    6.766   52.110    0.417
  360.860   20.433    6.729   52.157    0.414
  361.680   23.652    6.652   52.194    0.413
  362.500   25.473    6.615   53.423    0.415
  363.320   25.962    6.618   56.440    0.421
  364.140   24.626    6.619   61.244    0.427
  364.961   23.338    6.622   63.674    0.433
  365.781   20.585    6.625   61.924    0.437
  366.601   17.836    6.627   60.183    0.432
  367.421   16.605    6.630   59.606    0.428
  368.241   16.039    6.553   57.874    0.421
  369.062   16.650    6.516   57.315    0.423
  369.882   17.599    6.439   56.757    0.429
  370.702   19.295    6.401   58.582    0.431
  371.522   19.671    6.404   61.002    0.428
  372.343   19.335    6.486   62.241    0.426
  373.163   18.335    6.608   62.260    0.422
  373.983   17.392    6.770   59.327    0.422
  374.803   17.100    6.812   56.971    0.422
  375.623   17.120    6.696   54.634    0.422
  376.444   18.108    6.698   58.256    0.422
  377.264   18.455    6.701   61.264    0.420
  378.084   19.508    6.743   65.481    0.417
  378.904   19.186    6.746   69.094    0.416
  379.724   18.853    6.748   72.707    0.419
  380.545   17.562    6.752   84.671    0.424
  381.365   15.774    6.793   85.314    0.429
  382.185   13.913    6.835   83.545    0.435
  383.005   12.055    6.877   79.411    0.436
  383.825   10.252    6.919   72.297    0.433
  384.646    8.724    6.962   65.780    0.424
  385.466    8.577    6.964   61.646    0.418
  386.286    9.064    7.007   56.329    0.411
  387.106   10.876    7.010   55.165    0.405
  387.927   18.747    6.973   52.828    0.396
  388.747   21.694    6.935   52.270    0.387
  389.567   29.015    6.897   52.903    0.320
  390.387   36.778    6.860   55.920    0.242
  391.207   34.876    6.824   60.128    0.237
  392.028   31.896    6.826   67.912    0.278
  392.848   26.638    6.868   78.685    0.312
  393.668   16.658    6.871   83.490    0.418
  394.488   12.944    6.914   90.687    0.445
  395.308    9.698    6.955   94.895    0.460
  396.129    8.401    6.998   96.125    0.463
  396.949    7.020    7.001   94.989    0.460
  397.769    6.303    7.002   94.421    0.454
  398.589    5.663    7.005   93.853    0.451
  399.409    5.373    7.009   93.303    0.450
  400.230    5.476    6.972   92.736    0.449
  401.050    5.789    6.973   91.590    0.447
  401.870    6.117    6.896   88.062    0.442
  402.690    6.586    6.899   85.706    0.436
  403.510    6.960    6.822   82.168    0.430
  404.331    7.912    6.824   79.235    0.423
  405.151    8.991    6.748   76.898    0.422
  405.971    9.855    6.712   76.339    0.430
  406.791   11.001    6.713   76.367    0.435
  407.612   11.021    6.676   75.799    0.436
  408.432   11.027    6.639   77.038    0.432
  409.252   10.846    6.602   80.055    0.426
  410.072   10.469    6.605   83.071    0.425
  410.892    9.406    6.567   87.289    0.426
  411.713    8.600    6.570   88.518    0.430
  412.533    7.724    6.573   87.960    0.434
  413.353    7.324    6.616   85.613    0.438
  414.173    7.335    6.618   83.872    0.437
  414.993    7.617    6.620   83.304    0.435
  415.814    7.907    6.662   83.947    0.431
  416.634    8.208    6.665   86.973    0.431
  417.454    8.365    6.667   88.183    0.430
  418.274    8.687    6.671   89.422    0.432
  419.094    8.694    6.672   89.450    0.434
  419.915    8.707    6.676   89.506    0.436
  420.735    8.408    6.678   89.534    0.439
  421.555    7.977    6.680   88.398    0.440
  422.375    7.698    6.683   87.820    0.442
  423.196    7.710    6.685   86.675    0.442
  424.016    7.857    6.688   85.521    0.438
  424.836    8.306    6.690   84.953    0.433
  425.656    8.468    6.693   83.808    0.435
  426.476    8.632    6.696   83.249    0.436
  427.297    8.645    6.659   88.659    0.428
  428.117    8.353    6.660   88.100    0.418
  428.937    8.063    6.663   86.359    0.405
  429.757    7.374    6.665   85.782    0.408
  430.577    6.744    6.669   87.011    0.436
  431.398    6.168    6.671   91.229    0.448
  432.218    5.641    6.713   92.467    0.464
  433.038    5.647    6.716   92.504    0.466
  433.858    6.078    6.719   91.350    0.463
  434.678    6.423    6.721   90.782    0.455
  435.499    7.171    6.724   89.032    0.437
  436.319    8.003    6.726   87.877    0.435
  437.139    8.617    6.729   88.520    0.434
  437.959    8.782    6.732   90.345    0.437
  438.780    8.330    6.734   92.784    0.440
  439.600    7.479    6.736   93.995    0.449
  440.420    6.479    6.740   97.021    0.456
  441.240    5.511    6.741   98.855    0.467
  442.060    4.688    6.745   98.874    0.472
  442.881    4.290    6.746   98.315    0.481
  443.701    4.141    6.750   97.170    0.485
  444.521    4.073    6.753   96.620    0.490
  445.341    4.384    6.754   96.648    0.491
  446.161    4.893    6.757   96.099    0.480
  446.982    5.662    6.760   95.540    0.466
  447.802    6.552    6.762   95.569    0.451
  448.622    7.582    6.765   95.010    0.442
  449.442    8.937    6.768   93.278    0.435
  450.262    9.795    6.731   92.114    0.430
  451.083   10.543    6.693   91.546    0.419
  451.903   10.948    6.577   89.805    0.413
  452.723   11.158    6.500   88.660    0.407
  453.543   11.382    6.422   88.697    0.400
  454.364   11.187    6.307   89.340    0.399
  455.184   10.802    6.309   89.964    0.406
  456.004   10.428    6.310   91.183    0.406
  456.824    9.366    6.433   93.614    0.408
  457.644    8.417    6.556   94.256    0.406
  458.465    8.275    6.558   93.111    0.404
  459.285    8.437    6.639   91.342    0.404
  460.105    8.437    6.682   89.005    0.397
  460.925    7.871    6.723   87.841    0.403
  461.745    8.939    6.765   86.100    0.402
  462.566    9.277    6.809   86.137    0.399
  463.386    9.815    6.811   84.973    0.397
  464.206    9.645    6.813   83.819    0.393
  465.026    9.483    6.817   80.281    0.391
  465.846    9.844    6.819   76.743    0.385
  466.667   10.596    6.781   72.618    0.380
  467.487   12.717    6.665   69.676    0.374
  468.307   14.720    6.469   67.935    0.328
  469.127   15.002    6.392   67.972    0.287
  469.948   13.721    6.316   70.383    0.271
  470.768   12.327    6.278   73.996    0.310
  471.588   11.270    6.281   78.819    0.367
  472.408   10.307    6.283   80.039    0.386
  473.228    9.774    6.285   80.672    0.402
  474.049    9.610    6.288   81.911    0.406
  474.869    9.797    6.290   83.149    0.405
  475.689   10.176    6.333   83.764    0.404
  476.509   10.957    6.376   81.427    0.404
  477.329   11.163    6.378   79.080    0.405
