~VERSION INFORMATION
 VERS.                 2.0:   CWLS LOG ASCII STANDARD -VERSION 2.0
 WRAP.                  NO:   ONE LINE PER DEPTH STEP
~WELL INFORMATION BLOCK
#MNEM.UNIT           DATA                    DESCRIPTION OF MNEMONIC
#---------    -------------------            -------------------------------
# Generated from Intellog Unique Number	CN_94_101/WELL/1179
WELL.         06-01-097-13W4                 : Well_name    - WELL
LOC .         AA/06-01-097-13W4/0            : Location     - LOCATION
UWI .         AA/06-01-097-13W400            : Uwi          - UNIQUE WELL ID
ENTR.         JOETTE                         : Entered      - ENTERED BY
SRVC.         SCHLUMBERGER                   : Scn          - SERVICE COMPANY
DATE.         08/17/92                       : Date         - LOG DATE
STRT.M        15.24                          : top_depth    - START DEPTH
STOP.M        191.99                         : bot_depth    - STOP DEPTH
STEP.M        0.25                           : increment    - STEP LENGTH
 NULL. -999.2500:NULL Value
~CURVE INFORMATION BLOCK
#MNEM UNIT       ERCB CURVE CODE    CURVE DESCRIPTION
#-----------   ------------------   ----------------------------------
DEPT.M        00 001 00 00         : DEPTH        - DEPTH
ILD .OHMM     00 120 00 00         : RESD         - DEEP RESISTIVITY (DIL)
GR  .API      00 310 00 00         : GR           - GAMMA RAY
NPHI.V/V      00 330 00 00         : PHIN         - NEUTRON POROSITY (SANDSTONE)
~PARAMETER INFORMATION
#MNEM.UNIT           DATA             DESCRIPTION OF MNEMONIC
#---------         -----------     ------------------------------
GL  .M        431.597              : gl           - GROUND LEVEL ELEVATION
EREF.M        431.597              : kb           - ELEVATION OF DEPTH REFERENCE
DATM.M        431.597              : datum        - DATUM ELEVATION
TDD .M        193.243              : tdd          - TOTAL DEPTH DRILLER
RUN .         ONE                  : Run          - RUN NUMBER
ENG .         JO                   : Engineer     - RECORDING ENGINEER
WIT .         TIM                  : Witness      - WITNESSED BY
MUD .         GEL                  : Mud_type     - MUD TYPE
MATR.         SANDSTONE            : Logunit      - NEUTRON MATRIX
TMAX.C        4.44444              : BHT          - MAXIMUM RECORDED TEMPERATURE
BHTD.M        193.243              : BHTDEP       - MAXIMUM RECORDED TEMPERATURE
RMT .C        4.44444              : MDTP         - TEMPERATURE OF MUD
MUDD.KG/M     1200                 : MWT          - MUD DENSITY
NEUT.         1                    : NEUTRON      - NEUTRON TYPE
RESI.         0                    : RESIST       - RESISTIVITY TYPE
RM  .OHMM     0.76                 : RM           - RESISTIVITY OF MUD
RMC .OHMM     0.76                 : RMC          - RESISTIVITY OF MUD CAKE
RMF .OHMM     0.76                 : RMF          - RESISTIVITY OF MUD FILTRATE
SUFT.C        4                    : SUFT         - SURFACE TEMPERATURE
~A  DEPTH     RESD       GR     PHIN
# ...
  123.740    7.192   82.718    0.425
  123.990    7.069   81.570    0.424
  124.240    8.848   83.581    0.421
  124.490    9.195   86.380    0.421
  124.740    5.899   85.232    0.421
  124.990    5.583   82.106    0.420
  125.240    4.730   78.989    0.413
  125.490    5.007   76.660    0.362
  125.740    5.301   79.056    0.352
  125.990    5.020   87.762    0.403
  126.240    4.935   89.371    0.417
  126.490    4.851   89.010    0.438
  126.740    5.135   87.074    0.478
  126.990    5.436   87.108    0.492
  127.240    5.547   89.906    0.463
  127.490    5.658   85.600    0.449
  127.740    6.573   86.814    0.432
  127.990    7.222   86.060    0.433
  128.240    5.680   79.005    0.436
  128.490    3.780   87.317    0.442
  128.740    2.864   93.651    0.436
  128.990    2.253   92.503    0.442
  129.240    2.215   75.996    0.449
  129.490    2.260   72.084    0.481
  129.740    2.262   67.006    0.526
  129.990    2.264   64.274    0.565
  130.240    2.355   63.520    0.559
  130.490    2.734   64.341    0.559
  130.740    4.693   67.935    0.561
  130.990    7.759   68.363    0.568
  131.240    9.016   67.994    0.572
  131.490   10.095   65.271    0.558
  131.740    9.212   61.366    0.471
  131.990    8.251   56.280    0.416
  132.240    9.232   53.556    0.390
  132.490   14.450   55.961    0.419
  132.740   15.867   55.995    0.423
  132.990   22.617   53.657    0.387
  133.240   12.039   48.177    0.338
  133.490    5.954   50.967    0.364
  133.740    4.510   52.584    0.408
  133.990    3.682   62.463    0.452
  134.240    4.280   78.651    0.495
  134.490    4.444   77.511    0.504
  134.740    5.263   76.355    0.503
  134.990    6.227   75.601    0.497
  135.240    5.790   72.878    0.459
  135.490    5.584   71.344    0.457
  135.740    5.591   72.165    0.451
  135.990    6.870   73.774    0.450
  136.240    9.435   77.352    0.445
  136.490    8.448   74.629    0.445
  136.740    5.946   69.936    0.438
  136.990    5.527   67.213    0.402
  137.240    5.331   69.215    0.388
  137.490    5.439   73.581    0.425
  137.740    5.448   80.720    0.447
  137.990    5.457   78.382    0.459
  138.240    5.460   79.211    0.454
  138.490    5.467   80.418    0.461
  138.740    5.577   80.853    0.462
  138.990    6.481   79.303    0.469
  139.240    8.416   80.133    0.459
  139.490    9.420   83.317    0.435
  139.740    7.139   82.562    0.409
  139.990    6.161   77.476    0.392
  140.240   11.184   72.390    0.400
  140.490   16.540   73.211    0.405
  140.740   27.345   73.245    0.408
  140.990   41.985   65.796    0.368
  141.240   21.534   56.763    0.332
  141.490   16.018   41.831    0.312
  141.740   14.093   31.223    0.340
  141.990   22.456   32.053    0.378
  142.240   24.657   32.865    0.389
  142.490   29.190   36.452    0.377
  142.740   22.121   45.543    0.386
  142.990   19.449   47.151    0.394
  143.240   43.281   51.534    0.386
  143.490   96.346   53.922    0.366
  143.740  171.623   55.924    0.365
  143.990  171.843   52.028    0.353
  144.240  165.789   44.964    0.339
  144.490  289.890   40.666    0.336
  144.740  324.479   39.124    0.347
  144.990  319.017   41.126    0.349
  145.240   90.309   43.137    0.375
  145.490   35.714   41.202    0.372
  145.740   20.107   39.258    0.373
  145.990   18.010   36.534    0.382
  146.240   18.039   37.364    0.370
  146.490   17.077   40.942    0.370
  146.740   19.838   51.214    0.363
  146.990   31.612   59.526    0.390
  147.240   35.395   57.599    0.406
  147.490   32.297   49.756    0.418
  147.740   30.576   48.993    0.409
  147.990   41.223   46.664    0.393
  148.240   50.632   47.485    0.380
  148.490   52.632   51.465    0.364
  148.740   52.716   50.703    0.376
  148.990   42.225   49.554    0.391
  149.240   36.441   53.937    0.404
  149.490   29.745   56.718    0.402
  149.740   30.342   59.115    0.372
  149.990   30.390   62.324    0.349
  150.240   23.023   63.522    0.355
  150.490   16.502   65.131    0.383
  150.740   17.797   66.346    0.395
  150.990   27.316   64.410    0.379
  151.240   47.764   55.386    0.364
  151.490   58.684   47.149    0.326
  151.740   70.752   45.607    0.332
  151.990  110.668   42.482    0.361
  152.240  149.154   37.789    0.366
  152.490   69.717   32.703    0.390
  152.740   29.160   28.798    0.394
  152.990   17.677   24.106    0.378
  153.240   14.164   28.078    0.383
  153.490   12.228   39.540    0.380
  153.740   14.471   49.821    0.374
  153.990   17.774   55.762    0.384
  154.240   18.816   59.742    0.406
  154.490   24.909   57.404    0.410
  154.740   19.585   57.060    0.403
  154.990   15.403   57.094    0.393
  155.240   14.587   57.119    0.389
  155.490   19.298   56.767    0.393
  155.740   17.609   56.792    0.388
  155.990   14.109   57.219    0.391
  156.240   12.409   58.434    0.391
  156.490   12.895   63.596    0.383
  156.740   11.554   67.182    0.374
  156.990   13.170   65.640    0.369
  157.240   14.742   67.265    0.387
  157.490   17.779   68.061    0.411
  157.740   15.061   71.647    0.401
  157.990   18.499   69.712    0.372
  158.240   22.303   66.201    0.369
  158.490   11.658   60.721    0.377
  158.740   11.891   57.998    0.375
  158.990   14.610   61.190    0.374
  159.240   15.467   63.578    0.385
  159.490   16.073   66.368    0.407
  159.740   13.871   66.795    0.409
  159.990   11.971   65.647    0.410
  160.240   11.129   65.698    0.415
  160.490   12.460   64.147    0.381
  160.740   13.951   66.158    0.380
  160.990   15.042   67.365    0.381
  161.240   17.474   67.792    0.364
  161.490   20.686   63.493    0.361
  161.740   18.187   61.164    0.385
  161.990   15.990   57.661    0.398
  162.240   17.569   54.142    0.389
  162.490   37.683   49.844    0.385
  162.740   29.092   48.696    0.384
  162.990   20.852   49.123    0.378
  163.240   17.345   50.731    0.374
  163.490   17.687   48.796    0.370
  163.740   13.915   42.922    0.368
  163.990   15.863   39.411    0.375
  164.240   19.848   37.082    0.388
  164.490   20.639   43.022    0.395
  164.740   15.065   51.728    0.383
  164.990   12.297   56.094    0.379
  165.240   16.574   53.387    0.384
  165.490   16.295   53.412    0.386
  165.740   16.015   58.171    0.378
  165.990   17.926   63.718    0.377
  166.240   19.696   63.752    0.381
  166.490   19.002   61.028    0.374
  166.740   19.747   56.336    0.366
  166.990   18.018   53.227    0.373
  167.240   14.712   52.465    0.373
  167.490   16.165   52.515    0.367
  167.740   17.434   53.319    0.361
  167.990   15.918   56.118    0.359
  168.240   16.227   58.514    0.359
  168.490   16.863   62.092    0.363
  168.740   16.274   64.505    0.369
  168.990   14.854   64.530    0.381
  169.240   13.056   65.745    0.408
  169.490   13.567   64.203    0.404
  169.740   14.099   63.449    0.400
  169.990   13.857   67.421    0.388
  170.240   13.123   67.848    0.408
  170.490    9.765   64.731    0.403
  170.740   11.340   65.962    0.405
  170.990   15.575   67.169    0.408
  171.240   14.212   68.384    0.417
  171.490   27.268   55.807    0.412
  171.740  102.105   45.995    0.409
  171.990  100.354   29.873    0.411
  172.240  112.364   24.787    0.411
  172.490   96.974   24.427    0.396
  172.740   62.156   26.429    0.394
  172.990   46.236   28.046    0.398
  173.240   36.364   30.049    0.392
  173.490   79.485   32.839    0.383
  173.740   85.698   36.023    0.375
  173.990   30.895   31.331    0.366
  174.240   23.852   31.372    0.394
  174.490   22.588   33.375    0.398
  174.740   48.464   35.386    0.389
  174.990   74.363   33.442    0.381
  175.240  159.500   30.325    0.388
  175.490  156.766   28.004    0.388
  175.740  240.694   28.423    0.387
  175.990  306.818   28.858    0.392
  176.240  324.814   29.285    0.402
  176.490   72.226   30.886    0.407
  176.740  102.988   35.268    0.395
  176.990  158.074   38.050    0.418
  177.240  242.626   37.296    0.423
  177.490  276.755   32.209    0.412
  177.740  309.776   28.698    0.402
