~VERSION INFORMATION
 VERS.                 2.0:   CWLS LOG ASCII STANDARD -VERSION 2.0
 WRAP.                  NO:   ONE LINE PER DEPTH STEP
~WELL INFORMATION BLOCK
#MNEM.UNIT           DATA                    DESCRIPTION OF MNEMONIC
#---------    -------------------            -------------------------------
# Generated from Intellog Unique Number	CC_88_90/WELL/3138
WELL.         ESSO RESOURCES                 : Well_name    - WELL
LOC .         AA/06-11-090-10W4/0            : Location     - LOCATION
UWI .         AA/06-11-090-10W400            : Uwi          - UNIQUE WELL ID
ENTR.         JOETTE                         : Entered      - ENTERED BY
SRVC.         SCHLUMBERGER                   : Scn          - SERVICE COMPANY
DATE.         03/04/92                       : Date         - LOG DATE
STRT.M        30                             : top_depth    - START DEPTH
STOP.M        115                            : bot_depth    - STOP DEPTH
STEP.M        0.25                           : increment    - STEP LENGTH
 NULL. -999.2500:NULL Value
~CURVE INFORMATION BLOCK
#MNEM UNIT       ERCB CURVE CODE    CURVE DESCRIPTION
#-----------   ------------------   ----------------------------------
DEPT.M        00 001 00 00         : DEPTH        - DEPTH
GR  .API      00 310 00 00         : GR           - GAMMA RAY
CALI.MM       00 280 01 00         : CAL          - CALIPER
NPHI.V/V      00 330 00 00         : PHIN         - NEUTRON POROSITY (SANDSTONE)
DPHI.V/V      00 890 00 00         : PHID         - DENSITY POROSITY (SANDSTONE)
ILD .OHMM     00 120 00 00         : RESD         - DEEP RESISTIVITY (DIL)
~PARAMETER INFORMATION
#MNEM.UNIT           DATA             DESCRIPTION OF MNEMONIC
#---------         -----------     ------------------------------
GL  .M        358.2                : gl           - GROUND LEVEL ELEVATION
EREF.M        358.2                : kb           - ELEVATION OF DEPTH REFERENCE
DATM.M        358.2                : datum        - DATUM ELEVATION
TDD .M        128.12               : tdd          - TOTAL DEPTH DRILLER
RUN .         ONE                  : Run          - RUN NUMBER
ENG .         JO                   : Engineer     - RECORDING ENGINEER
WIT .         TIM                  : Witness      - WITNESSED BY
MUD .         GEL                  : Mud_type     - MUD TYPE
MATR.         SANDSTONE            : Logunit      - NEUTRON MATRIX
TMAX.C        8.8                  : BHT          - MAXIMUM RECORDED TEMPERATURE
BHTD.M        128.12               : BHTDEP       - MAXIMUM RECORDED TEMPERATURE
RMT .C        18                   : MDTP         - TEMPERATURE OF MUD
MUDD.KG/M     1.01                 : MWT          - MUD DENSITY
NEUT.         1                    : NEUTRON      - NEUTRON TYPE
RESI.         0                    : RESIST       - RESISTIVITY TYPE
RM  .OHMM     9.4                  : RM           - RESISTIVITY OF MUD
RMC .OHMM     9.4                  : RMC          - RESISTIVITY OF MUD CAKE
RMF .OHMM     9.4                  : RMF          - RESISTIVITY OF MUD FILTRATE
SUFT.C        4                    : SUFT         - SURFACE TEMPERATURE
~A  DEPTH       GR      CAL     PHIN     PHID     RESD
   30.000   85.425  226.400    0.570    0.314    6.251
   30.250   84.199  207.311    0.529    0.312    6.866
   30.500   87.275  197.256    0.542    0.284    6.593
   30.750   96.496  191.218    0.560    0.272    5.113
   31.000  112.478  163.089    0.532    0.262    2.400
   31.250  106.336  182.149    0.531    0.288    6.537
   31.500  105.725  190.167    0.554    0.293    7.913
   31.750  119.863  210.235    0.454    0.266    5.901
   32.000  127.241  213.229    0.469    0.255    6.121
   32.250  113.723  202.170    0.460    0.236    6.714
   32.500  111.268  195.124    0.432    0.214    5.968
   32.750  124.792  194.106    0.410    0.179    4.911
   33.000  121.108  191.079    0.210    0.098    7.211
   33.250  110.048  188.057    0.240    0.087   10.378
   33.500  109.437  171.979    0.306    0.058    8.534
   33.750  105.138  165.940    0.363    0.130   24.642
   34.000  102.683  168.938    0.410    0.163  145.437
   34.250  103.916  180.967    0.471    0.191   58.470
   34.500  112.523  185.976    0.465    0.219    6.820
   34.750  105.765  191.985    0.467    0.237    7.637
   35.000   93.477  193.978    0.475    0.240    7.056
   35.250  100.855  196.976    0.497    0.251    5.798
   35.500   95.942  210.013    0.514    0.257    5.154
   35.750  108.237  217.026    0.574    0.253    4.946
   36.000  115.614  215.003    0.478    0.255    4.835
   36.250  119.920  225.028    0.489    0.264    4.376
   36.500  127.297  231.038    0.524    0.276    4.807
   36.750  112.551  236.043    0.533    0.282    4.356
   37.000  104.565  238.036    0.575    0.287    4.180
   37.250  107.641  249.065    0.550    0.273    4.011
   37.500  118.706  263.106    0.569    0.248    3.235
   37.750  121.168  253.052    0.461    0.218    3.693
   38.000  121.171  256.046    0.477    0.228    3.977
   38.250  109.497  258.039    0.483    0.243    4.203
   38.500   90.449  258.021    0.518    0.250    7.347
   38.750   89.838  260.014    0.479    0.247    6.526
   39.000   93.528  263.008    0.503    0.247    5.260
   39.250   94.760  265.008    0.564    0.247    5.782
   39.500  108.899  269.006    0.564    0.241    6.225
   39.750  120.578  266.987    0.519    0.236    5.321
   40.000  126.727  259.938    0.500    0.233    5.205
   40.250  125.501  261.935    0.510    0.238    4.803
   40.500  106.453  264.932    0.505    0.246    5.079
   40.750   84.331  265.925    0.494    0.251    5.688
   41.000   97.856  264.906    0.494    0.249    5.454
   41.250   89.255  272.924    0.477    0.240    4.939
   41.500   91.102  274.917    0.463    0.240    4.560
   41.750   99.094  261.851    0.475    0.247    4.917
   42.000   99.712  252.797    0.531    0.259    5.502
   42.250  102.173  249.770    0.502    0.283    5.488
   42.500   96.030  246.744    0.500    0.289    5.169
   42.750  102.794  242.714    0.541    0.302    4.333
   43.000  124.307  237.683    0.580    0.309    1.493
   43.250  135.987  233.652    0.617    0.320    0.772
   43.500  129.230  230.626    0.623    0.318    0.335
   43.750  116.941  236.631    0.616    0.277    0.232
   44.000  102.195  228.585    0.541    0.263    0.618
   44.250  112.646  222.547    0.521    0.251    0.764
   44.500  114.493  226.548    0.507    0.224    3.122
   44.750  118.183  215.490    0.522    0.222    3.174
   45.000  121.874  217.483    0.461    0.237    4.571
   45.250  118.189  227.508    0.444    0.178    5.974
   45.500  115.734  217.454    0.509    0.150    6.075
   45.750  118.196  206.389    0.502    0.203    7.792
   46.000  120.043  207.382    0.485    0.231   11.215
   46.250  108.984  212.387    0.501    0.253    6.144
   46.500  100.998  216.392    0.503    0.272    5.052
   46.750  102.229  225.413    0.476    0.234    5.658
   47.000  113.295  230.414    0.434    0.208    5.535
   47.250  102.850  223.376    0.462    0.169    5.210
   47.500  101.625  215.329    0.534    0.203    6.182
   47.750  104.701  208.287    0.589    0.250    9.435
   48.000  110.849  213.292    0.609    0.283    0.296
   48.250  112.082  238.373    0.622    0.330    0.119
   48.500  105.325  216.275    0.631    0.368    0.078
   48.750  109.630  208.225    0.607    0.347    0.060
   49.000  109.633  210.219    0.613    0.327    0.066
   49.250  107.792  211.208    0.631    0.315    0.075
   49.500  108.410  222.237    0.649    0.287    0.117
   49.750   99.809  221.218    0.496    0.286    0.314
   50.000   99.812  223.208    0.482    0.315    1.037
   50.250   97.972  231.229    0.479    0.320    2.285
   50.500   83.225  227.195    0.524    0.294    1.433
   50.750   88.145  237.224    0.500    0.298    1.429
   51.000   94.909  229.177    0.484    0.307    3.149
   51.250   89.380  202.048    0.505    0.322    3.527
   51.500   91.842  212.081    0.495    0.297    6.157
   51.750  101.678  235.157    0.541    0.295    2.947
   52.000  102.296  218.075    0.525    0.261    3.929
   52.250   93.081  245.168    0.588    0.249    6.858
   52.500  105.375  222.062    0.550    0.278    3.548
   52.750  120.742  211.000    0.593    0.288    0.376
   53.000  120.131  204.966    0.582    0.305    0.354
   53.250  117.061  206.959    0.643    0.292    0.339
   53.500  120.137  204.933    0.546    0.284    0.302
   53.750  109.079  203.911    0.559    0.279    0.234
   54.000   99.249  205.911    0.517    0.278    0.133
   54.250   94.949  204.893    0.533    0.278    0.121
   54.500   98.640  200.855    0.557    0.275    0.125
   54.750   99.258  201.844    0.531    0.270    0.214
   55.000  100.490  201.830    0.539    0.267    0.231
   55.250   98.650  198.803    0.560    0.266    0.239
   55.500   91.892  198.785    0.549    0.266    0.258
   55.750   96.197  199.782    0.549    0.266    0.386
   56.000  108.492  199.767    0.599    0.268    0.578
   56.250   94.975  201.757    0.576    0.270    0.755
   56.500   95.593  205.758    0.575    0.269    1.371
   56.750  102.356  199.723    0.558    0.273    1.505
   57.000   92.526  193.685    0.485    0.268    1.391
   57.250  101.747  195.678    0.482    0.252    1.234
   57.500  100.522  199.680    0.463    0.276    1.711
   57.750   89.463  205.689    0.389    0.304    1.807
   58.000   88.852  231.777    0.456    0.312    1.802
   58.250   94.386  204.648    0.462    0.223    2.312
   58.500   98.691  205.645    0.452    0.224    4.537
   58.750   95.621  211.651    0.463    0.231    7.764
   59.000   88.864  208.628    0.477    0.241    7.168
   59.250   91.325  201.586    0.417    0.233    7.431
   59.500  118.369  195.547    0.435    0.185    8.489
   59.750  104.852  191.509    0.447    0.200    9.325
   60.000   93.178  191.499    0.457    0.234    9.673
   60.250   90.723  192.488    0.466    0.251   12.887
   60.500   89.498  194.478    0.468    0.259    9.438
   60.750  112.239  195.471    0.465    0.252    8.218
   61.000  123.919  198.464    0.472    0.257    8.029
   61.250  113.475  200.458    0.450    0.268    7.715
   61.500  114.708  194.423    0.461    0.279    6.853
   61.750  114.710  194.405    0.474    0.261    8.452
   62.000  104.266  197.402    0.479    0.245   11.268
   62.250   98.738  202.411    0.481    0.248   10.403
   62.500   97.512  209.424    0.526    0.258   13.064
   62.750  109.806  206.398    0.450    0.270   11.620
   63.000  120.258  204.372    0.453    0.259    4.671
   63.250  110.427  207.372    0.466    0.241    5.651
   63.500  107.357  210.370    0.470    0.248    7.826
   63.750  109.819  215.375    0.459    0.260    7.656
   64.000  108.593  214.357    0.475    0.263    7.206
   64.250  108.597  213.334    0.477    0.240    8.233
   64.500  116.589  220.351    0.477    0.249   12.080
   64.750  112.290  227.361    0.499    0.254   11.160
   65.000   93.241  228.354    0.466    0.245    8.322
   65.250   87.099  228.339    0.448    0.239    8.800
   65.500   82.800  225.313    0.465    0.241   12.675
   65.750   80.960  223.290    0.460    0.265   12.162
   66.000   72.974  224.280    0.456    0.294   14.432
   66.250   64.987  222.246    0.461    0.290   30.560
