~Version : LASO    vs 4.00
VERS.                2.00:   CWLS Log ASCII Standard -VERSION 2.0
WRAP.                  NO:
~Well Information Block
#MNEM.UNIT       Data                        Description of Mnemonic
#----.----      -------------------------- : -----------------------------
COMP.                                     : COMPANY
FLD .    WILDCAT                          : FIELD NAME
LOC .    02-32-090-08W4                   : WELL LOCATION
UWI .    AA/02-32-090-08W400              : UNIQUE WELL ID
STRT.M             0.0000:
STOP.M           201.3750:
STEP.M             0.1250:
NULL.           -999.2500:
COMP.  :COMPANY
WELL.  MOBIL CLARKE OV 2-32:WELL
FLD.   :FIELD
LOC.   :LOCATION
CTRY.  :COUNTRY
PROV.  ALBERTA:PROVINCE
SRVC.  DRESSER ATLAS:SERVICE COMPANY
DATE.  17-FEB-81:LOG DATE
UWI.   :UNIQUE WELL ID
~Parameter Information Block
#MNEM.UNIT       Data                        Description of Mnemonic
#----.----      -------------------------- : -----------------------------
RUN .                   1                 : Run Number
GL  .M           431.8000                 : Ground Level Elevation
DREF.                  KB                 : Depth Reference
EREF.M           431.8000                 : Elevation of Depth Reference
TDL .M           202.0000                 : Total Depth Logger
TDD .M           201.6000                 : Total Depth Driller
BHT .DEGC         20.0000                 : Bottom Hole Temperature
BS  .MM          159.0000                 : Bit Size
DFD .             10.3000                 : Mud Weight (Density)
DFV .             85.0000                 : Mud Viscosity
DFPH.             10.0000                 : Mud pH
RM  .OHMM          4.9000                 : Mud Resistivity
RMT .DEGC         20.0000                 : Mud Resistivity Temperature
RMF .OHMM          4.7000                 : Mud Filtrate Resistivity
RMFT.DEGC         10.0000                 : RMF Temperature
RMC .OHMM          9.5000                 : Mud Cake Resistivity
RMCT.DEGC         10.0000                 : RMC Temperature
~Curve Information Block
#MNEM.UNIT        API CODE    Curve Description
#---------    ------------    -------------------------------------------
DEPT.M                    :   DEPTH
CALI.MM       42 280  1  1:   3 DENSITY CALIPER
DPHI.V/V                  :   DPHI
DT  .US/M     60 520 42  1:   2 SONIC INTERVAL TRANSIT TIME (COMPENSATED)
GR  .GAPI     42 310  1  1:   4 GAMMA RAY
IL  .OHMM      5 120 45  1:   7 INDUCTION
NPHI.V/V      42 890  3  1:   5 NEUTRON POROSITY (SANDSTONE)
RHOB.K/M3     42 350  1  1:   6 BULK DENSITY
SFL .OHMM      5 220  6  1:   8 FOCUSSED RESISTIVITY
SP  .MV        5  10  1  1:   9 SPONTANEOUS POTENTIAL
~A  Depth           CALI        DPHI          DT          GR          IL        NPHI        RHOB         SFL          SP
# ...
58.6250         178.5250      0.3426     74.0800     35.5350     53.3500      0.3646   2075.6001     65.2000    -66.0600
58.7500         165.7000      0.3413     82.4400     37.1700     52.9500      0.3497   2076.3000     60.3000    -64.9400
58.8750         160.2000      0.3430    430.9200     39.1200     52.6000      0.3616   2060.1001     58.5500    -63.9400
59.0000         159.0000      0.3463    629.6800     41.2200     52.8500      0.3602   2042.9000     63.1000    -63.7000
59.1250         158.8750      0.3459    639.3600     43.1850     53.6500      0.3577   2041.3000     68.1500    -64.1900
59.2500         159.7000      0.3439    653.1600     45.7500     54.5000      0.3569   2042.3000     64.9500    -64.8200
59.3750         160.8250      0.3444    659.6000     48.7500     55.5000      0.3620   2052.8000     54.8500    -64.9400
59.5000         162.7500      0.3482    637.5200     52.2900     56.3500      0.3695   2055.5000     50.6000    -64.8200
59.6250         160.8250      0.3519    631.1600     51.4950     56.8000      0.3686   2057.3000     55.4500    -65.4400
59.7500         157.8000      0.3537    629.0000     43.4250     56.8500      0.3605   2060.5000     62.9999    -66.3100
59.8750         158.1500      0.3550    626.0000     41.3850     57.7500      0.3625   2047.8000     64.9000    -66.5600
60.0000         158.7000      0.3535    622.7600     39.4650     59.5500      0.3629   2053.8000     61.7500    -65.8100
60.1250         158.0000      0.3514    624.4000     37.5900     60.9999      0.3633   2061.8000     61.6500    -65.1900
60.2500         157.7500      0.3482    627.6800     31.9950     62.2500      0.3553   2067.2000     60.2000    -65.0700
60.3750         157.7250      0.3456    627.6800     27.2700     63.6000      0.3514   2069.7000     60.8500    -64.8200
60.5000         157.9000      0.3423    625.5600     27.5550     64.7500      0.3613   2098.6001     62.5000    -64.4400
60.6250         158.9000      0.3383    623.1200     28.5750     65.4500      0.3631   2102.8999     63.3500    -64.6900
60.7500         159.6750      0.3358    574.4800     30.7650     65.9500      0.3679   2104.7000     59.9500    -64.8200
60.8750         159.4000      0.3323    600.2400     32.2500     66.9500      0.3774   2083.2000     62.2500    -64.8200
61.0000         158.6500      0.3320    632.5600     32.9700     67.4000      0.3790   2076.7000     70.4500    -64.9400
61.1250         159.4250      0.3341    643.0000     34.1850     67.7500      0.3663   2076.7000     79.9000    -65.3100
61.2500         160.9250      0.3387    659.6000     35.3850     67.7500      0.3617   2068.1001     80.4500    -65.3100
61.3750         163.5750      0.3424    638.4800     36.7500     65.8500      0.3569   2056.8999     72.8500    -65.4400
61.5000         161.2000      0.3471    634.7200     38.2350     62.2000      0.3655   2039.6000     62.9999    -65.0700
61.6250         159.5750      0.3520    633.0800     38.9250     57.8500      0.3710   2026.7000     61.8500    -65.0700
61.7500         159.0000      0.3569    631.0800     38.0550     53.9500      0.3670   2032.2000     65.3500    -65.3100
61.8750         160.0000      0.3564    627.0400     37.0350     51.7000      0.3634   2053.7000     70.5500    -65.4400
62.0000         162.4000      0.3542    622.2800     36.0150     50.9999      0.3539   2075.3000     66.5000    -65.3100
62.1250         163.4750      0.3529    616.8000     35.6400     51.9000      0.3479   2096.8999     57.1000    -65.1900
62.2500         163.4750      0.3497    654.9200     32.8500     52.7500      0.3377   2109.3999     48.9900    -65.6900
62.3750         163.4500      0.3425    665.8000     29.6250     52.4500      0.3350   2097.8999     45.7400    -65.6900
62.5000         163.4500      0.3372    660.9600     26.5950     51.2500      0.3404   2086.3999     49.9700    -65.1900
62.6250         163.3250      0.3341    638.8000     25.3500     50.1250      0.3416   2075.0000     60.6500    -64.8200
62.7500         162.4250      0.3367    634.3200     25.6350     49.8200      0.3455   2051.7000     69.9999    -64.4400
62.8750         162.4000      0.3419    451.5200     27.5100     50.6000      0.3608   1996.4000     72.1500    -64.6900
63.0000         162.7500      0.3478    167.8400     31.0950     52.0500      0.3598   1991.3000     71.9000    -64.9400
63.1250         164.5500      0.3770    405.8800     33.3450     53.2500      0.3565   1987.4000     70.9000    -65.0700
63.2500         168.7500      0.4008    600.2400     34.5450     53.0500      0.3623   1984.9000     64.9999    -64.6900
63.3750         167.4250      0.4074    627.6000     36.3450     51.8000      0.3731   2003.7000     55.4000    -64.0700
63.5000         162.7500      0.4024    613.9600     36.9600     50.6000      0.3745   2027.5000     50.9500    -63.3200
63.6250         163.9000      0.3922    600.2400     38.4000     49.0200      0.3769   2054.3999     49.4800    -62.5700
63.7500         165.0000      0.3879    623.0800     39.6300     47.7950      0.3751   2078.5000     49.7250    -61.5800
63.8750         161.5500      0.3887    626.3600     42.3000     47.4250      0.3767   2076.5000     50.8000    -61.3300
64.0000         159.4750      0.3889    649.6000     47.0550     47.9150      0.3922   2047.1000     55.2000    -61.7000
64.1250         159.2500      0.3863    633.7200     51.4200     49.0200      0.3993   2041.5000     60.9000    -62.5700
64.2500         161.1250      0.3838    624.1200     53.5350     50.2500      0.3911   2039.8000     66.4500    -63.2000
64.3750         161.3500      0.3822    623.2400     55.3350     52.3500      0.3855   2028.4000     69.6000    -63.9400
64.5000         159.2250      0.3785    625.4400     56.0400     55.2000      0.3796   2024.1000     70.2500    -64.4400
64.6250         158.5500      0.3754    626.1200     51.0450     57.5500      0.3860   2023.3000     70.0500    -64.0700
64.7500         159.1750      0.3707    625.3600     46.6500     59.5500      0.3866   2022.5000     70.8500    -63.5700
64.8750         159.1750      0.3671    624.1200     45.4950     61.6000      0.3770   2036.5000     73.3500    -63.4500
65.0000         158.5500      0.3624    623.3600     44.5350     63.3500      0.3714   2046.1000     75.6000    -64.3200
65.1250         158.2250      0.3577    628.0000     42.0300     64.8500      0.3637   2051.8999     77.4500    -64.9400
65.2500         158.9000      0.3540    649.0000     42.5700     65.7500      0.3604   2055.1001     78.5500    -65.5600
65.3750         159.1000      0.3504    639.8400     40.5750     67.1000      0.3576   2058.3999     79.2000    -65.9400
65.5000         159.1000      0.3468    629.1600     36.3600     67.8500      0.3578   2063.2000     78.7000    -66.0600
65.6250         158.3500      0.3423    625.5600     34.0200     68.2000      0.3568   2068.0000     80.9500    -66.0600
65.7500         158.0750      0.3368    623.1600     33.0900     67.6500      0.3392   2073.7000     85.2000    -65.6900
65.8750         157.2750      0.3318    623.7200     33.8100     67.5500      0.3335   2080.1001     87.5500    -65.3100
66.0000         157.3500      0.3262    624.5200     32.7900     68.1500      0.3422   2094.3000     84.7000    -65.0700
66.1250         158.3500      0.3175    622.9600     31.9650     68.5000      0.3457   2102.3000     78.8500    -64.6900
66.2500         159.0000      0.3128    592.3600     31.2900     68.9500      0.3341   2114.8999     68.3500    -64.4400
66.3750         158.4000      0.3048    441.4400     31.0200     68.5500      0.3189   2121.3000     68.1500    -63.8200
66.5000         157.9750      0.2998    145.7600     30.6000     67.9000      0.3199   2156.5000     75.7000    -63.4500
66.6250         157.9500      0.2940     70.1600     32.1600     66.2500      0.3270   2159.7000     79.5000    -63.8200
66.7500         157.4750      0.2901    211.0400     34.2300     64.1500      0.3272   2178.5000     69.6000    -64.4400
66.8750         156.9250      0.2846    600.2400     36.2700     62.9999      0.3282   2198.8999     63.9000    -65.3100
