~VERSION INFORMATION
 VERS.                 2.0:   CWLS LOG ASCII STANDARD -VERSION 2.0
 WRAP.                  NO:   ONE LINE PER DEPTH STEP
~WELL INFORMATION BLOCK
#MNEM.UNIT           DATA                    DESCRIPTION OF MNEMONIC
#---------    -------------------            -------------------------------
# Generated from Intellog Unique Number	CW_79_81/WELL/637
WELL.         07-33-079-25W4                 : Well_name    - WELL
LOC .         AA/07-33-079-25W4/0            : Location     - LOCATION
UWI .         AA/07-33-079-25W4/0            : Uwi          - UNIQUE WELL ID
ENTR.         MAX                            : Entered      - ENTERED BY
SRVC.         SCHLUMBERGER                   : Scn          - SERVICE COMPANY
STRT.M        200                            : top_depth    - START DEPTH
STOP.M        475                            : bot_depth    - STOP DEPTH
STEP.M        0.25                           : increment    - STEP LENGTH
 NULL. -999.2500:NULL Value
~CURVE INFORMATION BLOCK
#MNEM UNIT       ERCB CURVE CODE    CURVE DESCRIPTION
#-----------   ------------------   ----------------------------------
DEPT.M        00 001 00 00         : DEPTH        - DEPTH
ILD .OHMM     00 120 00 00         : RESD         - DEEP RESISTIVITY (DIL)
NPHI.V/V      00 330 00 00         : PHIN         - NEUTRON POROSITY (SANDSTONE)
DPHI.V/V      00 890 00 00         : PHID         - DENSITY POROSITY (SANDSTONE)
CALI.MM       00 280 01 00         : CAL          - CALIPER
GR  .API      00 310 00 00         : GR           - GAMMA RAY
~PARAMETER INFORMATION
#MNEM.UNIT           DATA             DESCRIPTION OF MNEMONIC
#---------         -----------     ------------------------------
GL  .M        557.85               : gl           - GROUND LEVEL ELEVATION
EREF.M        562.3                : kb           - ELEVATION OF DEPTH REFERENCE
DATM.M        557.85               : datum        - DATUM ELEVATION
TDD .M        485.5                : tdd          - TOTAL DEPTH DRILLER
RUN .         ONE                  : Run          - RUN NUMBER
ENG .         BILL                 : Engineer     - RECORDING ENGINEER
WIT .         JIM                  : Witness      - WITNESSED BY
MUD .         GEL                  : Mud_type     - MUD TYPE
MATR.         SANDSTONE            : Logunit      - NEUTRON MATRIX
TMAX.C        17.7                 : BHT          - MAXIMUM RECORDED TEMPERATURE
BHTD.M        485                  : BHTDEP       - MAXIMUM RECORDED TEMPERATURE
RMT .C        20                   : MDTP         - TEMPERATURE OF MUD
MUDD.KG/M     1110                 : MWT          - MUD DENSITY
NEUT.         1                    : NEUTRON      - NEUTRON TYPE
RESI.         0                    : RESIST       - RESISTIVITY TYPE
RM  .OHMM     11.3                 : RM           - RESISTIVITY OF MUD
RMC .OHMM     0.25                 : RMC          - RESISTIVITY OF MUD CAKE
RMF .OHMM     4.93                 : RMF          - RESISTIVITY OF MUD FILTRATE
SUFT.C        -15                  : SUFT         - SURFACE TEMPERATURE
~A  DEPTH     RESD     PHIN     PHID      CAL       GR
# ...
  236.500   71.256    0.430    0.300  251.836   48.301
  236.750   76.711    0.405    0.237  251.329   48.298
  237.000   81.075    0.333    0.214  251.324   49.504
  237.250   82.581    0.357    0.208  251.320   51.315
  237.500   78.855    0.353    0.201  251.317   54.334
  237.750   73.243    0.354    0.204  251.311   54.333
  238.000   65.564    0.393    0.315  251.308   51.308
  238.250   60.898    0.454    0.339  251.305   48.888
  238.500   58.689    0.471    0.345  251.300   48.584
  238.750   59.231    0.469    0.351  251.296   50.697
  239.000   62.599    0.482    0.351  252.300   50.090
  239.250   67.392    0.469    0.335  252.800   48.274
  239.500   73.903    0.456    0.304  253.299   46.459
  239.750   93.071    0.412    0.208  253.799   44.341
  240.000  107.871    0.390    0.190  253.290   42.827
  240.250  107.867    0.392    0.217  251.776   43.429
  240.500   99.269    0.367    0.269  249.254   43.729
  240.750   84.077    0.385    0.322  248.243   43.424
  241.000   71.210    0.451    0.340  247.734   45.236
  241.250   64.932    0.479    0.351  247.731   48.254
  241.500   61.433    0.503    0.358  247.727   47.648
  241.750   61.433    0.516    0.358  247.722   45.530
  242.000   59.751    0.499    0.358  247.718   44.319
  242.250   59.750    0.474    0.355  247.718   44.316
  242.500   61.993    0.474    0.353  248.214   44.616
  242.750   64.322    0.475    0.350  248.211   44.614
  243.000   66.738    0.467    0.348  248.206   44.611
  243.250   69.885    0.474    0.352  248.202   44.307
  243.500   70.531    0.482    0.358  248.197   43.095
  243.750   71.182    0.485    0.361  247.691   42.187
  244.000   72.505    0.497    0.361  247.686   41.882
  244.250   73.174    0.487    0.361  247.683   43.693
  244.500   73.171    0.490    0.363  247.679   46.410
  244.750   73.169    0.499    0.362  247.675   46.408
  245.000   71.169    0.499    0.358  247.671   45.801
  245.250   69.224    0.493    0.356  247.667   45.194
  245.500   67.332    0.476    0.361  247.663   45.192
  245.750   63.118    0.473    0.365  247.659   45.794
  246.000   57.026    0.472    0.366  247.654   44.885
  246.250   39.426    0.466    0.364  247.650   44.278
  246.500   36.959    0.452    0.364  247.646   46.694
  246.750   33.392    0.446    0.365  247.642   45.481
  247.000   30.730    0.452    0.365  247.639   44.574
  247.250   28.542    0.459    0.365  247.635   46.082
  247.500   27.507    0.469    0.364  247.630   48.497
  247.750   26.755    0.456    0.365  247.627   47.890
  248.000   26.509    0.444    0.362  247.623   45.168
  248.250   26.264    0.439    0.360  247.618   43.957
  248.500   26.264    0.438    0.362  247.618   45.465
  248.750   26.021    0.435    0.367  247.106   46.671
  249.000   25.782    0.440    0.370  247.102   46.669
  249.250   25.309    0.446    0.370  247.099   46.667
  249.500   24.167    0.440    0.368  247.095   47.269
  249.750   22.655    0.431    0.362  247.593   47.871
  250.000   21.043    0.428    0.344  248.598   49.379
  250.250   18.837    0.431    0.249  249.601   51.492
  250.500   17.335    0.377    0.124  250.605   49.072
  250.750   17.334    0.351    0.141  250.599   41.818
  251.000   17.334    0.365    0.267  250.596   39.095
  251.250   18.151    0.389    0.302  250.592   40.604
  251.500   19.008    0.447    0.313  250.588   40.904
  251.750   21.037    0.459    0.343  250.588   39.693
  252.000   22.858    0.464    0.341  250.579   37.575
  252.250   25.533    0.452    0.316  250.576   37.270
  252.500   26.985    0.428    0.301  250.572   38.779
  252.750   26.248    0.400    0.305  250.568   38.776
  253.000   24.379    0.423    0.326  250.564   39.076
  253.250   22.230    0.428    0.340  250.564   42.700
  253.500   19.536    0.425    0.347  250.555   44.812
  253.750   17.488    0.434    0.351  250.552   43.602
  254.000   17.010    0.438    0.356  251.052   41.786
  254.250   17.812    0.422    0.351  251.048   42.388
  254.500   17.976    0.411    0.333  251.041   41.177
  254.750   18.142    0.427    0.331  251.039   40.267
  255.000   17.975    0.443    0.338  251.036   40.568
  255.250   16.696    0.457    0.349  251.029   42.076
  255.500   15.943    0.453    0.353  251.027   42.074
  255.750   14.403    0.428    0.351  251.023   43.583
  256.000   13.881    0.451    0.344  251.020   47.810
  256.250   14.009    0.452    0.333  251.016   46.599
  256.500   14.139    0.432    0.331  251.011   44.179
  256.750   14.535    0.419    0.335  251.007   41.760
  257.000   14.942    0.409    0.330  251.004   42.361
  257.250   15.361    0.435    0.338  251.000   43.568
  257.500   15.503    0.434    0.352  250.996   41.752
  257.750   15.360    0.418    0.352  250.992   40.239
  258.000   15.359    0.421    0.347  250.987   39.934
  258.250   15.936    0.435    0.343  250.984   40.537
  258.500   16.843    0.448    0.344  249.972   41.441
  258.750   18.814    0.445    0.347  249.465   41.740
  259.000   19.520    0.435    0.342  249.461   42.644
  259.250   19.701    0.456    0.343  249.960   42.340
  259.500   19.700    0.443    0.343  250.459   39.315
  259.750   19.699    0.416    0.347  250.456   38.406
  260.000   20.065    0.426    0.354  250.451   40.217
  260.250   20.250    0.436    0.347  250.448   43.539
  260.500   19.516    0.436    0.330  250.444   45.349
  260.750   18.636    0.433    0.326  250.444   46.858
  261.000   17.960    0.429    0.332  250.436   48.064
  261.250   17.631    0.420    0.340  249.928   47.156
  261.500   17.794    0.402    0.338  249.923   44.736
  261.750   18.124    0.380    0.331  249.921   41.711
  262.000   17.629    0.399    0.333  250.419   42.011
  262.250   16.679    0.430    0.339  250.414   44.426
  262.500   15.927    0.458    0.343  250.410   45.633
  262.750   15.068    0.434    0.350  250.407   45.026
  263.000   14.522    0.419    0.348  250.404   42.304
  263.250   14.125    0.415    0.344  249.896   41.999
  263.500   13.613    0.441    0.338  249.388   41.997
  263.750   13.119    0.433    0.333  249.384   44.110
  264.000   12.527    0.424    0.325  249.384   47.733
  264.250   12.073    0.415    0.321  248.872   48.638
  264.500   11.852    0.421    0.321  248.869   49.542
  264.750   11.961    0.435    0.326  248.864   51.352
  265.000   12.184    0.457    0.332  248.860   51.955
  265.250   12.183    0.458    0.331  248.352   49.837
  265.500   12.183    0.442    0.329  248.349   46.511
  265.750   12.182    0.424    0.334  247.841   44.090
  266.000   12.070    0.424    0.337  247.836   43.483
  266.250   12.181    0.452    0.335  247.833   44.388
  266.500   12.874    0.457    0.332  247.829   43.176
  266.750   13.358    0.440    0.333  248.329   42.268
  267.000   14.248    0.443    0.337  248.329   42.568
  267.250   14.513    0.454    0.340  248.823   43.170
  267.500   14.247    0.451    0.344  249.828   44.074
  267.750   13.604    0.426    0.340  250.328   46.791
  268.000   12.066    0.409    0.322  250.324   49.508
  268.250   11.311    0.408    0.321  250.823   52.226
  268.500   11.629    0.424    0.323  250.818   51.619
  268.750   12.290    0.417    0.339  250.815   44.968
  269.000   12.634    0.400    0.344  251.315   42.850
  269.250   12.518    0.402    0.342  251.310   43.754
  269.500   11.735    0.412    0.341  251.307   45.868
  269.750   11.309    0.432    0.332  251.303   46.771
  270.000   11.309    0.439    0.330  250.794   45.862
  270.250   11.308    0.431    0.334  250.794   45.558
  270.500   11.951    0.422    0.336  250.787   45.556
  270.750   13.474    0.420    0.335  250.783   44.042
  271.000   13.851    0.429    0.335  250.276   43.133
  271.250   12.514    0.436    0.339  250.271   44.339
  271.500   11.099    0.442    0.341  250.268   48.568
  271.750   10.796    0.462    0.339  250.262   48.263
  272.000   10.997    0.447    0.331  250.258   42.217
  272.250   11.098    0.421    0.324  250.255   42.517
  272.500   10.214    0.416    0.324  249.747   47.350
  272.750    9.228    0.440    0.330  249.744   54.298
