~VERSION INFORMATION
 VERS.                 2.0:   CWLS LOG ASCII STANDARD -VERSION 2.0
 WRAP.                  NO:   ONE LINE PER DEPTH STEP
~WELL INFORMATION BLOCK
#MNEM.UNIT           DATA                    DESCRIPTION OF MNEMONIC
#---------    -------------------            -------------------------------
# Generated from Intellog Unique Number	CN_94_101/WELL/2684
WELL.         IMPERIAL OIL LTD.              : Well_name    - WELL
LOC .         AA/06-06-094-16W4/0            : Location     - LOCATION
UWI .         AA/06-06-094-16W400            : Uwi          - UNIQUE WELL ID
ENTR.         JOETTE                         : Entered      - ENTERED BY
SRVC.         SCHLUMBERGER                   : Scn          - SERVICE COMPANY
DATE.         06/19/92                       : Date         - LOG DATE
STRT.F        300                            : top_depth    - START DEPTH
STOP.F        879.888                        : bot_depth    - STOP DEPTH
STEP.F        0.82                           : increment    - STEP LENGTH
 NULL. -999.2500:NULL Value
~CURVE INFORMATION BLOCK
#MNEM UNIT       ERCB CURVE CODE    CURVE DESCRIPTION
#-----------   ------------------   ----------------------------------
DEPT.F        00 001 00 00         : DEPTH        - DEPTH
GR  .API      00 310 00 00         : GR           - GAMMA RAY
NPHI.V/V      00 330 00 00         : PHIN         - NEUTRON POROSITY (SANDSTONE)
ILD .OHMM     00 120 00 00         : RESD         - DEEP RESISTIVITY (DIL)
~PARAMETER INFORMATION
#MNEM.UNIT           DATA             DESCRIPTION OF MNEMONIC
#---------         -----------     ------------------------------
GL  .F        1718                 : gl           - GROUND LEVEL ELEVATION
EREF.F        1720                 : kb           - ELEVATION OF DEPTH REFERENCE
DATM.F        1720                 : datum        - DATUM ELEVATION
TDD .F        876                  : tdd          - TOTAL DEPTH DRILLER
RUN .         ONE                  : Run          - RUN NUMBER
ENG .         JO                   : Engineer     - RECORDING ENGINEER
WIT .         TIM                  : Witness      - WITNESSED BY
MUD .         GEL                  : Mud_type     - MUD TYPE
MATR.         SANDSTONE            : Logunit      - NEUTRON MATRIX
TMAX.F        48                   : BHT          - MAXIMUM RECORDED TEMPERATURE
BHTD.F        876                  : BHTDEP       - MAXIMUM RECORDED TEMPERATURE
RMT .F        48                   : MDTP         - TEMPERATURE OF MUD
MUDD.LB/G     1                    : MWT          - MUD DENSITY
NEUT.         1                    : NEUTRON      - NEUTRON TYPE
RESI.         0                    : RESIST       - RESISTIVITY TYPE
RM  .OHMM     18.4                 : RM           - RESISTIVITY OF MUD
RMC .OHMM     18.4                 : RMC          - RESISTIVITY OF MUD CAKE
RMF .OHMM     18.4                 : RMF          - RESISTIVITY OF MUD FILTRATE
SUFT.F        39.2                 : SUFT         - SURFACE TEMPERATURE
~A  DEPTH       GR     PHIN     RESD
  300.000  104.130    0.522   10.815
  300.820  106.851    0.548   10.959
  301.640  108.491    0.537   11.176
  302.461  103.624    0.523   10.533
  303.281   76.522    0.467    9.388
  304.101   87.381    0.497    9.461
  304.921   96.613    0.506    9.893
  305.741   97.168    0.477    9.249
  306.562   91.759    0.461   10.396
  307.382   82.014    0.475   10.541
  308.202   86.365    0.517    8.967
  309.022   96.140    0.533    8.252
  309.843   95.610    0.529    8.684
  310.663   94.539    0.538    7.969
  311.483  100.517    0.551    7.684
  312.303  104.869    0.552    9.261
  313.123  108.139    0.559    9.763
  313.944  104.356    0.495   10.051
  314.764  100.576    0.479    9.623
  315.584  102.213    0.498    9.410
  316.404   97.888    0.496    9.124
  317.224   96.274    0.498    9.413
  318.045  102.252    0.530    8.698
  318.865  106.604    0.530    7.410
  319.685  110.416    0.537    7.412
  320.505  107.721    0.517    7.699
  321.325  102.850    0.512    8.704
  322.146   96.356    0.537   12.071
  322.966   92.573    0.542   14.866
  323.786   94.213    0.485   13.077
  324.606   89.345    0.502   10.142
  325.427   88.816    0.513    7.207
  326.247  100.220    0.517    6.349
  327.067  106.741    0.519    6.924
  327.887  107.839    0.485    7.140
  328.707  102.429    0.510    6.425
  329.528   94.308    0.511    8.360
  330.348   83.475    0.450   14.377
  331.168   57.458    0.432   17.458
  331.988   48.794    0.416   23.476
  332.808   45.011    0.416   28.491
  333.629   47.194    0.430   27.919
  334.449   43.411    0.411   23.910
  335.269   40.170    0.406   24.484
  336.089   39.644    0.410   26.992
  336.909   43.450    0.417   27.782
  337.730   46.181    0.408   27.712
  338.550   41.859    0.398   27.856
  339.370   41.869    0.405   27.930
  340.190   42.421    0.416   27.572
  341.010   44.064    0.428   27.144
  341.831   44.616    0.429   27.360
  342.651   46.805    0.430   27.720
  343.471   47.906    0.432   27.793
  344.291   47.916    0.413   27.293
  345.112   47.383    0.390   26.865
  345.932   44.685    0.399   27.511
  346.752   41.987    0.423   28.229
  347.572   42.545    0.425   28.087
  348.392   45.270    0.450   28.589
  349.213   47.995    0.416   28.519
  350.033   47.462    0.287   27.160
  350.853   38.802    0.016   26.016
  351.673   37.734   -0.025   27.163
  352.493   39.916    0.200   28.239
  353.314   41.014    0.323   28.240
  354.134   41.569    0.369   28.528
  354.954   43.209    0.375   29.246
  355.774   43.219    0.400   28.459
  356.594   42.693    0.413   27.171
  357.415   40.537    0.424   28.534
  358.235   38.381    0.415   30.183
  359.055   36.770    0.405   31.258
  359.875   36.244    0.399   31.117
  360.696   36.793    0.398   31.046
  361.516   37.891    0.389   31.191
  362.336   39.534    0.385   31.694
  363.156   40.632    0.381   31.695
  363.976   42.272    0.393   31.840
  364.797   45.542    0.393   30.767
  365.617   46.639    0.399   31.127
  366.437   45.022    0.389   27.619
  367.257   41.782    0.399   27.549
  368.077   39.629    0.408   28.338
  368.898   39.100    0.418   28.411
  369.718   38.571    0.427   28.197
  370.538   36.957    0.410   27.554
  371.358   43.477    0.409   27.628
  372.178   44.578    0.410   27.987
  372.999   44.046    0.419   28.060
  373.819   42.432    0.420   27.488
  374.639   41.364    0.431   27.347
  375.459   41.377    0.433   27.420
  376.280   41.932    0.409   27.636
  377.100   41.403    0.441   27.494
  377.920   38.705    0.458   27.424
  378.740   46.310    0.449   27.426
  379.560   49.580    0.457   27.427
  380.381   46.878    0.274   27.214
  381.201   43.096    0.231   27.358
  382.021   39.312    0.183   27.933
  382.841   36.075    0.138   28.865
  383.661   36.088    0.012   30.299
  384.482   40.985    0.366   29.298
  385.302   42.080    0.413   28.511
  386.122   39.385    0.367   28.442
  386.942   36.141    0.391   28.515
  387.762   36.696    0.417   28.516
  388.583   43.217    0.430   28.947
  389.403   46.483    0.404   29.235
  390.223   43.246    0.411   29.737
  391.043   42.717    0.427   30.456
  391.864   42.730    0.431   30.958
  392.684   47.624    0.428   31.747
  393.504   59.025    0.477   31.677
  394.324   75.849    0.478   23.800
  395.144   96.472    0.472   10.911
  395.965  104.620    0.521   11.198
  396.785  106.802    0.523   11.343
  397.605  100.850    0.518   11.488
  398.425  101.409    0.517   12.062
  399.245  107.926    0.550   11.849
  400.066  111.739    0.550    9.057
  400.886  116.090    0.555    7.626
  401.706  122.072    0.557    7.198
  402.526  123.712    0.551    7.414
  403.346  125.891    0.540    7.774
  404.167  128.615    0.535    7.417
  404.987  130.258    0.530    7.633
  405.807  120.510    0.545    9.712
  406.627  114.016    0.558   10.071
  407.448  117.283    0.532    7.351
  408.268  122.719    0.541    6.421
  409.088  119.481    0.553    6.423
  409.908  120.576    0.551    6.998
  410.728  124.927    0.554    7.285
  411.549  124.398    0.562    7.215
  412.369  128.210    0.568    7.003
  413.189  126.054    0.570    6.860
  414.009  124.444    0.563    6.647
  414.829  122.284    0.566    6.505
  415.650  127.178    0.563    6.435
  416.470  125.022    0.567    6.580
  417.290  119.612    0.577    6.653
  418.110  115.829    0.572    6.654
  418.930  112.589    0.567    6.512
  419.751  110.439    0.564    6.442
  420.571  113.164    0.559    6.443
  421.391  115.885    0.555    6.660
  422.211  115.356    0.551    7.807
  423.031  116.453    0.547   10.243
  423.852  115.382    0.571   10.818
  424.672  108.887    0.567    7.811
  425.492  101.851    0.550    7.813
  426.312   98.071    0.533    8.459
  427.133  104.592    0.538    9.176
  427.953  112.197    0.533    9.607
  428.773  107.872    0.521   10.397
  429.593  101.377    0.519   10.756
  430.413  103.020    0.512   10.543
  431.234  101.949    0.503    8.396
  432.054   99.247    0.523    6.893
  432.874  105.226    0.541   11.120
  433.694   98.192    0.540    8.973
  434.514  101.459    0.557    6.038
  435.335  109.607    0.547    6.111
  436.155  118.839    0.539    6.113
  436.975  116.140    0.555    6.042
  437.795  117.241    0.554    5.829
  438.615  113.997    0.556    5.688
  439.436  112.932    0.573    5.689
  440.256  113.484    0.585    5.691
  441.076  114.582    0.558    5.692
  441.896  113.511    0.550    5.765
  442.717  115.151    0.539    5.766
  443.537  120.590    0.531    5.767
  444.357  120.600    0.542    5.698
  445.177  113.563    0.540    5.699
  445.997  109.241    0.546    5.700
  446.818  110.339    0.563    5.773
  447.638  111.979    0.557    5.847
  448.458  111.995    0.546    5.848
  449.278  113.093    0.543    5.922
  450.098  116.356    0.542    5.923
  450.919  119.623    0.541    5.781
  451.739  116.386    0.558    5.711
  452.559  112.057    0.570    5.856
  453.379  108.820    0.578    6.430
  454.199  104.498    0.574    7.219
  455.020  100.712    0.565    8.079
  455.840   95.302    0.463   10.158
  456.660   90.434    0.458   16.319
  457.480   89.908    0.472   13.026
  458.301   92.087    0.494   12.168
  459.121   89.931    0.496   12.456
  459.941   87.782    0.474   13.603
  460.761   88.331    0.464   12.888
  461.581   90.519    0.462   11.958
  462.402   91.614    0.478   10.671
  463.222   94.881    0.505    9.956
  464.042   98.690    0.508    9.242
  464.862  101.414    0.528    8.527
  465.682  100.885    0.538    8.886
  466.503  101.983    0.527    9.675
  467.323  109.591    0.515   10.465
  468.143  113.943    0.503   11.182
  468.963  107.448    0.500   12.115
  469.783   99.869    0.486   11.686
  470.604   92.294    0.499   10.757
  471.424   94.476    0.502   11.403
  472.244   92.320    0.476   14.770
  473.064   93.418    0.480   17.493
  473.885   95.058    0.517   20.216
  474.705  102.120    0.543    5.966
  475.525  102.137    0.568    6.468
  476.345  101.604    0.555    8.833
  477.165  104.874    0.540    9.622
