~VERSION INFORMATION
 VERS.                 2.0:   CWLS LOG ASCII STANDARD -VERSION 2.0
 WRAP.                  NO:   ONE LINE PER DEPTH STEP
~WELL INFORMATION BLOCK
#MNEM.UNIT           DATA                    DESCRIPTION OF MNEMONIC
#---------    -------------------            -------------------------------
# Generated from Intellog Unique Number	CN_94_101/WELL/3240
WELL.         07-25-096-09W4                 : Well_name    - WELL
LOC .         AA/07-25-096-09W4/0            : Location     - LOCATION
UWI .         AA/07-25-096-09W400            : Uwi          - UNIQUE WELL ID
ENTR.         JOETTE                         : Entered      - ENTERED BY
SRVC.         SCHLUMBERGER                   : Scn          - SERVICE COMPANY
DATE.         07\20\92                       : Date         - LOG DATE
STRT.M        0                              : top_depth    - START DEPTH
STOP.M        100                            : bot_depth    - STOP DEPTH
STEP.M        0.25                           : increment    - STEP LENGTH
 NULL. -999.2500:NULL Value
~CURVE INFORMATION BLOCK
#MNEM UNIT       ERCB CURVE CODE    CURVE DESCRIPTION
#-----------   ------------------   ----------------------------------
DEPT.M        00 001 00 00         : DEPTH        - DEPTH
GR  .API      00 310 00 00         : GR           - GAMMA RAY
RHOB.KG/M3    00 350 00 00         : DENS         - BULK DENSITY
NPHI.V/V      00 330 00 00         : PHIN         - NEUTRON POROSITY (SANDSTONE)
ILD .OHMM     00 120 00 00         : RESD         - DEEP RESISTIVITY (DIL)
DPHI.V/V      00 890 00 00         : PHID         - DENSITY POROSITY (SANDSTONE)
~PARAMETER INFORMATION
#MNEM.UNIT           DATA             DESCRIPTION OF MNEMONIC
#---------         -----------     ------------------------------
GL  .M        288.69               : gl           - GROUND LEVEL ELEVATION
EREF.M        288.69               : kb           - ELEVATION OF DEPTH REFERENCE
DATM.M        288.69               : datum        - DATUM ELEVATION
TDD .M        107.8                : tdd          - TOTAL DEPTH DRILLER
RUN .         ONE                  : Run          - RUN NUMBER
ENG .         JO                   : Engineer     - RECORDING ENGINEER
WIT .         TIM                  : Witness      - WITNESSED BY
MUD .         GEL                  : Mud_type     - MUD TYPE
MATR.         SANDSTONE            : Logunit      - NEUTRON MATRIX
TMAX.C        5                    : BHT          - MAXIMUM RECORDED TEMPERATURE
BHTD.M        107.8                : BHTDEP       - MAXIMUM RECORDED TEMPERATURE
RMT .C        5                    : MDTP         - TEMPERATURE OF MUD
MUDD.KG/M     1000                 : MWT          - MUD DENSITY
NEUT.         1                    : NEUTRON      - NEUTRON TYPE
RESI.         0                    : RESIST       - RESISTIVITY TYPE
RM  .OHMM     5                    : RM           - RESISTIVITY OF MUD
RMC .OHMM     5                    : RMC          - RESISTIVITY OF MUD CAKE
RMF .OHMM     5                    : RMF          - RESISTIVITY OF MUD FILTRATE
SUFT.C        4                    : SUFT         - SURFACE TEMPERATURE
~A  DEPTH       GR     DENS     PHIN     RESD     PHID
# ...
   73.000   81.650 2427.680    0.482    5.280    0.135
   73.250   74.549 2472.620    0.455    5.211    0.108
   73.500   72.254 2491.200    0.457    5.147    0.096
   73.750   77.161 2489.570    0.458    5.160    0.097
   74.000   78.687 2485.960    0.457    5.253    0.099
   74.250   64.876 2470.120    0.464    5.601    0.109
   74.500   52.036 2466.460    0.460    6.161    0.111
   74.750   52.629 2476.960    0.455    5.986    0.105
   75.000   57.044 2483.470    0.462    5.914    0.101
   75.250   61.939 2477.740    0.469    5.837    0.104
   75.500   66.846 2474.180    0.472    5.942    0.107
   75.750   63.087 2474.470    0.473    6.239    0.106
   76.000   55.520 2470.860    0.472    6.651    0.109
   76.250   48.910 2465.230    0.469    6.876    0.112
   76.500   49.012 2473.660    0.469    7.003    0.107
   76.750   52.960 2467.930    0.471    6.914    0.110
   77.000   49.706 2466.340    0.476    7.037    0.111
   77.250   45.481 2464.710    0.477    7.164    0.112
   77.500   46.074 2461.100    0.478    7.407    0.114
   77.750   43.767 2461.390    0.479    7.428    0.114
   78.000   46.277 2445.590    0.476    7.560    0.124
   78.250   44.461 2443.960    0.480    7.819    0.125
   78.500   40.715 2444.350    0.480    7.965    0.125
   78.750   38.899 2446.810    0.474    8.104    0.123
   79.000   34.687 2449.220    0.475    8.128    0.122
   79.250   36.239 2451.670    0.479    7.904    0.120
   79.500   37.286 2456.110    0.480    7.680    0.118
   79.750   41.726 2456.450    0.479    7.353    0.117
   80.000   38.939 2448.840    0.478    7.372    0.122
   80.250   38.082 2441.140    0.480    7.505    0.127
   80.500   38.170 2437.430    0.475    7.762    0.129
   80.750   39.230 2447.880    0.472    7.902    0.122
   81.000   44.138 2458.380    0.467    8.045    0.116
   81.250   49.511 2462.860    0.465    7.948    0.113
   81.500   37.138 2477.360    0.455    7.966    0.105
   81.750   26.227 2479.820    0.457    7.966    0.103
   82.000   27.275 2468.020    0.468    8.009    0.110
   82.250   31.715 2466.390    0.459    7.782    0.111
   82.500   36.597 2476.890    0.454    6.389    0.105
   82.750   49.173 2489.460    0.454    5.664    0.097
   83.000   46.865 2489.890    0.460    5.594    0.097
   83.250   55.607 2482.240    0.458    5.782    0.102
   83.500   58.105 2468.420    0.476    6.168    0.110
   83.750   59.657 2454.550    0.483    6.276    0.118
   84.000   49.200 2442.810    0.484    5.828    0.126
   84.250   42.578 2443.240    0.490    5.247    0.125
   84.500   54.196 2447.680    0.488    5.259    0.123
   84.750   66.293 2452.160    0.487    5.274    0.120
   85.000   69.283 2438.430    0.489    5.370    0.128
   85.250   63.140 2436.700    0.492    5.303    0.129
   85.500   49.808 2443.250    0.488    5.303    0.125
   85.750   52.785 2437.530    0.483    5.336    0.129
   86.000   45.218 2431.850    0.489    5.425    0.132
   86.250   41.005 2444.320    0.483    6.059    0.125
   86.500   38.710 2452.850    0.481    5.710    0.119
   86.750   35.469 2447.210    0.474    4.409    0.123
   87.000   49.937 2451.550    0.477    4.700    0.120
   87.250   69.236 2437.780    0.487    5.331    0.129
   87.500   55.424 2411.880    0.498    5.681    0.144
   87.750   48.828 2436.580    0.485    5.965    0.129
   88.000   52.272 2447.080    0.479    5.459    0.123
   88.250   38.940 2447.470    0.480    5.063    0.123
   88.500   21.294 2472.120    0.465    4.704    0.108
   88.750   17.573 2476.560    0.470    4.573    0.105
   89.000   17.674 2452.680    0.481    4.445    0.120
   89.250   24.020 2438.860    0.482    4.321    0.128
   89.500   29.381 2457.500    0.477    4.399    0.117
   89.750   48.188 2447.770    0.488    4.277    0.123
   90.000   73.226 2413.780    0.498    4.096    0.143
   90.250   54.142 2406.020    0.494    4.503    0.148
   90.500   35.550 2440.840    0.487    4.875    0.127
   90.750   21.739 2485.720    0.470    5.042    0.100
   91.000   21.840 2486.160    0.460    5.374    0.099
   91.250   13.793 2492.620    0.452    5.304    0.095
   91.500   18.688 2515.300    0.437    5.927    0.082
   91.750   21.185 2521.700    0.438    6.030    0.078
   92.000   20.328 2514.000    0.456    5.028    0.082
   92.250   18.991 2484.100    0.467    4.597    0.101
   92.500   14.779 2484.440    0.463    4.540    0.100
   92.750   13.922 2498.980    0.451    4.482    0.092
   93.000   14.023 2499.470    0.451    4.493    0.091
   93.250   11.248 2489.700    0.460    4.506    0.097
   93.500   11.829 2477.950    0.462    4.517    0.104
   93.750   14.339 2480.360    0.453    4.527    0.103
   94.000   18.742 2490.810    0.445    4.469    0.096
   94.250   27.963 2499.380    0.444    4.481    0.091
   94.500   38.634 2499.720    0.442    4.426    0.091
   94.750   33.917 2498.090    0.442    4.436    0.092
   95.000   26.829 2496.450    0.447    4.379    0.093
   95.250   21.670 2492.800    0.451    4.324    0.095
   95.500   22.264 2491.160    0.451    4.016    0.096
   95.750   23.790 2487.450    0.457    4.028    0.099
   96.000   23.399 2477.780    0.459    4.361    0.104
   96.250   24.459 2472.100    0.459    4.437    0.108
   96.500   25.519 2470.460    0.463    4.449    0.109
   96.750   32.836 2464.730    0.471    4.327    0.112
   97.000   25.255 2444.900    0.476    4.271    0.124
   97.250   32.067 2433.150    0.484    4.216    0.131
   97.500   51.353 2413.310    0.496    4.036    0.143
   97.750   65.859 2401.610    0.512    3.578    0.151
   98.000   71.700 2391.840    0.521    3.699    0.156
   98.250   85.234 2376.100    0.522    3.886    0.166
   98.500   94.947 2362.330    0.518    3.886    0.174
   98.750   86.396 2384.910    0.505    4.032    0.161
   99.000   68.750 2417.710    0.453    4.427    0.141
   99.250   48.228 2460.570    0.404    5.763    0.115
   99.500   45.453 2562.130    0.317    7.624    0.053
   99.750   42.200 2627.280    0.289    9.475    0.014
  100.000   36.549 2712.660    0.244   14.842   -0.038
