~VERSION INFORMATION
 VERS.                 2.0:   CWLS LOG ASCII STANDARD -VERSION 2.0
 WRAP.                  NO:   ONE LINE PER DEPTH STEP
~WELL INFORMATION BLOCK
#MNEM.UNIT           DATA                    DESCRIPTION OF MNEMONIC
#---------    -------------------            -------------------------------
# Generated from Intellog Unique Number	CC_84_87/WELL/1062
NULL.         -999.2500                      : null value
LOC .         05-25-085-09W4                 : Location     - LOCATION          
UWI .         AA/05-25-085-09W400            : Uwi          - UNIQUE WELL ID    
ENTR.         DW                             : Entered      - ENTERED BY        
SRVC.         SCHLUMBERGER                   : Scn          - SERVICE COMPANY   
STRT.M        200.000                        : top_depth    - START DEPTH       
STOP.M        449.893                        : bot_depth    - STOP DEPTH        
STEP.M        0.3                            : increment    - STEP LENGTH       
~CURVE INFORMATION BLOCK
#MNEM UNIT       ERCB CURVE CODE    CURVE DESCRIPTION
#-----------   ------------------   ----------------------------------
DEPT.M        00 001 00 00         : DEPTH        - DEPTH                       
DPHI.V/V      00 890 00 00         : PHID         - DENSITY POROSITY (LIMESTONE)
NPHI.V/V      00 330 00 00         : PHIN         - NEUTRON POROSITY (LIMESTONE)
GR  .API      00 310 00 00         : GR           - GAMMA RAY                   
ILD .OHMM     00 120 00 00         : RESD         - DEEP RESISTIVITY (DIL)      
~PARAMETER INFORMATION       
#MNEM.UNIT           DATA             DESCRIPTION OF MNEMONIC
#---------         -----------     ------------------------------
GL  .M        705                  : gl           - GROUND LEVEL ELEVATION      
EREF.M        708.5                : kb           - ELEVATION OF DEPTH REFERENCE
DATM.M        708.5                : datum        - DATUM ELEVATION             
TDD .M        449                  : tdd          - TOTAL DEPTH DRILLER         
RUN .         ONE                  : Run          - RUN NUMBER                  
ENG .         BILL                 : Engineer     - RECORDING ENGINEER          
WIT .         JIM                  : Witness      - WITNESSED BY                
MUD .         GEL                  : Mud_type     - MUD TYPE                    
MATR.         LIMESTONE            : Logunit      - NEUTRON MATRIX              
TMAX.C        17                   : BHT          - MAXIMUM RECORDED TEMPERATURE
BHTD.M        449                  : BHTDEP       - MAXIMUM RECORDED TEMPERATURE
MATR.         1                    : LOGUNIT      - NEUTRON MATRIX              
RMT .C        25                   : MDTP         - TEMPERATURE OF MUD          
NEUT.         1                    : NEUTRON      - NEUTRON TYPE                
RESI.         0                    : RESIST       - RESISTIVITY TYPE            
RMC .OHMM     0.25                 : RMC          - RESISTIVITY OF MUD CAKE     
RMF .OHMM     0.25                 : RMF          - RESISTIVITY OF MUD FILTRATE 
SUFT.C        15                   : SUFT         - SURFACE TEMPERATURE         
~A  DEPTH     PHID     PHIN       GR     RESD
  200.000    0.278    0.533   73.464    6.011
  200.300    0.269    0.546   75.341    5.360
  200.600    0.278    0.553   78.459    4.872
  200.900    0.282    0.564   89.674    4.600
  201.200    0.284    0.551   86.571    4.344
  201.500    0.286    0.595   85.336    4.261
  201.800    0.288    0.555   89.079    4.180
  202.100    0.286    0.533   90.334    4.023
  202.400    0.287    0.561   96.568    4.023
  202.700    0.290    0.582   99.068    3.946
  203.000    0.285    0.556   94.099    3.946
  203.300    0.284    0.535   95.353    3.946
  203.600    0.290    0.544   94.116    3.945
  203.900    0.294    0.592   87.279    3.945
  204.200    0.292    0.605   84.797    3.944
  204.500    0.287    0.587   85.427    3.869
  204.800    0.288    0.560   91.040    3.796
  205.100    0.289    0.557   96.652    3.795
  205.400    0.289    0.581  100.397    3.795
  205.700    0.288    0.567  102.897    3.794
  206.000    0.283    0.546  101.660    3.867
  206.300    0.270    0.524   91.086    3.941
  206.600    0.178    0.500   73.664    4.173
  206.900    0.174    0.480   65.583    4.590
  207.200    0.245    0.491   64.967    5.146
  207.500    0.278    0.536   70.580    5.346
  207.800    0.286    0.485   75.569    5.244
  208.100    0.284    0.515   82.428    5.144
  208.400    0.283    0.517   84.925    4.766
  208.700    0.288    0.513   82.449    4.500
  209.000    0.278    0.535   81.834    4.249
  209.300    0.261    0.501   83.708    4.249
  209.600    0.264    0.483   82.474    4.413
  209.900    0.271    0.481   75.012    4.585
  210.200    0.276    0.510   72.530    4.948
  210.500    0.279    0.517   80.011    5.239
  210.800    0.274    0.535   71.927    5.238
  211.100    0.266    0.515   76.294    5.238
  211.400    0.271    0.517   73.814    5.138
  211.700    0.275    0.520   78.182    5.040
  212.000    0.280    0.537   80.679    5.040
  212.300    0.280    0.525   75.086    5.039
  212.600    0.273    0.513   76.340    5.038
  212.900    0.264    0.506   73.860    5.135
  213.200    0.259    0.527   78.851    5.134
  213.500    0.255    0.511   80.726    5.134
  213.800    0.255    0.509   75.757    4.941
  214.100    0.265    0.531   75.764    4.940
  214.400    0.261    0.506   82.000    4.755
  214.700    0.251    0.521   79.519    4.490
  215.000    0.250    0.507   79.529    4.489
  215.300    0.254    0.512   80.160    4.404
  215.600    0.257    0.516   77.056    4.403
  215.900    0.260    0.508   83.915    4.403
  216.200    0.260    0.524   83.922    4.487
  216.500    0.259    0.546   77.706    4.402
  216.800    0.259    0.551   77.719    4.401
  217.100    0.264    0.543   77.726    4.318
  217.400    0.266    0.534   73.998    4.317
  217.700    0.269    0.514   70.897    4.317
  218.000    0.268    0.496   73.394    4.316
  218.300    0.268    0.501   83.364    4.399
  218.600    0.268    0.520   87.731    4.315
  218.900    0.263    0.530   92.099    4.233
  219.200    0.258    0.549   89.618    4.074
  219.500    0.261    0.563   85.891    3.997
  219.800    0.262    0.548   85.901    3.996
  220.100    0.255    0.542   84.665    4.151
  220.400    0.257    0.555   80.942    4.151
  220.700    0.265    0.573   79.083    4.230
  221.000    0.278    0.588   78.467    4.230
  221.300    0.285    0.545   79.098    4.150
  221.600    0.285    0.533   78.487    3.994
  221.900    0.273    0.556   83.476    3.771
  222.200    0.266    0.589   84.109    3.561
  222.500    0.266    0.581   86.607    3.493
  222.800    0.268    0.584   87.242    3.427
  223.100    0.269    0.578   86.005    3.426
  223.400    0.267    0.578   84.768    3.492
  223.700    0.266    0.569   84.154    3.559
  224.000    0.268    0.565   86.653    3.627
  224.300    0.271    0.576   92.889    3.627
  224.600    0.267    0.559   97.879    3.558
  224.900    0.286    0.569  100.999    3.557
  225.200    0.296    0.556   87.935    3.557
  225.500    0.293    0.539   80.474    3.695
  225.800    0.271    0.515   82.978    3.838
  226.100    0.204    0.535   84.227    4.064
  226.400    0.141    0.546   85.483    4.142
  226.700    0.228    0.516   76.153    3.986
  227.000    0.256    0.554   73.672    3.764
  227.300    0.264    0.570   79.906    3.622
  227.600    0.272    0.591   82.406    3.486
  227.900    0.272    0.584   82.418    3.420
  228.200    0.273    0.594   79.935    3.420
  228.500    0.275    0.606   78.076    3.419
  228.800    0.278    0.595   81.200    3.419
  229.100    0.285    0.594   81.831    3.484
  229.400    0.289    0.600   81.219    3.484
  229.700    0.287    0.585   79.983    3.418
  230.000    0.280    0.569   77.501    3.353
  230.300    0.279    0.554   79.999    3.352
  230.600    0.279    0.544   84.990    3.352
  230.900    0.272    0.539   81.886    3.617
  231.200    0.270    0.544   75.669    3.830
  231.500    0.272    0.555   79.417    3.904
  231.800    0.275    0.551   79.424    3.481
  232.100    0.275    0.561   76.321    3.415
  232.400    0.282    0.550   71.973    3.414
  232.700    0.286    0.534   67.624    4.054
  233.000    0.285    0.507   63.897    5.096
  233.300    0.274    0.447   58.303    6.530
  233.600    0.254    0.449   46.484    8.054
  233.900    0.200    0.420   40.273    9.381
  234.200    0.232    0.391   31.562   10.319
  234.500    0.263    0.452   19.744   10.318
  234.800    0.270    0.487   23.488    8.050
  235.100    0.273    0.490   34.081    5.932
  235.400    0.280    0.493   50.275    4.207
  235.700    0.286    0.525   55.266    3.897
  236.000    0.286    0.518   64.612    3.972
  236.300    0.196    0.455   62.754    5.288
  236.600    0.173    0.407   45.954    6.399
  236.900    0.220    0.446   31.645    7.312
  237.200    0.251    0.475   44.106    6.905
  237.500    0.258    0.536   52.831    4.991
  237.800    0.265    0.571   67.159    4.123
  238.100    0.268    0.556   74.015    3.969
  238.400    0.255    0.533   72.780    3.968
  238.700    0.250    0.527   77.149    3.968
  239.000    0.249    0.528   78.403    4.044
  239.300    0.249    0.537   83.392    4.043
  239.600    0.247    0.542   84.646    4.200
  239.900    0.244    0.558   79.676    4.363
  240.200    0.245    0.528   77.815    4.363
  240.500    0.245    0.514   77.825    4.199
  240.800    0.249    0.511   75.969    4.119
  241.100    0.256    0.537   80.334    4.118
  241.400    0.260    0.585   82.214    4.278
  241.700    0.247    0.563   83.465    4.360
  242.000    0.245    0.539   82.231    4.443
  242.300    0.257    0.542   76.638    4.529
  242.600    0.259    0.562   74.778    4.443
  242.900    0.259    0.550   71.673    4.358
  243.200    0.259    0.537   67.325    4.275
  243.500    0.263    0.555   74.807    4.275
  243.800    0.268    0.558   76.060    4.441
  244.100    0.273    0.533   77.314    4.884
  244.400    0.273    0.523   76.079    5.373
  244.700    0.266    0.519   70.486    6.885
  245.000    0.200    0.503   68.625   10.083
  245.300    0.154    0.448   60.542   12.676
  245.600    0.186    0.473   54.327   14.764
  245.900    0.270    0.464   69.899   15.934
  246.200    0.278    0.465   78.001   15.335
  246.500    0.281    0.455   72.411   14.206
  246.800    0.278    0.445   71.793   12.668
  247.100    0.256    0.444   71.181   11.736
  247.400    0.222    0.463   73.681    9.697
  247.700    0.206    0.475   82.405    8.323
  248.000    0.190    0.487   84.906    7.859
  248.300    0.187    0.508   86.781    8.164
  248.600    0.193    0.505   83.057    9.692
  248.900    0.271    0.536   73.109   11.954
  249.201    0.389    0.556   70.002   16.221
  249.501    0.425    0.578   60.049   22.866
  249.801    0.316    0.539   46.362   24.210
  250.101    0.316    0.459   27.075   22.004
  250.401    0.332    0.513   33.308   20.777
  250.701    0.392    0.531   48.259   20.774
  251.001    0.418    0.541   52.625   21.173
  251.301    0.304    0.489   41.428   23.290
  251.601    0.315    0.464   40.193   26.615
  251.901    0.324    0.471   40.204   29.276
