~VERSION INFORMATION
 VERS.                 2.0:   CWLS LOG ASCII STANDARD -VERSION 2.0
 WRAP.                  NO:   ONE LINE PER DEPTH STEP
~WELL INFORMATION BLOCK
#MNEM.UNIT           DATA                    DESCRIPTION OF MNEMONIC
#---------    -------------------            -------------------------------
# Generated from Intellog Unique Number	CC_80_83/WELL/2483
WELL.         PEX PCEJ HANGST                : Well_name    - WELL
LOC .         AA/09-31-083-11W4/0            : Location     - LOCATION
UWI .         AA/09-31-083-11W400            : Uwi          - UNIQUE WELL ID
ENTR.         DW                             : Entered      - ENTERED BY
SRVC.         SCHLUMBERGER                   : Scn          - SERVICE COMPANY
STRT.M        150                            : top_depth    - START DEPTH
STOP.M        379.75                         : bot_depth    - STOP DEPTH
STEP.M        0.25                           : increment    - STEP LENGTH
 NULL. -999.2500:NULL Value
~CURVE INFORMATION BLOCK
#MNEM UNIT       ERCB CURVE CODE    CURVE DESCRIPTION
#-----------   ------------------   ----------------------------------
DEPT.M        00 001 00 00         : DEPTH        - DEPTH
DPHI.V/V      00 890 00 00         : PHID         - DENSITY POROSITY (SANDSTONE)
GR  .API      00 310 00 00         : GR           - GAMMA RAY
ILD .OHMM     00 120 00 00         : RESD         - DEEP RESISTIVITY (DIL)
NPHI.V/V      00 330 00 00         : PHIN         - NEUTRON POROSITY (SANDSTONE)
~PARAMETER INFORMATION
#MNEM.UNIT           DATA             DESCRIPTION OF MNEMONIC
#---------         -----------     ------------------------------
GL  .M        615.5                : gl           - GROUND LEVEL ELEVATION
EREF.M        619.15               : kb           - ELEVATION OF DEPTH REFERENCE
DATM.M        619.15               : datum        - DATUM ELEVATION
TDD .M        382                  : tdd          - TOTAL DEPTH DRILLER
RUN .         ONE                  : Run          - RUN NUMBER
ENG .         BILL                 : Engineer     - RECORDING ENGINEER
WIT .         JIM                  : Witness      - WITNESSED BY
MUD .         GEL                  : Mud_type     - MUD TYPE
MATR.         SANDSTONE            : Logunit      - NEUTRON MATRIX
TMAX.C        16                   : BHT          - MAXIMUM RECORDED TEMPERATURE
BHTD.M        382                  : BHTDEP       - MAXIMUM RECORDED TEMPERATURE
MATR.         1                    : LOGUNIT      - NEUTRON MATRIX
RMT .C        25                   : MDTP         - TEMPERATURE OF MUD
NEUT.         1                    : NEUTRON      - NEUTRON TYPE
RESI.         0                    : RESIST       - RESISTIVITY TYPE
RMC .OHMM     0.25                 : RMC          - RESISTIVITY OF MUD CAKE
RMF .OHMM     0.25                 : RMF          - RESISTIVITY OF MUD FILTRATE
SUFT.C        15                   : SUFT         - SURFACE TEMPERATURE
~A  DEPTH     PHID       GR     RESD     PHIN
# ...
  237.000    0.228   60.079   14.635    0.349
  237.250    0.268   63.307   14.374    0.369
  237.500    0.274   69.555   12.073    0.360
  237.750    0.267   73.984   10.158    0.347
  238.000    0.264   76.773    9.812    0.360
  238.250    0.262   78.732   10.173    0.380
  238.500    0.261   74.992   11.030    0.378
  238.750    0.263   66.386   11.486    0.358
  239.000    0.257   69.035   10.833    0.349
  239.250    0.250   74.470    9.125    0.358
  239.500    0.244   77.671    7.839    0.372
  239.750    0.239   79.999    7.726    0.375
  240.000    0.232   79.328    7.861    0.370
  240.250    0.220   82.295    8.120    0.398
  240.500    0.231   85.067    8.356    0.411
  240.750    0.242   85.561    9.389    0.414
  241.000    0.244   84.208   10.153    0.404
  241.250    0.249   82.028   10.687    0.389
  241.500    0.253   77.554   12.815    0.385
  241.750    0.261   67.012   14.084    0.354
  242.000    0.264   61.676   13.270    0.344
  242.250    0.245   62.452   11.588    0.353
  242.500    0.221   71.202   10.540    0.365
  242.750    0.222   80.743   10.146    0.369
  243.000    0.240   76.361    9.669    0.358
  243.250    0.241   70.643    9.479    0.362
  243.500    0.237   76.492    9.612    0.376
  243.750    0.233   83.546    9.606    0.393
  244.000    0.234   93.370    8.513    0.407
  244.250    0.240  107.589    6.727    0.425
  244.500    0.240  114.666    5.710    0.449
  244.750    0.235  118.709    4.937    0.439
  245.000    0.225  108.390    4.507    0.424
  245.250    0.219  108.948    4.178    0.423
  245.500    0.219  118.646    3.914    0.420
  245.750    0.226  118.498    3.835    0.410
  246.000    0.238  112.912    3.843    0.412
  246.250    0.244  105.514    4.006    0.403
  246.500    0.250  105.518    4.381    0.413
  246.750    0.249   99.975    4.767    0.428
  247.000    0.238   95.981    4.942    0.420
  247.250    0.234  100.290    4.738    0.407
  247.500    0.249   97.498    4.224    0.426
  247.750    0.254   95.434    3.894    0.439
  248.000    0.252  103.354    3.646    0.456
  248.250    0.252  105.787    3.489    0.443
  248.500    0.256  101.879    3.562    0.417
  248.750    0.253   98.212    3.940    0.413
  249.000    0.239   90.138    4.549    0.403
  249.250    0.225   83.370    5.353    0.381
  249.500    0.207   78.025    6.828    0.367
  249.750    0.195   83.184    8.024    0.354
  250.000    0.207   89.055    8.356    0.352
  250.250    0.231   86.701    8.056    0.368
  250.500    0.241   89.502    7.565    0.372
  250.750    0.253   98.149    7.559    0.360
  251.000    0.243   94.852    7.547    0.348
  251.250    0.232   87.992    8.356    0.338
  251.500    0.248   87.680    9.948    0.328
  251.750    0.284   84.716   11.536    0.303
  252.000    0.308   70.475   13.048    0.252
  252.250    0.296   59.926   14.387    0.236
  252.500    0.178   51.552   15.279    0.251
  252.750    0.194   54.144   15.538    0.283
  253.000    0.292   62.833   15.378    0.315
  253.250    0.293   64.584   15.121    0.341
  253.500    0.277   60.592   14.616    0.356
  253.750    0.272   58.233   13.506    0.339
  254.000    0.272   58.453   12.771    0.347
  254.250    0.275   58.876   12.227    0.350
  254.500    0.276   58.635   11.689    0.339
  254.750    0.275   58.943   11.410    0.340
  255.000    0.276   61.225   11.439    0.347
  255.250    0.280   65.773   11.633    0.356
  255.500    0.282   70.118   11.653    0.369
  255.750    0.284   68.820   11.739    0.359
  256.000    0.284   63.521   11.967    0.339
  256.250    0.277   61.373   12.120    0.330
  256.500    0.269   63.142   12.103    0.320
  256.750    0.266   61.913   11.925    0.314
  257.000    0.269   64.355   11.700    0.308
  257.250    0.276   68.390   11.666    0.300
  257.500    0.282   65.960   11.584    0.291
  257.750    0.280   60.078   11.791    0.276
  258.000    0.279   61.316   13.041    0.255
  258.250    0.268   64.694   14.361    0.237
  258.500    0.129   64.072   16.092    0.181
  258.750    0.037   56.873   22.811    0.131
  259.000    0.028   45.804   32.355    0.113
  259.250    0.010   42.373   40.363    0.108
  259.500    0.007   49.013   42.722    0.107
  259.750    0.006   43.187   30.700    0.110
  260.000    0.028   45.131   22.832    0.129
  260.250    0.142   57.964   18.656    0.159
  260.500    0.246   67.565   15.531    0.253
  260.750    0.260   69.901   14.281    0.366
  261.000    0.281   70.702   12.333    0.370
  261.250    0.286   64.522   11.680    0.373
  261.500    0.286   61.541   11.581    0.376
  261.750    0.281   66.171   11.947    0.368
  262.000    0.275   67.010   12.525    0.369
  262.250    0.272   61.359   12.849    0.374
  262.500    0.269   62.070   13.041    0.359
  262.750    0.262   65.862   13.080    0.360
  263.000    0.260   66.528   12.726    0.347
  263.250    0.264   61.826   12.408    0.338
  263.500    0.271   58.678   12.271    0.338
  263.750    0.276   60.705   12.028    0.339
  264.000    0.277   62.126   11.648    0.351
  264.250    0.279   61.928   11.444    0.356
  264.500    0.290   58.740   11.427    0.350
  264.750    0.292   55.707   11.411    0.343
  265.000    0.286   57.401   11.493    0.336
  265.250    0.282   61.410   11.664    0.331
  265.500    0.278   60.948   11.646    0.335
  265.750    0.285   58.975   11.630    0.335
  266.000    0.288   62.067   11.779    0.342
  266.250    0.288   65.991   12.012    0.351
  266.500    0.288   64.518   12.677    0.348
  266.750    0.288   61.487   13.721    0.335
  267.000    0.287   63.448   14.591    0.324
  267.250    0.284   62.919   15.598    0.308
  267.500    0.274   57.608   15.846    0.305
  267.750    0.210   48.123   15.488    0.259
  268.000    0.113   36.871   14.881    0.206
  268.250    0.120   36.241   13.771    0.217
  268.500    0.262   54.154   12.323    0.274
  268.750    0.280   67.932   11.744    0.352
  269.000    0.277   73.447   11.061    0.363
  269.250    0.280   71.018   10.619    0.353
  269.500    0.275   63.206   10.599    0.357
  269.750    0.271   56.543   10.590    0.358
  270.000    0.269   56.735   10.595    0.355
  270.250    0.268   62.201   10.758    0.360
  270.500    0.270   68.442   10.926    0.361
  270.750    0.272   72.363   11.135    0.346
  271.000    0.275   75.361   11.181    0.347
  271.250    0.278   74.166   10.947    0.365
  271.500    0.278   66.061   10.594    0.360
  271.750    0.276   63.735   10.075    0.356
  272.000    0.274   57.486    9.991    0.351
  272.250    0.267   59.150    9.948    0.344
  272.500    0.251   66.480    9.743    0.342
  272.750    0.239   67.932    9.340    0.347
  273.000    0.240   68.577    8.611    0.356
  273.250    0.241   73.389    8.184    0.379
  273.500    0.237   75.255    8.029    0.378
  273.750    0.228   78.871    7.925    0.374
  274.000    0.217   83.677    8.155    0.373
  274.250    0.210   84.621    8.704    0.362
  274.500    0.208   82.837    8.940    0.355
  274.750    0.201   80.362    8.836    0.359
  275.000    0.188   83.081    8.440    0.360
  275.250    0.199   88.811    8.174    0.352
  275.500    0.207   94.070    8.125    0.358
  275.750    0.189   94.590    8.151    0.370
  276.000    0.186   89.680    8.136    0.360
  276.250    0.194   90.474    7.763    0.356
  276.500    0.219   91.742    7.500    0.355
  276.750    0.228   90.462    7.180    0.366
  277.000    0.233   85.162    6.629    0.378
  277.250    0.248   82.034    6.018    0.371
  277.500    0.254   87.254    5.583    0.362
  277.750    0.251   87.016    5.543    0.381
  278.000    0.250   86.026    5.891    0.385
  278.250    0.246   86.182    6.568    0.376
  278.500    0.241   87.323    6.882    0.364
  278.750    0.235   91.641    6.527    0.366
  279.000    0.222   95.950    6.133    0.394
  279.250    0.221   89.739    5.845    0.383
  279.500    0.216   86.917    5.728    0.376
  279.750    0.211   82.650    6.561    0.363
  280.000    0.187   76.934    7.907    0.347
  280.250    0.144   72.485    8.972    0.328
