~Version : LASO    vs 4.00 - DATA COPYRIGHT - RILEYS DATASHARE INTERNATIONAL
VERS.                2.00:   CWLS Log ASCII Standard -VERSION 2.0
WRAP.                  NO:
~Well Information Block
#MNEM.UNIT       Data                        Description of Mnemonic
#----.----      -------------------------- : -----------------------------
COMP.                                     : COMPANY
FLD .    WILDCAT                          : FIELD NAME
LOC .    03-06-091-07W4                   : WELL LOCATION
UWI .    AA/03-06-091-07W400              : UNIQUE WELL ID
STRT.M             9.0000:
STOP.M           161.0000:
STEP.M             0.1250:
NULL.           -999.2500:
COMP.  MOBIL OIL CANADA:COMPANY
WELL.  MOBIL CLARKE OV 3-6:WELL
FLD.   :FIELD
LOC.   03-06-091-07W4:LOCATION
CTRY.  CANADA:COUNTRY
PROV.  ALBERTA:PROVINCE
SRVC.  DRESSER ATLAS:SERVICE COMPANY
DATE.  08-FEB-81:LOG DATE
UWI.   AA/03-06-091-07W4/0:UNIQUE WELL ID
~Parameter Information Block
#MNEM.UNIT       Data                        Description of Mnemonic
#----.----      -------------------------- : -----------------------------
RUN .                   1                 : Run Number
GL  .M           418.1000                 : Ground Level Elevation
DREF.                  KB                 : Depth Reference
EREF.M           419.1000                 : Elevation of Depth Reference
TDL .M           162.8000                 : Total Depth Logger
TDD .M           160.0000                 : Total Depth Driller
BHT .DEGC         10.0000                 : Bottom Hole Temperature
BS  .MM          171.0000                 : Bit Size
DFD .           1090.0000                 : Mud Weight (Density)
DFV .             85.0000                 : Mud Viscosity
RM  .OHMM          1.9000                 : Mud Resistivity
RMT .DEGC         10.0000                 : Mud Resistivity Temperature
RMF .OHMM          1.1000                 : Mud Filtrate Resistivity
RMFT.DEGC         18.0000                 : RMF Temperature
RMC .OHMM          1.8000                 : Mud Cake Resistivity
RMCT.DEGC         18.0000                 : RMC Temperature
~Curve Information Block
#MNEM.UNIT        API CODE    Curve Description
#---------    ------------    -------------------------------------------
DEPT.M                    :   DEPTH
CALI.MM       42 280  1  1:   3 DENSITY CALIPER
DPHI.V/V                  :   DPHI
DT  .US/M     60 520 32  1:   2 SONIC INTERVAL TRANSIT TIME (COMPENSATED)
GR  .GAPI     42 310  1  1:   4 GAMMA RAY
ILD .OHMM      5 120 46  1:   7 DEEP INDUCTION
NPHI.V/V      42 890  3  1:   5 NEUTRON POROSITY (SANDSTONE)
RHOB.K/M3     42 350  1  1:   6 BULK DENSITY
SFL .OHMM      5 220  6  1:   8 FOCUSSED RESISTIVITY
SP  .MV        5  10  1  1:   9 SPONTANEOUS POTENTIAL
~A  Depth           CALI        DPHI          DT          GR         ILD        NPHI        RHOB         SFL          SP
# ...
151.3750        204.7000      0.2990    412.2800     44.1150     35.1100      0.3108   2100.0000     38.1800    -52.3800
151.5000        201.0250      0.2747    388.7600     42.6450     35.3600      0.3170   2100.6001     35.6100    -53.3500
151.6250        198.5750      0.2527    372.6000     41.3550     35.3600      0.3076   2199.8000     34.6300    -52.5100
151.7500        197.9750      0.2166    361.3200     39.1500     35.2300      0.2837   2356.7000     35.1200    -50.2200
151.8750        197.9750      0.1812    348.0800     37.6800     34.6200      0.2675   2452.1001     35.9800    -46.9800
152.0000        197.9750      0.1504    318.6800     36.7500     33.7600      0.2493   2480.1001     41.1200    -42.8900
152.1250        197.6750      0.0889    315.4800     37.3050     33.2700      0.2391   2519.0000     45.8900    -39.8800
152.2500        197.3500      0.0620    307.1600     39.1500     33.0300      0.2315   2544.0000     47.4900    -38.5600
152.3750        197.6750      0.0442    296.1200     41.1750     33.0300      0.2208   2558.6001     44.4300    -37.7200
152.5000        197.6750      0.0383    283.8800     43.7400     33.4000      0.1897   2578.6001     39.9000    -37.2400
152.6250        197.3500      0.0543    282.4000     44.6550     33.7600      0.1791   2585.8999     35.2500    -36.5200
152.7500        197.3500      0.0614    282.6400     45.9450     34.1300      0.1748   2585.3000     33.4100    -35.8000
152.8750        197.3500      0.0654    287.8000     45.3900     34.5000      0.1754   2578.6001     34.8800    -35.2000
153.0000        197.3500      0.0702    292.2000     44.6550     34.3800      0.1797   2578.0000     36.4700    -34.8400
153.1250        197.9750      0.0664    296.6000     43.9200     34.2500      0.1845   2581.7000     38.6700    -34.9600
153.2500        197.6750      0.0628    301.5200     43.7400     34.3800      0.1894   2580.5000     41.2400    -34.9600
153.3750        197.6750      0.0580    303.9600     43.1850     34.6200      0.1922   2567.7000     44.4300    -34.9600
153.5000        197.3500      0.0511    297.6000     43.3800     35.2300      0.1925   2561.0000     41.6100    -34.9600
153.6250        197.0500      0.0459    294.1600     43.7400     36.0900      0.1895   2557.3000     38.5500    -34.9600
153.7500        197.0500      0.0420    290.7200     43.0050     36.7000      0.1869   2558.0000     35.3700    -35.3200
153.8750        197.3500      0.0382    286.3200     41.3550     36.8200      0.1845   2558.6001     33.1700    -35.5600
154.0000        197.6750      0.0356    280.6800     42.2700     36.8200      0.1830   2555.5000     33.2900    -35.5600
154.1250        197.3500      0.0351    282.8800     43.3800     36.3300      0.1827   2584.7000     35.9800    -35.3200
154.2500        197.3500      0.0350    284.3600     42.6450     35.8400      0.1847   2584.1001     39.7700    -35.2000
154.3750        197.3500      0.0350    283.6400     43.0050     35.4800      0.1840   2581.1001     41.0000    -35.4400
154.5000        197.0500      0.0369    285.3200     44.6550     35.3600      0.1819   2571.8999     41.3700    -36.2800
154.6250        196.7500      0.0402    284.3600     44.2950     35.3600      0.1805   2577.3999     40.8800    -36.7600
154.7500        196.7500      0.0457    280.4400     44.6550     35.1100      0.1793   2586.5000     39.6500    -36.7600
154.8750        196.7500      0.0517    279.9600     45.2100     34.8700      0.1790   2593.8000     38.1800    -36.4000
155.0000        196.4500      0.0577    281.6800     42.0900     34.2500      0.1808   2597.5000     38.3100    -36.1600
155.1250        196.4500      0.0572    281.4000     41.1750     34.0100      0.1812   2585.3000     40.6300    -36.0400
155.2500        196.4500      0.0552    282.1600     41.5350     33.8900      0.1794   2570.1001     43.8100    -36.0400
155.3750        196.1250      0.0537    285.8400     43.1850     33.4000      0.1780   2556.1001     44.3000    -36.1600
155.5000        196.1250      0.0515    291.7200     43.9200     32.7800      0.1778   2553.1001     40.7500    -35.8000
155.6250        196.1250      0.0491    290.2400     43.3800     32.0500      0.1776   2546.3999     36.5900    -35.6800
155.7500        195.8250      0.0467    289.0000     43.3800     31.6800      0.1782   2540.8999     35.3700    -35.9200
155.8750        195.5250      0.0443    288.2800     44.6550     31.4400      0.1786   2535.5000     36.7100    -36.4000
156.0000        195.5250      0.0431    283.1200     44.6550     31.3200      0.1787   2544.6001     38.1800    -36.8800
156.1250        195.5250      0.0415    281.1600     43.1850     31.3200      0.1787   2547.0000     38.0600    -37.0000
156.2500        195.2250      0.0410    283.1200     43.0050     31.4400      0.1805   2570.1001     37.6900    -36.7600
156.3750        195.2250      0.0418    284.6000     44.1150     31.4400      0.1818   2576.2000     37.0800    -36.2800
156.5000        195.5250      0.0463    285.8400     43.5600     31.3200      0.1813   2567.7000     37.0800    -36.2800
156.6250        195.5250      0.0520    284.8400     42.0900     31.0700      0.1803   2539.1001     37.3300    -36.4000
156.7500        195.5250      0.0545    282.8800     43.0050     30.9500      0.1807   2530.6001     37.8200    -36.6400
156.8750        195.5250      0.0535    279.9600     44.6550     30.5800      0.1818   2531.2000     38.5500    -36.7600
157.0000        195.2250      0.0515    277.2400     44.8500     30.5800      0.1822   2542.1001     35.8600    -36.6400
157.1250        195.2250      0.0500    277.2400     44.1150     30.8300      0.1806   2583.5000     33.2900    -36.4000
157.2500        194.9000      0.0521    278.4800     42.8250     31.0700      0.1800   2584.7000     31.9400    -36.4000
157.3750        194.6000      0.0552    280.6800     42.4500     31.3200      0.1799   2576.2000     32.5500    -36.2800
157.5000        194.6000      0.0570    284.8400     43.1850     31.4400      0.1804   2563.3999     33.2900    -36.2800
157.6250        194.3000      0.0560    285.0800     42.2700     31.3200      0.1816   2575.6001     33.7800    -35.8000
157.7500        194.6000      0.0530    287.0400     40.6200     31.0700      0.1822   2587.1001     35.4900    -35.4400
157.8750        194.3000      0.0457    288.2800     40.6200     30.7000      0.1798   2592.0000     38.0600    -35.3200
158.0000        194.6000      0.0395    290.2400     40.6200     29.8500      0.1797   2585.8999     39.5300    -35.4400
158.1250        194.3000      0.0322    290.4800     40.6200     27.5200      0.1821   2578.0000     38.4300    -35.8000
158.2500        194.0000      0.0296    290.0000     40.4400     20.0600      0.1813   2582.8999     36.5900    -35.9200
158.3750        194.0000      0.0342    290.4800     40.4400     -0.6200      0.1809   2581.7000     34.1400    -35.8000
158.5000        194.0000      0.0379    292.9200     40.2450      0.0000      0.1809   2573.8000     32.1900    -35.6800
158.6250        194.0000      0.0404    294.1600     40.4400      0.0000      0.1832   2555.5000     31.2100    -35.6800
158.7500        194.0000      0.0405    296.3600     40.2450      0.1200      0.1856   2551.3000     29.7400    -35.8000
158.8750        193.6750      0.0394    298.3200     40.2450      0.0000      0.1835   2547.0000     28.8800    -35.9200
159.0000        193.3750      0.0415    304.9600     40.4400      0.1200      0.1833   2539.1001     28.2700    -36.1600
159.1250        193.0750      0.0395    304.9600     40.4400      0.0000      0.1822   2551.3000     26.9200    -36.4000
159.2500        193.0750      0.0386    302.0000     40.2450      0.1200      0.1798   2558.0000     21.1700    -36.4000
159.3750        193.3750      0.0381    300.0400     40.4400    999.9999      0.1785   2559.8000      0.0000    -36.1600
159.5000        193.0750      0.0423    293.9200     40.4400      0.0000      0.1772   2571.3000      0.0000    -36.0400
159.6250        193.0750      0.0460    291.2400     40.2450      0.0000      0.1792   2567.7000      0.0000    -35.5600
