~VERSION INFORMATION
 VERS.                 2.0:   CWLS LOG ASCII STANDARD -VERSION 2.0
 WRAP.                  NO:   ONE LINE PER DEPTH STEP
~WELL INFORMATION BLOCK
#MNEM.UNIT           DATA                    DESCRIPTION OF MNEMONIC
#---------    -------------------            -------------------------------
# Generated from Intellog Unique Number	CN_94_101/WELL/4981
WELL.         06-16-100-14W4                 : Well_name    - WELL
LOC .         AA/06-16-100-14W4/0            : Location     - LOCATION
UWI .         AA/06-16-100-14W400            : Uwi          - UNIQUE WELL ID
ENTR.         TIM                            : Entered      - ENTERED BY
SRVC.         SCHLUMBERGER                   : Scn          - SERVICE COMPANY
DATE.         08/11/92                       : Date         - LOG DATE
STRT.M        274.32                         : top_depth    - START DEPTH
STOP.M        481.57                         : bot_depth    - STOP DEPTH
STEP.M        0.25                           : increment    - STEP LENGTH
 NULL. -999.2500:NULL Value
~CURVE INFORMATION BLOCK
#MNEM UNIT       ERCB CURVE CODE    CURVE DESCRIPTION
#-----------   ------------------   ----------------------------------
DEPT.M        00 001 00 00         : DEPTH        - DEPTH
GR  .API      00 310 00 00         : GR           - GAMMA RAY
ILD .OHMM     00 120 00 00         : RESD         - DEEP RESISTIVITY (DIL)
NPHI.V/V      00 330 00 00         : PHIN         - NEUTRON POROSITY (SANDSTONE)
~PARAMETER INFORMATION
#MNEM.UNIT           DATA             DESCRIPTION OF MNEMONIC
#---------         -----------     ------------------------------
GL  .M        716.28               : gl           - GROUND LEVEL ELEVATION
EREF.M        719.633              : kb           - ELEVATION OF DEPTH REFERENCE
DATM.M        719.633              : datum        - DATUM ELEVATION
TDD .M        484.937              : tdd          - TOTAL DEPTH DRILLER
RUN .         ONE                  : Run          - RUN NUMBER
ENG .         JO                   : Engineer     - RECORDING ENGINEER
WIT .         TIM                  : Witness      - WITNESSED BY
MUD .         GEL                  : Mud_type     - MUD TYPE
MATR.         SANDSTONE            : Logunit      - NEUTRON MATRIX
TMAX.C        20                   : BHT          - MAXIMUM RECORDED TEMPERATURE
BHTD.M        484.937              : BHTDEP       - MAXIMUM RECORDED TEMPERATURE
RMT .C        10                   : MDTP         - TEMPERATURE OF MUD
MUDD.KG/M     9300                 : MWT          - MUD DENSITY
NEUT.         1                    : NEUTRON      - NEUTRON TYPE
RESI.         0                    : RESIST       - RESISTIVITY TYPE
RM  .OHMM     13.8                 : RM           - RESISTIVITY OF MUD
RMC .OHMM     13.8                 : RMC          - RESISTIVITY OF MUD CAKE
RMF .OHMM     13.8                 : RMF          - RESISTIVITY OF MUD FILTRATE
SUFT.C        4                    : SUFT         - SURFACE TEMPERATURE
~A  DEPTH       GR     RESD     PHIN
  274.320   94.019    1.653    0.487
  274.570   92.051    2.013    0.484
  274.820   89.690    2.450    0.482
  275.070   88.514    2.759    0.481
  275.320   90.145    3.046    0.481
  275.570   91.776    3.052    0.481
  275.820   93.014    2.939    0.484
  276.070   93.853    2.886    0.484
  276.320   94.284    2.948    0.482
  276.570   94.716    2.951    0.480
  276.820   94.739    3.013    0.476
  277.070   94.378    3.075    0.475
  277.320   94.401    3.204    0.472
  277.570   94.440    3.271    0.470
  277.820   94.887    3.342    0.467
  278.070   94.910    3.411    0.467
  278.320   95.334    3.415    0.466
  278.570   95.373    3.489    0.465
  278.820   95.404    3.491    0.464
  279.070   95.835    3.429    0.467
  279.320   95.866    3.367    0.472
  279.570   95.905    3.372    0.476
  279.820   94.337    3.247    0.479
  280.070   91.561    3.251    0.480
  280.320   87.201    3.257    0.475
  280.570   86.024    3.261    0.474
  280.820   90.055    3.264    0.474
  281.070   96.500    3.206    0.476
  281.320   96.131    3.150    0.481
  281.570   94.955    3.092    0.487
  281.820   92.994    3.035    0.492
  282.070   92.218    2.925    0.494
  282.320   91.457    2.871    0.495
  282.570   91.480    2.819    0.494
  282.820   91.919    2.822    0.490
  283.070   91.958    2.772    0.486
  283.320   91.997    2.722    0.485
  283.570   92.013    2.672    0.483
  283.820   91.660    2.677    0.481
  284.070   91.675    2.680    0.481
  284.320   91.714    2.684    0.481
  284.570   91.338    2.688    0.482
  284.820   90.969    2.691    0.483
  285.070   90.608    2.695    0.485
  285.320   90.247    2.698    0.484
  285.570   89.478    2.702    0.484
  285.820   88.310    2.705    0.482
  286.070   87.133    2.709    0.479
  286.320   83.973    2.712    0.468
  286.570   82.005    2.824    0.462
  286.820   80.436    3.309    0.450
  287.070   80.867    3.581    0.441
  287.320   82.090    3.878    0.417
  287.570   84.545    3.734    0.408
  287.820   85.360    3.527    0.423
  288.070   87.391    3.462    0.443
  288.320   88.630    3.402    0.464
  288.570   89.053    3.405    0.476
  288.820   89.492    3.412    0.477
  289.070   89.931    3.349    0.480
  289.320   90.770    3.289    0.483
  289.570   90.785    3.228    0.484
  289.820   90.024    2.990    0.479
  290.070   89.663    2.824    0.477
  290.320   88.887    2.514    0.474
  290.570   88.126    2.284    0.476
  290.820   87.749    2.241    0.477
  291.070   86.597    2.336    0.477
  291.320   85.820    2.480    0.475
  291.570   84.651    2.791    0.469
  291.820   82.283    3.204    0.462
  292.070   80.315    3.904    0.454
  292.320   79.138    4.065    0.442
  292.570   77.185    4.232    0.414
  292.820   76.401    4.239    0.403
  293.070   75.640    4.244    0.402
  293.320   75.272    4.332    0.403
  293.570   75.718    4.256    0.402
  293.820   76.541    3.865    0.383
  294.070   76.965    3.442    0.356
  294.320   78.603    3.065    0.362
  294.570   79.834    2.893    0.379
  294.820   81.881    2.732    0.456
  295.070   83.104    2.631    0.483
  295.320   84.335    2.634    0.494
  295.570   85.566    2.691    0.489
  295.820   86.005    2.693    0.480
  296.070   86.028    2.751    0.465
  296.320   85.267    2.864    0.463
  296.570   82.899    2.982    0.463
  296.820   80.923    3.293    0.464
  297.070   76.955    3.710    0.464
  297.320   73.387    3.786    0.447
  297.570   75.017    3.720    0.423
  297.820   79.848    3.651    0.426
  298.070   82.686    3.448    0.433
  298.320   82.717    3.193    0.462
  298.570   81.957    2.844    0.490
  298.820   81.180    2.483    0.519
  299.070   80.819    2.126    0.565
  299.320   80.843    1.969    0.572
  299.570   80.882    1.860    0.597
  299.820   79.705    1.826    0.598
  300.070   76.552    1.724    0.602
  300.320   74.984    1.660    0.604
  300.570   75.407    1.599    0.604
  300.820   77.046    1.601    0.603
  301.070   78.285    1.803    0.600
  301.320   78.316    2.070    0.599
  301.570   77.932    2.114    0.594
  301.820   77.171    2.203    0.592
  302.070   77.218    2.248    0.588
  302.320   77.633    2.250    0.583
  302.570   78.064    2.299    0.579
  302.820   77.703    2.257    0.578
  303.070   77.734    2.216    0.578
  303.320   76.566    2.176    0.577
  303.570   75.789    2.137    0.574
  303.820   73.821    2.269    0.572
  304.070   72.676    2.555    0.567
  304.320   72.699    2.933    0.556
  304.570   72.722    3.240    0.532
  304.820   73.161    3.308    0.508
  305.070   72.793    3.185    0.521
  305.320   70.824    3.067    0.535
  305.570   70.055    3.194    0.482
  305.820   71.686    3.261    0.450
  306.070   74.117    3.331    0.442
  306.320   77.356    3.468    0.443
  306.570   79.386    3.543    0.451
  306.820   79.410    3.545    0.467
  307.070   79.464    3.416    0.490
  307.320   79.488    3.226    0.523
  307.570   79.527    3.105    0.551
  307.820   79.942    2.990    0.561
  308.070   80.373    2.768    0.550
  308.320   81.220    2.615    0.545
  308.570   82.051    2.567    0.547
  308.820   82.490    2.521    0.553
  309.070   82.906    2.524    0.559
  309.320   83.337    2.433    0.561
  309.570   84.168    2.434    0.563
  309.820   84.599    2.211    0.556
  310.070   83.846    2.258    0.545
  310.320   82.669    2.306    0.545
  310.570   81.501    2.353    0.548
  310.820   79.932    2.403    0.552
  311.070   78.364    2.655    0.556
  311.320   76.803    2.710    0.561
  311.570   75.627    2.768    0.568
  311.820   74.458    2.825    0.575
  312.070   73.689    2.829    0.585
  312.320   74.120    2.725    0.593
  312.570   75.759    2.573    0.604
  312.820   77.398    2.528    0.607
  313.070   78.629    2.530    0.601
  313.320   79.060    2.636    0.581
  313.570   79.083    2.690    0.538
  313.820   78.722    2.802    0.493
  314.070   78.361    2.918    0.490
  314.320   78.393    3.038    0.492
  314.570   78.416    3.164    0.498
  314.820   78.455    3.230    0.501
  315.070   78.486    3.299    0.512
  315.320   78.909    3.303    0.529
  315.570   79.764    3.307    0.539
  315.820   79.779    3.311    0.541
  316.070   80.211    3.315    0.542
  316.320   80.250    3.322    0.543
  316.570   79.481    3.262    0.548
  316.820   79.112    3.141    0.553
  317.070   79.151    2.852    0.555
  317.320   79.567    2.970    0.560
  317.570   80.013    2.973    0.564
  317.820   80.852    2.976    0.565
  318.070   81.268    3.040    0.565
  318.320   81.299    3.044    0.562
  318.570   80.530    3.048    0.560
  318.820   80.162    3.054    0.556
  319.070   80.201    3.056    0.555
  319.320   80.232    3.123    0.554
  319.570   80.263    3.125    0.560
  319.820   80.294    3.129    0.580
  320.070   80.733    3.135    0.592
  320.320   80.756    3.138    0.593
  320.570   80.403    3.024    0.593
  320.820   80.027    2.967    0.593
  321.070   79.274    2.802    0.598
  321.320   78.889    2.646    0.599
  321.570   78.928    2.598    0.597
  321.820   78.952    2.602    0.592
  322.070   78.983    2.656    0.589
  322.320   79.422    2.714    0.587
  322.570   79.853    2.771    0.587
  322.820   81.492    2.774    0.588
  323.070   81.915    2.777    0.590
  323.320   83.561    2.727    0.591
  323.570   84.377    2.627    0.591
  323.820   85.616    2.386    0.588
  324.070   86.847    2.210    0.583
  324.320   88.078    2.127    0.575
  324.570   88.109    2.131    0.568
  324.820   87.340    2.219    0.560
  325.070   85.772    2.264    0.553
  325.320   83.803    2.359    0.551
  325.570   80.635    2.408    0.554
  325.820   77.467    2.459    0.563
  326.070   75.506    2.416    0.575
  326.320   77.537    2.372    0.577
  326.570   80.375    2.240    0.578
  326.820   82.406    2.115    0.581
  327.070   83.229    2.076    0.583
  327.320   84.060    2.001    0.590
  327.570   83.692    2.042    0.601
  327.820   83.331    2.085    0.612
  328.070   82.578    2.128    0.618
  328.320   82.201    2.174    0.617
