~VERSION INFORMATION
 VERS.                 2.0:   CWLS LOG ASCII STANDARD -VERSION 2.0
 WRAP.                  NO:   ONE LINE PER DEPTH STEP
~WELL INFORMATION BLOCK
#MNEM.UNIT           DATA                    DESCRIPTION OF MNEMONIC
#---------    -------------------            -------------------------------
# Generated from Intellog Unique Number	CW_76_78/WELL/2565
WELL.         05-14-078-24W4                 : Well_name    - WELL
LOC .         AA/05-14-078-24W4/0            : Location     - LOCATION
UWI .         AA/05-14-078-24W4/0            : Uwi          - UNIQUE WELL ID
ENTR.         MAX                            : Entered      - ENTERED BY
SRVC.         SCHLUMBERGER                   : Scn          - SERVICE COMPANY
STRT.M        290                            : top_depth    - START DEPTH
STOP.M        545                            : bot_depth    - STOP DEPTH
STEP.M        0.25                           : increment    - STEP LENGTH
 NULL. -999.2500:NULL Value
~CURVE INFORMATION BLOCK
#MNEM UNIT       ERCB CURVE CODE    CURVE DESCRIPTION
#-----------   ------------------   ----------------------------------
DEPT.M        00 001 00 00         : DEPTH        - DEPTH
ILD .OHMM     00 120 00 00         : RESD         - DEEP RESISTIVITY (DIL)
NPHI.V/V      00 330 00 00         : PHIN         - NEUTRON POROSITY (SANDSTONE)
DPHI.V/V      00 890 00 00         : PHID         - DENSITY POROSITY (SANDSTONE)
CALI.MM       00 280 01 00         : CAL          - CALIPER
GR  .API      00 310 00 00         : GR           - GAMMA RAY
~PARAMETER INFORMATION
#MNEM.UNIT           DATA             DESCRIPTION OF MNEMONIC
#---------         -----------     ------------------------------
GL  .M        597.38               : gl           - GROUND LEVEL ELEVATION
EREF.M        602.13               : kb           - ELEVATION OF DEPTH REFERENCE
DATM.M        597.38               : datum        - DATUM ELEVATION
TDD .M        547                  : tdd          - TOTAL DEPTH DRILLER
RUN .         ONE                  : Run          - RUN NUMBER
ENG .         BILL                 : Engineer     - RECORDING ENGINEER
WIT .         JIM                  : Witness      - WITNESSED BY
MUD .         GEL                  : Mud_type     - MUD TYPE
MATR.         SANDSTONE            : Logunit      - NEUTRON MATRIX
TMAX.C        41.1                 : BHT          - MAXIMUM RECORDED TEMPERATURE
BHTD.M        547                  : BHTDEP       - MAXIMUM RECORDED TEMPERATURE
RMT .C        17.7                 : MDTP         - TEMPERATURE OF MUD
MUDD.KG/M     1115                 : MWT          - MUD DENSITY
NEUT.         1                    : NEUTRON      - NEUTRON TYPE
RESI.         0                    : RESIST       - RESISTIVITY TYPE
RM  .OHMM     6.28                 : RM           - RESISTIVITY OF MUD
RMC .OHMM     0.25                 : RMC          - RESISTIVITY OF MUD CAKE
RMF .OHMM     5.71                 : RMF          - RESISTIVITY OF MUD FILTRATE
SUFT.C        -20                  : SUFT         - SURFACE TEMPERATURE
~A  DEPTH     RESD     PHIN     PHID      CAL       GR
# ...
  326.500   15.300    0.469    0.352  204.433   62.413
  326.750   15.287    0.476    0.338  206.339   61.160
  327.000   15.416    0.474    0.288  207.263   57.792
  327.250   16.124    0.459    0.252  208.164   55.635
  327.500   15.674    0.436    0.289  206.567   55.875
  327.750   14.428    0.437    0.342  206.978   60.044
  328.000   13.158    0.452    0.346  208.404   66.617
  328.250   11.569    0.463    0.325  210.321   68.670
  328.500    9.988    0.471    0.318  212.238   68.314
  328.750    9.192    0.483    0.335  213.151   66.151
  329.000   10.249    0.485    0.357  212.055   65.186
  329.250   11.854    0.479    0.368  204.913   62.420
  329.500   14.349    0.464    0.374  200.817   57.546
  329.750   15.998    0.443    0.369  197.188   59.291
  330.000   17.516    0.439    0.356  196.105   59.244
  330.250   18.657    0.470    0.347  194.507   57.970
  330.500   17.973    0.494    0.353  193.400   58.833
  330.750   17.476    0.458    0.357  193.298   60.284
  331.000   16.379    0.462    0.352  192.727   60.517
  331.250   15.636    0.436    0.345  192.111   59.264
  331.500   15.482    0.431    0.348  192.043   58.607
  331.750   15.470    0.459    0.333  191.940   57.642
  332.000   15.457    0.455    0.331  191.358   55.171
  332.250   15.730    0.443    0.333  191.758   52.398
  332.500   15.862    0.436    0.327  191.655   52.658
  332.750   16.142    0.443    0.329  191.039   53.199
  333.000   16.278    0.459    0.327  190.982   50.440
  333.250   16.414    0.455    0.320  190.389   54.904
  333.500   16.552    0.434    0.328  190.286   58.156
  333.750   16.541    0.448    0.322  190.206   56.300
  334.000   16.524    0.443    0.312  190.092   55.041
  334.250   16.513    0.434    0.318  190.013   56.485
  334.500   16.653    0.427    0.324  189.921   57.930
  334.750   16.944    0.425    0.320  189.830   58.491
  335.000   17.090    0.430    0.315  189.739   57.834
  335.250   17.233    0.444    0.316  189.648   55.671
  335.500   17.220    0.451    0.315  190.047   52.885
  335.750   17.363    0.446    0.310  189.956   52.542
  336.000   17.350    0.460    0.309  189.876   52.782
  336.250   17.497    0.452    0.314  190.275   53.631
  336.500   17.643    0.440    0.319  190.184   53.877
  336.750   17.791    0.446    0.324  190.093   54.726
  337.000   17.941    0.436    0.320  190.504   54.973
  337.250   17.923    0.432    0.314  190.424   54.918
  337.500   17.750    0.435    0.325  190.299   50.639
  337.750   17.257    0.427    0.345  190.230   49.386
  338.000   16.624    0.427    0.356  190.116   49.934
  338.250   16.309    0.435    0.369  190.550   52.892
  338.500   16.004    0.465    0.371  190.436   54.939
  338.750   15.417    0.526    0.371  190.367   53.077
  339.000   15.125    0.530    0.366  190.755   52.118
  339.250   15.252    0.484    0.357  190.676   52.967
  339.500   15.663    0.469    0.337  190.584   53.823
  339.750   16.088    0.449    0.316  190.995   54.069
  340.000   16.522    0.455    0.327  193.414   49.791
  340.250   16.661    0.492    0.352  194.840   49.134
  340.500   16.345    0.528    0.377  193.722   49.373
  340.750   15.893    0.491    0.330  192.125   50.831
  341.000   15.308    0.442    0.323  191.543   53.488
  341.250   15.159    0.432    0.317  190.950   56.438
  341.500   15.566    0.440    0.313  190.357   56.391
  341.750   16.132    0.436    0.310  190.265   52.420
  342.000   16.420    0.420    0.304  190.151   48.737
  342.250   16.710    0.421    0.293  190.049   48.682
  342.500   17.005    0.432    0.284  189.969   50.140
  342.750   17.303    0.438    0.274  189.878   51.585
  343.000   17.449    0.432    0.283  190.300   53.337
  343.250   17.278    0.423    0.299  190.209   54.179
  343.500   16.646    0.415    0.321  190.608   52.927
  343.750   15.458    0.447    0.318  190.517   53.776
  344.000   14.227    0.471    0.318  190.939   58.239
  344.250   13.336    0.476    0.328  191.350   63.319
  344.500   11.833    0.463    0.323  192.240   67.173
  344.750   10.406    0.465    0.321  192.171   68.015
  345.000    8.274    0.479    0.323  192.582   65.866
  345.250    7.143    0.462    0.320  192.993   64.298
  345.500    6.514    0.451    0.312  193.404   67.256
  345.750    7.198    0.460    0.298  193.803   65.387
  346.000    8.794    0.435    0.283  193.712   62.327
  346.250   10.941    0.424    0.281  193.609   56.843
  346.500   12.424    0.513    0.430  194.522   51.065
  346.750   14.236    0.688    0.588  196.439   44.075
  347.000   15.587    0.593    0.572  196.439   35.278
  347.250   15.861    0.563    0.408  196.702   34.916
  347.500   15.419    0.431    0.323  196.679   36.668
  347.750   15.267    0.381    0.323  197.581   39.338
  348.000   15.119    0.383    0.331  195.983   42.289
  348.250   14.697    0.394    0.344  194.888   43.446
  348.500   14.421    0.405    0.346  195.287   43.986
  348.750   14.407    0.407    0.340  196.714   45.445
  349.000   14.399    0.412    0.331  202.156   51.113
  349.250   14.786    0.420    0.333  205.579   49.854
  349.500   15.187    0.438    0.342  209.002   45.575
  349.750   15.884    0.451    0.348  210.919   44.918
  350.000   17.072    0.448    0.348  211.809   44.863
  350.250   17.697    0.425    0.334  211.216   45.404
  350.500   18.510    0.376    0.301  210.634   44.151
  350.750   18.666    0.346    0.268  211.045   38.065
  351.000   18.651    0.326    0.312  212.460   34.998
  351.250   18.635    0.358    0.333  212.357   37.052
  351.500   18.619    0.395    0.345  211.273   40.304
  351.750   18.605    0.390    0.323  211.171   39.955
  352.000   18.589    0.377    0.305  212.095   38.387
  352.250   18.578    0.387    0.294  212.506   37.723
  352.500   18.564    0.401    0.299  211.399   37.381
  352.750   18.892    0.398    0.319  205.774   35.813
  353.000   19.578    0.337    0.287  203.686   33.944
  353.250   21.048    0.280    0.236  201.587   32.082
  353.500   21.032    0.295    0.235  200.491   32.034
  353.750   20.823    0.310    0.267  200.891   36.197
  354.000   20.242    0.307    0.257  201.313   37.942
  354.250   19.682    0.313    0.254  204.223   35.779
  354.500   18.787    0.326    0.272  209.665   34.828
  354.750   18.101    0.344    0.289  207.064   35.978
  355.000   17.435    0.366    0.306  199.431   35.307
  355.250   17.265    0.384    0.310  197.331   36.156
  355.500   17.095    0.373    0.311  197.240   36.101
  355.750   17.717    0.335    0.299  197.137   35.143
  356.000   18.195    0.335    0.281  197.548   34.184
  356.250   18.858    0.327    0.296  198.461   33.534
  356.500   19.365    0.325    0.300  199.385   33.171
  356.750   19.351    0.355    0.317  200.789   34.020
  357.000   18.471    0.390    0.352  202.204   37.888
  357.250   17.961    0.455    0.366  203.607   44.761
  357.500   16.834    0.474    0.374  204.531   50.437
  357.750   16.670    0.491    0.378  208.468   50.984
  358.000   16.504    0.502    0.392  214.892   44.892
  358.250   16.490    0.508    0.424  215.816   44.837
  358.500   17.089    0.503    0.369  211.195   46.288
  358.750   17.874    0.444    0.233  202.558   45.330
  359.000   18.528    0.328    0.199  196.956   44.673
  359.250   19.557    0.380    0.270  192.837   45.528
  359.500   20.081    0.396    0.266  192.232   46.076
  359.750   19.527    0.386    0.248  192.152   43.303
  360.000   17.969    0.419    0.292  192.540   40.230
  360.250   17.312    0.437    0.309  193.453   38.073
  360.500   17.299    0.445    0.310  195.370   40.113
  360.750   17.601    0.450    0.307  195.769   40.675
  361.000   18.078    0.443    0.281  195.701   40.914
  361.250   19.434    0.421    0.263  194.104   40.244
  361.500   20.701    0.400    0.230  192.004   40.203
  361.750   21.654    0.369    0.218  190.886   41.051
  362.000   21.637    0.367    0.260  190.806   41.887
  362.250   21.227    0.387    0.287  191.719   42.749
  362.500   19.183    0.401    0.298  192.119   44.187
  362.750   17.495    0.411    0.298  193.043   45.652
