~VERSION INFORMATION
 VERS.                 2.0:   CWLS LOG ASCII STANDARD -VERSION 2.0
 WRAP.                  NO:   ONE LINE PER DEPTH STEP
~WELL INFORMATION BLOCK
#MNEM.UNIT           DATA                    DESCRIPTION OF MNEMONIC
#---------    -------------------            -------------------------------
# Generated from Intellog Unique Number	CN_94_101/WELL/3568
WELL.         04-05-096-12W4                 : Well_name    - WELL
LOC .         AA/04-05-096-12W4/0            : Location     - LOCATION
UWI .         AA/04-05-096-12W400            : Uwi          - UNIQUE WELL ID
ENTR.         JOETTE                         : Entered      - ENTERED BY
SRVC.         SCHLUMBERGER                   : Scn          - SERVICE COMPANY
DATE.         07-31-92                       : Date         - LOG DATE
STRT.F        30                             : top_depth    - START DEPTH
STOP.F        430.262                        : bot_depth    - STOP DEPTH
STEP.F        0.8202                         : increment    - STEP LENGTH
 NULL. -999.2500:NULL Value
~CURVE INFORMATION BLOCK
#MNEM UNIT       ERCB CURVE CODE    CURVE DESCRIPTION
#-----------   ------------------   ----------------------------------
DEPT.F        00 001 00 00         : DEPTH        - DEPTH
GR  .API      00 310 00 00         : GR           - GAMMA RAY
RHOB.G/CC     00 350 00 00         : DENS         - BULK DENSITY
ILD .OHMM     00 120 00 00         : RESD         - DEEP RESISTIVITY (DIL)
DPHI.V/V      00 890 00 00         : PHID         - DENSITY POROSITY (SANDSTONE)
~PARAMETER INFORMATION
#MNEM.UNIT           DATA             DESCRIPTION OF MNEMONIC
#---------         -----------     ------------------------------
GL  .M        350.886              : gl           - GROUND LEVEL ELEVATION
EREF.M        350.886              : kb           - ELEVATION OF DEPTH REFERENCE
DATM.M        350.886              : datum        - DATUM ELEVATION
TDD .M        132.283              : tdd          - TOTAL DEPTH DRILLER
RUN .         ONE                  : Run          - RUN NUMBER
ENG .         BILL                 : Engineer     - RECORDING ENGINEER
WIT .         JIM                  : Witness      - WITNESSED BY
MUD .         GEL                  : Mud_type     - MUD TYPE
MATR.         SANDSTONE            : Logunit      - NEUTRON MATRIX
TMAX.F        49                   : BHT          - MAXIMUM RECORDED TEMPERATURE
BHTD.F        434                  : BHTDEP       - MAXIMUM RECORDED TEMPERATURE
RMT .F        49                   : MDTP         - TEMPERATURE OF MUD
MUDD.LB/G     1.1                  : MWT          - MUD DENSITY
NEUT.         1                    : NEUTRON      - NEUTRON TYPE
RESI.         0                    : RESIST       - RESISTIVITY TYPE
RM  .OHMM     3.35                 : RM           - RESISTIVITY OF MUD
RMC .OHMM     3.35                 : RMC          - RESISTIVITY OF MUD CAKE
RMF .OHMM     3.35                 : RMF          - RESISTIVITY OF MUD FILTRATE
SUFT.F        39.2                 : SUFT         - SURFACE TEMPERATURE
~A  DEPTH       GR     DENS     RESD     PHID
# ...
  315.433   84.390    2.181   14.841    0.284
  316.253   87.493    2.177   13.570    0.287
  317.073   73.916    2.151   14.106    0.302
  317.894   62.121    2.104   16.659    0.331
  318.714   52.700    2.100   20.420    0.333
  319.534   58.746    2.135   22.839    0.312
  320.354   77.315    2.159   22.886    0.298
  321.175   83.388    2.171   21.718    0.290
  321.995   72.159    2.180   19.143    0.285
  322.815   68.110    2.188   17.195    0.280
  323.635   61.686    2.142   16.593    0.308
  324.455   55.234    2.099   15.738    0.334
  325.276   48.783    2.063   15.771    0.356
  326.096   40.578    2.057   18.297    0.359
  326.916   35.908    2.058   23.276    0.359
  327.736   34.828    2.060   30.699    0.358
  328.556   38.525    2.062   47.770    0.356
  329.377   41.008    2.063   67.794    0.356
  330.197   38.740    2.059  133.857    0.358
  331.017   35.312    2.057  173.519    0.359
  331.837   34.178    2.070  161.591    0.352
  332.657   34.285    2.084  158.983    0.343
  333.478   36.174    2.070  165.169    0.351
  334.298   38.144    2.055  181.568    0.361
  335.118   37.604    2.043  192.119    0.368
  335.938   37.117    2.039  210.870    0.370
  336.759   38.413    2.038  235.849    0.371
  337.579   37.926    2.032  294.583    0.374
  338.399   37.413    2.027  341.773    0.378
  339.219   36.333    2.023  426.667    0.380
  340.039   36.441    2.027  532.920    0.377
  340.860   35.361    2.026  618.607    0.378
  341.680   33.120    2.026  691.887    0.378
  342.500   33.821    2.030  745.629    0.376
  343.320   35.143    2.039  833.957    0.371
  344.140   35.224    2.045  883.326    0.367
  344.961   35.331    2.049  901.962    0.364
  345.781   36.627    2.058  871.300    0.359
  346.601   36.140    2.060  840.819    0.358
  347.421   36.221    2.052  769.200    0.362
  348.241   38.137    2.049  729.192    0.364
  349.062   38.244    2.047  654.638    0.365
  349.882   37.164    2.047  566.565    0.365
  350.702   36.651    2.050  490.342    0.364
  351.522   35.571    2.050  409.108    0.364
  352.343   35.085    2.052  353.887    0.362
  353.163   35.219    2.053  284.639    0.362
  353.983   36.514    2.059  228.941    0.358
  354.803   38.403    2.067  190.915    0.353
  355.623   40.292    2.084  150.769    0.343
  356.444   43.369    2.124  102.836    0.319
  357.264   48.227    2.139   78.251    0.310
  358.084   59.050    2.141   57.430    0.308
  358.904   64.529    2.139   47.022    0.310
  359.724   65.797    2.138   38.520    0.311
  360.545   71.870    2.168   30.982    0.292
  361.365   76.134    2.158   27.324    0.298
  362.185   69.682    2.157   25.903    0.299
  363.005   63.879    2.159   24.122    0.298
  363.825   62.772    2.159   23.733    0.297
  364.646   56.321    2.142   24.233    0.308
  365.466   48.142    2.116   24.258    0.324
  366.286   51.191    2.124   26.680    0.319
  367.106   65.577    2.139   27.704    0.310
  367.927   68.087    2.127   29.329    0.317
  368.747   66.413    2.103   31.082    0.331
  369.567   66.520    2.098   31.705    0.335
  370.387   67.789    2.098   31.177    0.335
  371.207   67.303    2.096   27.990    0.336
  372.028   65.035    2.089   26.561    0.340
  372.848   64.576    2.081   26.119    0.345
  373.668   65.897    2.067   26.656    0.353
  374.488   66.545    2.044   29.273    0.367
  375.308   67.273    2.056   30.990    0.360
  376.129   61.416    2.102   29.393    0.332
  376.949   54.965    2.155   25.439    0.300
  377.769   57.447    2.135   21.224    0.312
  378.589   70.646    2.117   19.045    0.323
  379.409   63.034    2.090   20.162    0.339
  380.230   45.867    2.070   26.605    0.351
  381.050   33.478    2.074   32.611    0.349
  381.870   29.429    2.081   43.033    0.345
  382.690   28.349    2.079   53.722    0.346
  383.510   24.299    2.078   70.891    0.347
  384.331   20.817    2.078   91.802    0.347
  385.151   18.549    2.080  123.316    0.345
  385.971   19.251    2.083  206.479    0.344
  386.791   21.761    2.085  288.006    0.342
  387.612   24.243    2.091  258.427    0.339
  388.432   26.726    2.104  227.794    0.331
  389.252   28.048    2.116  204.399    0.324
  390.072   29.937    2.126  173.689    0.317
  390.892   32.420    2.149  125.290    0.304
  391.713   33.715    2.165  116.558    0.294
  392.533   33.823    2.175  102.689    0.288
  393.353   32.742    2.174   82.595    0.289
  394.173   32.823    2.166   68.947    0.293
  394.993   32.931    2.163   64.207    0.295
  395.814   33.038    2.163   64.339    0.295
  396.634   33.146    2.167   70.654    0.293
  397.454   30.878    2.175   80.444    0.288
  398.274   28.610    2.176   95.055    0.287
  399.094   27.530    2.172  108.281    0.290
  399.915   25.883    2.173  135.316    0.289
  400.735   25.343    2.173  151.268    0.289
  401.555   25.451    2.173  175.590    0.289
  402.375   25.558    2.174  189.325    0.289
  403.196   24.478    2.180  196.692    0.285
  404.016   24.586    2.188  200.739    0.280
  404.836   24.693    2.203  173.821    0.271
  405.656   25.988    2.207  153.139    0.268
  406.476   27.931    2.161  127.769    0.296
  407.297   30.414    2.090   93.821    0.340
  408.117   32.870    2.072   85.698    0.350
  408.937   34.192    2.066   75.539    0.354
  409.757   31.897    2.077   66.619    0.348
  410.577   29.063    2.097   63.154    0.335
  411.398   30.952    2.113   58.813    0.325
  412.218   34.622    2.140   54.826    0.309
  413.038   37.078    2.164   53.886    0.294
  413.858   38.373    2.168   50.207    0.292
  414.678   36.105    2.181   48.476    0.284
  415.499   33.244    2.197   45.120    0.274
  416.319   32.164    2.204   38.361    0.271
  417.139   37.022    2.228   32.581    0.256
  417.959   47.251    2.278   20.642    0.225
  418.780   64.012    2.335   14.875    0.191
  419.600  103.986    2.505   11.528    0.088
  420.420  102.312    2.529    9.113    0.073
  421.240   98.856    2.534    9.122    0.070
  422.060   94.780    2.522    9.310    0.077
  422.881   87.168    2.490   10.038    0.097
  423.701   69.408    2.445   12.770    0.124
  424.521   57.045    2.415   14.823    0.142
  425.341   58.367    2.412   14.592    0.145
  426.161   59.636    2.414   14.607    0.143
  426.982   60.931    2.420   14.110    0.139
  427.802   61.632    2.421   13.630    0.139
  428.622   61.173    2.421   13.417    0.139
  429.442   60.687    2.419   13.194    0.140
  430.262   60.200    2.420   12.981    0.140
