~Version : LASO    vs 4.00 - DATA COPYRIGHT - RILEYS DATASHARE INTERNATIONAL
VERS.                2.00:   CWLS Log ASCII Standard -VERSION 2.0
WRAP.                  NO:
~Well Information Block
#MNEM.UNIT       Data                        Description of Mnemonic
#----.----      -------------------------- : -----------------------------
COMP.                                     : COMPANY
FLD .    WILDCAT                          : FIELD NAME
LOC .    03-06-091-07W4                   : WELL LOCATION
UWI .    AA/03-06-091-07W400              : UNIQUE WELL ID
STRT.M             9.0000:
STOP.M           161.0000:
STEP.M             0.1250:
NULL.           -999.2500:
COMP.  MOBIL OIL CANADA:COMPANY
WELL.  MOBIL CLARKE OV 3-6:WELL
FLD.   :FIELD
LOC.   03-06-091-07W4:LOCATION
CTRY.  CANADA:COUNTRY
PROV.  ALBERTA:PROVINCE
SRVC.  DRESSER ATLAS:SERVICE COMPANY
DATE.  08-FEB-81:LOG DATE
UWI.   AA/03-06-091-07W4/0:UNIQUE WELL ID
~Parameter Information Block
#MNEM.UNIT       Data                        Description of Mnemonic
#----.----      -------------------------- : -----------------------------
RUN .                   1                 : Run Number
GL  .M           418.1000                 : Ground Level Elevation
DREF.                  KB                 : Depth Reference
EREF.M           419.1000                 : Elevation of Depth Reference
TDL .M           162.8000                 : Total Depth Logger
TDD .M           160.0000                 : Total Depth Driller
BHT .DEGC         10.0000                 : Bottom Hole Temperature
BS  .MM          171.0000                 : Bit Size
DFD .           1090.0000                 : Mud Weight (Density)
DFV .             85.0000                 : Mud Viscosity
RM  .OHMM          1.9000                 : Mud Resistivity
RMT .DEGC         10.0000                 : Mud Resistivity Temperature
RMF .OHMM          1.1000                 : Mud Filtrate Resistivity
RMFT.DEGC         18.0000                 : RMF Temperature
RMC .OHMM          1.8000                 : Mud Cake Resistivity
RMCT.DEGC         18.0000                 : RMC Temperature
~Curve Information Block
#MNEM.UNIT        API CODE    Curve Description
#---------    ------------    -------------------------------------------
DEPT.M                    :   DEPTH
CALI.MM       42 280  1  1:   3 DENSITY CALIPER
DPHI.V/V                  :   DPHI
DT  .US/M     60 520 32  1:   2 SONIC INTERVAL TRANSIT TIME (COMPENSATED)
GR  .GAPI     42 310  1  1:   4 GAMMA RAY
ILD .OHMM      5 120 46  1:   7 DEEP INDUCTION
NPHI.V/V      42 890  3  1:   5 NEUTRON POROSITY (SANDSTONE)
RHOB.K/M3     42 350  1  1:   6 BULK DENSITY
SFL .OHMM      5 220  6  1:   8 FOCUSSED RESISTIVITY
SP  .MV        5  10  1  1:   9 SPONTANEOUS POTENTIAL
~A  Depth           CALI        DPHI          DT          GR         ILD        NPHI        RHOB         SFL          SP
# ...
134.6250        203.7750      0.3243    380.7200     25.3650     41.7200      0.3012   2114.0000     63.6400    -71.1300
134.7500        204.7000      0.3223    376.8000     25.3650     32.4200      0.3024   2115.2000     97.0600    -69.5700
134.8750        205.0000      0.3199    376.2800     24.9900     26.6600      0.3051   2121.3000    175.9999    -68.2500
135.0000        205.6250      0.3204    378.0000     24.6300     22.7500      0.3046   2125.6001    289.7000    -67.0500
135.1250        206.5250      0.3224    379.4800     24.8100     20.7900      0.3032   2123.1001    405.8000    -65.9700
135.2500        206.2250      0.3247    384.8800     24.9900     18.8300      0.3023   2123.7000    529.3000    -64.4000
135.3750        205.9250      0.3271    388.8000     25.1700     17.1200      0.3040   2120.1001    578.2000    -63.2000
135.5000        206.2250      0.3277    389.2800     25.1700     15.5300      0.3053   2112.2000    519.4999    -62.2400
135.6250        206.8500      0.3268    393.2000     24.9900     14.1800      0.3037   2108.5000    349.6000    -61.0400
135.7500        207.1500      0.3266    396.4000     26.2800     13.5700      0.3014   2111.6001    249.3000    -59.6000
135.8750        207.1500      0.3256    398.8400     27.5700     13.0800      0.3018   2111.6001    141.8000    -57.9100
136.0000        207.1500      0.3245    404.7200     28.3050     12.9600      0.3037   2115.2000     58.2600    -56.1100
136.1250        206.8500      0.3269    403.2400     29.9550     13.4500      0.3051   2129.8000     33.0400    -54.7900
136.2500        205.9250      0.3266    401.0400     31.9800     14.1800      0.3055   2133.5000     24.7200    -55.1500
136.3750        204.7000      0.3238    400.5600     33.2700     15.0400      0.3064   2143.8000     19.7000    -56.5900
136.5000        203.7750      0.3195    397.3600     34.5450     15.5300      0.3058   2153.5000     17.5000    -57.5500
136.6250        205.0000      0.3157    392.7200     35.1000     15.8900      0.3012   2131.6001     19.0900    -57.9100
136.7500        205.6250      0.3119    387.0800     34.1850     17.0000      0.2972   2133.5000     23.9900    -58.0300
136.8750        205.6250      0.3135    385.8400     33.2700     18.4600      0.2918   2134.1001     32.1900    -58.1500
137.0000        205.6250      0.3156    379.0000     33.6300     21.6500      0.2876   2135.3000     32.3100    -58.5100
137.1250        205.6250      0.3180    378.7600     35.4750     27.0300      0.2829   2123.7000     27.6600    -58.7600
137.2500        205.3250      0.3204    376.2800     38.5950     35.3600      0.2780   2126.8000     23.0100    -58.7600
137.3750        204.7000      0.3152    376.0400     43.3800     44.9000      0.2766   2133.5000     15.7800    -58.2700
137.5000        205.6250      0.3093    384.8800     52.9350     52.2500      0.2786   2146.8000     14.0700    -57.4300
137.6250        207.7500      0.3041    395.1600     66.1650     64.9800      0.2826   2148.7000     15.2900    -56.3500
137.7500        207.1500      0.3033    402.7600     76.8300     85.6600      0.2872   2136.5000     24.1100    -54.7900
137.8750        204.4000      0.3072    405.7200     95.2200    136.1000      0.2944   2126.2000     38.4300    -52.3800
138.0000        201.3250      0.3134    431.6800    120.9450    171.5000      0.3058   2118.3000     45.6500    -47.4600
138.1250        200.7250      0.3213    434.4000    140.9850    217.9000      0.3164   2103.1001     36.2300    -42.2900
138.2500        200.4250      0.3274    438.8000    147.6000    260.6000      0.3225   2093.3000     32.0600    -40.4900
138.3750        201.6500      0.3275    437.3200    122.4150    216.7000      0.3225   2110.3999     44.4300    -40.2500
138.5000        204.4000      0.3227    420.9200     88.7850    160.5000      0.3273   2115.2000     66.0900    -40.9700
138.6250        204.1000      0.3166    417.4800     58.6350    120.2000      0.3298   2132.8999    149.1000    -40.4900
138.7500        204.4000      0.3175    421.8800     52.9350     96.4300      0.3334   2129.8000    344.7000    -37.9600
138.8750        203.7750      0.3257    429.9600     52.2000     75.1300      0.3347   2116.3999    479.2000    -36.1600
139.0000        203.1750      0.3342    457.4400     54.4050     63.3800      0.3302   2101.2000    452.3000    -34.6000
139.1250        201.3250      0.3416    463.5600     57.3450     54.2000      0.3242   2001.5000    550.1000    -33.5100
139.2500        200.7250      0.3489    460.3600     58.9950     49.0600      0.3203   1975.3000    842.2000    -33.7600
139.3750        206.2250      0.3573    450.8000     59.3700     46.9800      0.3166   1954.7000   1267.9999    -34.7200
139.5000        207.7500      0.3713    434.6400     57.1650     45.1500      0.3229   1972.9000   1576.9999    -36.1600
139.6250        205.9250      0.3771    426.5200     54.2250     43.4300      0.3268   2050.2000   1579.9999    -37.9600
139.7500        202.2500      0.3668    422.3600     49.4400     43.8000      0.3338   2075.1001   1435.9999    -41.3300
139.8750        201.0250      0.3472    422.3600     43.3800     47.1100      0.3400   2138.3000   1167.9999    -45.8900
140.0000        201.3250      0.3373    426.5200     41.5350     51.3900      0.3471   2165.1001    636.9000    -49.9800
140.1250        201.0250      0.3403    422.8400     41.5350     56.4100      0.3448   2134.7000    135.6000    -53.1100
140.2500        201.0250      0.3449    417.4400     38.4150     60.6900      0.3382   2104.8999     41.0000    -54.1900
140.3750        200.7250      0.3529    415.2400     34.0050     63.2600      0.3320   2076.3000     36.4700    -54.4300
140.5000        201.3250      0.3603    409.3600     30.1350     61.4300      0.3248   2062.3000     38.3100    -54.3100
140.6250        201.9500      0.3624    407.6400     27.9300     53.9600      0.3175   2069.6001     46.6300    -53.9500
140.7500        201.9500      0.3587    405.4400     26.4600     46.0000      0.3143   2069.0000     62.4200    -53.8300
140.8750        201.9500      0.3550    404.9600     25.5450     41.9600      0.3168   2065.3999    105.1000    -53.4700
141.0000        201.9500      0.3503    396.8400     25.3650     37.0700      0.3202   2069.0000    205.3000    -52.7500
141.1250        201.9500      0.3455    394.4000     25.7250     32.7800      0.3248   2064.7000    131.9999    -51.0600
141.2500        202.2500      0.3426    390.2400     26.6400     28.6200      0.3237   2060.5000     85.4300    -49.6200
141.3750        202.5500      0.3430    386.8000     26.8350     25.2000      0.3176   2057.5000    149.1000    -48.4200
141.5000        202.5500      0.3440    391.9600     26.8350     23.4800      0.3124   2059.3000    304.4000    -46.9800
141.6250        202.8750      0.3452    397.6000     27.1950     21.8900      0.3084   2078.7000    333.7000    -45.0500
141.7500        202.5500      0.3435    407.1600     29.0400     21.0300      0.3047   2090.3000     72.7000    -43.0100
141.8750        202.2500      0.3393    412.5600     31.6050     20.3000      0.3058   2105.5000     56.0500    -42.1700
142.0000        201.9500      0.3327    418.9200     35.2800     19.5700      0.3107   2123.7000     49.6900    -43.2500
142.1250        201.0250      0.3246    420.1600     40.6200     18.9500      0.3156   2154.8000     42.7100    -44.5700
142.2500        201.3250      0.3180    417.4400     43.5600     18.3400      0.3149   2145.0000     33.0400    -46.5000
142.3750        201.0250      0.3136    410.8400     43.5600     18.5900      0.3119   2149.3000     46.2600    -47.4600
142.5000        201.3250      0.3107    405.9200     40.0650     19.2000      0.3103   2145.0000     72.5800    -46.6200
142.6250        201.3250      0.3127    405.4400     37.5000     20.4200      0.3093   2101.2000     71.6000    -45.1700
142.7500        201.6500      0.3159    406.9200     36.2100     22.2600      0.3078   2095.8000     29.6200    -44.4500
142.8750        202.2500      0.3203    408.1200     35.4750     25.0700      0.3091   2097.6001     24.4700    -43.8500
