~VERSION INFORMATION
 VERS.                 2.0:   CWLS LOG ASCII STANDARD -VERSION 2.0
 WRAP.                  NO:   ONE LINE PER DEPTH STEP
~WELL INFORMATION BLOCK
#MNEM.UNIT           DATA                    DESCRIPTION OF MNEMONIC
#---------    -------------------            -------------------------------
# Generated from Intellog Unique Number	CN_94_101/WELL/3661
WELL.         08-18-096-16W4                 : Well_name    - WELL
LOC .         AA/08-18-096-16W4/0            : Location     - LOCATION
UWI .         AA/08-18-096-16W400            : Uwi          - UNIQUE WELL ID
ENTR.         J                              : Entered      - ENTERED BY
SRVC.         SCHLUMBERGER                   : Scn          - SERVICE COMPANY
DATE.         08/05/92                       : Date         - LOG DATE
STRT.M        200                            : top_depth    - START DEPTH
STOP.M        395                            : bot_depth    - STOP DEPTH
STEP.M        0.25                           : increment    - STEP LENGTH
 NULL. -999.2500:NULL Value
~CURVE INFORMATION BLOCK
#MNEM UNIT       ERCB CURVE CODE    CURVE DESCRIPTION
#-----------   ------------------   ----------------------------------
DEPT.M        00 001 00 00         : DEPTH        - DEPTH
GR  .API      00 310 00 00         : GR           - GAMMA RAY
NPHI.V/V      00 330 00 00         : PHIN         - NEUTRON POROSITY (SANDSTONE)
DPHI.V/V      00 890 00 00         : PHID         - DENSITY POROSITY (SANDSTONE)
ILD .OHMM     00 120 00 00         : RESD         - DEEP RESISTIVITY (DIL)
~PARAMETER INFORMATION
#MNEM.UNIT           DATA             DESCRIPTION OF MNEMONIC
#---------         -----------     ------------------------------
GL  .M        647.9                : gl           - GROUND LEVEL ELEVATION
EREF.M        651.5                : kb           - ELEVATION OF DEPTH REFERENCE
DATM.M        651.5                : datum        - DATUM ELEVATION
TDD .M        397                  : tdd          - TOTAL DEPTH DRILLER
RUN .         ONE                  : Run          - RUN NUMBER
ENG .         JO                   : Engineer     - RECORDING ENGINEER
WIT .         TIM                  : Witness      - WITNESSED BY
MUD .         GEL                  : Mud_type     - MUD TYPE
MATR.         SANDSTONE            : Logunit      - NEUTRON MATRIX
TMAX.C        27.8                 : BHT          - MAXIMUM RECORDED TEMPERATURE
BHTD.M        397                  : BHTDEP       - MAXIMUM RECORDED TEMPERATURE
RMT .C        10                   : MDTP         - TEMPERATURE OF MUD
MUDD.KG/M     1160                 : MWT          - MUD DENSITY
NEUT.         1                    : NEUTRON      - NEUTRON TYPE
RESI.         0                    : RESIST       - RESISTIVITY TYPE
RM  .OHMM     0.77                 : RM           - RESISTIVITY OF MUD
RMC .OHMM     0.77                 : RMC          - RESISTIVITY OF MUD CAKE
RMF .OHMM     0.78                 : RMF          - RESISTIVITY OF MUD FILTRATE
SUFT.C        4                    : SUFT         - SURFACE TEMPERATURE
~A  DEPTH       GR     PHIN     PHID     RESD
# ...
  330.500  112.072    0.322    0.089   10.147
  330.750  113.256    0.367    0.119   11.142
  331.000  112.014    0.384    0.171   11.131
  331.250  110.164    0.415    0.207   10.708
  331.500  107.701    0.409    0.227   10.302
  331.750  107.672    0.393    0.235    9.725
  332.000  107.642    0.390    0.239    9.534
  332.250  108.213    0.396    0.249    9.342
  332.500  108.198    0.401    0.257    9.514
  332.750  105.742    0.406    0.255    9.688
  333.000  101.466    0.408    0.251   10.049
  333.250   97.189    0.408    0.246   10.042
  333.500   91.685    0.406    0.246   10.221
  333.750   89.236    0.395    0.246   10.409
  334.000   84.960    0.373    0.247   11.429
  334.250   81.290    0.346    0.247   13.792
  334.500   77.013    0.331    0.244   17.285
  334.750   75.771    0.289    0.204   25.196
  335.000   81.203    0.262    0.073   27.148
  335.250   94.522    0.251    0.058   17.900
  335.500  103.594    0.254    0.059   14.805
  335.750  110.246    0.251    0.057   11.567
  336.000  109.596    0.261    0.088    9.936
  336.250  112.600    0.354    0.119    8.863
  336.500  116.226    0.386    0.159    8.056
  336.750  123.471    0.393    0.172    7.461
  337.000  127.696    0.430    0.114    7.179
  337.250  128.274    0.481    0.161    6.774
  337.500  126.424    0.512    0.200    6.644
  337.750  124.568    0.510    0.219    6.391
  338.000  123.917    0.499    0.209    6.266
  338.250  123.895    0.483    0.200    6.143
  338.500  123.874    0.474    0.199    5.909
  338.750  123.830    0.473    0.194    5.794
  339.000  123.808    0.474    0.169    6.122
  339.250  123.779    0.474    0.163    6.235
  339.500  123.143    0.474    0.157    6.593
  339.750  126.155    0.469    0.183    6.842
  340.000  130.366    0.464    0.202    6.966
  340.250  130.943    0.463    0.194    6.829
  340.500  130.315    0.472    0.192    6.443
  340.750  127.859    0.494    0.193    5.432
  341.000  127.822    0.497    0.192    5.031
  341.250  129.606    0.471    0.183    4.931
  341.500  130.198    0.465    0.181    4.836
  341.750  130.776    0.498    0.236    4.741
  342.000  131.346    0.508    0.233    4.736
  342.250  128.890    0.502    0.207    4.643
  342.500  126.434    0.491    0.184    4.466
  342.750  125.805    0.491    0.171    4.297
  343.000  128.203    0.495    0.193    4.056
  343.250  128.773    0.505    0.216    3.977
  343.500  125.718    0.513    0.219    4.049
  343.750  122.048    0.511    0.215    4.281
  344.000  119.585    0.503    0.210    4.442
  344.250  123.803    0.493    0.210    4.784
  344.500  126.815    0.485    0.213    4.873
  344.750  132.239    0.485    0.208    4.961
  345.000  131.603    0.490    0.204    5.145
  345.250  128.533    0.490    0.202    5.239
  345.500  127.904    0.477    0.199    5.335
  345.750  127.261    0.463    0.187    5.431
  346.000  127.239    0.447    0.175    5.636
  346.250  125.375    0.435    0.166    5.956
  346.500  124.147    0.445    0.160    6.181
  346.750  121.684    0.452    0.162    6.294
  347.000  123.475    0.457    0.162    6.529
  347.250  124.666    0.436    0.161    6.401
  347.500  126.458    0.416    0.162    6.276
  347.750  126.421    0.424    0.169    5.925
  348.000  127.605    0.435    0.179    5.385
  348.250  130.011    0.446    0.184    4.624
  348.500  130.588    0.469    0.190    4.125
  348.750  128.732    0.474    0.191    3.969
  349.000  126.275    0.500    0.188    3.891
  349.250  124.426    0.506    0.186    4.035
  349.500  121.970    0.515    0.182    4.109
  349.750  117.701    0.518    0.182    4.264
  350.000  108.563    0.480    0.182    4.595
  350.250  101.253    0.470    0.175    4.950
  350.500   87.875    0.459    0.161    5.645
  350.750   76.318    0.444    0.151    6.435
  351.000   68.394    0.395    0.145    7.068
  351.250   62.897    0.328    0.172    9.026
  351.500   61.054    0.304    0.278   10.691
  351.750   56.778    0.302    0.313   12.424
  352.000   60.389    0.313    0.334   14.709
  352.250   64.001    0.319    0.339   15.261
  352.500   67.605    0.327    0.335   15.540
  352.750   67.576    0.343    0.325   15.522
  353.000   64.513    0.385    0.315   15.507
  353.250   59.637    0.394    0.301   15.496
  353.500   52.926    0.399    0.286   15.773
  353.750   52.897    0.408    0.282   15.762
  354.000   54.089    0.417    0.277   16.044
  354.250   57.700    0.422    0.287   16.334
  354.500   61.911    0.425    0.287   16.943
  354.750   61.268    0.427    0.259   17.914
  355.000   58.826    0.429    0.256   18.586
  355.250   53.943    0.427    0.261   20.802
  355.500   48.439    0.424    0.261   23.276
  355.750   44.170    0.429    0.261   25.563
  356.000   39.893    0.431    0.268   30.265
  356.250   38.044    0.438    0.279   34.510
  356.500   38.614    0.441    0.289   38.624
  356.750   41.619    0.441    0.300   44.043
  357.000   44.024    0.437    0.306   46.567
  357.250   45.208    0.428    0.306   50.162
  357.500   46.378    0.424    0.305   51.070
  357.750   46.963    0.429    0.305   49.130
  358.000   47.548    0.431    0.307   47.275
  358.250   48.725    0.436    0.308   42.954
  358.500   48.696    0.441    0.309   41.342
  358.750   48.060    0.442    0.311   40.530
  359.000   47.431    0.443    0.308   40.482
  359.250   44.975    0.440    0.302   41.215
  359.500   41.912    0.435    0.300   42.771
  359.750   42.475    0.430    0.295   46.963
  360.000   43.667    0.428    0.292   48.725
  360.250   43.031    0.433    0.290   35.974
  360.500   41.788    0.439    0.294   33.316
  360.750   40.538    0.447    0.304   37.999
  361.000   38.082    0.453    0.311   44.998
  361.250   37.446    0.442    0.309   59.681
  361.500   38.031    0.434    0.304   79.174
  361.750   39.815    0.434    0.302   92.002
  362.000   40.992    0.434    0.304   86.851
  362.250   40.977    0.430    0.306   80.455
  362.500   40.342    0.426    0.305   71.749
  362.750   39.099    0.418    0.301   62.803
  363.000   38.463    0.411    0.294   54.959
  363.250   38.434    0.409    0.290   50.924
  363.500   37.798    0.402    0.287   44.553
  363.750   35.934    0.396    0.283   42.881
  364.000   34.699    0.393    0.278   40.480
  364.250   33.463    0.384    0.278   38.214
  364.500   32.213    0.377    0.283   36.762
  364.750   32.184    0.374    0.292   38.869
  365.000   32.755    0.399    0.298   45.156
  365.250   32.133    0.404    0.301   51.503
  365.500   30.284    0.402    0.300   63.323
  365.750   27.206    0.393    0.295   65.714
  366.000   30.825    0.377    0.291   57.520
  366.250   35.650    0.347    0.292   47.563
  366.500   38.662    0.332    0.299   44.060
  366.750   44.700    0.386    0.311   43.195
  367.000   48.918    0.431    0.319   43.164
  367.250   53.136    0.438    0.315   44.773
  367.500   54.313    0.454    0.312   46.453
  367.750   52.464    0.448    0.315   50.052
  368.000   51.821    0.438    0.320   52.920
  368.250   51.806    0.436    0.321   50.922
  368.500   51.770    0.433    0.316   48.987
  368.750   49.314    0.427    0.304   46.234
  369.000   45.644    0.412    0.290   45.326
  369.250   39.547    0.390    0.286   43.594
  369.500   37.698    0.374    0.284   46.092
  369.750   40.688    0.348    0.286   49.662
  370.000   42.486    0.352    0.293   51.526
  370.250   44.270    0.377    0.289   53.459
  370.500   47.289    0.383    0.281   52.409
  370.750   52.721    0.388    0.272   50.430
  371.000   58.153    0.392    0.268   45.842
  371.250   62.363    0.393    0.260   38.629
  371.500   64.769    0.393    0.252   34.457
  371.750   65.339    0.392    0.246   30.729
  372.000   62.283    0.393    0.239   29.576
  372.250   57.393    0.398    0.230   28.445
  372.500   47.056    0.408    0.239   27.359
  372.750   44.600    0.411    0.264   27.346
  373.000   38.503    0.401    0.273   28.372
  373.250   26.332    0.381    0.284   34.238
  373.500   26.902    0.354    0.295   41.317
  373.750   28.094    0.352    0.293   49.861
