~Version : LASO    vs 4.00 - DATA COPYRIGHT - RILEYS DATASHARE INTERNATIONAL
 VERS.                2.0 :   CWLS Log ASCII Standard -VERSION 2.0
 WRAP.                 NO :   One line per depth step
~Well Information Block
#MNEM.UNIT       Data                        Description of Mnemonic
#----.----      -------------------------- : -----------------------------
 STRT.M             0.0000                 : Start Depth
 STOP.M           204.7500                 : End Depth
 STEP.M             0.1250                 : Depth Increment
 NULL.           -999.25                   : NULL Value
 COMP.                                     : COMPANY
 WELL.    MOBIL CLARKE OV 7-25             : WELL NAME
 FLD .    WILDCAT                          : FIELD NAME
 LOC .    07-25-090-08W4                   : WELL LOCATION
 PROV.    ALBERTA                          : PROVINCE
 SRVC.    DRESSER ATLAS                    : LOGGING SERVICE COMPANY
 DATE.    19-FEB-81                        : DATE LOGGED
 UWI .    AA/07-25-090-08W400              : UNIQUE WELL ID
~Curve Information Block
#MNEM.UNIT        API CODE                   Curve Description
#----.----      LG--CV-CL--M               : -----------------
 DEPT.M          0   1  0  0               : 1 DEPTH
 DT  .US/M      60 520 42  1               : 2 SONIC INTERVAL TRANSIT TIME (COMPENSATED)
 CALI.MM        42 280  1  1               : 3 DENSITY CALIPER
 GR  .GAPI      42 310  1  1               : 4 GAMMA RAY
 NPHI.V/V       42 890  3  1               : 5 NEUTRON POROSITY (SANDSTONE)
 RHOB.K/M3      42 350  1  1               : 6 BULK DENSITY
 IL  .OHMM       5 120 45  1               : 7 INDUCTION
 SFL .OHMM       5 220  6  1               : 8 FOCUSSED RESISTIVITY
 SP  .MV         5  10  1  1               : 9 SPONTANEOUS POTENTIAL
~Parameter Information Block
#MNEM.UNIT       Data                        Description of Mnemonic
#----.----      -------------------------- : -----------------------------
 RUN .                   1                 : Run Number
 GL  .M           449.0000                 : Ground Level Elevation
 DREF.                  KB                 : Depth Reference
 EREF.M           449.0000                 : Elevation of Depth Reference
 TDL .M           202.0000                 : Total Depth Logger
 TDD .M           205.0000                 : Total Depth Driller
 BHT .DEGC         20.0000                 : Bottom Hole Temperature
 BS  .MM          159.0000                 : Bit Size
 DFD .           9999.0000                 : Mud Weight (Density)
 DFV .            150.0000                 : Mud Viscosity
 RM  .OHMM          4.1000                 : Mud Resistivity
 RMT .DEGC         20.0000                 : Mud Resistivity Temperature
 RMF .OHMM          3.9000                 : Mud Filtrate Resistivity
 RMFT.DEGC          8.0000                 : RMF Temperature
 RMC .OHMM          7.8000                 : Mud Cake Resistivity
 RMCT.DEGC          8.0000                 : RMC Temperature
~Asc DEPTH      DT         CALI       GR         NPHI       RHOB       IL         SFL        SP   
# ...
  172.1250   382.5600   158.2500    58.1850     0.3345  2084.7000    44.1200    85.1000  -152.1450
  172.2500   381.8400   158.5750    42.7050     0.3352  2084.7000    46.8800    81.1000  -155.6700
  172.3750   384.0400   158.5750    37.3650     0.3433  2086.0000    49.4550    80.2000  -157.3350
  172.5000   387.7200   158.2500    36.2550     0.3404  2087.8000    50.6500    77.1000  -157.8900
  172.6250   393.8800   158.2500    35.5200     0.3455  2088.3999    50.8000    69.4500  -157.5150
  172.7500   396.5600   158.2500    34.7850     0.3400  2092.7000    49.7650    67.2500  -155.8500
  172.8750   395.6000   158.2500    34.0500     0.3415  2096.3999    49.0900    72.1500  -155.1150
  173.0000   393.8800   158.2500    33.8700     0.3463  2099.5000    48.7800    81.4500  -156.7800
  173.1250   395.6000   157.9500    34.0500     0.3422  2095.2000    48.4150    82.8000  -158.8200
  173.2500   396.3200   157.9500    34.0500     0.3364  2087.8000    47.9850    80.2500  -160.6650
  173.3750   395.8400   157.9500    33.3150     0.3389  2079.2000    47.3100    77.3000  -161.4150
  173.5000   394.3600   158.2500    34.4100     0.3514  2076.8000    46.3300    77.1000  -161.2200
  173.6250   385.0400   158.2500    36.0750     0.3518  2076.8000    44.9800    79.5500  -160.4850
  173.7500   386.0000   158.2500    36.4500     0.3506  2078.0000    43.9350    84.1000  -159.5550
  173.8750   394.8400   158.2500    35.5200     0.3602  2078.0000    42.9550    85.7500  -158.0700
  174.0000   403.7200   158.2500    35.5200     0.3569  2081.1001    42.2800    79.7000  -155.4750
  174.1250   394.1200   158.2500    36.4500     0.3503  2087.8000    41.8500    66.7500  -151.7700
  174.2500   388.4800   158.2500    36.8100     0.3484  2090.8999    41.3600    48.4650  -146.9550
  174.3750   377.4000   158.2500    38.2800     0.3378  2092.7000    41.0500    42.7650  -143.4450
  174.5000   367.6000   157.9500    40.1250     0.3426  2095.8000    40.9300    47.1800  -144.0000
  174.6250   354.0800   158.2500    41.0550     0.3510  2092.7000    41.1150    58.5500  -146.7750
  174.7500   357.2800   158.2500    40.3200     0.3518  2090.8999    41.5450    63.6000  -149.3700
  174.8750   364.8800   157.9500    39.0300     0.3463  2092.7000    42.2150    66.9500  -151.9650
  175.0000   372.2400   158.2500    38.2800     0.3459  2100.7000    42.7700    73.4000  -154.7400
  175.1250   397.0800   158.2500    37.5450     0.3525  2103.7000    43.2600    82.7500  -157.7100
  175.2500   398.2800   158.2500    37.9200     0.3572  2107.3999    43.8750    88.2000  -160.1100
  175.3750   399.7600   158.5750    39.2100     0.3367  2111.1001    44.3050    88.6000  -162.1500
  175.5000   398.5600   158.2500    40.1250     0.3217  2116.0000    44.4850    88.0500  -163.8150
  175.6250   393.1600   158.5750    39.7650     0.3172  2108.6001    44.6700    83.9999  -165.1200
  175.7500   390.9200   158.5750    39.9450     0.3326  2089.0000    45.0400    70.9500  -165.8550
  175.8750   388.9600   158.2500    40.3200     0.3510  2068.2000    44.8550    60.4000  -166.4100
  176.0000   391.9200   157.6500    40.5000     0.3595  2043.7000    44.6700    64.1500  -168.4500
  176.1250   399.0400   157.3500    39.9450     0.3624  2027.2000    44.1800    74.9000  -171.0450
  176.2500   400.0000   157.3500    38.8350     0.3605  2030.8000    43.8150    84.9000  -171.2250
  176.3750   401.0000   157.3500    38.6550     0.3488  2059.0000    43.5650    86.5500  -169.0050
  176.5000   401.7200   156.7250    39.2100     0.3459  2089.7000    43.5050    87.3000  -164.7450
  176.6250   397.8000   157.6500    38.8350     0.3463  2099.5000    44.1800    84.9000  -159.1800
  176.7500   390.6800   158.8750    39.5700     0.3444  2106.8000    45.2250    74.4000  -153.8100
  176.8750   386.2800   159.1750    41.6100     0.3253  2117.2000    46.4500    54.7000  -148.0650
  177.0000   382.8400   159.4750    42.7050     0.3283  2128.8999    47.3100    41.7850  -144.1800
  177.1250   381.3600   159.4750    43.0800     0.3312  2131.8999    47.6150    51.2000  -144.5550
  177.2500   382.8400   158.8750    42.7050     0.3293  2112.8999    47.6150    72.9500  -151.0200
  177.3750   383.5600   158.2500    40.3200     0.3319  2090.8999    47.6800    86.0500  -155.4750
  177.5000   384.8000   157.6500    36.2550     0.3326  2081.1001    48.4750    84.9999  -158.2650
  177.6250   384.8000   158.2500    33.4950     0.3305  2073.7000    49.8850    84.8000  -159.9300
  177.7500   385.5200   157.3500    31.8300     0.3308  2068.2000    50.6500    84.2500  -160.8600
  177.8750   388.7200   157.3500    31.6500     0.3275  2067.0000    51.6500    82.8000  -161.4150
  178.0000   394.8400   157.0250    32.3850     0.3209  2070.0000    52.7500    81.6000  -161.7750
  178.1250   403.4400   157.3500    33.3150     0.3176  2070.0000    53.4000    79.5000  -161.7750
  178.2500   408.6000   157.0250    34.4100     0.3209  2068.8000    53.0500    77.7500  -161.4150
  178.3750   416.0000   156.7250    34.9650     0.3297  2073.1001    52.2500    78.5500  -160.6650
  178.5000   424.8400   156.4250    37.9200     0.3341  2079.2000    50.9500    81.7000  -160.1100
  178.6250   427.0400   156.7250    40.6800     0.3338  2086.0000    47.8600    83.9999  -159.1800
  178.7500   422.3600   156.4250    42.5250     0.3378  2097.6001    42.5850    81.8500  -157.3350
  178.8750   414.0400   156.7250    43.8150     0.3418  2104.3999    36.1450    69.9000  -154.1850
  179.0000   431.4800   156.7250    44.7300     0.3397  2102.5000    30.0100    60.6000  -150.8400
  179.1250   548.1600   156.7250    45.6600     0.3430  2102.5000    25.0400    57.4000  -148.2600
  179.2500   535.8800   156.4250    47.8650     0.3448  2106.2000    21.3600    58.7500  -147.1500
  179.3750   509.6000   156.4250    50.2650     0.3272  2106.8000    18.9050    53.0500  -145.4850
  179.5000   497.3200   156.4250    54.1350     0.3146  2113.6001    17.1250    38.7850  -141.0300
  179.6250   480.3600   156.4250    59.1150     0.3132  2134.3999    15.7750    20.0950  -132.6900
  179.7500   470.2800   157.0250    67.0350     0.3205  2181.6001    14.8550    13.4150  -123.4350
  179.8750   456.7600   156.7250    76.4250     0.3437  2220.2000    13.8150    12.0700  -115.4700
  180.0000   453.3200   156.7250    84.7200     0.3565  2231.2000    12.8300    15.1950  -114.9150
  180.1250   449.8800   156.7250    90.4350     0.3635  2210.3999    12.1550    19.1150  -116.5800
  180.2500   453.6000   156.7250    94.1250     0.3610  2174.8000    11.5450    22.8550  -116.7600
  180.3750   450.6400   157.3500    94.1250     0.3610  2149.1001    11.2350    21.1350  -115.2900
  180.5000   428.5200   157.3500    88.9650     0.3709  2138.1001    10.9900    25.4250  -114.5400
  180.6250   410.0800   157.3500    87.1200     0.3822  2145.3999    10.7450    24.8750  -115.4700
  180.7500   439.3200   157.6500    86.3850     0.3903  2161.3000    10.5600    21.6250  -114.7350
  180.8750   443.5200   157.9500    87.8550     0.3929  2178.5000    10.4400    13.5400  -112.6950
  181.0000   434.1600   157.9500    94.6800     0.3973  2211.0000    10.2550    13.5400  -111.7650
  181.1250   432.6800   158.2500   102.2250     0.3991  2256.3000    10.0700    13.6600  -110.6550
  181.2500   438.8400   159.4750   105.3600     0.3885  2282.1001     9.8850    14.3350  -109.7250
  181.3750   436.4000   160.7000   102.6000     0.3668  2286.3000     9.9500    15.3150  -110.2800
  181.5000   431.2400   163.1500   102.4200     0.3653  2284.5000    10.0700    15.6850  -110.8350
  181.6250   426.3200   163.4750   100.0200     0.3646  2267.3000    10.3150    16.6050  -111.0300
  181.7500   425.3200   162.8500    97.4400     0.3605  2239.2000    10.6850    16.9100  -111.7650
  181.8750   424.3600   160.4000    97.4400     0.3562  2212.2000    10.9900    17.8300  -112.5000
  182.0000   423.1200   160.7000    95.5950     0.3572  2178.5000    11.2950    17.9500  -113.2500
  182.1250   421.8800   161.0250    94.6800     0.3646  2170.5000    11.4800    18.1350  -114.1800
