~VERSION INFORMATION
 VERS.                 2.0:   CWLS LOG ASCII STANDARD -VERSION 2.0
 WRAP.                  NO:   ONE LINE PER DEPTH STEP
~WELL INFORMATION BLOCK
#MNEM.UNIT           DATA                    DESCRIPTION OF MNEMONIC
#---------    -------------------            -------------------------------
# Generated from Intellog Unique Number	CX_WELLS/WELL/3528
WELL.         AMOCO GREGOIRE                 : Well_name    - WELL
LOC .         AA/05-15-085-07W4/0            : Location     - LOCATION
UWI .         AA/05-15-085-07W400            : Uwi          - UNIQUE WELL ID
ENTR.         T                              : Entered      - ENTERED BY
SRVC.         SCHLUMBERGER                   : Scn          - SERVICE COMPANY
STRT.F        350                            : top_depth    - START DEPTH
STOP.F        874.114                        : bot_depth    - STOP DEPTH
STEP.F        0.82                           : increment    - STEP LENGTH
 NULL. -999.2500:NULL Value
~CURVE INFORMATION BLOCK
#MNEM UNIT       ERCB CURVE CODE    CURVE DESCRIPTION
#-----------   ------------------   ----------------------------------
DEPT.F        00 001 00 00         : DEPTH        - DEPTH
GR  .API      00 310 00 00         : GR           - GAMMA RAY
DPHI.V/V      00 890 00 00         : PHID         - DENSITY POROSITY (SANDSTONE)
ILD .OHMM     00 120 00 00         : RESD         - DEEP RESISTIVITY (OTHER)
~PARAMETER INFORMATION
#MNEM.UNIT           DATA             DESCRIPTION OF MNEMONIC
#---------         -----------     ------------------------------
GL  .F        1553                 : gl           - GROUND LEVEL ELEVATION
EREF.F        1557                 : kb           - ELEVATION OF DEPTH REFERENCE
DATM.F        1557                 : datum        - DATUM ELEVATION
TDD .F        897                  : tdd          - TOTAL DEPTH DRILLER
RUN .         ONE                  : Run          - RUN NUMBER
ENG .         BILL                 : Engineer     - RECORDING ENGINEER
WIT .         JIM                  : Witness      - WITNESSED BY
MUD .         GEL                  : Mud_type     - MUD TYPE
MATR.         SANDSTONE            : Logunit      - NEUTRON MATRIX
TMAX.F        77                   : BHT          - MAXIMUM RECORDED TEMPERATURE
BHTD.F        897                  : BHTDEP       - MAXIMUM RECORDED TEMPERATURE
MATR.         1                    : LOGUNIT      - NEUTRON MATRIX
RMT .F        62.6                 : MDTP         - TEMPERATURE OF MUD
NEUT.         1                    : NEUTRON      - NEUTRON TYPE
RESI.         6.7                  : RESIST       - RESISTIVITY TYPE
RMC .OHMM     6.3                  : RMC          - RESISTIVITY OF MUD CAKE
RMF .OHMM     6.3                  : RMF          - RESISTIVITY OF MUD FILTRATE
SUFT.F        39.2                 : SUFT         - SURFACE TEMPERATURE
~A  DEPTH       GR     PHID     RESD
# ...
  705.971   76.020    0.282    7.577
  706.791   75.422    0.295    8.479
  707.612   76.035    0.298    9.081
  708.432   77.250    0.286    9.882
  709.252   79.679    0.287   10.484
  710.072   79.685    0.293   11.185
  710.892   78.481    0.301   10.887
  711.713   81.518    0.298   10.688
  712.533   83.945    0.288   10.090
  713.353   86.375    0.287    9.292
  714.173   86.988    0.286    8.694
  714.993   87.600    0.263    8.195
  715.814   88.210    0.248    7.897
  716.634   89.431    0.249    7.298
  717.454   91.256    0.246    6.700
  718.274   91.865    0.240    6.301
  719.094   93.690    0.234    5.902
  719.915   96.725    0.228    5.304
  720.735  102.788    0.223    5.106
  721.555  109.460    0.225    4.807
  722.375  108.254    0.229    4.709
  723.196  107.049    0.233    4.610
  724.016  105.843    0.234    4.412
  724.836  104.637    0.236    4.413
  725.656  108.280    0.237    4.515
  726.476  109.496    0.239    4.516
  727.297  108.898    0.240    4.618
  728.117  108.298    0.240    4.620
  728.937  111.939    0.237    4.821
  729.757  114.977    0.235    4.923
  730.577  111.954    0.235    4.924
  731.398  110.140    0.236    5.026
  732.218  108.934    0.240    5.028
  733.038  111.363    0.244    4.929
  733.858  111.372    0.242    4.930
  734.678  110.165    0.237    4.932
  735.499  108.354    0.235    4.933
  736.319  104.728    0.235    4.935
  737.139  102.914    0.234    4.937
  737.959   99.892    0.234    4.839
  738.780   97.475    0.234    4.840
  739.600   96.269    0.234    4.741
  740.420   95.064    0.231    4.743
  741.240   91.436    0.230    4.644
  742.060   88.413    0.229    4.646
  742.881   87.208    0.228    4.648
  743.701   89.031    0.227    4.649
  744.521   92.068    0.229    4.651
  745.341   93.282    0.230    4.752
  746.161   96.318    0.231    4.854
  746.982   96.931    0.235    4.955
  747.802   95.120    0.239    4.957
  748.622   90.885    0.246    4.859
  749.442   87.259    0.255    4.860
  750.262   86.052    0.263    4.962
  751.083   84.239    0.269    5.064
  751.903   80.006    0.273    5.365
  752.723   79.404    0.278    5.866
  753.543   76.385    0.286    6.468
  754.364   73.360    0.296    7.369
  755.184   70.338    0.306    8.471
  756.004   68.528    0.314    9.373
  756.824   67.926    0.318    9.974
  757.644   65.510    0.321   10.576
  758.465   64.306    0.325   11.377
  759.285   63.097    0.332   12.379
  760.105   61.289    0.339   14.081
  760.925   60.689    0.345   16.582
  761.745   61.908    0.349   19.785
  762.566   63.123    0.348   21.586
  763.386   64.946    0.345   22.788
  764.206   61.321    0.339   22.989
  765.026   59.506    0.338   20.991
  765.846   54.060    0.343   20.092
  766.667   44.980    0.349   23.094
  767.487   46.199    0.354   30.396
  768.307   47.415    0.363   32.698
  769.127   48.633    0.364   33.999
  769.948   48.033    0.359   34.401
  770.768   44.404    0.351   35.803
  771.588   42.593    0.354   48.505
  772.408   40.176    0.358   48.707
  773.228   37.154    0.360   49.308
  774.049   34.737    0.358   50.210
  774.869   31.714    0.360   49.912
  775.689   29.298    0.365   49.413
  776.509   28.697    0.370   48.515
  777.329   28.706    0.371   48.116
  778.150   29.315    0.371   47.818
  778.970   29.324    0.372   48.419
  779.790   29.937    0.375   49.221
  780.610   30.546    0.375   49.922
  781.430   31.160    0.374   50.125
  782.251   32.377    0.372   49.626
  783.071   34.201    0.375   48.928
  783.891   36.629    0.377   48.329
  784.711   42.694    0.383   47.430
  785.531   44.519    0.384   46.331
  786.352   46.341    0.386   45.433
  787.172   46.953    0.388   46.335
  787.992   48.171    0.384   47.936
  788.812   49.996    0.365   49.238
  789.633   51.818    0.336   50.340
  790.453   57.276    0.328   50.241
  791.273   65.160    0.312   49.043
  792.093   69.406    0.310   48.144
  792.913   73.047    0.309   46.346
  793.734   75.477    0.306   37.847
  794.554   80.331    0.285   11.046
  795.374   82.759    0.229    9.648
  796.194   86.401    0.214    8.549
  797.014   87.619    0.213    7.350
  797.835   89.443    0.213    6.652
  798.655   91.271    0.214    6.254
  799.475   91.274    0.214    6.055
  800.295   91.884    0.211    5.857
  801.115   93.103    0.209    5.459
  801.936   93.717    0.208    5.260
  802.756   94.329    0.210    5.061
  803.576   95.545    0.212    4.864
  804.396   96.158    0.209    4.764
  805.217   96.164    0.203    4.566
  806.037   94.959    0.196    4.468
  806.857   93.147    0.197    4.369
  807.677   92.549    0.201    4.271
  808.497   93.161    0.204    4.173
  809.318   91.954    0.210    4.074
  810.138   88.326    0.215    3.975
  810.958   87.119    0.219    3.977
  811.778   85.913    0.223    3.979
  812.598   82.285    0.230    3.880
  813.419   77.444    0.236    3.881
  814.239   75.028    0.239    3.783
  815.059   76.248    0.243    3.685
  815.879   76.859    0.245    3.687
  816.699   77.471    0.250    3.688
  817.520   77.477    0.252    3.690
  818.340   75.060    0.256    3.691
  819.160   72.641    0.260    3.693
  819.980   70.830    0.272    3.795
  820.801   68.413    0.281    3.796
  821.621   62.362    0.291    3.797
  822.441   56.310    0.300    3.899
  823.261   49.047    0.308    3.901
  824.081   43.601    0.315    4.202
  824.902   39.971    0.325   25.005
  825.722   36.948    0.338   25.506
  826.542   38.771    0.349   26.608
  827.362   41.808    0.345   27.810
  828.182   45.449    0.334   28.411
  829.003   44.851    0.322   28.513
  829.823   38.797    0.320   28.315
  830.643   32.140    0.328   28.916
  831.463   31.539    0.335   29.818
  832.283   29.125    0.343   32.019
  833.104   28.522    0.356   33.921
  833.924   28.531    0.366   33.822
  834.744   28.537    0.373   32.725
  835.564   28.542    0.374   32.225
  836.385   28.548    0.370   31.828
  837.205   28.554    0.370   31.829
  838.025   28.561    0.374   32.131
  838.845   27.962    0.375   32.732
  839.665   28.574    0.375   33.834
  840.486   31.610    0.368   35.435
  841.306   34.038    0.363   38.337
  842.126   33.438    0.358   38.139
  842.946   30.418    0.358   36.940
  843.766   28.604    0.355   36.042
  844.587   27.398    0.352   34.943
  845.407   28.616    0.349   33.544
  846.227   29.228    0.342   31.746
  847.047   25.602    0.339   30.847
  847.867   23.186    0.342   30.949
  848.688   23.189    0.345   31.451
  849.508   23.801    0.351   31.852
  850.328   23.809    0.355   32.754
  851.148   22.603    0.359   33.655
  851.969   22.003    0.362   34.857
  852.789   23.223    0.363   36.659
  853.609   22.623    0.365   38.460
  854.429   21.416    0.367   39.762
  855.249   20.210    0.372   41.264
  856.070   19.610    0.373   40.365
  856.890   19.011    0.371   39.467
  857.710   19.622    0.365   40.069
  858.530   20.840    0.359   40.870
  859.350   23.274    0.346   41.572
  860.171   23.279    0.339   36.073
  860.991   22.679    0.339   33.874
  861.811   22.079    0.339   32.976
  862.631   22.083    0.339   32.577
  863.451   25.724    0.339   32.779
  864.272   32.395    0.340   33.280
  865.092   43.307    0.338   33.782
  865.912   51.794    0.327   34.483
  866.732   56.647    0.312   36.185
  867.552   58.471    0.300   36.887
  868.373   58.478    0.259   36.988
  869.193   57.273    0.239   36.290
  870.013   56.067    0.198   11.989
  870.833   52.440    0.123    8.891
  871.654   50.021    0.089    8.493
  872.474   48.815    0.069    8.794
  873.294   47.610    0.066    9.396
  874.114   46.404    0.063   10.097
