~VERSION INFORMATION
 VERS.                 2.0:   CWLS LOG ASCII STANDARD -VERSION 2.0
 WRAP.                  NO:   ONE LINE PER DEPTH STEP
~WELL INFORMATION BLOCK
#MNEM.UNIT           DATA                    DESCRIPTION OF MNEMONIC
#---------    -------------------            -------------------------------
# Generated from Intellog Unique Number	CN_94_101/WELL/4988
WELL.         TEXACO                         : Well_name    - WELL
LOC .         AA/07-08-101-12W4/0            : Location     - LOCATION
UWI .         AA/07-08-101-12W400            : Uwi          - UNIQUE WELL ID
ENTR.         TIM                            : Entered      - ENTERED BY
SRVC.         SCHLUMBERGER                   : Scn          - SERVICE COMPANY
DATE.         08/11/92                       : Date         - LOG DATE
STRT.M        380                            : top_depth    - START DEPTH
STOP.M        665                            : bot_depth    - STOP DEPTH
STEP.M        0.25                           : increment    - STEP LENGTH
NULL. -999.2500:NULL Value
~CURVE INFORMATION BLOCK
#MNEM UNIT       ERCB CURVE CODE    CURVE DESCRIPTION
#-----------   ------------------   ----------------------------------
DEPT.M        00 001 00 00         : DEPTH        - DEPTH
GR  .API      00 310 00 00         : GR           - GAMMA RAY
ILD .OHMM     00 120 00 00         : RESD         - DEEP RESISTIVITY (DIL)
NPHI.V/V      00 330 00 00         : PHIN         - NEUTRON POROSITY (SANDSTONE)
DPHI.V/V      00 890 00 00         : PHID         - DENSITY POROSITY (SANDSTONE)
~PARAMETER INFORMATION
#MNEM.UNIT           DATA             DESCRIPTION OF MNEMONIC
#---------         -----------     ------------------------------
GL  .M        814.2                : gl           - GROUND LEVEL ELEVATION
EREF.M        817.6                : kb           - ELEVATION OF DEPTH REFERENCE
DATM.M        817.6                : datum        - DATUM ELEVATION
TDD .M        667                  : tdd          - TOTAL DEPTH DRILLER
RUN .         ONE                  : Run          - RUN NUMBER
ENG .         JO                   : Engineer     - RECORDING ENGINEER
WIT .         TIM                  : Witness      - WITNESSED BY
MUD .         GEL                  : Mud_type     - MUD TYPE
MATR.         SANDSTONE            : Logunit      - NEUTRON MATRIX
TMAX.C        25                   : BHT          - MAXIMUM RECORDED TEMPERATURE
BHTD.M        667                  : BHTDEP       - MAXIMUM RECORDED TEMPERATURE
RMT .C        10                   : MDTP         - TEMPERATURE OF MUD
MUDD.KG/M     1050                 : MWT          - MUD DENSITY
NEUT.         1                    : NEUTRON      - NEUTRON TYPE
RESI.         0                    : RESIST       - RESISTIVITY TYPE
RM  .OHMM     0.84                 : RM           - RESISTIVITY OF MUD
RMC .OHMM     0.84                 : RMC          - RESISTIVITY OF MUD CAKE
RMF .OHMM     0.84                 : RMF          - RESISTIVITY OF MUD FILTRATE
SUFT.C        4                    : SUFT         - SURFACE TEMPERATURE
~A  DEPTH       GR     RESD     PHIN     PHID
  380.000  113.224    4.912    0.497    0.238
  380.250  112.669    4.916    0.504    0.242
  380.500  112.707    4.653    0.509    0.246
  380.750  112.745    4.570    0.519    0.251
  381.000  112.795    4.493    0.529    0.258
  381.250  111.622    4.498    0.536    0.261
  381.500  111.041    4.594    0.542    0.263
  381.750  111.105    4.599    0.545    0.268
  382.000  111.774    4.691    0.550    0.273
  382.250  113.679    4.791    0.544    0.273
  382.500  115.598    4.797    0.533    0.254
  382.750  116.267    4.802    0.523    0.250
  383.000  116.305    4.809    0.529    0.249
  383.250  116.974    4.725    0.538    0.246
  383.500  117.049    4.643    0.547    0.243
  383.750  116.456    4.563    0.539    0.238
  384.000  114.652    4.489    0.531    0.233
  384.250  109.768    4.493    0.532    0.236
  384.500  107.345    4.498    0.540    0.245
  384.750  106.790    4.506    0.550    0.250
  385.000  106.816    4.513    0.559    0.258
  385.250  106.879    4.433    0.559    0.271
  385.500  107.548    4.441    0.553    0.281
  385.750  107.586    4.364    0.552    0.276
  386.000  108.886    4.287    0.551    0.270
  386.250  108.924    4.057    0.550    0.259
  386.500  109.593    3.839    0.550    0.248
  386.750  108.432    3.771    0.551    0.240
  387.000  107.839    3.706    0.553    0.228
  387.250  106.665    3.782    0.557    0.228
  387.500  105.479    3.861    0.558    0.234
  387.750  104.911    4.017    0.555    0.243
  388.000  104.344    4.020    0.545    0.254
  388.250  103.170    4.026    0.532    0.265
  388.500  102.602    4.109    0.520    0.261
  388.750  100.811    4.115    0.505    0.255
  389.000   99.599    4.202    0.505    0.244
  389.250   97.189    4.208    0.511    0.236
  389.500   96.003    4.218    0.522    0.223
  389.750   96.041    4.222    0.530    0.210
  390.000   97.946    4.225    0.545    0.211
  390.250   99.865    4.231    0.569    0.239
  390.500  100.521    4.158    0.568    0.279
  390.750  100.572    4.087    0.563    0.277
  391.000  101.241    4.016    0.560    0.268
  391.250  102.541    3.945    0.554    0.269
  391.500  103.222    3.878    0.550    0.275
  391.750  103.260    3.810    0.540    0.283
  392.000  102.680    3.745    0.534    0.286
  392.250  100.888    3.822    0.525    0.281
  392.500   99.702    4.129    0.520    0.273
  392.750   97.292    4.547    0.514    0.270
  393.000   96.093    4.911    0.514    0.268
  393.250   94.894    5.206    0.521    0.267
  393.500   94.352    5.311    0.526    0.259
  393.750   94.377    5.422    0.527    0.254
  394.000   95.058    5.230    0.497    0.259
  394.250   95.727    4.945    0.492    0.281
  394.500   95.778    4.420    0.495    0.284
  394.750   96.472    3.879    0.498    0.277
  395.000   97.116    3.671    0.504    0.275
  395.250   97.798    3.674    0.511    0.277
  395.500   99.716    3.824    0.514    0.281
  395.750  100.360    3.900    0.514    0.283
  396.000  101.660    4.057    0.512    0.283
  396.250  102.329    4.141    0.507    0.284
  396.500  102.392    4.226    0.505    0.284
  396.750  103.048    4.232    0.511    0.281
  397.000  103.717    4.240    0.521    0.278
  397.250  103.755    4.243    0.536    0.268
  397.500  103.818    4.171    0.551    0.258
  397.750  101.395    4.022    0.564    0.248
  398.000   98.973    3.950    0.563    0.238
  398.250   97.155    3.812    0.558    0.220
  398.500   94.733    3.747    0.542    0.193
  398.750   91.691    3.681    0.542    0.179
  399.000   90.518    3.685    0.542    0.157
  399.250   89.344    3.690    0.541    0.150
  399.500   88.146    3.697    0.538    0.161
  399.750   87.565    3.773    0.529    0.200
  400.000   86.392    3.924    0.515    0.218
  400.250   85.206    4.080    0.510    0.226
  400.500   84.625    4.325    0.507    0.240
  400.750   82.202    4.673    0.502    0.266
  401.000   79.174    4.951    0.502    0.274
  401.250   77.369    5.351    0.508    0.271
  401.500   78.644    5.565    0.525    0.270
  401.750   86.128    5.167    0.539    0.271
  402.000   88.652    4.705    0.544    0.272
  402.250   91.188    3.754    0.543    0.271
  402.500   92.476    3.171    0.540    0.267
  402.750   93.157    3.363    0.530    0.263
  403.000   93.801    3.497    0.522    0.256
  403.250   94.470    3.779    0.515    0.245
  403.500   95.139    3.932    0.507    0.234
  403.750   97.688    4.010    0.510    0.220
  404.000   99.594    4.094    0.513    0.215
  404.250  102.749    3.873    0.519    0.227
  404.500  104.642    3.596    0.528    0.250
  404.750  107.797    3.532    0.536    0.265
  405.000  108.441    3.471    0.552    0.267
  405.250  109.741    3.542    0.556    0.269
  405.500  110.410    3.684    0.559    0.272
  405.750  110.473    3.760    0.560    0.275
  406.000  110.498    3.760    0.559    0.280
  406.250  110.574    3.703    0.558    0.278
  406.500  110.612    3.706    0.552    0.268
  406.750  110.663    3.711    0.548    0.260
  407.000  110.726    3.789    0.543    0.253
  407.250  110.146    3.867    0.537    0.252
  407.500  108.366    4.099    0.523    0.253
  407.750  107.168    4.346    0.519    0.258
  408.000  105.969    4.522    0.517    0.265
  408.250  104.164    4.613    0.512    0.267
  408.500  103.597    4.891    0.506    0.272
  408.750  103.660    4.988    0.499    0.274
  409.000  102.486    5.188    0.498    0.279
  409.250  101.906    5.396    0.499    0.281
  409.500  101.326    5.613    0.504    0.284
  409.750   98.928    5.730    0.509    0.285
  410.000   97.742    5.848    0.511    0.285
  410.250   96.543    5.968    0.516    0.286
  410.500   95.370    5.979    0.521    0.285
  410.750   94.789    5.986    0.528    0.281
  411.000   94.827    5.994    0.534    0.276
  411.250   94.890    5.892    0.535    0.271
  411.500   95.547    5.901    0.524    0.268
  411.750   96.847    5.796    0.513    0.264
  412.000   98.134    5.696    0.515    0.258
  412.250   98.790    5.389    0.522    0.251
  412.500  100.696    4.910    0.528    0.248
  412.750  101.996    4.390    0.538    0.253
  413.000  103.283    3.998    0.549    0.262
  413.250  104.583    3.712    0.556    0.266
  413.500  105.240    3.649    0.556    0.269
  413.750  105.909    3.584    0.544    0.273
  414.000  105.972    3.522    0.535    0.280
  414.250  104.798    3.462    0.529    0.284
  414.500  103.600    3.467    0.529    0.274
  414.750  101.177    3.745    0.534    0.260
  415.000   98.754    4.046    0.526    0.239
  415.250   95.094    4.456    0.516    0.223
  415.500   92.659    4.632    0.514    0.202
  415.750   90.249    4.910    0.511    0.182
  416.000   89.693    5.107    0.494    0.164
  416.250   89.719    5.415    0.485    0.136
  416.500   91.650    5.634    0.510    0.233
  416.750   92.293    5.748    0.518    0.248
  417.000   92.962    5.866    0.528    0.259
  417.250   94.262    5.987    0.536    0.267
  417.500   94.300    5.998    0.537    0.272
  417.750   94.995    6.004    0.539    0.276
  418.000   95.651    6.011    0.540    0.282
  418.250   96.320    6.024    0.540    0.284
  418.500   97.632    5.919    0.542    0.283
  418.750   98.301    5.926    0.547    0.275
  419.000   98.339    5.932    0.549    0.270
  419.250   98.377    5.724    0.549    0.273
  419.500   98.441    5.730    0.546    0.277
  419.750   98.504    5.424    0.545    0.277
  420.000   98.529    5.231    0.550    0.277
  420.250   98.592    5.041    0.553    0.278
  420.500   98.037    4.680    0.550    0.284
  420.750   98.063    4.345    0.542    0.289
  421.000   98.113    4.189    0.538    0.295
  421.250   98.176    4.277    0.535    0.295
  421.500   98.845    4.449    0.531    0.291
  421.750   99.514    4.627    0.530    0.284
  422.000  100.196    4.632    0.528    0.281
  422.250  100.221    4.818    0.528    0.279
  422.500  100.890    5.011    0.532    0.280
  422.750  102.190    5.311    0.533    0.281
  423.000  105.345    5.420    0.536    0.270
  423.250  106.620    5.128    0.545    0.245
