~VERSION INFORMATION
 VERS.                 2.0:   CWLS LOG ASCII STANDARD -VERSION 2.0
 WRAP.                  NO:   ONE LINE PER DEPTH STEP
~WELL INFORMATION BLOCK
#MNEM.UNIT           DATA                    DESCRIPTION OF MNEMONIC
#---------    -------------------            -------------------------------
# Generated from Intellog Unique Number	CC_80_83/WELL/2325
NULL.         -999.25                        : NULL_VALUE
WELL.         ARCO ACI McMURRAY              : Well_name    - WELL              
LOC .         09-29-083-12W4                 : Location     - LOCATION          
UWI .         AA/09-29-083-12W400            : Uwi          - UNIQUE WELL ID    
ENTR.         RJA                            : Entered      - ENTERED BY        
SRVC.         SCHLUMBERGER                   : Scn          - SERVICE COMPANY   
DATE.         15 FEB 74                      : Date         - LOG DATE
STRT.M        85.344                         : top_depth    - START DEPTH       
STOP.M        329.184                        : bot_depth    - STOP DEPTH        
STEP.M        0.3048                         : increment    - STEP LENGTH       
~CURVE INFORMATION BLOCK
#MNEM UNIT       ERCB CURVE CODE    CURVE DESCRIPTION
#-----------   ------------------   ----------------------------------
DEPT.M        00 001 00 00         : DEPTH        - DEPTH                       
DPHI.V/V      00 890 00 00         : PHID         - DENSITY POROSITY (LIMESTONE)
GR  .API      00 310 00 00         : GR           - GAMMA RAY                   
NPHI.V/V      00 330 00 00         : PHIN         - NEUTRON POROSITY (LIMESTONE)
ILD .OHMM     00 120 00 00         : RESD         - DEEP RESISTIVITY (DIL)      
~PARAMETER INFORMATION       
#MNEM.UNIT           DATA             DESCRIPTION OF MNEMONIC
#---------         -----------     ------------------------------
GL  .M        566.227              : gl           - GROUND LEVEL ELEVATION      
EREF.M        567.903              : kb           - ELEVATION OF DEPTH REFERENCE
DATM.M        567.903              : datum        - DATUM ELEVATION             
TDD .M        332.232              : tdd          - TOTAL DEPTH DRILLER         
RUN .         ONE                  : Run          - RUN NUMBER                  
ENG .         BILL                 : Engineer     - RECORDING ENGINEER          
WIT .         JIM                  : Witness      - WITNESSED BY                
MUD .         GEL                  : Mud_type     - MUD TYPE                    
MATR.         LIMESTONE            : Logunit      - NEUTRON MATRIX              
TMAX.C        18.3333              : BHT          - MAXIMUM RECORDED TEMPERATURE
BHTD.M        332.232              : BHTDEP       - MAXIMUM RECORDED TEMPERATURE
MATR.         1                    : LOGUNIT      - NEUTRON MATRIX              
RMT .C        25                   : MDTP         - TEMPERATURE OF MUD          
NEUT.         1                    : NEUTRON      - NEUTRON TYPE                
RESI.         0                    : RESIST       - RESISTIVITY TYPE            
RMC .OHMM     0.25                 : RMC          - RESISTIVITY OF MUD CAKE     
RMF .OHMM     0.25                 : RMF          - RESISTIVITY OF MUD FILTRATE 
SUFT.C        4                    : SUFT         - SURFACE TEMPERATURE         
~A  DEPTH     PHID       GR     PHIN     RESD
   85.344    0.313  100.189    0.484    3.687
   85.649    0.316  101.971    0.512    3.552
   85.954    0.321  101.332    0.481    3.296
   86.258    0.322  102.508    0.473    3.058
   86.563    0.339  104.303    0.503    3.001
   86.868    0.337  103.054    0.519    2.946
   87.173    0.319   98.763    0.517    2.945
   87.478    0.329   96.916    0.487    2.945
   87.782    0.329   96.882    0.494    3.000
   88.087    0.327   98.050    0.459    3.057
   88.392    0.325   93.766    0.487    3.114
   88.697    0.312   91.912    0.503    3.114
   89.002    0.300   93.699    0.509    3.113
   89.306    0.314   94.277    0.533    3.056
   89.611    0.302   89.988    0.513    3.055
   89.916    0.312   98.456    0.521    3.055
   90.221    0.316   97.207    0.528    3.055
   90.526    0.311   94.142    0.482    3.054
   90.830    0.295   94.712    0.476    3.054
   91.135    0.304   95.284    0.498    2.997
   91.440    0.323   91.004    0.525    2.997
   91.745    0.331   87.928    0.505    3.053
   92.050    0.319   87.295    0.509    3.111
   92.354    0.300   89.687    0.485    3.110
   92.659    0.322   91.463    0.525    3.110
   92.964    0.336   89.616    0.527    3.052
   93.269    0.315   86.548    0.484    2.995
   93.574    0.297   94.406    0.505    2.995
   93.879    0.307   90.722    0.536    3.051
   94.183    0.320   88.259    0.547    3.109
   94.488    0.300   83.972    0.548    3.167
   94.793    0.306   80.909    0.513    3.287
   95.098    0.317   85.131    0.468    3.349
   95.403    0.310   86.302    0.454    3.349
   95.707    0.327   83.241    0.461    3.286
   96.012    0.313   87.449    0.501    3.225
   96.317    0.321   84.987    0.547    3.049
   96.622    0.325   78.883    0.523    2.937
   96.927    0.323   69.741    0.461    2.883
   97.231    0.311   57.562    0.428    3.410
   97.536    0.310   37.492    0.379    4.347
   97.841    0.275   34.423    0.339    5.338
   98.146    0.265   48.348    0.298    7.471
   98.451    0.231   50.742    0.322    8.357
   98.755    0.224   46.465    0.316    7.470
   99.060    0.209   40.357    0.271    6.677
   99.365    0.255   91.332    0.327    5.539
   99.670    0.302   90.076    0.491    4.595
   99.975    0.340   87.007    0.541    4.031
  100.279    0.351   85.762    0.545    3.162
  100.584    0.328   87.544    0.525    2.774
  100.889    0.312   86.904    0.516    2.434
  101.194    0.316   83.838    0.509    2.388
  101.499    0.324   89.269    0.469    2.479
  101.803    0.305   92.267    0.468    2.671
  102.108    0.288   91.017    0.471    2.932
  102.413    0.302   87.944    0.496    3.280
  102.718    0.283   87.308    0.494    3.469
  103.023    0.293   90.916    0.528    3.534
  103.327    0.293   85.408    0.495    3.533
  103.632    0.302   82.341    0.489    3.468
  103.937    0.292   88.997    0.478    3.467
  104.242    0.304   96.851    0.513    3.467
  104.547    0.315   95.604    0.505    3.532
  104.851    0.303   91.930    0.463    3.217
  105.156    0.312   84.000    0.454    3.041
  105.461    0.322   81.537    0.466    2.929
  105.766    0.322   85.742    0.463    2.929
  106.071    0.289   89.358    0.443    3.098
  106.375    0.267   88.710    0.459    3.338
  106.680    0.293   88.076    0.466    3.596
  106.985    0.307   90.473    0.485    3.596
  107.290    0.326   88.007    0.477    3.464
  107.595    0.342   83.717    0.448    3.399
  107.899    0.334   82.475    0.479    3.399
  108.204    0.353   83.051    0.499    3.336
  108.509    0.353   81.187    0.513    3.336
  108.814    0.367   81.770    0.527    3.335
  109.119    0.357   84.162    0.535    3.527
  109.423    0.300   79.267    0.511    3.661
  109.728    0.311   71.941    0.471    4.019
  110.033    0.261   68.272    0.364    4.755
  110.338    0.262   62.155    0.371    5.625
  110.643    0.290   60.308    0.376    7.306
  110.947    0.299   59.671    0.387    8.643
  111.252    0.307   68.737    0.398   11.438
  111.557    0.310   78.420    0.386   12.556
  111.862    0.286   84.458    0.399   11.016
  112.167    0.248   85.642    0.391    9.486
  112.471    0.253   80.741    0.399    8.322
  112.776    0.266   83.138    0.386    7.868
  113.081    0.271   82.500    0.405    7.722
  113.386    0.266   77.612    0.424    7.578
  113.691    0.277   76.965    0.404    8.014
  113.995    0.273   89.077    0.388    8.164
  114.300    0.281   92.083    0.392    8.475
  114.605    0.272   88.401    0.407    8.796
  114.910    0.273   84.116    0.430    8.961
  115.215    0.292   84.080    0.433    8.961
  115.519    0.306   81.626    0.410    8.960
  115.824    0.314   71.864    0.430    8.959
  116.129    0.344   71.225    0.459    9.127
  116.434    0.404   63.905    0.500    9.835
  116.739    0.430   52.941    0.510   11.207
  117.043    0.349   43.193    0.384   14.287
  117.348    0.339   34.050    0.393   16.902
  117.653    0.349   29.769    0.373   19.262
  117.958    0.360   32.157    0.390   21.544
  118.263    0.348   38.797    0.399   23.651
  118.567    0.349   43.636    0.371   25.012
  118.872    0.342   54.521    0.384   25.011
  119.177    0.349   58.139    0.379   24.091
  119.482    0.358   61.136    0.373   22.775
  119.787    0.366   62.300    0.396   21.938
  120.091    0.387   62.285    0.449   20.740
  120.396    0.372   82.893    0.452   20.739
  120.701    0.375   83.465    0.411   20.353
  121.006    0.328   78.579    0.397   18.886
  121.311    0.307   66.394    0.376   17.200
  121.615    0.321   60.285    0.368   15.665
  121.920    0.335   58.436    0.390   15.373
  122.225    0.338   60.834    0.408   15.372
  122.530    0.344   64.437    0.420   16.257
  122.835    0.344   62.585    0.409   17.516
  123.139    0.320   63.159    0.370   17.845
  123.444    0.305   53.407    0.381   17.844
  123.749    0.316   59.441    0.385   16.870
  124.054    0.327   76.414    0.381   13.735
  124.359    0.313   82.452    0.402   11.827
  124.663    0.301   83.028    0.417   10.184
  124.968    0.307   82.385    0.435    9.809
  125.273    0.311   89.636    0.463    9.627
  125.578    0.313   94.455    0.461    9.448
  125.883    0.288   92.606    0.468    9.273
  126.187    0.303   76.776    0.450    8.932
  126.492    0.311   73.105    0.386    8.931
  126.797    0.318   76.103    0.397    9.989
  127.102    0.291   80.929    0.416   10.564
  127.407    0.302   78.465    0.414   11.172
  127.711    0.318   62.637    0.419   11.815
  128.016    0.322   56.536    0.391   12.970
  128.321    0.318   65.004    0.405   13.717
  128.626    0.305   70.438    0.416   14.780
  128.931    0.305   67.975    0.416   15.631
  129.235    0.327   60.651    0.419   16.842
  129.540    0.344   60.618    0.401   17.158
  129.845    0.343   69.691    0.408   17.810
  130.150    0.337   65.404    0.394   18.487
  130.455    0.349   69.002    0.372   19.189
  130.759    0.349   73.231    0.400   19.917
  131.064    0.339   80.482    0.421   19.915
  131.369    0.325   81.659    0.421   20.288
  131.674    0.313   77.377    0.402   20.670
  131.979    0.318   77.349    0.403   20.285
  132.283    0.344   80.339    0.411   19.908
  132.588    0.338   79.103    0.424   19.538
  132.893    0.347   69.954    0.421   19.904
  133.198    0.351   67.489    0.405   19.903
  133.503    0.337   68.662    0.383   19.171
  133.807    0.342   71.679    0.390   18.124
  134.112    0.347   75.883    0.405   17.135
  134.417    0.336   79.504    0.431   16.505
  134.722    0.305   75.817    0.445   15.316
  135.027    0.295   84.896    0.444   13.437
  135.331    0.296   92.758    0.425   12.011
  135.636    0.287   95.754    0.425   11.570
  135.941    0.268   95.720    0.448    9.419
  136.246    0.256   99.335    0.447    8.111
  136.551    0.245  103.539    0.425    7.526
  136.855    0.209  107.164    0.427    6.603
  137.160    0.175   93.755    0.411    6.014
  137.465    0.183   99.806    0.405    5.580
  137.770    0.205  107.062    0.417    5.082
  138.074    0.231  103.989    0.447    4.805
