~VERSION INFORMATION
 VERS.                 2.0:   CWLS LOG ASCII STANDARD -VERSION 2.0
 WRAP.                  NO:   ONE LINE PER DEPTH STEP
~WELL INFORMATION BLOCK
#MNEM.UNIT           DATA                    DESCRIPTION OF MNEMONIC
#---------    -------------------            -------------------------------
# Generated from Intellog Unique Number	CN_91_93/WELL/3656
WELL.         03-36-093-09W4                 : Well_name    - WELL
LOC .         AA/03-36-093-09W4/0            : Location     - LOCATION
UWI .         AA/03-36-093-09W400            : Uwi          - UNIQUE WELL ID
ENTR.         JOETTE                         : Entered      - ENTERED BY
SRVC.         SCHLUMBERGER                   : Scn          - SERVICE COMPANY
DATE.         03/20/92                       : Date         - LOG DATE
STRT.M        0                              : top_depth    - START DEPTH
STOP.M        150                            : bot_depth    - STOP DEPTH
STEP.M        0.25                           : increment    - STEP LENGTH
 NULL. -999.2500:NULL Value
~CURVE INFORMATION BLOCK
#MNEM UNIT       ERCB CURVE CODE    CURVE DESCRIPTION
#-----------   ------------------   ----------------------------------
DEPT.M        00 001 00 00         : DEPTH        - DEPTH
CALI.MM       00 280 01 00         : CAL          - CALIPER
GR  .API      00 310 00 00         : GR           - GAMMA RAY
ILD .OHMM     00 120 00 00         : RESD         - DEEP RESISTIVITY (DIL)
NPHI.V/V      00 330 00 00         : PHIN         - NEUTRON POROSITY (SANDSTONE)
DPHI.V/V      00 890 00 00         : PHID         - DENSITY POROSITY (SANDSTONE)
~PARAMETER INFORMATION
#MNEM.UNIT           DATA             DESCRIPTION OF MNEMONIC
#---------         -----------     ------------------------------
GL  .M        355.36               : gl           - GROUND LEVEL ELEVATION
EREF.M        355.36               : kb           - ELEVATION OF DEPTH REFERENCE
DATM.M        355.36               : datum        - DATUM ELEVATION
TDD .M        152.7                : tdd          - TOTAL DEPTH DRILLER
RUN .         ONE                  : Run          - RUN NUMBER
ENG .         JO                   : Engineer     - RECORDING ENGINEER
WIT .         TIM                  : Witness      - WITNESSED BY
MUD .         GEL                  : Mud_type     - MUD TYPE
MATR.         SANDSTONE            : Logunit      - NEUTRON MATRIX
TMAX.C        7                    : BHT          - MAXIMUM RECORDED TEMPERATURE
BHTD.M        152.7                : BHTDEP       - MAXIMUM RECORDED TEMPERATURE
RMT .C        4.3                  : MDTP         - TEMPERATURE OF MUD
MUDD.KG/M     1000                 : MWT          - MUD DENSITY
NEUT.         1                    : NEUTRON      - NEUTRON TYPE
RESI.         0                    : RESIST       - RESISTIVITY TYPE
RM  .OHMM     25.2                 : RM           - RESISTIVITY OF MUD
RMC .OHMM     25.2                 : RMC          - RESISTIVITY OF MUD CAKE
RMF .OHMM     25.2                 : RMF          - RESISTIVITY OF MUD FILTRATE
SUFT.C        4                    : SUFT         - SURFACE TEMPERATURE
~A  DEPTH      CAL       GR     RESD     PHIN     PHID
# ...
   36.500  115.760  101.051    0.316    0.542    0.315
   36.750  117.749   97.494    0.697    0.494    0.318
   37.000  122.908   86.808    3.657    0.522    0.320
   37.250  120.145   99.301    1.271    0.551    0.328
   37.500  120.549  101.694    0.839    0.615    0.318
   37.750  123.333  102.891    0.441    0.620    0.294
   38.000  120.961   99.338    0.178    0.574    0.299
   38.250  118.196  100.538    1.366    0.516    0.307
   38.500  116.619   91.041    1.391    0.532    0.316
   38.750  115.839   99.374    0.918    0.530    0.313
   39.000  115.052  109.492    0.745    0.540    0.304
   39.250  111.888  106.533    0.483    0.553    0.293
   39.500  106.349   89.903    1.552    0.521    0.276
   39.750  103.190   78.623    2.438    0.513    0.244
   40.000  103.198   67.346    2.779    0.400    0.135
   40.250  103.206   67.952   14.047    0.424    0.175
   40.500  103.610   59.641   13.773    0.431    0.213
   40.750  104.014   53.118   13.504    0.391    0.298
   41.000  104.416   58.476   15.983    0.411    0.316
   41.250  104.825   56.114   13.737    0.410    0.304
   41.500  104.434   54.937   16.566    0.401    0.285
   41.750  104.444   60.889   15.356    0.401    0.270
   42.000  104.054   69.816   15.056    0.433    0.266
   42.250  104.062   75.772   13.948    0.398    0.274
   42.500  104.468   85.293   11.117    0.457    0.268
   42.750  104.873   85.308    6.428    0.469    0.269
   43.000  104.482   71.650    3.138    0.389    0.265
   43.250  100.528   88.304   16.473    0.409    0.277
   43.500   99.350   86.533   26.362    0.347    0.257
   43.750   98.963   82.979   23.089    0.398    0.214
   44.000   98.967   99.632   23.064    0.413    0.232
   44.250   98.979   96.672   18.036    0.408    0.250
   44.500   98.984   83.015   11.246    0.420    0.263
   44.750   98.993   67.574   17.669    0.410    0.272
   45.000   98.211   88.388   21.716    0.419    0.281
   45.250   97.427   91.372   22.536    0.433    0.281
   45.500   97.036   77.120   22.945    0.453    0.273
   45.750   97.049   74.754   34.053    0.437    0.278
   46.000   97.055   89.628   24.234    0.413    0.268
   46.250   97.064   75.970   23.766    0.412    0.268
   46.500   97.070   69.445   28.671    0.389    0.273
   46.750   97.473   73.023   28.640    0.399    0.269
   47.000   97.481   75.412   26.538    0.342    0.293
   47.250   97.491   73.641   47.564    0.363    0.282
   47.500   97.897   80.788   33.224    0.393    0.282
   47.750   98.299   77.231   26.464    0.419    0.281
   48.000   99.496   79.026   25.953    0.391    0.274
   48.250  101.489   87.953   23.593    0.391    0.268
   48.500  101.493   90.940   24.027    0.387    0.284
   48.750  100.314   91.543   21.847    0.417    0.284
   49.000   99.530   86.209   23.538    0.433    0.283
   49.250   98.746   80.872   42.989    0.423    0.277
   49.500   98.357   85.044   28.911    0.415    0.265
   49.750   98.365   82.682   24.843    0.442    0.276
   50.000   98.772   82.691   23.898    0.415    0.282
   50.250   99.172   72.005   38.260    0.433    0.272
   50.500   99.576   88.064   34.789    0.450    0.260
   50.750   99.586   93.425   25.698    0.458    0.260
   51.000   98.804   89.277   41.934    0.454    0.269
   51.250   98.019   96.424   28.732    0.442    0.280
   51.500   98.025   83.952   24.228    0.456    0.297
   51.750   98.033   75.049   37.345    0.447    0.311
   52.000   98.438   50.694  117.853    0.442    0.320
   52.250   98.844   57.243   33.928    0.407    0.306
   52.500   99.250   83.409   32.035    0.393    0.288
   52.750   99.254   82.232   44.099    0.413    0.281
   53.000   99.658   79.273   44.061    0.405    0.290
   53.250  100.459   78.690   38.581    0.400    0.279
   53.500  100.867   69.193   37.121    0.446    0.284
   53.750  100.873   73.365   40.747    0.437    0.292
   54.000  100.483   59.708   39.206    0.424    0.295
   54.250  100.097   57.342  106.382    0.421    0.307
   54.500   99.312   62.703   83.207    0.413    0.301
   54.750   98.928   59.744   74.245    0.403    0.306
   55.000   98.536   48.464   84.645    0.416    0.307
   55.250   98.546   61.551   55.851    0.400    0.296
   55.500   98.156   55.620   59.050    0.391    0.301
   55.750   97.771   58.012   42.023    0.409    0.299
   56.000   97.777   56.832  118.407    0.389    0.287
   56.250   97.783   65.762   64.719    0.387    0.278
   56.500   97.793   80.038   45.197    0.403    0.286
   56.750   97.799   67.572   38.112    0.399    0.296
   57.000   97.809   84.223   48.643    0.406    0.292
   57.250   97.816   80.074   38.762    0.405    0.279
   57.500   97.826   75.332   32.679    0.417    0.274
   57.750   97.439   72.966   29.720    0.432    0.277
   58.000   97.049   71.790   36.537    0.427    0.292
   58.250   97.061   79.528   36.505    0.431    0.302
   58.500   97.065   68.842   30.783    0.447    0.304
   58.750   97.075   60.534   54.142    0.450    0.311
   59.000   97.081   48.071  167.669    0.398    0.318
   59.250   96.693   48.674  161.292    0.395    0.329
   59.500   96.701   50.466  198.330    0.374    0.320
   59.750   96.709   56.424  213.679    0.404    0.318
   60.000   96.717   57.031  143.673    0.417    0.325
   60.250   96.725   58.231  106.151    0.431    0.325
   60.500   96.733   55.869   94.718    0.429    0.320
   60.750   96.745   53.501   87.782    0.402    0.320
   61.000   96.357   54.702  116.343    0.378    0.320
   61.250   96.365   62.440  101.895    0.406    0.316
   61.500   96.371   64.235   75.284    0.409    0.311
   61.750   96.379   71.973   42.730    0.424    0.306
   62.000   96.387   70.202   50.587    0.405    0.294
   62.250   96.401   64.865   43.468    0.365    0.268
   62.500   96.407   92.814   48.631    0.385    0.273
   62.750   96.809   92.232   24.185    0.404    0.283
   63.000   96.815   87.489   29.732    0.423    0.278
   63.250   97.618   76.806   33.264    0.399    0.265
   63.500   98.022   70.277   21.953    0.420    0.274
   63.750   98.426   58.403   26.988    0.467    0.289
   64.000   98.038   59.009   67.927    0.464    0.302
   64.250   96.463   60.807   48.330    0.459    0.317
   64.500   96.073   64.980   50.144    0.420    0.316
   64.750   95.687   69.149   77.292    0.435    0.319
   65.000   96.089   69.755   47.305    0.413    0.307
   65.250   96.495   63.824   36.992    0.386    0.301
   65.500   96.503   56.110   37.664    0.397    0.311
   65.750   96.909   51.961   50.879    0.397    0.318
   66.000   97.312   59.111  112.203    0.451    0.306
   66.250   98.112   60.309   69.979    0.424    0.299
   66.500   98.913   61.510   42.820    0.410    0.301
   66.750   99.319   68.654   44.427    0.411    0.292
   67.000   99.325   60.940   44.389    0.442    0.298
   67.250  100.127   51.442   59.964    0.361    0.315
   67.500  100.534   43.728  165.840    0.461    0.349
   67.750  100.936   47.306  101.500    0.398    0.258
   68.000  101.340   56.827  643.394    0.347    0.220
   68.250  102.141   64.566  111.316    0.387    0.185
   68.500  103.733  100.244   39.438    0.432    0.196
   68.750  104.928  102.630   12.713    0.452    0.213
   69.000  107.712   95.510   13.441    0.421    0.217
   69.250  108.906  110.975   12.933    0.451    0.210
   69.500  109.707  106.235   14.745    0.445    0.204
   69.750  109.717   99.706   13.404    0.430    0.191
   70.000  109.331   95.558   12.900    0.412    0.195
   70.250  108.940   96.759   15.559    0.412    0.200
   70.500  108.950  104.497   15.841    0.413    0.195
   70.750  109.751  104.509   14.135    0.432    0.193
   71.000  110.157   95.012   14.666    0.444    0.197
   71.250  110.557   78.977   14.653    0.446    0.203
   71.500  110.567   83.149   14.099    0.437    0.214
   71.750  110.573   93.268   13.824    0.465    0.201
   72.000  110.581   99.818   12.569    0.466    0.203
   72.250  109.801  105.179   11.644    0.459    0.208
   72.500  109.411   96.276   12.545    0.480    0.210
   72.750  108.624   95.099   12.773    0.471    0.201
