~Version : LASO    vs 4.00
VERS.                2.00:   CWLS Log ASCII Standard -VERSION 2.0
WRAP.                  NO:
~Well Information Block
#MNEM.UNIT       Data                        Description of Mnemonic
#----.----      -------------------------- : -----------------------------
STRT.M            11.0000:
STOP.M           176.0000:
STEP.M             0.1000:
NULL.           -999.2500:
COMP.  MOBIL OIL CANADA LTD.  :COMPANY
WELL.  MOBIL CLARKE OV 5-32   :WELL
FLD.   CLARKE                 :FIELD
LOC.   05-32-089-08W4         :LOCATION
CTRY.  CANADA                 :COUNTRY
PROV.  ALBERTA                :PROVINCE
SRVC.  SCHLUMBERGER           :SERVICE COMPANY
DATE.  04-MAR-81              :LOG DATE
UWI.   AA/05-32-089-08W400    :UNIQUE WELL ID
~Parameter Information Block
#MNEM.UNIT       Data                        Description of Mnemonic
#----.----      -------------------------- : -----------------------------
RUN .                   1                 : Run Number
GL  .M           391.1000                 : Ground Level Elevation
DREF.                  KB                 : Depth Reference
EREF.M           394.5000                 : Elevation of Depth Reference
TDL .M           176.5000                 : Total Depth Logger
TDD .M           174.0000                 : Total Depth Driller
CSGL.M            16.0000                 : Casing Bottom Logger
CSGD.M            14.6000                 : Casing Bottom Driller
CSGS.MM          219.0000                 : Casing Size
CSGW.KG/M          0.0000                 : Casing Weight
BHT .DEGC         23.0000                 : Bottom Hole Temperature
BS  .MM          159.0000                 : Bit Size
DFD .           1110.0000                 : Mud Weight (Density)
DFV .             90.0000                 : Mud Viscosity
DFPH.             10.0000                 : Mud pH
RM  .OHMM          1.9600                 : Mud Resistivity
RMT .DEGC         20.0000                 : Mud Resistivity Temperature
~Curve Information Block
#MNEM.UNIT        API CODE    Curve Description
#---------    ------------    -------------------------------------------
DEPT.M                    :   DEPTH
CALI.MM       42 280  1  1:   3 DENSITY CALIPER
DPHI.V/V                  :   DPHI
DT  .US/M     60 520  0  1:   2 SONIC INTERVAL TRANSIT TIME (COMPENSATED)
GR  .GAPI     42 310  1  1:   4 GAMMA RAY
ILD .OHMM      5 120 46  1:   6 DEEP INDUCTION
ILM .OHMM      5 120 44  1:   7 MEDIUM INDUCTION
NPHI.V/V                  :   NPHI
RHOB.K/M3     42 350  1  1:   5 BULK DENSITY
SFLU.OHMM      5 220  1  1:   8 FOCUSSED RESISTIVITY
SP  .MV        5  10  1  1:   9 SPONTANEOUS POTENTIAL
~A  Depth           CALI        DPHI          DT          GR         ILD         ILM        NPHI        RHOB        SFLU          SP
# ...
108.6000        166.0000      0.2343    422.6000     59.7300    151.2969    299.1093      0.3583   2189.0000    846.8957   -104.0100
108.7000        166.0000      0.2225    411.8800     64.0800    151.2969    299.1093      0.3501   2189.0000    846.8957   -104.0100
108.8000        168.5500      0.2091    398.4400     67.9050     78.6738    108.6000      0.3436   2248.0000    283.0284   -102.0000
108.9000        168.5500      0.1973    390.9600     70.9800     78.6738    108.6000      0.3385   2248.0000    283.0284   -102.0000
109.0000        167.2750      0.1848    389.5600     73.5150     57.5215     63.6546      0.3398   2289.0000    136.7193   -103.0050
109.1000        167.2750      0.1708    401.5200     75.2550     57.5215     63.6546      0.3450   2289.0000    136.7193   -103.0050
109.2000        160.9000      0.1714    427.5200     76.9350     48.2870     42.4453      0.3530   2361.0000     71.7513   -102.7500
109.3000        160.9000      0.1972    454.0000     78.1350     48.2870     42.4453      0.3595   2361.0000     71.7513   -102.7500
109.4000        163.4500      0.2333    480.4800     79.3350     39.0688     29.9109      0.3624   2345.0000     25.8125   -104.0100
109.5000        163.4500      0.2539    497.6800     80.3100     39.0688     29.9109      0.3637   2345.0000     25.8125   -104.0100
109.6000        163.4500      0.2611    491.2000     80.7900     35.3045     31.3206      0.3644   2230.0000     24.8788   -104.7600
109.7000        163.4500      0.2620    488.1600     81.2700     35.3045     31.3206      0.3644   2230.0000     24.8788   -104.7600
109.8000        162.1750      0.2630    487.2800     81.7650     32.1981     31.6104      0.3644   2191.0000     35.3045   -107.2500
109.9000        162.1750      0.2702    486.8400     81.3450     32.1981     31.6104      0.3644   2191.0000     35.3045   -107.2500
110.0000        162.1750      0.2818    481.6400     80.9250     30.1877     29.0958      0.3643   2180.0000     47.8443   -106.2600
110.1000        162.1750      0.2813    474.6800     80.5800     30.1877     29.0958      0.3634   2180.0000     47.8443   -106.2600
110.2000        164.7500      0.2607    470.8000     80.2200     30.7489     30.1877      0.3615   2161.0000     44.8570   -105.2550
110.3000        164.7500      0.2528    466.5600     81.9450     30.7489     30.1877      0.3596   2161.0000     44.8570   -105.2550
110.4000        166.0000      0.2489    462.3200     84.1050     31.9029     29.6367      0.3635   2204.0000     51.0305   -105.7500
110.5000        166.0000      0.2483    459.4400     84.4500     31.9029     29.6367      0.3663   2204.0000     51.0305   -105.7500
110.6000        164.7500      0.2480    458.2000     83.8950     32.4960     27.2791      0.3708   2238.0000     40.5350   -104.0100
110.7000        164.7500      0.2488    462.5600     83.2050     32.4960     27.2791      0.3748   2238.0000     40.5350   -104.0100
110.8000        164.7500      0.2491    462.2400     82.3050     31.9029     28.3028      0.3785   2238.0000     30.7489   -101.7600
110.9000        164.7500      0.2471    461.9600     82.3650     31.9029     28.3028      0.3822   2238.0000     30.7489   -101.7600
111.0000        166.0000      0.2483    460.3600     82.4550     29.9109     29.9109      0.3822   2229.0000     31.6104   -102.0000
111.1000        166.0000      0.2478    458.6400     82.6050     29.9109     29.9109      0.3797   2229.0000     31.6104   -102.0000
111.2000        168.5500      0.2477    457.9600     81.5550     27.0290     24.6507      0.3775   2240.0000     51.9792   -104.0100
111.3000        168.5500      0.2499    466.1200     79.4400     27.0290     24.6507      0.3791   2240.0000     51.9792   -104.0100
111.4000        164.7500      0.2560    501.3600     76.9200     28.3028     22.4817      0.3807   2228.0000     36.2936   -104.5050
111.5000        164.7500      0.2640    501.3600     73.4550     28.3028     22.4817      0.3789   2228.0000     36.2936   -104.5050
111.6000        159.6250      0.2721    501.3600     69.9900     31.6104     23.3254      0.3761   2201.0000     24.2008   -103.2600
111.7000        159.6250      0.2817    516.4400     66.3750     31.6104     23.3254      0.3737   2201.0000     24.2008   -103.2600
111.8000        159.6250      0.2843    524.0400     62.6850     35.3045     27.5315      0.3698   2175.0000     21.2731   -103.7550
111.9000        159.6250      0.2852    505.3200     60.2250     35.3045     27.5315      0.3671   2175.0000     21.2731   -103.7550
112.0000        166.0000      0.2833    499.9200     58.6350     39.0688     44.8570      0.3631   2169.0000     58.5909   -106.0050
112.1000        166.0000      0.2788    471.8800     60.0150     39.0688     44.8570      0.3641   2169.0000     58.5909   -106.0050
112.2000        167.2750      0.2746    452.8800     61.9950     40.9100     50.5627      0.3696   2194.0000    176.9416   -106.7550
112.3000        167.2750      0.2715    446.0800     64.6200     40.9100     50.5627      0.3838   2194.0000    176.9416   -106.7550
112.4000        168.5500      0.2708    441.0800     67.6200     44.4457     50.5627      0.3970   2214.0000    390.6879   -107.2500
112.5000        168.5500      0.2714    440.4000     68.0250     44.4457     50.5627      0.4096   2214.0000    390.6879   -107.2500
112.6000        166.0000      0.2746    444.6400     68.2350     60.2324     45.2720      0.4142   2197.0000     72.4152   -104.5050
112.7000        166.0000      0.2781    447.4400     64.4550     60.2324     45.2720      0.4119   2197.0000     72.4152   -104.5050
112.8000        164.7500      0.2826    448.7600     61.6500     67.2713     49.6398      0.4087   2200.0000     44.0382   -102.7500
112.9000        164.7500      0.2866    447.2400     58.2000     67.2713     49.6398      0.4057   2200.0000     44.0382   -102.7500
113.0000        162.1750      0.2912    443.6800     55.0200     67.2713     59.1330      0.4021   2172.0000     43.2345   -103.5000
113.1000        162.1750      0.2931    439.8000     54.1050     67.2713     59.1330      0.3980   2172.0000     43.2345   -103.5000
113.2000        166.0000      0.2913    437.0400     53.1900     61.9199     71.7513      0.3940   2172.0000     80.8779   -106.0050
113.3000        166.0000      0.2878    434.8400     52.9350     61.9199     71.7513      0.3911   2172.0000     80.8779   -106.0050
113.4000        166.0000      0.2829    433.6000     52.7550     64.8381     75.8281      0.3881   2194.0000    117.9859   -106.5000
113.5000        166.0000      0.2779    437.6400     52.5450     64.8381     75.8281      0.3859   2194.0000    117.9859   -106.5000
113.6000        164.7500      0.2771    442.9200     54.0450     72.4152     83.9131      0.3838   2182.0000    170.5414   -107.0100
113.7000        164.7500      0.2834    447.4800     55.9200     72.4152     83.9131      0.3844   2182.0000    170.5414   -107.0100
113.8000        159.6250      0.2903    446.4400     59.5950     83.1438     92.8603      0.3868   2153.8999    145.8243   -106.2600
113.9000        159.6250      0.2923    444.9600     63.7200     83.1438     92.8603      0.3904   2153.8999    145.8243   -106.2600
114.0000        162.1750      0.2949    444.1200     66.5850     78.6738     93.7195      0.3929   2158.0000    111.6426   -105.0000
114.1000        162.1750      0.2981    443.3600     68.6250     78.6738     93.7195      0.3966   2158.0000    111.6426   -105.0000
114.2000        164.7500      0.2969    442.9200     70.3950     68.5220     85.4732      0.3996   2148.0000    105.6404   -104.5050
114.3000        164.7500      0.2907    444.9600     71.0850     68.5220     85.4732      0.4020   2148.0000    105.6404   -104.5050
114.4000        166.0000      0.2836    449.3600     71.5650     56.4716     66.0435      0.4055   2152.0000    111.6426   -105.5100
114.5000        166.0000      0.2790    454.6000     71.2200     56.4716     66.0435      0.4091   2152.0000    111.6426   -105.5100
114.6000        163.4500      0.2747    459.0800     70.9500     41.2886     39.4303      0.4151   2203.0000     56.9941   -103.0050
