~VERSION INFORMATION
 VERS.                 2.0:   CWLS LOG ASCII STANDARD -VERSION 2.0
 WRAP.                  NO:   ONE LINE PER DEPTH STEP
~WELL INFORMATION BLOCK
#MNEM.UNIT           DATA                    DESCRIPTION OF MNEMONIC
#---------    -------------------            -------------------------------
# Generated from Intellog Unique Number	CX_WELLS/WELL/1048
WELL.         03-08-088-07W4                 : Well_name    - WELL
LOC .         AA/03-08-088-07W4/0            : Location     - LOCATION
UWI .         AA/03-08-088-07W400            : Uwi          - UNIQUE WELL ID
ENTR.         DW                             : Entered      - ENTERED BY
SRVC.         SCHLUMBERGER                   : Scn          - SERVICE COMPANY
STRT.M        32                             : top_depth    - START DEPTH
STOP.M        135                            : bot_depth    - STOP DEPTH
STEP.M        0.25                           : increment    - STEP LENGTH
 NULL. -999.2500:NULL Value
~CURVE INFORMATION BLOCK
#MNEM UNIT       ERCB CURVE CODE    CURVE DESCRIPTION
#-----------   ------------------   ----------------------------------
DEPT.M        00 001 00 00         : DEPTH        - DEPTH
GR  .API      00 310 00 00         : GR           - GAMMA RAY
NPHI.V/V      00 330 00 00         : PHIN         - NEUTRON POROSITY (SANDSTONE)
DPHI.V/V      00 890 00 00         : PHID         - DENSITY POROSITY (SANDSTONE)
ILD .OHMM     00 120 00 00         : RESD         - DEEP RESISTIVITY (DIL)
~PARAMETER INFORMATION
#MNEM.UNIT           DATA             DESCRIPTION OF MNEMONIC
#---------         -----------     ------------------------------
GL  .M        394.79               : gl           - GROUND LEVEL ELEVATION
EREF.M        396.315              : kb           - ELEVATION OF DEPTH REFERENCE
DATM.M        396.315              : datum        - DATUM ELEVATION
TDD .M        146                  : tdd          - TOTAL DEPTH DRILLER
RUN .         ONE                  : Run          - RUN NUMBER
ENG .         BILL                 : Engineer     - RECORDING ENGINEER
WIT .         JIM                  : Witness      - WITNESSED BY
MUD .         GEL                  : Mud_type     - MUD TYPE
MATR.         SANDSTONE            : Logunit      - NEUTRON MATRIX
TMAX.C        25                   : BHT          - MAXIMUM RECORDED TEMPERATURE
BHTD.M        146                  : BHTDEP       - MAXIMUM RECORDED TEMPERATURE
MATR.         1                    : LOGUNIT      - NEUTRON MATRIX
RMT .C        25                   : MDTP         - TEMPERATURE OF MUD
NEUT.         1                    : NEUTRON      - NEUTRON TYPE
RESI.         0                    : RESIST       - RESISTIVITY TYPE
RMC .OHMM     0.25                 : RMC          - RESISTIVITY OF MUD CAKE
RMF .OHMM     0.25                 : RMF          - RESISTIVITY OF MUD FILTRATE
SUFT.C        4                    : SUFT         - SURFACE TEMPERATURE
~A  DEPTH       GR     PHIN     PHID     RESD
   32.000   92.737    0.514    0.248    5.587
   32.250   84.175    0.499    0.259    7.001
   32.500   78.674    0.489    0.258   10.386
   32.750   73.191    0.498    0.253    9.295
   33.000   76.917    0.508    0.252    8.476
   33.250   82.468    0.516    0.252    7.584
   33.500   84.958    0.519    0.253    7.046
   33.750   88.684    0.513    0.251    6.796
   34.000   91.165    0.501    0.249    7.196
   34.250   96.128    0.489    0.250    7.767
   34.500   93.697    0.483    0.254    8.541
   34.750   87.591    0.484    0.255    8.707
   35.000   82.107    0.480    0.253    8.557
   35.250   85.211    0.470    0.244    8.408
   35.500   87.087    0.468    0.239    8.424
   35.750   87.734    0.470    0.234    7.826
   36.000   85.918    0.479    0.224    8.134
   36.250   86.565    0.470    0.218    9.108
   36.500   86.599    0.460    0.246    9.827
   36.750   86.633    0.467    0.258   11.007
   37.000   86.683    0.467    0.267   12.101
   37.250   84.261    0.452    0.264   12.344
   37.500   82.453    0.451    0.244   12.137
   37.750   81.881    0.461    0.234   12.152
   38.000   83.126    0.469    0.244   11.504
   38.250   86.852    0.472    0.248   10.296
   38.500   88.720    0.478    0.255    9.385
   38.750   92.437    0.491    0.263    8.094
   39.000   95.549    0.512    0.270    7.381
   39.250   97.442    0.509    0.263    6.857
   39.500   98.081    0.508    0.250    6.736
   39.750   98.721    0.508    0.239    6.499
   40.000   99.385    0.517    0.232    6.386
   40.250  100.024    0.525    0.227    6.158
   40.500  100.050    0.539    0.225    5.831
   40.750  100.714    0.555    0.224    5.624
   41.000  101.354    0.564    0.222    5.422
   41.250  102.010    0.542    0.221    5.230
   41.500  102.044    0.536    0.223    5.236
   41.750  100.849    0.526    0.227    5.341
   42.000   97.805    0.522    0.232    5.656
   42.250   94.154    0.515    0.239    6.218
   42.500   90.504    0.508    0.243    6.969
   42.750   86.249    0.496    0.248    7.661
   43.000   85.063    0.488    0.246    8.113
   43.250   85.080    0.488    0.240    8.432
   43.500   86.964    0.490    0.228    8.284
   43.750   90.076    0.498    0.214    7.554
   44.000   93.794    0.520    0.207    6.762
   44.250   96.889    0.526    0.208    6.052
   44.500   99.993    0.534    0.219    5.417
   44.750  101.263    0.556    0.231    4.938
   45.000  101.296    0.575    0.249    4.421
   45.250  101.953    0.570    0.254    4.030
   45.500  101.978    0.570    0.260    3.744
   45.750  102.626    0.578    0.264    3.478
   46.000  102.659    0.587    0.275    3.293
   46.250  102.079    0.594    0.296    3.176
   46.500  102.113    0.596    0.316    3.063
   46.750  103.383    0.596    0.319    2.900
   47.000  104.022    0.596    0.325    2.850
   47.250  105.284    0.595    0.319    2.800
   47.500  104.721    0.591    0.294    2.857
   47.750  103.527    0.583    0.289    3.026
   48.000  102.332    0.555    0.277    3.453
   48.250  104.200    0.528    0.261    4.169
   48.500  107.312    0.504    0.248    4.756
   48.750  107.345    0.499    0.209    5.232
   49.000  106.765    0.490    0.203    5.335
   49.250  105.571    0.485    0.193    5.652
   49.500  105.596    0.485    0.189    5.872
   49.750  106.875    0.485    0.222    6.457
   50.000  108.751    0.487    0.221    6.710
   50.250  110.635    0.488    0.215    6.976
   50.500  111.274    0.488    0.218    7.248
   50.750  112.527    0.488    0.218    7.257
   51.000  113.797    0.485    0.215    8.133
   51.250  113.831    0.474    0.219    8.941
   51.500  113.857    0.463    0.220    9.647
   51.750  113.907    0.450    0.207   10.409
   52.000  112.713    0.444    0.184   10.819
   52.250  109.668    0.438    0.176   10.828
   52.500  103.562    0.431    0.168   10.845
   52.750  101.148    0.417    0.158   11.063
   53.000  100.568    0.397    0.155   11.289
   53.250  101.216    0.375    0.181   10.492
   53.500  103.092    0.376    0.193    9.928
   53.750  104.353    0.410    0.205    9.221
   54.000  103.773    0.452    0.216    8.256
   54.250  103.193    0.474    0.213    7.812
   54.500  104.463    0.480    0.186    7.124
   54.750  106.953    0.486    0.180    6.380
   55.000  109.442    0.493    0.177    6.151
   55.250  111.310    0.503    0.184    5.823
   55.500  109.501    0.507    0.186    5.512
   55.750  105.860    0.506    0.195    5.417
   56.000  104.657    0.473    0.198    5.734
   56.250  104.077    0.466    0.204    6.667
   56.500  103.497    0.455    0.221    7.752
   56.750  102.311    0.452    0.233    8.210
   57.000  102.959    0.446    0.232    8.380
   57.250  103.615    0.439    0.226    7.932
   57.500  104.868    0.440    0.217    7.233
   57.750  107.989    0.451    0.214    6.596
   58.000  109.233    0.464    0.218    6.016
   58.250  111.109    0.483    0.219    5.803
   58.500  111.143    0.499    0.219    5.595
   58.750  109.957    0.514    0.223    5.496
   59.000  107.535    0.528    0.229    5.206
   59.250  106.341    0.552    0.227    5.020
   59.500  108.233    0.545    0.208    4.931
   59.750  108.864    0.528    0.202    4.756
   60.000  109.512    0.507    0.191    4.852
   60.250  108.940    0.500    0.185    5.236
   60.500  107.132    0.505    0.187    5.756
   60.750  104.087    0.500    0.200    5.658
   61.000  100.437    0.498    0.230    5.355
   61.250   98.023    0.493    0.235    4.705
   61.500   99.899    0.499    0.251    4.210
   61.750  104.239    0.531    0.260    3.837
   62.000  105.501    0.550    0.259    3.247
   62.250  106.149    0.556    0.232    3.638
   62.500  104.954    0.549    0.227    4.310
   62.750  104.366    0.539    0.219    4.919
   63.000  103.171    0.526    0.208    5.829
   63.250  102.591    0.513    0.199    6.410
   63.500  102.011    0.511    0.199    6.790
   63.750  101.439    0.503    0.202    6.796
   64.000  100.876    0.508    0.203    6.802
   64.250  100.893    0.512    0.205    6.814
   64.500   99.715    0.507    0.207    6.821
   64.750   99.127    0.500    0.215    6.829
   65.000   97.924    0.492    0.217    6.964
   65.250   96.124    0.479    0.206    7.109
   65.500   94.938    0.475    0.196    7.115
   65.750   94.955    0.476    0.189    7.122
   66.000   94.375    0.483    0.197    7.404
   66.250   93.803    0.497    0.206    7.696
   66.500   93.223    0.497    0.214    7.850
   66.750   92.643    0.492    0.235    7.865
   67.000   92.071    0.490    0.289    7.870
   67.250   91.491    0.504    0.346    7.595
   67.500   90.296    0.522    0.370    7.323
   67.750   89.111    0.543    0.397    6.677
   68.000   89.136    0.561    0.347    5.864
   68.250   89.170    0.580    0.304    4.962
   68.500   87.362    0.589    0.315    3.969
   68.750   84.931    0.594    0.316    3.236
   69.000   80.053    0.588    0.314    2.843
   69.250   78.245    0.582    0.310    2.954
   69.500   79.532    0.579    0.310    3.309
   69.750   80.171    0.582    0.339    3.776
   70.000   80.205    0.583    0.364    4.559
   70.250   77.791    0.574    0.390    4.652
   70.500   76.580    0.562    0.398    4.488
   70.750   75.386    0.556    0.409    4.491
   71.000   74.805    0.568    0.408    4.415
   71.250   76.681    0.585    0.385    4.419
   71.500   78.557    0.583    0.371    4.343
   71.750   79.835    0.558    0.370    4.431
   72.000   79.247    0.534    0.372    4.961
   72.250   78.666    0.519    0.370    5.557
   72.500   79.937    0.532    0.286    5.885
   72.750   82.418    0.530    0.282    6.007
   73.000   87.372    0.523    0.274    5.686
   73.250   91.081    0.534    0.268    5.381
   73.500   97.263    0.549    0.263    4.906
   73.750  101.595    0.562    0.258    4.559
   74.000  104.085    0.552    0.254    4.237
   74.250  104.118    0.545    0.250    3.863
   74.500  101.082    0.553    0.248    3.796
   74.750   99.282    0.564    0.246    3.730
   75.000   99.316    0.579    0.245    3.734
   75.250  100.578    0.588    0.244    3.740
