~VERSION INFORMATION
 VERS.                 2.0:   CWLS LOG ASCII STANDARD -VERSION 2.0
 WRAP.                  NO:   ONE LINE PER DEPTH STEP
~WELL INFORMATION BLOCK
#MNEM.UNIT           DATA                    DESCRIPTION OF MNEMONIC
#---------    -------------------            -------------------------------
# Generated from Intellog Unique Number	CX_WELLS/WELL/3865
WELL.         REGENT HORSE                   : Well_name    - WELL
LOC .         AA/09-19-087-12W4/0            : Location     - LOCATION
UWI .         AA/09-19-087-12W400            : Uwi          - UNIQUE WELL ID
ENTR.         TIM                            : Entered      - ENTERED BY
SRVC.         SCHLUMBERGER                   : Scn          - SERVICE COMPANY
STRT.F        50                             : top_depth    - START DEPTH
STOP.F        589.698                        : bot_depth    - STOP DEPTH
STEP.F        0.8202                         : increment    - STEP LENGTH
 NULL. -999.2500:NULL Value
~CURVE INFORMATION BLOCK
#MNEM UNIT       ERCB CURVE CODE    CURVE DESCRIPTION
#-----------   ------------------   ----------------------------------
DEPT.F        00 001 00 00         : DEPTH        - DEPTH
GR  .API      00 310 00 00         : GR           - GAMMA RAY
NPHI.V/V      00 330 00 00         : PHIN         - NEUTRON POROSITY (SANDSTONE)
ILD .OHMM     00 120 00 00         : RESD         - DEEP RESISTIVITY (DIL)
~PARAMETER INFORMATION
#MNEM.UNIT           DATA             DESCRIPTION OF MNEMONIC
#---------         -----------     ------------------------------
GL  .F        1531                 : gl           - GROUND LEVEL ELEVATION
EREF.F        1531                 : kb           - ELEVATION OF DEPTH REFERENCE
DATM.F        1531                 : datum        - DATUM ELEVATION
TDD .F        588                  : tdd          - TOTAL DEPTH DRILLER
RUN .         ONE                  : Run          - RUN NUMBER
ENG .         BILL                 : Engineer     - RECORDING ENGINEER
WIT .         JIM                  : Witness      - WITNESSED BY
MUD .         GEL                  : Mud_type     - MUD TYPE
MATR.         SANDSTONE            : Logunit      - NEUTRON MATRIX
TMAX.F        50                   : BHT          - MAXIMUM RECORDED TEMPERATURE
BHTD.F        588                  : BHTDEP       - MAXIMUM RECORDED TEMPERATURE
MATR.         1                    : LOGUNIT      - NEUTRON MATRIX
RMT .F        62.6                 : MDTP         - TEMPERATURE OF MUD
NEUT.         1                    : NEUTRON      - NEUTRON TYPE
RESI.         0.4                  : RESIST       - RESISTIVITY TYPE
RMC .OHMM     8                    : RMC          - RESISTIVITY OF MUD CAKE
RMF .OHMM     8                    : RMF          - RESISTIVITY OF MUD FILTRATE
SUFT.F        39.2                 : SUFT         - SURFACE TEMPERATURE
~A  DEPTH       GR     PHIN     RESD
   50.000   81.013    0.573   24.942
   50.820   81.089    0.573   23.687
   51.640   80.703    0.574   23.893
   52.461   78.007    0.574   24.482
   53.281   75.292    0.575   24.873
   54.101   72.133    0.575   25.455
   54.921   71.747    0.575   26.590
   55.742   72.748    0.574   27.924
   56.562   75.615    0.574   30.528
   57.382   80.312    0.574   34.252
   58.202   82.255    0.571   36.324
   59.022   80.483    0.560   36.537
   59.843   78.230    0.564   37.481
   60.663   78.787    0.565   41.759
   61.483   83.040    0.558   51.393
   62.303   84.060    0.547   73.590
   63.123   84.560    0.538   76.201
   63.944   85.560    0.536   76.606
   64.764   85.636    0.536   75.521
   65.584   86.193    0.538   73.152
   66.404   87.675    0.538   69.669
   67.224   88.675    0.539   67.669
   68.045   88.289    0.541   64.924
   68.865   87.422    0.542   62.370
   69.685   85.650    0.542   62.030
   70.505   82.953    0.541   64.272
   71.326   79.776    0.538   67.074
   72.146   75.231    0.532   66.925
   72.966   72.092    0.527   65.472
   73.786   69.858    0.524   64.770
   74.606   68.991    0.512   70.332
   75.427   67.219    0.403   83.661
   76.247   65.909    0.382   86.272
   77.067   64.156    0.395   85.563
   77.887   63.307    0.218   80.789
   78.707   63.846    0.234   50.158
   79.528   66.232    0.267   35.963
   80.348   68.618    0.270   28.607
   81.168   70.524    0.240   25.493
   81.988   72.929    0.211   25.898
   82.808   75.778    0.215   26.657
   83.629   78.626    0.227   27.984
   84.449   78.240    0.234   28.197
   85.269   77.392    0.215   27.495
   86.089   77.006    0.198   26.970
   86.909   77.120    0.196   26.445
   87.730   77.639    0.205   26.283
   88.550   78.640    0.215   26.311
   89.370   80.121    0.222   27.085
   90.190   82.045    0.229   27.660
   91.010   83.970    0.247   28.987
   91.831   84.970    0.214   30.306
   92.651   83.660    0.020   34.031
   93.471   80.482   -0.036   42.551
   94.291   75.014   -0.097   56.065
   95.112   70.007   -0.077   55.910
   95.932   70.545   -0.030   41.530
   96.752   74.318    0.027   36.572
   97.572   78.129    0.100   31.983
   98.392   78.186    0.290   29.798
   99.213   78.262    0.274   27.436
  100.033   78.338    0.291   26.528
  100.853   78.433    0.299   25.819
  101.673   77.585    0.283   27.337
  102.493   75.332    0.293   26.621
  103.314   72.154    0.306   26.104
  104.134   67.148    0.300   26.310
  104.954   65.857    0.292   26.161
  105.774   66.838    0.286   24.515
  106.594   68.762    0.281   20.494
  107.415   70.262    0.320   19.409
  108.235   70.338    0.429   18.331
  109.055   70.396    0.521   17.430
  109.875   70.953    0.521   16.905
  110.696   71.934    0.516   16.196
  111.516   72.491    0.514   15.487
  112.336   72.105    0.523   14.409
  113.156   72.162    0.526   13.515
  113.976   71.333    0.527   14.651
  114.797   71.409    0.522   16.893
  115.617   71.485    0.504   19.695
  116.437   71.561    0.492   20.830
  117.257   72.562    0.493   21.987
  118.077   73.562    0.506   22.186
  118.898   75.043    0.494   23.151
  119.718   76.949    0.449   23.726
  120.538   79.816    0.461   24.301
  121.358   84.051    0.477   25.259
  122.178   85.975    0.481   25.664
  122.999   74.962    0.421   24.763
  123.819   71.784    0.285   23.316
  124.639   66.778    0.321   22.600
  125.459   67.335    0.361   21.337
  126.280   69.259    0.411   20.075
  127.100   73.032    0.436   17.890
  127.920   74.956    0.454   16.805
  128.740   76.437    0.460   14.620
  129.560   77.457    0.470   16.125
  130.381   78.457    0.487   18.750
  131.201   78.976    0.496   20.062
  132.021   78.128    0.445   22.127
  132.841   75.894    0.372   23.454
  133.661   72.716    0.380   24.589
  134.482   73.255    0.431   23.880
  135.302   74.274    0.441   22.980
  136.122   74.350    0.439   21.902
  136.942   73.964    0.442   23.229
  137.762   74.040    0.439   23.995
  138.583   74.116    0.419   23.463
  139.403   74.211    0.427   19.072
  140.223   74.306    0.443   18.356
  141.043   74.844    0.453   16.902
  141.864   75.345    0.459   15.640
  142.684   77.288    0.466   13.824
  143.504   77.345    0.474   12.746
  144.324   77.421    0.483   11.476
  145.144   78.016    0.496   11.874
  145.965   78.516    0.505   13.016
  146.785   79.074    0.511   14.889
  147.605   79.150    0.515   16.770
  148.425   79.207    0.513   16.820
  149.245   79.302    0.510   16.834
  150.066   79.359    0.484   16.863
  150.886   79.897    0.486   17.069
  151.706   80.473    0.491   17.296
  152.526   80.511    0.502   17.318
  153.346   79.663    0.507   17.162
  154.167   76.505    0.507   17.191
  154.987   76.581    0.507   17.411
  155.807   82.240    0.501   17.794
  156.627   82.316    0.473   19.121
  157.448   80.525    0.449   21.178
  158.268   77.848    0.433   23.797
  159.088   77.000    0.364   23.825
  159.908   77.538    0.311   21.641
  160.728   77.152    0.317   20.939
  161.549   77.209    0.347   21.705
  162.369   77.285    0.375   22.096
  163.189   77.380    0.391   22.309
  164.009   77.475    0.403   22.706
  164.829   77.975    0.416   23.487
  165.650   78.513    0.366   23.870
  166.470   79.090    0.354   24.644
  167.290   79.185    0.348   25.226
  168.110   78.337    0.349   25.623
  168.930   77.932    0.379   25.659
  169.751   77.065    0.386   25.496
  170.571   76.236    0.396   25.156
  171.391   76.755    0.405   25.007
  172.211   78.217    0.405   24.852
  173.031   80.603    0.389   25.057
  173.852   82.066    0.389   26.015
  174.672   82.161    0.401   26.782
  175.492   80.389    0.404   26.811
  176.312   78.617    0.399   26.102
  177.133   77.749    0.391   24.839
  177.953   76.901    0.395   23.754
  178.773   76.516    0.407   22.860
  179.593   79.383    0.423   24.741
  180.413   81.769    0.425   24.599
  181.234   81.865    0.426   24.060
  182.054   80.092    0.433   22.975
  182.874   78.763    0.440   21.713
  183.694   77.915    0.437   20.266
  184.514   77.529    0.389   20.479
  185.335   77.143    0.375   20.699
  186.155   77.681    0.369   20.352
  186.975   78.682    0.370   19.465
  187.795   78.758    0.401   19.118
  188.615   78.872    0.410   18.962
  189.436   78.929    0.432   18.814
  190.256   79.024    0.451   18.105
  191.076   79.081    0.462   17.757
  191.896   79.157    0.417   17.048
  192.717   79.714    0.424   16.346
  193.537   79.771    0.456   15.630
  194.357   79.385    0.487   15.282
  195.177   79.019    0.493   15.127
  195.997   79.076    0.506   14.602
  196.818   79.633    0.509   13.716
  197.638   80.633    0.510   13.560
  198.458   80.709    0.510   13.581
  199.278   79.880    0.510   13.610
  200.098   79.456    0.511   14.022
  200.919   77.684    0.511   14.412
  201.739   75.007    0.509   15.562
  202.559   75.083    0.495   16.130
  203.379   76.545    0.486   17.095
  204.199   77.083    0.471   18.237
  205.020   75.773    0.480   18.805
  205.840   74.925    0.493   19.947
  206.660   74.539    0.490   21.643
  207.480   75.077    0.452   22.041
  208.301   76.077    0.420   20.771
  209.121   77.078    0.374   17.849
  209.941   77.173    0.368   16.948
  210.761   77.230    0.397   15.317
  211.581   76.863    0.431   14.416
  212.402   76.477    0.463   12.416
  213.222   76.553    0.489   10.785
  214.042   76.167    0.501    8.976
  214.862   76.224    0.504    8.806
  215.682   75.857    0.505    9.402
  216.503   75.471    0.512    8.885
  217.323   75.085    0.515    8.346
  218.143   75.623    0.519    8.559
  218.963   76.162    0.522    9.694
  219.783   76.700    0.523   11.206
  220.604   76.776    0.523   12.348
  221.424   76.390    0.524   12.192
  222.244   76.023    0.525   11.845
  223.064   75.637    0.526   11.689
  223.885   75.251    0.526   12.640
  224.705   74.865    0.526   13.960
  225.525   74.941    0.523   15.655
  226.345   75.479    0.521   17.344
  227.165   76.479    0.513   18.855
