~VERSION INFORMATION
 VERS.                 2.0:   CWLS LOG ASCII STANDARD -VERSION 2.0
 WRAP.                  NO:   ONE LINE PER DEPTH STEP
~WELL INFORMATION BLOCK
#MNEM.UNIT           DATA                    DESCRIPTION OF MNEMONIC
#---------    -------------------            -------------------------------
# Generated from Intellog Unique Number	CN_94_101/WELL/3595
WELL.         08-30-096-16W4                 : Well_name    - WELL
LOC .         AA/08-30-096-16W4/0            : Location     - LOCATION
UWI .         AA/08-30-096-16W400            : Uwi          - UNIQUE WELL ID
ENTR.         JOETTE                         : Entered      - ENTERED BY
SRVC.         SCHLUMBERGER                   : Scn          - SERVICE COMPANY
DATE.         08/03/92                       : Date         - LOG DATE
STRT.M        200                            : top_depth    - START DEPTH
STOP.M        410                            : bot_depth    - STOP DEPTH
STEP.M        0.25                           : increment    - STEP LENGTH
 NULL. -999.2500:NULL Value
~CURVE INFORMATION BLOCK
#MNEM UNIT       ERCB CURVE CODE    CURVE DESCRIPTION
#-----------   ------------------   ----------------------------------
DEPT.M        00 001 00 00         : DEPTH        - DEPTH
GR  .API      00 310 00 00         : GR           - GAMMA RAY
ILD .OHMM     00 120 00 00         : RESD         - DEEP RESISTIVITY (DIL)
NPHI.V/V      00 330 00 00         : PHIN         - NEUTRON POROSITY (SANDSTONE)
DPHI.V/V      00 890 00 00         : PHID         - DENSITY POROSITY (SANDSTONE)
~PARAMETER INFORMATION
#MNEM.UNIT           DATA             DESCRIPTION OF MNEMONIC
#---------         -----------     ------------------------------
GL  .M        661.6                : gl           - GROUND LEVEL ELEVATION
EREF.M        665                  : kb           - ELEVATION OF DEPTH REFERENCE
DATM.M        665                  : datum        - DATUM ELEVATION
TDD .M        415                  : tdd          - TOTAL DEPTH DRILLER
RUN .         ONE                  : Run          - RUN NUMBER
ENG .         JO                   : Engineer     - RECORDING ENGINEER
WIT .         TIM                  : Witness      - WITNESSED BY
MUD .         GEL                  : Mud_type     - MUD TYPE
MATR.         SANDSTONE            : Logunit      - NEUTRON MATRIX
TMAX.C        10                   : BHT          - MAXIMUM RECORDED TEMPERATURE
BHTD.M        415                  : BHTDEP       - MAXIMUM RECORDED TEMPERATURE
RMT .C        10.1                 : MDTP         - TEMPERATURE OF MUD
MUDD.KG/M     1115                 : MWT          - MUD DENSITY
NEUT.         1                    : NEUTRON      - NEUTRON TYPE
RESI.         0                    : RESIST       - RESISTIVITY TYPE
RM  .OHMM     0.49                 : RM           - RESISTIVITY OF MUD
RMC .OHMM     0.49                 : RMC          - RESISTIVITY OF MUD CAKE
RMF .OHMM     0.731                : RMF          - RESISTIVITY OF MUD FILTRATE
SUFT.C        4                    : SUFT         - SURFACE TEMPERATURE
~A  DEPTH       GR     RESD     PHIN     PHID
# ...
  243.500   60.147   10.965    0.432    0.316
  243.750   62.193   11.224    0.432    0.313
  244.000   64.196   11.731    0.434    0.313
  244.250   64.977   12.276    0.442    0.313
  244.500   65.801   13.341    0.453    0.315
  244.750   66.582   14.218    0.456    0.317
  245.000   66.753   15.451    0.456    0.320
  245.250   66.312   16.148    0.453    0.319
  245.500   63.995   16.252    0.449    0.316
  245.750   61.721   16.020    0.445    0.311
  246.000   60.669   15.187    0.427    0.298
  246.250   63.283   14.379    0.372    0.092
  246.500   65.898   13.110    0.262    0.084
  246.750   69.820   12.188    0.317    0.106
  247.000   71.780   11.767    0.384    0.145
  247.250   72.604   11.375    0.441    0.173
  247.500   72.732   10.588    0.446    0.218
  247.750   72.987    9.641    0.436    0.281
  248.000   73.768    8.621    0.442    0.279
  248.250   76.383    7.698    0.445    0.285
  248.500   78.386    6.750    0.450    0.295
  248.750   79.778    6.391    0.463    0.303
  249.000   80.559    6.688    0.487    0.306
  249.250   80.119    7.268    0.512    0.305
  249.500   78.456    9.065    0.501    0.313
  249.750   76.793   11.089    0.488    0.322
  250.000   75.741   11.395    0.456    0.338
  250.250   75.257   11.439    0.442    0.346
  250.500   74.205   11.498    0.446    0.347
  250.750   73.153   11.542    0.452    0.345
  251.000   72.755   11.392    0.453    0.338
  251.250   71.746   11.450    0.456    0.335
  251.500   71.220   11.509    0.457    0.340
  251.750   70.779   10.897    0.454    0.342
  252.000   70.949    9.730    0.450    0.344
  252.250   71.730    7.739    0.448    0.334
  252.500   72.511    6.518    0.446    0.324
  252.750   73.904    5.715    0.438    0.315
  253.000   75.950    5.313    0.436    0.304
  253.250   77.384    5.136    0.442    0.303
  253.500   78.123    5.163    0.447    0.301
  253.750   80.211    5.396    0.456    0.299
  254.000   80.950    5.544    0.471    0.291
  254.250   81.731    5.559    0.472    0.285
  254.500   82.513    5.602    0.463    0.281
  254.750   82.683    5.616    0.451    0.281
  255.000   82.242    5.659    0.456    0.281
  255.250   81.844    5.681    0.463    0.279
  255.500   81.403    5.703    0.462    0.275
  255.750   82.184    5.740    0.462    0.272
  256.000   83.576    5.762    0.463    0.267
  256.250   85.537    5.687    0.465    0.262
  256.500   87.583    5.724    0.466    0.259
  256.750   87.753    5.627    0.468    0.256
  257.000   89.230    5.461    0.463    0.256
  257.250   89.927    5.475    0.450    0.254
  257.500   92.015    5.390    0.456    0.254
  257.750   92.711    5.224    0.469    0.253
  258.000   93.577    5.142    0.479    0.252
  258.250   93.748    5.063    0.488    0.250
  258.500   93.960    4.906    0.499    0.248
  258.750   94.045    4.830    0.506    0.246
  259.000   94.258    4.755    0.505    0.246
  259.250   93.817    4.693    0.503    0.244
  259.500   93.987    4.549    0.501    0.243
  259.750   93.504    4.472    0.502    0.251
  260.000   93.717    4.489    0.498    0.260
  260.250   93.929    4.345    0.495    0.266
  260.500   94.014    4.362    0.515    0.255
  260.750   94.227    4.385    0.514    0.248
  261.000   94.966    4.407    0.513    0.259
  261.250   95.179    4.435    0.518    0.264
  261.500   95.349    4.546    0.526    0.261
  261.750   94.908    4.757    0.525    0.258
  262.000   93.898    4.864    0.521    0.258
  262.250   92.804    5.190    0.509    0.257
  262.500   91.709    5.424    0.505    0.257
  262.750   91.269    5.560    0.503    0.260
  263.000   92.050    5.381    0.503    0.267
  263.250   94.707    5.202    0.511    0.271
  263.500   97.932    5.016    0.530    0.274
  263.750  101.811    4.485    0.549    0.273
  264.000  104.426    4.169    0.559    0.273
  264.250  105.861    3.881    0.572    0.272
  264.500  106.684    3.826    0.569    0.270
  264.750  106.769    3.771    0.536    0.270
  265.000  106.940    3.790    0.530    0.269
  265.250  107.152    3.815    0.511    0.268
  265.500  107.280    3.825    0.507    0.265
  265.750  106.882    3.775    0.511    0.264
  266.000  106.441    3.726    0.524    0.261
  266.250  106.000    3.663    0.532    0.252
  266.500  104.905    3.616    0.542    0.240
  266.750  102.631    3.564    0.549    0.228
  267.000  101.579    3.582    0.536    0.220
  267.250  101.138    3.672    0.514    0.239
  267.500  100.129    3.837    0.516    0.253
  267.750   98.466    4.170    0.526    0.263
  268.000   96.803    4.444    0.524    0.272
  268.250   95.666    4.836    0.516    0.265
  268.500   93.434    5.048    0.514    0.255
  268.750   89.327    5.492    0.508    0.248
  269.000   86.442    5.861    0.499    0.238
  269.250   84.083    5.999    0.492    0.248
  269.500   83.073    5.814    0.483    0.254
  269.750   83.243    5.606    0.489    0.261
  270.000   85.289    5.111    0.504    0.271
  270.250   87.861    4.752    0.499    0.288
  270.500   92.351    4.690    0.480    0.293
  270.750   95.577    4.795    0.465    0.280
  271.000   98.845    5.018    0.471    0.265
  271.250   99.058    5.136    0.494    0.260
  271.500   98.532    5.163    0.507    0.267
  271.750   97.522    5.096    0.520    0.271
  272.000   97.124    4.920    0.520    0.272
  272.250   96.598    4.319    0.511    0.273
  272.500   96.768    3.862    0.504    0.273
  272.750   98.203    3.586    0.501    0.270
  273.000  100.206    3.395    0.489    0.266
  273.250  104.085    3.286    0.485    0.264
  273.500  107.311    3.303    0.495    0.263
  273.750  112.369    3.385    0.521    0.263
  274.000  113.847    3.470    0.556    0.262
  274.250  113.321    3.631    0.564    0.264
  274.500  112.269    3.717    0.570    0.265
  274.750  111.217    3.966    0.573    0.262
  275.000  110.165    4.070    0.575    0.258
  275.250  110.335    4.161    0.542    0.257
  275.500  110.505    4.183    0.550    0.261
  275.750  111.287    4.292    0.558    0.267
  276.000  110.888    4.315    0.568    0.268
  276.250  110.490    4.247    0.578    0.270
  276.500  110.006    4.192    0.577    0.269
  276.750  109.523    4.208    0.568    0.269
  277.000  108.471    4.230    0.564    0.270
  277.250  108.030    4.252    0.562    0.271
  277.500  107.021    4.279    0.561    0.273
  277.750  107.148    4.386    0.552    0.276
  278.000  106.139    4.495    0.535    0.278
  278.250  105.698    4.698    0.525    0.279
  278.500  104.646    5.106    0.531    0.277
  278.750  104.205    5.563    0.538    0.274
  279.000  103.111    5.694    0.539    0.276
  279.250  102.670    5.959    0.536    0.278
  279.500  101.049    6.107    0.523    0.284
  279.750   99.955    6.131    0.519    0.285
  280.000   98.334    6.163    0.514    0.279
  280.250   97.282    6.090    0.497    0.249
  280.500   96.145    5.988    0.479    0.230
  280.750   96.316    5.684    0.486    0.200
  281.000   98.972    5.082    0.498    0.185
  281.250  107.129    4.900    0.536    0.210
  281.500  115.286    4.468    0.558    0.242
  281.750  111.221    4.000    0.575    0.240
  282.000  108.904    3.787    0.562    0.238
  282.250  109.074    3.452    0.549    0.234
  282.500  110.467    3.152    0.555    0.232
  282.750  112.470    3.039    0.561    0.239
  283.000  113.251    2.833    0.570    0.251
  283.250  112.199    2.735    0.569    0.269
  283.500  110.579    2.692    0.565    0.271
  283.750  109.442    2.609    0.568    0.275
  284.000  107.821    2.565    0.575    0.282
  284.250  106.727    2.529    0.582    0.289
  284.500  103.884    2.542    0.583    0.285
  284.750  103.401    2.558    0.578    0.267
  285.000  101.127    2.571    0.577    0.251
  285.250  101.297    2.581    0.582    0.238
  285.500  102.689    2.652    0.568    0.214
  285.750  104.693    2.715    0.568    0.213
  286.000  104.905    2.779    0.581    0.266
  286.250  104.464    2.905    0.589    0.297
  286.500  103.370    3.099    0.557    0.302
  286.750  101.096    3.642    0.541    0.293
