~VERSION INFORMATION
 VERS.                 2.0:   CWLS LOG ASCII STANDARD -VERSION 2.0
 WRAP.                  NO:   ONE LINE PER DEPTH STEP
~WELL INFORMATION BLOCK
#MNEM.UNIT           DATA                    DESCRIPTION OF MNEMONIC
#---------    -------------------            -------------------------------
# Generated from Intellog Unique Number	CN_94_101/WELL/2800
WELL.         03-25-096-16W4                 : Well_name    - WELL
LOC .         AA/03-25-096-16W4/0            : Location     - LOCATION
UWI .         AA/03-25-096-16W400            : Uwi          - UNIQUE WELL ID
ENTR.         JOETTE                         : Entered      - ENTERED BY
SRVC.         SCHLUMBERGER                   : Scn          - SERVICE COMPANY
DATE.         07/07/92                       : Date         - LOG DATE
STRT.M        140                            : top_depth    - START DEPTH
STOP.M        395                            : bot_depth    - STOP DEPTH
STEP.M        0.25                           : increment    - STEP LENGTH
 NULL. -999.2500:NULL Value
~CURVE INFORMATION BLOCK
#MNEM UNIT       ERCB CURVE CODE    CURVE DESCRIPTION
#-----------   ------------------   ----------------------------------
DEPT.M        00 001 00 00         : DEPTH        - DEPTH
CALI.MM       00 280 01 00         : CAL          - CALIPER
GR  .API      00 310 00 00         : GR           - GAMMA RAY
NPHI.V/V      00 330 00 00         : PHIN         - NEUTRON POROSITY (SANDSTONE)
DPHI.V/V      00 890 00 00         : PHID         - DENSITY POROSITY (SANDSTONE)
ILD .OHMM     00 120 00 00         : RESD         - DEEP RESISTIVITY (DIL)
~PARAMETER INFORMATION
#MNEM.UNIT           DATA             DESCRIPTION OF MNEMONIC
#---------         -----------     ------------------------------
GL  .M        651.2                : gl           - GROUND LEVEL ELEVATION
EREF.M        655                  : kb           - ELEVATION OF DEPTH REFERENCE
DATM.M        655                  : datum        - DATUM ELEVATION
TDD .M        398                  : tdd          - TOTAL DEPTH DRILLER
RUN .         ONE                  : Run          - RUN NUMBER
ENG .         JO                   : Engineer     - RECORDING ENGINEER
WIT .         TIM                  : Witness      - WITNESSED BY
MUD .         GEL                  : Mud_type     - MUD TYPE
MATR.         SANDSTONE            : Logunit      - NEUTRON MATRIX
TMAX.C        20                   : BHT          - MAXIMUM RECORDED TEMPERATURE
BHTD.M        398                  : BHTDEP       - MAXIMUM RECORDED TEMPERATURE
RMT .C        13                   : MDTP         - TEMPERATURE OF MUD
MUDD.KG/M     1120                 : MWT          - MUD DENSITY
NEUT.         1                    : NEUTRON      - NEUTRON TYPE
RESI.         0                    : RESIST       - RESISTIVITY TYPE
RM  .OHMM     0.84                 : RM           - RESISTIVITY OF MUD
RMC .OHMM     0.84                 : RMC          - RESISTIVITY OF MUD CAKE
RMF .OHMM     0.88                 : RMF          - RESISTIVITY OF MUD FILTRATE
SUFT.C        4                    : SUFT         - SURFACE TEMPERATURE
~A  DEPTH      CAL       GR     PHIN     PHID     RESD
# ...
  322.500  175.606   87.337    0.415    0.237    7.948
  322.750  176.748   92.172    0.423    0.240    7.956
  323.000  178.817   92.839    0.431    0.220    7.977
  323.250  180.917   93.506    0.436    0.209    8.139
  323.500  183.047   93.580    0.447    0.207    8.156
  323.750  182.183   91.876    0.456    0.227    8.484
  324.000  179.311   91.357    0.425    0.233    8.665
  324.250  176.501   93.209    0.417    0.226    9.018
  324.500  175.605   95.655    0.402    0.228    9.197
  324.750  175.759   96.915    0.401    0.248    9.221
  325.000  175.852   96.396    0.392    0.240    8.901
  325.250  175.975   95.284    0.386    0.231    8.759
  325.500  175.141   91.801    0.390    0.237    8.447
  325.750  175.265   90.689    0.402    0.242    8.163
  326.000  175.388   90.782    0.409    0.235    8.021
  326.250  175.543   90.837    0.413    0.227    8.041
  326.500  175.666   92.116    0.415    0.212    8.209
  326.750  175.759   92.764    0.415    0.206    8.543
  327.000  175.882   93.431    0.421    0.200    8.717
  327.250  176.005   93.505    0.426    0.209    9.412
  327.500  177.117   94.172    0.417    0.216    9.974
  327.750  178.229   96.618    0.419    0.211   10.570
  328.000  180.328   97.285    0.422    0.211   11.207
  328.250  182.459   91.448    0.422    0.196   11.441
  328.500  185.516   87.947    0.417    0.181   11.459
  328.750  186.628   82.685    0.409    0.167   10.863
  329.000  177.858   80.999    0.373    0.141   10.108
  329.250  174.028   82.870    0.332    0.089    9.573
  329.500  172.176   84.093    0.293    0.122    8.581
  329.750  171.311   85.945    0.331    0.163    8.276
  330.000  171.465   90.170    0.369    0.205    7.997
  330.250  171.589   92.059    0.400    0.238    8.005
  330.500  170.786   91.504    0.397    0.244    8.026
  330.750  170.816   89.799    0.390    0.248    8.043
  331.000  170.940   88.706    0.393    0.254    8.361
  331.250  171.094   88.761    0.404    0.270    9.202
  331.500  171.218   88.261    0.403    0.284    9.935
  331.750  171.341   88.335    0.398    0.277   11.557
  332.000  171.495   87.816    0.408    0.266   14.218
  332.250  171.557   86.112    0.408    0.261   18.507
  332.500  171.680   83.814    0.402    0.253   26.928
  332.750  170.847   80.924    0.389    0.240   25.044
  333.000  170.970   76.829    0.341    0.200   21.218
  333.250  170.136   70.381    0.306    0.165   15.776
  333.500  169.241   63.341    0.217   -0.053   13.611
  333.750  168.407   61.636    0.213   -0.026   10.505
  334.000  168.530   62.896    0.219   -0.007    7.386
  334.250  168.654   68.306    0.232    0.045    6.372
  334.500  168.746   73.123    0.258    0.123    5.299
  334.750  169.889   81.516    0.339    0.160    4.839
  335.000  172.946   86.352    0.371    0.187    4.757
  335.250  177.052   89.372    0.395    0.210    4.681
  335.500  179.121   93.615    0.429    0.202    5.152
  335.750  184.216   97.839    0.445    0.196    5.254
  336.000  188.292  102.675    0.465    0.206    5.895
  336.250  186.470  104.509    0.477    0.220    6.243
  336.500  184.587  101.637    0.480    0.233    6.741
  336.750  181.776   98.154    0.452    0.227    6.758
  337.000  180.912   96.430    0.448    0.215    6.521
  337.250  183.011   94.151    0.459    0.190    6.185
  337.500  185.111   91.854    0.466    0.189    5.968
  337.750  187.180   86.573    0.475    0.203    5.652
  338.000  193.294   79.533    0.494    0.215    5.162
  338.250  194.344   74.845    0.498    0.162    4.888
  338.500  187.550   74.326    0.405    0.107    4.551
  338.750  170.875   83.294    0.366    0.169    4.474
  339.000  177.947   90.501    0.466    0.204    4.400
  339.250  183.968   95.318    0.483    0.194    4.325
  339.500  189.032   98.950    0.497    0.185    4.339
  339.750  191.194   93.095    0.513    0.170    4.430
  340.000  191.286   97.912    0.499    0.169    4.518
  340.250  188.445  102.748    0.488    0.228    4.527
  340.500  179.644  102.822    0.488    0.198    4.622
  340.750  178.780   99.357    0.480    0.169    4.807
  341.000  178.903   98.838    0.460    0.170    5.193
  341.250  180.015  101.284    0.449    0.199    5.503
  341.500  181.126  103.137    0.459    0.202    5.834
  341.750  189.186  103.803    0.471    0.194    6.068
  342.000  190.297  103.859    0.476    0.194    6.192
  342.250  189.494  101.580    0.481    0.181    6.211
  342.500  189.556  100.468    0.483    0.182    6.218
  342.750  189.679  102.932    0.480    0.173    6.467
  343.000  182.886  104.155    0.469    0.204    6.606
  343.250  186.005  106.008    0.458    0.215    6.741
  343.500  189.092  106.675    0.461    0.225    6.633
  343.750  192.180  104.414    0.458    0.213    6.521
  344.000  192.304  102.691    0.450    0.206    6.064
  344.250  192.427  101.561    0.433    0.192    5.336
  344.500  193.570   99.263    0.406    0.162    4.871
  344.750  192.674   98.170    0.400    0.147    4.615
  345.000  193.816   98.837    0.434    0.185    4.371
  345.250  194.866  101.301    0.458    0.172    4.065
  345.500  196.966  101.375    0.456    0.196    3.382
  345.750  196.132  102.635    0.433    0.206    3.201
  346.000  192.272  102.098    0.425    0.214    2.868
  346.250  188.474  103.376    0.426    0.186    2.876
  346.500  195.514  100.467    0.433    0.212    2.990
  346.750  195.638   98.763    0.483    0.224    3.229
  347.000  194.773   99.430    0.498    0.221    3.552
  347.250  191.932  101.282    0.508    0.221    3.837
  347.500  186.157  102.542    0.518    0.228    4.221
  347.750  185.231  103.209    0.521    0.219    4.643
  348.000  185.447  101.523    0.513    0.207    5.301
  348.250  183.594  101.004    0.501    0.209    6.401
  348.500  186.620  100.467    0.491    0.206    6.783
  348.750  186.775   98.762    0.477    0.193    7.188
  349.000  185.910   97.058    0.482    0.176    7.911
  349.250  184.057   93.574    0.473    0.170    8.379
  349.500  183.192   86.552    0.438    0.163    9.758
  349.750  182.297   84.218    0.414    0.153   10.930
  350.000  180.505   65.894    0.397    0.206   13.957
  350.250  178.591   60.650    0.364    0.252   42.071
  350.500  168.894   58.353    0.304    0.337   36.998
  350.750  167.011   53.665    0.279    0.359   32.554
  351.000  167.072   47.236    0.262    0.370   32.621
  351.250  166.208   46.106    0.264    0.360   33.320
  351.500  166.362   43.808    0.241    0.313   32.738
  351.750  165.528   43.882    0.224    0.392   31.036
  352.000  165.652   45.772    0.233    0.385   28.879
  352.250  164.756   45.828    0.243    0.375   27.336
  352.500  164.941   45.883    0.250    0.369   23.608
  352.750  165.003   45.957    0.264    0.361   21.152
  353.000  165.188   44.846    0.276    0.353   20.022
  353.250  165.188   44.919    0.278    0.353   17.291
  353.500  168.368   46.809    0.280    0.354   15.484
  353.750  167.535   46.846    0.285    0.354   14.401
  354.000  167.627   46.328    0.287    0.350   13.652
  354.250  167.751   47.587    0.328    0.345   13.673
  354.500  167.874   50.626    0.341    0.344   13.701
  354.750  167.997   54.887    0.343    0.342   13.995
  355.000  168.121   56.740    0.348    0.348   14.557
  355.250  168.275   58.593    0.353    0.365   15.725
  355.500  168.337   61.038    0.362    0.298   17.306
  355.750  169.479   64.670    0.357    0.298   17.991
  356.000  169.603   65.337    0.354    0.292   17.695
  356.250  169.726   64.225    0.358    0.283   17.413
  356.500  169.819   61.927    0.356    0.278   17.117
  356.750  170.992   59.611    0.333    0.278   17.152
  357.000  171.085   59.685    0.326    0.293   17.179
  357.250  170.220   55.016    0.301    0.303   18.214
  357.500  169.417   55.109    0.298    0.287   19.292
  357.750  169.479   58.147    0.301    0.286   20.829
  358.000  168.645   61.779    0.300    0.303   22.911
  358.250  168.737   61.871    0.293    0.288   27.168
  358.500  167.903   60.167    0.280    0.280   35.346
  358.750  167.996   62.001    0.275    0.277   50.506
