~VERSION INFORMATION
 VERS.                 2.0:   CWLS LOG ASCII STANDARD -VERSION 2.0
 WRAP.                  NO:   ONE LINE PER DEPTH STEP
~WELL INFORMATION BLOCK
#MNEM.UNIT           DATA                    DESCRIPTION OF MNEMONIC
#---------    -------------------            -------------------------------
# Generated from Intellog Unique Number	CN_94_101/WELL/4995
WELL.         09-06-100-13W4                 : Well_name    - WELL
LOC .         AA/09-06-100-13W4/0            : Location     - LOCATION
UWI .         AA/09-06-100-13W400            : Uwi          - UNIQUE WELL ID
ENTR.         TIM                            : Entered      - ENTERED BY
SRVC.         WESTERN ATLAS                  : Scn          - SERVICE COMPANY
DATE.         08/28/92                       : Date         - LOG DATE
STRT.M        485                            : top_depth    - START DEPTH
STOP.M        555                            : bot_depth    - STOP DEPTH
STEP.M        0.25                           : increment    - STEP LENGTH
 NULL. -999.2500:NULL Value
~CURVE INFORMATION BLOCK
#MNEM UNIT       ERCB CURVE CODE    CURVE DESCRIPTION
#-----------   ------------------   ----------------------------------
DEPT.M        00 001 00 00         : DEPTH        - DEPTH
GR  .API      00 310 00 00         : GR           - GAMMA RAY
ILD .OHMM     00 120 00 00         : RESD         - DEEP RESISTIVITY (DIL)
NPHI.V/V      00 330 00 00         : PHIN         - NEUTRON POROSITY (SANDSTONE)
DPHI.V/V      00 890 00 00         : PHID         - DENSITY POROSITY (SANDSTONE)
~PARAMETER INFORMATION
#MNEM.UNIT           DATA             DESCRIPTION OF MNEMONIC
#---------         -----------     ------------------------------
GL  .M        784                  : gl           - GROUND LEVEL ELEVATION
EREF.M        787.8                : kb           - ELEVATION OF DEPTH REFERENCE
DATM.M        787.8                : datum        - DATUM ELEVATION
TDD .M        557                  : tdd          - TOTAL DEPTH DRILLER
RUN .         ONE                  : Run          - RUN NUMBER
ENG .         JO                   : Engineer     - RECORDING ENGINEER
WIT .         TIM                  : Witness      - WITNESSED BY
MUD .         GEL                  : Mud_type     - MUD TYPE
MATR.         SANDSTONE            : Logunit      - NEUTRON MATRIX
TMAX.C        27                   : BHT          - MAXIMUM RECORDED TEMPERATURE
BHTD.M        557                  : BHTDEP       - MAXIMUM RECORDED TEMPERATURE
RMT .C        19                   : MDTP         - TEMPERATURE OF MUD
MUDD.KG/M     1050                 : MWT          - MUD DENSITY
NEUT.         1                    : NEUTRON      - NEUTRON TYPE
RESI.         0                    : RESIST       - RESISTIVITY TYPE
RM  .OHMM     1.8                  : RM           - RESISTIVITY OF MUD
RMC .OHMM     1.55                 : RMC          - RESISTIVITY OF MUD CAKE
RMF .OHMM     1.55                 : RMF          - RESISTIVITY OF MUD FILTRATE
SUFT.C        4                    : SUFT         - SURFACE TEMPERATURE
~A  DEPTH       GR     RESD     PHIN     PHID
# ...
  528.500   73.210    9.555    0.402    0.351
  528.750   70.683    9.368    0.408    0.347
  529.000   75.662    9.001    0.413    0.327
  529.250   78.764    8.997    0.411    0.327
  529.500   78.740    8.821    0.409    0.316
  529.750   79.340    8.813    0.410    0.307
  530.000   80.566    8.980    0.403    0.315
  530.250   81.167    9.513    0.395    0.320
  530.500   78.015    9.883    0.380    0.313
  530.750   74.238   11.099    0.381    0.305
  531.000   70.455   10.666    0.387    0.284
  531.250   69.805   10.253    0.397    0.274
  531.500   71.656   10.248    0.411    0.287
  531.750   75.384    9.851    0.417    0.284
  532.000   76.610    9.655    0.418    0.278
  532.250   77.211    9.281    0.418    0.274
  532.500   78.431    8.580    0.420    0.272
  532.750   80.902    8.411    0.425    0.276
  533.000   81.515    7.624    0.427    0.278
  533.250   82.741    7.332    0.398    0.271
  533.500   83.967    6.912    0.373    0.255
  533.750   86.444    6.516    0.356    0.228
  534.000   88.921    6.141    0.353    0.215
  534.250   89.522    6.020    0.347    0.248
  534.500   89.497    6.017    0.350    0.259
  534.750   91.342    5.898    0.360    0.263
  535.000   93.188    5.894    0.373    0.258
  535.250   93.163    5.889    0.388    0.249
  535.500   93.138    5.999    0.401    0.240
  535.750   93.120    5.997    0.402    0.233
  536.000   93.095    5.993    0.401    0.226
  536.250   91.194    6.106    0.400    0.236
  536.500   88.668    6.101    0.400    0.252
  536.750   88.643    6.098    0.398    0.253
  537.000   89.250    6.095    0.394    0.252
  537.250   89.850    6.090    0.389    0.246
  537.500   89.826    6.085    0.387    0.243
  537.750   87.925    6.083    0.385    0.238
  538.000   86.018    6.078    0.384    0.235
  538.250   86.618    6.193    0.381    0.230
  538.500   89.083    6.311    0.377    0.236
  538.750   89.696    6.556    0.372    0.246
  539.000   92.792    6.551    0.375    0.246
  539.250   93.393    6.676    0.376    0.246
  539.500   90.235    6.670    0.372    0.253
  539.750   88.972    6.667    0.371    0.273
  540.000   87.696    6.661    0.373    0.275
  540.250   91.418    6.658    0.376    0.279
  540.500   91.399    6.654    0.376    0.283
  540.750   91.362    6.649    0.375    0.285
  541.000   91.344    6.644    0.379    0.283
  541.250   91.319    6.638    0.383    0.275
  541.500   91.920    6.636    0.381    0.263
  541.750   91.901    6.630    0.378    0.252
  542.000   91.864    6.627    0.378    0.250
  542.250   92.477    6.623    0.382    0.252
  542.500   94.329    6.618    0.385    0.257
  542.750   94.304    6.744    0.392    0.262
  543.000   91.146    6.869    0.393    0.267
  543.250   87.994    6.867    0.389    0.270
  543.500   86.094    6.862    0.384    0.271
  543.750   86.688    6.725    0.384    0.270
  544.000   87.914    6.463    0.387    0.261
  544.250   91.016    6.336    0.392    0.253
  544.500   90.360    5.972    0.395    0.246
  544.750   89.716    5.855    0.388    0.256
  545.000   89.066    5.739    0.385    0.269
  545.250   90.912    5.410    0.385    0.274
  545.500   93.395    5.201    0.387    0.281
  545.750   91.500    4.999    0.386    0.293
  546.000   88.974    4.806    0.379    0.270
  546.250   85.196    4.530    0.366    0.254
  546.500   82.670    4.188    0.359    0.256
  546.750   83.271    3.949    0.374    0.258
  547.000   83.246    3.796    0.385    0.256
  547.250   85.091    3.375    0.387    0.255
  547.500   87.575    3.183    0.383    0.261
  547.750   86.924    3.060    0.377    0.260
  548.000   82.516    2.829    0.373    0.258
  548.250   79.370    2.667    0.369    0.283
  548.500   74.336    2.514    0.361    0.311
  548.750   70.559    2.416    0.362    0.318
  549.000   71.159    2.368    0.366    0.320
  549.250   68.633    2.660    0.368    0.314
  549.500   62.980    2.929    0.370    0.309
  549.750   58.577    2.927    0.368    0.297
  550.000   57.295    2.925    0.365    0.275
  550.250   56.020    2.812    0.364    0.267
  550.500   55.995    2.755    0.361    0.270
  550.750   55.345    2.754    0.361    0.272
  551.000   54.069    2.806    0.361    0.272
  551.250   55.296    2.805    0.363    0.272
  551.500   55.277    2.803    0.366    0.274
  551.750   55.246    2.747    0.367    0.281
  552.000   54.596    2.745    0.365    0.288
  552.250   54.571    2.743    0.360    0.293
  552.500   54.541    2.689    0.359    0.288
  552.750   54.522    2.635    0.361    0.278
  553.000   55.742    2.633    0.361    0.276
  553.250   56.337    2.581    0.357    0.276
  553.500   55.699    2.530    0.356    0.272
  553.750   55.049    2.528    0.356    0.271
  554.000   53.767    2.526    0.355    0.274
  554.250   53.748    2.524    0.355    0.271
  554.500   53.086    2.523    0.355    0.264
  554.750   53.074    2.473    0.355    0.264
  555.000   53.043    2.471    0.355    0.263
