~VERSION INFORMATION
 VERS.                 2.0:   CWLS LOG ASCII STANDARD -VERSION 2.0
 WRAP.                  NO:   ONE LINE PER DEPTH STEP
~WELL INFORMATION BLOCK
#MNEM.UNIT           DATA                    DESCRIPTION OF MNEMONIC
#---------    -------------------            -------------------------------
# Generated from Intellog Unique Number	CN_94_101/WELL/3668
WELL.         03-28-096-16W4                 : Well_name    - WELL
LOC .         AA/03-28-096-16W4/0            : Location     - LOCATION
UWI .         AA/03-28-096-16W400            : Uwi          - UNIQUE WELL ID
ENTR.         J                              : Entered      - ENTERED BY
SRVC.         SCHLUMBERGER                   : Scn          - SERVICE COMPANY
DATE.         08/05/92                       : Date         - LOG DATE
STRT.M        200                            : top_depth    - START DEPTH
STOP.M        410                            : bot_depth    - STOP DEPTH
STEP.M        0.25                           : increment    - STEP LENGTH
 NULL. -999.2500:NULL Value
~CURVE INFORMATION BLOCK
#MNEM UNIT       ERCB CURVE CODE    CURVE DESCRIPTION
#-----------   ------------------   ----------------------------------
DEPT.M        00 001 00 00         : DEPTH        - DEPTH
GR  .API      00 310 00 00         : GR           - GAMMA RAY
NPHI.V/V      00 330 00 00         : PHIN         - NEUTRON POROSITY (SANDSTONE)
DPHI.V/V      00 890 00 00         : PHID         - DENSITY POROSITY (SANDSTONE)
ILD .OHMM     00 120 00 00         : RESD         - DEEP RESISTIVITY (DIL)
~PARAMETER INFORMATION
#MNEM.UNIT           DATA             DESCRIPTION OF MNEMONIC
#---------         -----------     ------------------------------
GL  .M        655.42               : gl           - GROUND LEVEL ELEVATION
EREF.M        658.17               : kb           - ELEVATION OF DEPTH REFERENCE
DATM.M        658.17               : datum        - DATUM ELEVATION
TDD .M        416.5                : tdd          - TOTAL DEPTH DRILLER
RUN .         ONE                  : Run          - RUN NUMBER
ENG .         JO                   : Engineer     - RECORDING ENGINEER
WIT .         TIM                  : Witness      - WITNESSED BY
MUD .         GEL                  : Mud_type     - MUD TYPE
MATR.         SANDSTONE            : Logunit      - NEUTRON MATRIX
TMAX.C        41.5                 : BHT          - MAXIMUM RECORDED TEMPERATURE
BHTD.M        416                  : BHTDEP       - MAXIMUM RECORDED TEMPERATURE
RMT .C        14                   : MDTP         - TEMPERATURE OF MUD
MUDD.KG/M     1130                 : MWT          - MUD DENSITY
NEUT.         1                    : NEUTRON      - NEUTRON TYPE
RESI.         0                    : RESIST       - RESISTIVITY TYPE
RM  .OHMM     0.523                : RM           - RESISTIVITY OF MUD
RMC .OHMM     0.523                : RMC          - RESISTIVITY OF MUD CAKE
RMF .OHMM     0.723                : RMF          - RESISTIVITY OF MUD FILTRATE
SUFT.C        4                    : SUFT         - SURFACE TEMPERATURE
~A  DEPTH       GR     PHIN     PHID     RESD
# ...
  287.000   60.805    0.435    0.286    9.644
  287.250   62.002    0.431    0.266    9.638
  287.500   65.001    0.427    0.248    9.447
  287.750   71.001    0.441    0.249    8.560
  288.000   75.801    0.441    0.265    7.606
  288.250   81.201    0.435    0.238    6.892
  288.500   85.401    0.449    0.261    5.887
  288.750   90.200    0.470    0.290    5.335
  289.000   92.598    0.480    0.300    5.128
  289.250   92.595    0.480    0.289    4.928
  289.500   91.992    0.485    0.294    4.736
  289.750   91.988    0.490    0.296    4.641
  290.000   92.587    0.495    0.290    4.639
  290.250   93.184    0.502    0.271    4.636
  290.500   93.181    0.509    0.276    4.725
  290.750   93.778    0.517    0.277    4.912
  291.000   94.375    0.523    0.284    5.105
  291.250   94.974    0.518    0.285    5.103
  291.500   94.970    0.506    0.279    5.200
  291.750   94.967    0.498    0.269    5.198
  292.000   93.763    0.502    0.256    5.195
  292.250   88.959    0.511    0.232    5.192
  292.500   79.951    0.525    0.198    5.191
  292.750   72.744    0.446    0.169    5.395
  293.000   70.339    0.416    0.150    5.719
  293.250   79.942    0.434    0.129    5.945
  293.500   89.544    0.483    0.168    6.554
  293.750   90.141    0.503    0.269    7.085
  294.000   87.137    0.507    0.279    7.079
  294.250   86.533    0.474    0.275    7.077
  294.500   87.129    0.454    0.271    7.073
  294.750   87.126    0.444    0.268    6.796
  295.000   85.924    0.445    0.258    6.793
  295.250   82.319    0.440    0.249    6.657
  295.500   79.914    0.432    0.234    6.653
  295.750   79.912    0.419    0.215    6.651
  296.000   80.508    0.414    0.226    6.779
  296.250   81.106    0.439    0.255    6.908
  296.500   81.703    0.446    0.263    6.906
  296.750   81.701    0.439    0.259    7.039
  297.000   80.496    0.432    0.259    7.036
  297.250   79.293    0.428    0.264    7.032
  297.500   78.089    0.424    0.272    6.891
  297.750   77.487    0.424    0.279    6.622
  298.000   76.283    0.427    0.287    6.365
  298.250   76.880    0.431    0.294    5.766
  298.500   78.078    0.434    0.304    5.543
  298.750   80.476    0.438    0.316    5.327
  299.000   85.276    0.444    0.318    5.430
  299.250   87.073    0.476    0.297    5.643
  299.500   86.470    0.489    0.291    5.866
  299.750   83.466    0.506    0.297    6.467
  300.000   80.461    0.506    0.303    6.991
  300.250   77.457    0.492    0.308    7.410
  300.500   72.651    0.482    0.313    7.855
  300.750   69.647    0.476    0.311    8.165
  301.000   70.843    0.459    0.297    8.655
  301.250   73.843    0.436    0.276    8.822
  301.500   76.841    0.425    0.252    8.818
  301.750   79.840    0.413    0.220    7.988
  302.000   82.839    0.404    0.240    7.529
  302.250   86.438    0.404    0.264    6.957
  302.500   88.837    0.440    0.276    6.428
  302.750   88.834    0.459    0.282    6.178
  303.000   88.231    0.476    0.287    5.937
  303.250   87.025    0.489    0.290    5.706
  303.500   86.424    0.499    0.292    5.591
  303.750   87.020    0.500    0.294    5.481
  304.000   88.818    0.505    0.295    5.477
  304.250   90.616    0.510    0.295    5.582
  304.500   92.415    0.516    0.295    5.692
  304.750   93.613    0.512    0.291    5.800
  305.000   94.210    0.507    0.287    5.797
  305.250   94.207    0.500    0.279    5.795
  305.500   93.002    0.493    0.271    5.792
  305.750   93.000    0.485    0.262    5.676
  306.000   92.396    0.472    0.255    5.563
  306.250   92.394    0.455    0.255    5.559
  306.500   92.991    0.443    0.257    5.557
  306.750   94.189    0.431    0.261    5.555
  307.000   95.386    0.438    0.265    5.337
  307.250   96.585    0.449    0.272    5.130
  307.500   98.383    0.463    0.276    4.647
  307.750  100.782    0.479    0.273    4.467
  308.000  103.180    0.491    0.266    4.378
  308.250  105.578    0.494    0.260    4.374
  308.500  102.573    0.503    0.255    4.460
  308.750   99.569    0.512    0.241    4.821
  309.000   95.963    0.521    0.211    5.420
  309.250   94.160    0.520    0.177    5.745
  309.500   93.557    0.510    0.147    6.090
  309.750   97.155    0.483    0.137    6.331
  310.000  100.153    0.473    0.168    6.452
  310.250  101.352    0.503    0.176    6.324
  310.500  103.749    0.510    0.202    6.198
  310.750  104.348    0.512    0.208    5.956
  311.000  104.345    0.511    0.235    6.191
  311.250  102.541    0.511    0.246    6.692
  311.500  101.338    0.511    0.251    7.525
  311.750  100.734    0.499    0.255    8.296
  312.000  100.130    0.452    0.251    8.794
  312.250   98.927    0.427    0.244    8.962
  312.500   98.323    0.420    0.239    9.135
  312.750   97.721    0.404    0.238    9.131
  313.000   97.118    0.391    0.239    9.126
  313.250   95.314    0.397    0.240    8.944
  313.500   93.509    0.402    0.241    8.595
  313.750   92.906    0.414    0.240    8.424
  314.000   92.902    0.424    0.239    8.256
  314.250   92.300    0.432    0.238    8.251
  314.500   92.296    0.442    0.240    8.247
  314.750   91.694    0.452    0.245    8.405
  315.000   91.089    0.445    0.250    8.568
  315.250   90.487    0.433    0.255    8.734
  315.500   89.883    0.419    0.267    9.079
  315.750   89.880    0.403    0.274    9.074
  316.000   89.877    0.389    0.269    9.069
  316.250   89.874    0.385    0.262    9.063
  316.500   90.472    0.380    0.256    8.882
  316.750   90.469    0.375    0.249    8.876
  317.000   90.465    0.384    0.243    8.700
  317.250   88.661    0.394    0.234    8.527
  317.500   86.257    0.399    0.224    8.523
  317.750   86.254    0.396    0.214    8.518
  318.000   86.852    0.381    0.204    8.682
  318.250   89.251    0.388    0.193    8.847
  318.500   90.448    0.405    0.227    8.844
  318.750   91.646    0.407    0.258    9.015
  319.000   91.643    0.402    0.271    9.008
  319.250   91.640    0.408    0.262    9.006
  319.500   92.237    0.421    0.265    9.001
  319.750   93.434    0.420    0.266    8.996
  320.000   94.032    0.412    0.261    9.351
  320.250   94.029    0.402    0.252    9.530
  320.500   94.027    0.397    0.248    9.714
  320.750   94.624    0.398    0.241    9.334
  321.000   93.420    0.403    0.240    8.973
  321.250   91.617    0.403    0.242    8.453
  321.500   92.214    0.404    0.247    8.287
  321.750   94.012    0.410    0.256    8.281
  322.000   95.810    0.421    0.259    8.278
  322.250   98.208    0.430    0.261    8.438
  322.500   99.405    0.441    0.264    8.600
  322.750   99.403    0.453    0.265    8.596
  323.000   96.998    0.460    0.264    8.759
  323.250   93.993    0.467    0.260    8.756
  323.500   92.190    0.471    0.252    8.582
  323.750   89.185    0.468    0.245    8.410
  324.000   87.382    0.462    0.230    7.619
  324.250   84.976    0.326    0.206    7.324
  324.500   86.775    0.351    0.167    6.507
  324.750   89.774    0.381    0.256    5.781
  325.000   92.172    0.415    0.278    5.239
  325.250   92.170    0.471    0.285    4.564
  325.500   90.965    0.488    0.279    4.056
  325.750   90.962    0.480    0.268    3.465
  326.000   90.959    0.448    0.258    2.961
  326.250   90.957    0.493    0.259    2.902
  326.500   90.954    0.525    0.272    3.199
  326.750   92.152    0.526    0.280    3.967
  327.000   93.350    0.520    0.280    5.116
  327.250   92.746    0.510    0.274    5.866
  327.500   92.743    0.499    0.260    6.725
  327.750   92.139    0.482    0.250    7.709
  328.000   91.537    0.463    0.241    8.499
  328.250   91.532    0.443    0.234    9.008
  328.500   92.130    0.437    0.223    8.831
  328.750   92.128    0.428    0.205    8.321
  329.000   94.525    0.422    0.186    7.689
  329.250   95.123    0.414    0.160    7.391
  329.500   96.322    0.422    0.165    7.387
  329.750   98.720    0.453    0.209    7.828
  330.000   99.318    0.469    0.228    8.138
  330.250   98.113    0.464    0.239    8.628
