~VERSION INFORMATION
 VERS.                 2.0:   CWLS LOG ASCII STANDARD -VERSION 2.0
 WRAP.                  NO:   ONE LINE PER DEPTH STEP
~WELL INFORMATION BLOCK
#MNEM.UNIT           DATA                    DESCRIPTION OF MNEMONIC
#---------    -------------------            -------------------------------
# Generated from Intellog Unique Number	CN_91_93/WELL/3494
WELL.         07-35-093-12W4                 : Well_name    - WELL
LOC .         AA/07-35-093-12W4/0            : Location     - LOCATION
UWI .         AA/07-35-093-12W400            : Uwi          - UNIQUE WELL ID
ENTR.         JOETTE                         : Entered      - ENTERED BY
SRVC.         SCHLUMBERGER                   : Scn          - SERVICE COMPANY
DATE.         03/12/92                       : Date         - LOG DATE
STRT.M        24                             : top_depth    - START DEPTH
STOP.M        110                            : bot_depth    - STOP DEPTH
STEP.M        0.25                           : increment    - STEP LENGTH
 NULL. -999.2500:NULL Value
~CURVE INFORMATION BLOCK
#MNEM UNIT       ERCB CURVE CODE    CURVE DESCRIPTION
#-----------   ------------------   ----------------------------------
DEPT.M        00 001 00 00         : DEPTH        - DEPTH
GR  .API      00 310 00 00         : GR           - GAMMA RAY
NPHI.V/V      00 330 00 00         : PHIN         - NEUTRON POROSITY (SANDSTONE)
DPHI.V/V      00 890 00 00         : PHID         - DENSITY POROSITY (SANDSTONE)
ILD .OHMM     00 120 00 00         : RESD         - DEEP RESISTIVITY (DIL)
~PARAMETER INFORMATION
#MNEM.UNIT           DATA             DESCRIPTION OF MNEMONIC
#---------         -----------     ------------------------------
GL  .M        337.8                : gl           - GROUND LEVEL ELEVATION
EREF.M        337.8                : kb           - ELEVATION OF DEPTH REFERENCE
DATM.M        337.8                : datum        - DATUM ELEVATION
TDD .M        114.9                : tdd          - TOTAL DEPTH DRILLER
RUN .         ONE                  : Run          - RUN NUMBER
ENG .         BILL                 : Engineer     - RECORDING ENGINEER
WIT .         JIM                  : Witness      - WITNESSED BY
MUD .         GEL                  : Mud_type     - MUD TYPE
MATR.         SANDSTONE            : Logunit      - NEUTRON MATRIX
TMAX.C        6.5                  : BHT          - MAXIMUM RECORDED TEMPERATURE
BHTD.M        114.9                : BHTDEP       - MAXIMUM RECORDED TEMPERATURE
RMT .C        2                    : MDTP         - TEMPERATURE OF MUD
MUDD.KG/M     1.02                 : MWT          - MUD DENSITY
NEUT.         1                    : NEUTRON      - NEUTRON TYPE
RESI.         0                    : RESIST       - RESISTIVITY TYPE
RM  .OHMM     5.68                 : RM           - RESISTIVITY OF MUD
RMC .OHMM     5.68                 : RMC          - RESISTIVITY OF MUD CAKE
RMF .OHMM     5.68                 : RMF          - RESISTIVITY OF MUD FILTRATE
SUFT.C        4                    : SUFT         - SURFACE TEMPERATURE
~A  DEPTH       GR     PHIN     PHID     RESD
# ...
   67.500   48.160    0.414    0.249    8.710
   67.750   46.653    0.391    0.253    7.269
   68.000   39.750    0.408    0.262    7.899
   68.250   38.542    0.418    0.251    9.595
   68.500   49.023    0.421    0.246    9.266
   68.750   52.310    0.432    0.259    7.521
   69.000   65.786    0.396    0.273    7.113
   69.250   81.061    0.382    0.243   14.251
   69.500   84.349    0.379    0.200    8.759
   69.750   60.965    0.378    0.207   15.060
   70.000   66.050    0.339    0.100   10.937
   70.250   60.646    0.395    0.197    6.864
   70.500   51.047    0.392    0.259   39.011
   70.750   41.447    0.375    0.275   41.523
   71.000   25.257    0.361    0.264  149.163
   71.250   52.219    0.369    0.248  128.885
   71.500   73.786    0.430    0.200   22.356
   71.750   69.283    0.462    0.214    9.775
   72.000   52.790    0.390    0.256   29.308
   72.250   61.173    0.399    0.256   28.106
   72.500   66.258    0.351    0.252  157.537
   72.750   69.246    0.314    0.216   42.342
   73.000   80.325    0.378    0.203   16.564
   73.250   61.436    0.428    0.225    6.662
   73.500   62.326    0.403    0.250   28.279
   73.750   55.724    0.394    0.261   32.492
   74.000   72.497    0.308    0.233   24.945
   74.250   88.670    0.339    0.191    8.145
   74.500   73.676    0.426    0.193   10.102
   74.750   61.681    0.416    0.246   19.278
   75.000   59.274    0.382    0.257  113.443
   75.250   56.567    0.339    0.264   61.955
   75.500   51.464    0.368    0.264   16.308
   75.750   55.951    0.358    0.235   27.272
   76.000   68.828    0.393    0.210   10.022
   76.250   63.124    0.401    0.247    9.611
   76.500   74.803    0.402    0.251   34.286
   76.750   90.976    0.398    0.217   26.692
   77.000   88.270    0.407    0.208    5.625
   77.250   75.674    0.388    0.224    9.212
   77.500   75.067    0.372    0.227   35.475
   77.750   81.051    0.337    0.232   39.367
   78.000  109.809    0.319    0.205    6.688
   78.250   89.423    0.382    0.205    7.020
   78.500   78.326    0.356    0.184    8.351
   78.750   91.803    0.399    0.173    7.067
   79.000   92.093    0.432    0.168    6.455
   79.250   95.081    0.452    0.188    5.425
   79.500   87.879    0.472    0.213    9.861
   79.750   53.707    0.450    0.252   13.019
   80.000   59.093    0.396    0.252  106.952
   80.250   82.158    0.376    0.225   23.174
   80.500   86.944    0.363    0.221   11.724
   80.750   77.045    0.357    0.230   13.011
   81.000   59.055    0.395    0.246   14.239
   81.250   55.151    0.390    0.252   52.227
   81.500   41.657    0.373    0.251   40.942
   81.750   50.937    0.374    0.237   44.188
   82.000   66.811    0.390    0.205   20.710
   82.250   60.209    0.399    0.232    9.506
   82.500   80.878    0.373    0.228   17.281
   82.750   59.891    0.451    0.239    8.386
   83.000   53.289    0.407    0.270   26.581
   83.250   61.670    0.380    0.261   55.141
   83.500   73.349    0.406    0.240   47.314
   83.750   58.656    0.396    0.245   16.446
   84.000   56.549    0.431    0.236   18.506
   84.250   42.155    0.386    0.252   30.521
   84.500   36.153    0.418    0.266   26.555
   84.750   29.849    0.408    0.262   90.864
   85.000   29.542    0.457    0.264   65.530
   85.250   30.731    0.365    0.266  228.948
   85.500   37.315    0.375    0.261  245.390
   85.750   42.999    0.398    0.260   90.804
   86.000   42.691    0.427    0.264   80.670
   86.250   38.187    0.412    0.264   43.751
   86.500   49.266    0.390    0.276  108.735
   86.750   45.660    0.390    0.252   16.528
   87.000   33.664    0.437    0.263  170.781
   87.250   41.747    0.438    0.268   24.555
   87.500   31.848    0.429    0.278   48.519
   87.750   34.236    0.369    0.260   16.983
   88.000   50.709    0.455    0.255   72.084
   88.250   28.224    0.405    0.286  190.715
   88.500   37.206    0.385    0.280  226.875
   88.750   46.186    0.385    0.271  194.671
   89.000   50.972    0.399    0.271   46.168
   89.250   47.966    0.457    0.264   42.467
   89.500   37.469    0.391    0.269   41.010
   89.750   47.349    0.355    0.270  142.289
   90.000   85.399    0.325    0.214    8.701
   90.250   83.592    0.436    0.217    7.518
   90.500   60.508    0.388    0.236   19.345
   90.750   41.618    0.411    0.251   33.729
   91.000   28.724    0.473    0.272   41.542
   91.250   32.011    0.397    0.274  224.890
   91.500   41.890    0.422    0.273   65.248
   91.750   39.485    0.420    0.274   69.932
   92.000   32.583    0.398    0.280   99.670
   92.250   28.677    0.390    0.281  103.178
   92.500   30.166    0.359    0.287  215.525
   92.750   32.855    0.374    0.292  201.018
   93.000   39.140    0.406    0.283   60.805
   93.250   33.736    0.444    0.282   76.470
   93.500   24.136    0.402    0.284  156.440
   93.750   22.629    0.388    0.294  186.101
   94.000   26.816    0.424    0.283  174.783
   94.250   35.198    0.416    0.287  177.200
   94.500   39.384    0.411    0.280   88.415
   94.750   40.573    0.403    0.284   31.163
   95.000   43.261    0.439    0.279   19.154
   95.250   36.060    0.407    0.279  196.546
   95.500   37.250    0.391    0.283  294.087
   95.750   38.140    0.430    0.277  206.279
   96.000   42.326    0.413    0.291  238.657
   96.250   41.418    0.414    0.288  285.877
   96.500   42.608    0.381    0.291  274.158
   96.750   53.986    0.363    0.259   53.895
   97.000   62.368    0.365    0.219   12.007
   97.250   75.845    0.398    0.209    9.282
   97.500   71.640    0.462    0.200   12.256
   97.750   59.044    0.471    0.242   16.988
   98.000   43.452    0.456    0.292   72.106
   98.250   31.156    0.405    0.298   95.203
   98.500   29.349    0.407    0.297  132.885
   98.750   34.135    0.401    0.277   60.155
   99.000   31.429    0.388    0.285  233.267
   99.250   34.416    0.347    0.265   85.126
   99.500   61.378    0.388    0.229   14.262
   99.750   66.763    0.398    0.242   28.974
  100.000   59.862    0.380    0.248   20.751
  100.250   69.742    0.392    0.215   12.149
  100.500   70.332    0.415    0.203   12.489
  100.750   69.124    0.440    0.233   13.668
  101.000   73.610    0.423    0.236   15.273
  101.250   61.015    0.409    0.231   13.475
  101.500   48.719    0.403    0.275   17.915
  101.750   51.706    0.424    0.279   39.288
  102.000   58.890    0.405    0.270  150.246
  102.250   62.776    0.429    0.254   20.012
  102.500   57.972    0.426    0.256   28.522
  102.750   73.246    0.460    0.252   29.732
  103.000   66.645    0.405    0.226   15.466
  103.250   78.922    0.369    0.205    9.055
  103.500   76.216    0.471    0.224    8.387
  103.750   54.330    0.442    0.261   31.194
  104.000   25.851    0.401    0.293  182.288
  104.250   35.732    0.435    0.282   54.001
  104.500   36.323    0.425    0.278   47.643
  104.750   30.020    0.365    0.279   76.951
  105.000   53.386    0.384    0.250   29.687
  105.250   60.568    0.355    0.210   16.101
  105.500   49.772    0.310    0.171    5.715
  105.750   47.066    0.343    0.176    5.834
  106.000   34.170    0.411    0.194    7.649
  106.250   30.864    0.333    0.268   15.649
  106.500   35.051    0.322    0.199    8.312
  106.750   50.326    0.307    0.140    6.293
  107.000   55.711    0.385    0.188    5.994
  107.250   55.102    0.406    0.268    5.828
  107.500   46.102    0.527    0.266    5.707
  107.750   42.497    0.503    0.244    7.328
  108.000   52.678    0.400    0.221    5.948
  108.250   67.952    0.397    0.157    5.139
  108.500   35.877    0.389    0.257    5.470
  108.750   31.373    0.346    0.246    5.987
  109.000   33.761    0.300    0.188    3.944
  109.250   28.658    0.219    0.031    3.456
  109.500   31.645    0.085   -0.038   14.668
  109.750   22.046    0.082   -0.054   41.894
  110.000   20.538    0.093   -0.062   45.847
