~VERSION INFORMATION
 VERS.                 2.0:   CWLS LOG ASCII STANDARD -VERSION 2.0
 WRAP.                  NO:   ONE LINE PER DEPTH STEP
~WELL INFORMATION BLOCK
#MNEM.UNIT           DATA                    DESCRIPTION OF MNEMONIC
#---------    -------------------            -------------------------------
# Generated from Intellog Unique Number	CN_91_93/WELL/3656
WELL.         03-36-093-09W4                 : Well_name    - WELL
LOC .         AA/03-36-093-09W4/0            : Location     - LOCATION
UWI .         AA/03-36-093-09W400            : Uwi          - UNIQUE WELL ID
ENTR.         JOETTE                         : Entered      - ENTERED BY
SRVC.         SCHLUMBERGER                   : Scn          - SERVICE COMPANY
DATE.         03/20/92                       : Date         - LOG DATE
STRT.M        0                              : top_depth    - START DEPTH
STOP.M        150                            : bot_depth    - STOP DEPTH
STEP.M        0.25                           : increment    - STEP LENGTH
 NULL. -999.2500:NULL Value
~CURVE INFORMATION BLOCK
#MNEM UNIT       ERCB CURVE CODE    CURVE DESCRIPTION
#-----------   ------------------   ----------------------------------
DEPT.M        00 001 00 00         : DEPTH        - DEPTH
CALI.MM       00 280 01 00         : CAL          - CALIPER
GR  .API      00 310 00 00         : GR           - GAMMA RAY
ILD .OHMM     00 120 00 00         : RESD         - DEEP RESISTIVITY (DIL)
NPHI.V/V      00 330 00 00         : PHIN         - NEUTRON POROSITY (SANDSTONE)
DPHI.V/V      00 890 00 00         : PHID         - DENSITY POROSITY (SANDSTONE)
~PARAMETER INFORMATION
#MNEM.UNIT           DATA             DESCRIPTION OF MNEMONIC
#---------         -----------     ------------------------------
GL  .M        355.36               : gl           - GROUND LEVEL ELEVATION
EREF.M        355.36               : kb           - ELEVATION OF DEPTH REFERENCE
DATM.M        355.36               : datum        - DATUM ELEVATION
TDD .M        152.7                : tdd          - TOTAL DEPTH DRILLER
RUN .         ONE                  : Run          - RUN NUMBER
ENG .         JO                   : Engineer     - RECORDING ENGINEER
WIT .         TIM                  : Witness      - WITNESSED BY
MUD .         GEL                  : Mud_type     - MUD TYPE
MATR.         SANDSTONE            : Logunit      - NEUTRON MATRIX
TMAX.C        7                    : BHT          - MAXIMUM RECORDED TEMPERATURE
BHTD.M        152.7                : BHTDEP       - MAXIMUM RECORDED TEMPERATURE
RMT .C        4.3                  : MDTP         - TEMPERATURE OF MUD
MUDD.KG/M     1000                 : MWT          - MUD DENSITY
NEUT.         1                    : NEUTRON      - NEUTRON TYPE
RESI.         0                    : RESIST       - RESISTIVITY TYPE
RM  .OHMM     25.2                 : RM           - RESISTIVITY OF MUD
RMC .OHMM     25.2                 : RMC          - RESISTIVITY OF MUD CAKE
RMF .OHMM     25.2                 : RMF          - RESISTIVITY OF MUD FILTRATE
SUFT.C        4                    : SUFT         - SURFACE TEMPERATURE
~A  DEPTH      CAL       GR     RESD     PHIN     PHID
# ...
  109.500  109.037   55.297   84.423    0.376    0.256
  109.750  107.856   36.290  116.190    0.378    0.280
  110.000  106.673   27.982   96.166    0.357    0.300
  110.250  104.304   38.692   75.201    0.355    0.305
  110.500  104.312   45.836   85.735    0.368    0.305
  110.750  111.848   52.385   82.474    0.377    0.323
  111.000  116.215   41.702   57.609    0.412    0.328
  111.250  115.430   39.928   59.771    0.371    0.321
  111.500   98.005   15.573  105.128    0.406    0.320
  111.750   99.597    9.050  124.459    0.434    0.325
  112.000  100.402   11.437  448.167    0.414    0.332
  112.250  100.408   19.178  231.441    0.359    0.314
  112.500  100.418   32.860  177.605    0.368    0.287
  112.750  100.426   35.249   71.784    0.350    0.291
  113.000  100.038   41.799   71.723    0.340    0.292
  113.250  100.046   35.273  133.517    0.361    0.306
  113.500   99.656   22.804   75.766    0.374    0.316
  113.750   99.668   19.250   45.505    0.353    0.326
  114.000   99.674   16.888  143.573    0.396    0.328
  114.250   99.682   19.274  247.860    0.406    0.330
  114.500   99.690   31.173  389.326    0.373    0.332
  114.750   99.696   43.669  388.909    0.368    0.308
  115.000   99.708   35.360  256.611    0.373    0.294
  115.250   99.320   24.080  169.391    0.392    0.307
  115.500   99.326   15.771  103.673    0.413    0.317
  115.750   99.338   31.830  333.322    0.381    0.311
  116.000   99.344   40.757  232.780    0.362    0.290
  116.250   98.957   53.845  132.121    0.378    0.296
  116.500   98.961   41.970   59.795    0.426    0.320
  116.750   98.577   31.284  174.958    0.405    0.336
  117.000   98.583   32.485  385.917    0.434    0.315
  117.250   98.593   33.685  511.589    0.393    0.307
  117.500   98.599   27.754  231.535    0.390    0.316
  117.750   98.209   25.389  149.951    0.408    0.317
  118.000   98.221   27.781  141.585    0.435    0.326
  118.250   98.225   24.822  230.939    0.424    0.333
  118.500   98.235   12.947  239.606    0.416    0.329
  118.750   98.243   12.365  213.799    0.393    0.330
  119.000   98.649   16.537  323.261    0.418    0.330
  119.250   99.054   13.577  293.995    0.410    0.325
  119.500   99.458   17.155  272.409    0.425    0.325
  119.750   99.864   17.762  282.633    0.397    0.326
  120.000   99.870   23.717  238.376    0.368    0.316
  120.250   99.878   30.267  287.579    0.354    0.309
  120.500   99.886   22.552  172.684    0.349    0.296
  120.750   99.892   23.159  101.778    0.370    0.289
  121.000   99.504   22.577  120.492    0.377    0.281
  121.250   97.531   20.211  120.363    0.366    0.268
  121.500   95.558   21.418  107.399    0.396    0.269
  121.750   94.773   21.430  117.938    0.398    0.280
  122.000   95.578   17.282  137.017    0.377    0.296
  122.250   95.980   13.133  126.957    0.371    0.324
  122.500   96.386   17.309  307.649    0.358    0.309
  122.750   96.788   17.909  307.320    0.340    0.296
  123.000   97.197   19.707  210.568    0.348    0.305
  123.250   97.599   17.339  158.603    0.364    0.311
  123.500   97.605   14.379  170.878    0.357    0.305
  123.750   97.617   19.149  161.310    0.376    0.287
  124.000   97.623   17.969  191.012    0.380    0.282
  124.250   97.629   24.519  194.438    0.363    0.280
  124.500   97.639   18.591  135.818    0.354    0.281
  124.750   97.645   18.603  160.722    0.346    0.288
  125.000   97.657   18.615  176.532    0.347    0.282
  125.250   97.667   30.513  125.629    0.347    0.268
  125.500   97.673   20.422  127.883    0.356    0.284
  125.750   97.683   22.811  135.178    0.344    0.289
  126.000   97.687   21.040  189.665    0.348    0.286
  126.250   97.697   21.055  182.451    0.354    0.287
  126.500   97.703   19.281  178.929    0.361    0.289
  126.750   97.713   18.105  185.644    0.366    0.294
  127.000   97.327   13.365  192.612    0.364    0.299
  127.250   97.331   16.349  207.474    0.368    0.303
  127.500   97.341   19.332  227.833    0.352    0.271
  127.750   96.951   19.344  219.215    0.339    0.252
  128.000   96.961   14.605  139.322    0.365    0.267
  128.250   96.575   12.831   73.317    0.377    0.282
  128.500   96.583   15.814  139.053    0.386    0.301
  128.750   96.589   17.015  174.200    0.384    0.305
  129.000   97.790   17.027  253.806    0.379    0.297
  129.250   98.986   15.851  273.448    0.389    0.287
  129.500   99.386   21.212  194.558    0.380    0.285
  129.750   98.998   30.139  157.954    0.363    0.286
  130.000   97.817   24.210  230.136    0.363    0.284
  130.250   97.826   26.002  138.220    0.348    0.281
  130.500   98.630   20.665   86.205    0.335    0.274
  130.750   99.032   30.781   72.675    0.355    0.268
  131.000  100.229   23.661  112.047    0.349    0.262
  131.250  101.029   27.242  130.173    0.337    0.259
  131.500  101.434   27.254   90.888    0.346    0.266
  131.750  101.442   20.137   82.625    0.348    0.277
  132.000  101.450   20.744   82.572    0.348    0.291
  132.250  101.063   20.161  107.416    0.358    0.288
  132.500  100.675   26.708  137.128    0.346    0.281
  132.750  100.685   33.261  129.449    0.344    0.272
  133.000  100.689   30.895  122.201    0.340    0.265
  133.250  101.490   34.470  124.473    0.349    0.260
  133.500  101.898   41.020  141.908    0.351    0.268
  133.750  101.508   44.007  121.939    0.356    0.271
  134.000  101.514   39.858   97.148    0.342    0.266
  134.250  101.128   40.465  119.405    0.339    0.266
  134.500  100.343   36.911  128.674    0.336    0.266
  134.750   99.559   29.196  138.603    0.335    0.261
  135.000   98.380   33.963  143.773    0.334    0.258
  135.250   97.992   38.730  154.934    0.337    0.263
  135.500   97.604   32.798  166.924    0.347    0.285
  135.750   97.216   30.433  163.702    0.357    0.299
  136.000   96.825   35.794  104.040    0.352    0.298
  136.250   96.441   32.838  120.871    0.323    0.281
  136.500   96.445   38.196  114.103    0.314    0.249
  136.750   96.849   92.295  122.960    0.542    0.185
  137.000   96.861  135.693    2.054    0.565    0.160
  137.250   96.865  141.648    2.828    0.514    0.120
  137.500   96.083  123.830    5.784    0.466    0.103
  137.750   96.091  119.088   16.923    0.418    0.081
  138.000   96.101  105.430   11.169    0.422    0.091
  138.250   96.505   94.150   14.258    0.414    0.102
  138.500   96.912   74.549   15.952    0.366    0.107
  138.750   97.312   73.372   23.674    0.296    0.092
  139.000   97.718   66.252   25.029    0.291    0.080
  139.250   97.724   71.019   25.974    0.269    0.080
  139.500   98.130   81.732   29.047    0.270    0.073
  139.750   98.136   75.207   30.144    0.252    0.079
  140.000   97.754   69.275   30.112    0.259    0.078
  140.250   97.754   66.316   28.985    0.283    0.073
  140.500  100.145   79.997   25.852    0.294    0.075
  140.750  100.145   83.575   26.321    0.298    0.076
  141.000   99.769   76.455   26.305    0.271    0.068
  141.250  100.167   74.090   23.466    0.258    0.057
  141.500   99.783   72.913   23.897    0.253    0.051
  141.750   99.789   77.086   28.292    0.264    0.072
  142.000   99.801   74.723   29.354    0.315    0.081
  142.250   99.807   88.999   27.198    0.305    0.083
  142.500   99.813   80.691   26.656    0.290    0.061
  142.750   99.819   72.977   26.147    0.291    0.069
  143.000   99.433   72.989   25.158    0.281    0.077
  143.250   99.441   68.840   24.201    0.277    0.055
  143.500   99.449   74.201   24.175    0.279    0.078
  143.750   99.459   71.242   24.154    0.271    0.085
  144.000   99.463   70.065   24.134    0.275    0.077
  144.250   99.869   70.677   24.108    0.288    0.051
  144.500   99.877   67.718   23.642    0.292    0.054
  144.750   99.093   67.727   23.622    0.299    0.065
  145.000   97.120   73.679   24.051    0.308    0.075
  145.250   97.920   94.496   23.146    0.315    0.081
  145.500   98.721   93.319   19.518    0.299    0.094
  145.750   99.127   80.256   18.779    0.314    0.104
