~Version Information Block
VERS .                 2.00:  CWLS LOG ASCII STANDARD - VERSION 2.00
WRAP .                   NO:  One line per depth step
~Well Information Block
#MNEM.UNIT        Data Type   Information
#---------- ----------------  -----------
STRT .M               15.24:  START DEPTH
STOP .M              118.44:  STOP DEPTH
STEP .M                 0.3:  STEP
NULL .              -999.25:  NULL VALUE
COMP . HUSKY OIL OPERATIONS:  COMPANY
WELL . HUSKY FT MCMURRAY   :  WELL
FLD  .                     :  FIELD
LOC  . 07-28-090-09W4      :  LOCATION
PROV . ALBERTA             :  PROVINCE
SRVC . SCHLUMBERGER        :  SERVICE COMPANY
DATE . 23 MAR 73           :  LOG DATE
UWI  . AA/07-28-090-09W400 :  UNIQUE WELL ID
~Curve Information Block
#MNEM.UNIT         API CODE   Curve Description
#---------- ----------------  -----------------
DEPTH.M                    :  Transferred from LOGMATE/ESP.
DENS .KG/M3                 :  Loaded from 920630.111720
GR   .API                  :  Loaded from 920630.111720
PHIN .FRAC                 :  Loaded from 920630.111720
RESD .OHMM                 :  Loaded from 920630.111720
~Parameter Information Block
#MNEM.UNIT            Value   Description
#---------- ----------------  -----------
PROJECT.             MOS_90_9:
SET  .             RAW_ORIG:
~A        DEPTH           DENS             GR           PHIN           R
# ...
        48.2400      2219.6001        71.0900         0.3245         6.3
        48.5400      2198.5000        75.2500         0.3272         5.8
        48.8400      2210.8000        74.6100         0.3549         5.7
        49.1400      2187.0000        69.1400         0.3743         7.8
        49.4400      2166.3000        63.2800         0.4013         6.4
        49.7400      2149.2000        66.3800         0.4212         4.4
        50.0400      2154.2000        77.9600         0.4073         3.6
        50.3400      2172.3000        80.2000         0.4267         3.7
        50.6400      2164.8000        76.3400         0.4596         4.2
        50.9400      2155.7000        81.0100         0.4610         3.6
        51.2400      2178.5000        77.1900         0.4102         3.2
        51.5400      2203.6001        66.9700         0.4037         3.7
        51.8400      2220.3000        62.3600         0.4239         4.3
        52.1400      2209.8000        68.2100         0.4035         3.9
        52.4400      2252.2000        70.3200         0.4070         3.9
        52.7400      2267.8999        70.1200         0.3982         4.7
        53.0400      2292.5000        73.9600         0.3815         5.0
        53.3400      2327.8000        73.6800         0.4061         4.5
        53.6400      2388.7000        70.7700         0.3885         3.8
        53.9400      2403.6001        69.2700         0.3910         5.0
        54.2400      2333.6001        64.9000         0.3881         3.9
        54.5400      2227.3999        62.0200         0.3382         4.5
        54.8400      2231.1001        63.3900         0.2746        14.8
        55.1400      2278.6001        60.4400         0.2574        13.6
        55.4400      2242.3999        57.7600         0.2971        11.0
        55.7400      2181.6001        64.0400         0.2857         8.2
        56.0400      2139.3000        64.7400         0.2723         9.1
        56.3400      2146.3000        65.3200         0.2791        10.8
        56.6400      2231.3999        70.1100         0.2985        10.7
        56.9400      2244.6001        78.3500         0.3236         7.7
        57.2400      2217.2000        80.4300         0.2933         6.9
        57.5400      2213.8000        74.7600         0.2831         7.5
        57.8400      2122.7000        71.5300         0.2827        10.2
        58.1400      2072.0000        67.5600         0.3058        13.1
        58.4400      2024.9000        53.2100         0.3182         8.8
        58.7400      2023.3000        40.3900         0.3141         4.7
        59.0400      2066.8999        46.8300         0.3319         6.7
        59.3400      2090.5000        47.4100         0.3149         5.5
        59.6400      2066.5000        43.7100         0.2050         4.1
        59.9400      2024.5000        37.8900         0.1806        28.6
        60.2400      2065.3999        40.6700         0.1903        25.3
        60.5400      2053.8000        42.3500         0.2464         9.0
        60.8400      2062.3999        38.9700         0.1958        10.7
        61.1400      2150.3999        35.4600         0.1753        32.9
        61.4400      2157.8000        33.2600         0.1991        29.0
        61.7400      2159.8000        36.9800         0.2162        17.8
        62.0400      2192.0000        41.8100         0.2299        20.8
        62.3400      2216.7000        49.7000         0.2637        37.9
        62.6400      2206.2000        55.6600         0.2867        33.6
        62.9400      2196.6001        56.3700         0.2744        28.2
        63.2400      2196.7000        50.3500         0.2820        24.8
        63.5400      2196.8999        54.9700         0.3090        21.0
        63.8400      2165.2000        58.7800         0.2889        14.4
        64.1400      2127.3999        51.7400         0.2873        13.2
        64.4400      2097.3000        68.2800         0.2965        20.8
        64.7400      2205.0000        67.7600         0.2867        19.0
        65.0400      2254.8999        57.9700         0.2716        18.7
        65.3400      2251.5000        42.5900         0.2896        79.1
        65.6400      2167.1001        42.5900         0.3109        22.6
        65.9400      2125.3999        45.5700         0.2912        10.4
        66.2400      2140.5000        46.4600         0.2736         9.2
        66.5400      2163.8000        51.4100         0.2622         9.1
        66.8400      2201.3999        56.2300         0.2589        66.5
        67.1400      2227.7000        63.4500         0.2665        66.6
        67.4400      2240.0000        65.4900         0.2822        67.3
        67.7400      2250.0000        69.8500         0.2956        60.7
        68.0400      2254.1001        72.8700         0.2989        41.8
        68.3400      2262.7000        72.7400         0.2772        21.7
        68.6400      2191.5000        69.4300         0.2627        19.1
        68.9400      2149.8000        63.5700         0.2720        21.1
        69.2400      2137.5000        60.2200         0.2739        14.2
        69.5400      2171.5000        57.2300         0.2666        11.8
        69.8400      2183.7000        58.2100         0.2570        11.3
        70.1400      2155.8999        56.0000         0.2610        15.3
        70.4400      2173.3999        59.7200         0.2660        18.0
        70.7400      2193.6001        63.9600         0.2724        36.3
        71.0400      2209.7000        61.6300         0.2784        16.6
        71.3400      2156.5000        59.7400         0.2696        14.1
        71.6400      2191.3000        67.2800         0.2765        23.6
        71.9400      2142.8999        59.7700         0.2817        19.7
        72.2400      2089.6001        48.7200         0.2750        14.0
        72.5400      2010.5000        41.4800         0.2659        23.4
        72.8400      2028.7000        39.9800         0.2628        16.2
        73.1400      2132.1001        43.3500         0.2652        10.2
        73.4400      2139.8999        44.1300         0.2047         9.0
        73.7400      2103.5000        38.5900         0.1946       193.6
        74.0400      2071.8000        37.4800         0.1936       217.7
        74.3400      2060.2000        37.5900         0.3066        22.1
        74.6400      2056.8000        38.0600         0.2778        22.2
        74.9400      2058.3000        40.4400         0.2764        33.3
        75.2400      2074.6001        45.5800         0.2999        65.8
        75.5400      2087.0000        44.7100         0.2932        96.5
        75.8400      2058.2000        41.8000         0.3118        58.6
        76.1400      2039.9000        38.6100         0.2966        66.4
        76.4400      2042.2000        33.6500         0.2993        81.4
        76.7400      2067.8999        30.3400         0.3440        71.2
        77.0400      2091.5000        26.4900         0.3293        53.6
        77.3400      2091.2000        30.8400         0.2911        60.3
        77.6400      2073.8999        34.0900         0.2758       161.6
        77.9400      2053.6001        33.1800         0.2791       205.7
        78.2400      2042.4000        32.7100         0.2913        95.0
        78.5400      2071.2000        36.7800         0.3136        65.1
        78.8400      2080.2000        37.4500         0.3342       129.6
        79.1400      2082.0000        41.2900         0.3372       122.8
        79.4400      2067.3999        44.9300         0.3139        83.9
        79.7400      2059.5000        42.6500         0.3126       145.8
        80.0400      2048.8000        36.1200         0.3401       118.1
        80.3400      2057.0000        39.5700         0.3209        74.4
        80.6400      2096.5000        44.6300         0.2819        88.5
        80.9400      2101.0000        44.8200         0.2723        56.6
