~VERSION INFORMATION
 VERS.                 2.0:   CWLS LOG ASCII STANDARD -VERSION 2.0
 WRAP.                  NO:   ONE LINE PER DEPTH STEP
~WELL INFORMATION BLOCK
#MNEM.UNIT           DATA                    DESCRIPTION OF MNEMONIC
#---------    -------------------            -------------------------------
# Generated from Intellog Unique Number	CC_84_87/WELL/1173
NULL.         -999.25                        : NULL_VALUE
LOC .         08-26-085-09W4                 : Location     - LOCATION          
UWI .         AA/08-26-085-09W400            : Uwi          - UNIQUE WELL ID    
ENTR.         DW                             : Entered      - ENTERED BY        
SRVC.         SCHLUMBERGER                   : Scn          - SERVICE COMPANY   
STRT.M        240                            : top_depth    - START DEPTH       
STOP.M        459.892                        : bot_depth    - STOP DEPTH        
STEP.M        0.3                            : increment    - STEP LENGTH       
~CURVE INFORMATION BLOCK
#MNEM UNIT       ERCB CURVE CODE    CURVE DESCRIPTION
#-----------   ------------------   ----------------------------------
DEPT.M        00 001 00 00         : DEPTH        - DEPTH                       
DPHI.V/V      00 890 00 00         : PHID         - DENSITY POROSITY (LIMESTONE)
NPHI.V/V      00 330 00 00         : PHIN         - NEUTRON POROSITY (LIMESTONE)
GR  .API      00 310 00 00         : GR           - GAMMA RAY                   
ILD .OHMM     00 120 00 00         : RESD         - DEEP RESISTIVITY (DIL)      
~PARAMETER INFORMATION       
#MNEM.UNIT           DATA             DESCRIPTION OF MNEMONIC
#---------         -----------     ------------------------------
GL  .M        700.2                : gl           - GROUND LEVEL ELEVATION      
EREF.M        703.4                : kb           - ELEVATION OF DEPTH REFERENCE
DATM.M        703.4                : datum        - DATUM ELEVATION             
TDD .M        470                  : tdd          - TOTAL DEPTH DRILLER         
RUN .         ONE                  : Run          - RUN NUMBER                  
ENG .         BILL                 : Engineer     - RECORDING ENGINEER          
WIT .         JIM                  : Witness      - WITNESSED BY                
MUD .         GEL                  : Mud_type     - MUD TYPE                    
MATR.         LIMESTONE            : Logunit      - NEUTRON MATRIX              
TMAX.C        20                   : BHT          - MAXIMUM RECORDED TEMPERATURE
BHTD.M        470                  : BHTDEP       - MAXIMUM RECORDED TEMPERATURE
MATR.         1                    : LOGUNIT      - NEUTRON MATRIX              
RMT .C        25                   : MDTP         - TEMPERATURE OF MUD          
NEUT.         1                    : NEUTRON      - NEUTRON TYPE                
RESI.         0                    : RESIST       - RESISTIVITY TYPE            
RMC .OHMM     0.25                 : RMC          - RESISTIVITY OF MUD CAKE     
RMF .OHMM     0.25                 : RMF          - RESISTIVITY OF MUD FILTRATE 
SUFT.C        15                   : SUFT         - SURFACE TEMPERATURE         
~A  DEPTH     PHID     PHIN       GR     RESD
  240.000    0.239    0.419  100.743   11.146
  240.300    0.245    0.408   94.157   11.570
  240.600    0.255    0.414   93.566   12.014
  240.900    0.272    0.401  100.171   12.016
  241.200    0.258    0.413  104.377   12.245
  241.500    0.241    0.392  110.382   12.024
  241.800    0.235    0.403  116.389   11.590
  242.100    0.238    0.426  116.998   10.374
  242.400    0.228    0.449  116.406    9.815
  242.700    0.264    0.488  112.816    9.117
  243.000    0.322    0.494  105.629    8.469
  243.300    0.366    0.494   96.644    8.471
  243.600    0.417    0.511   87.057    8.794
  243.900    0.442    0.530   69.077    9.832
  244.200    0.348    0.554   64.290   11.198
  244.500    0.332    0.504   64.297   12.995
  244.800    0.347    0.422   78.698   14.000
  245.100    0.388    0.467   82.905   16.244
  245.400    0.406    0.544   71.519   19.202
  245.700    0.314    0.521   68.532   19.934
  246.000    0.319    0.447   67.341   22.290
  246.300    0.321    0.417   66.152   22.297
  246.600    0.303    0.398   66.761   21.097
  246.900    0.293    0.370   69.165   19.598
  247.200    0.299    0.383   84.766   19.241
  247.500    0.316    0.414   95.568   20.351
  247.800    0.322    0.435   93.780   22.336
  248.100    0.321    0.411   91.988   23.187
  248.400    0.318    0.427   96.195   21.142
  248.700    0.279    0.429   98.004   18.234
  249.000    0.254    0.422   97.412   16.318
  249.300    0.238    0.427  102.218   14.604
  249.600    0.240    0.421  107.626   12.832
  249.900    0.251    0.435  108.832   11.699
  250.200    0.259    0.445  108.840   11.070
  250.500    0.262    0.444  101.054   10.671
  250.800    0.258    0.435   90.269   10.478
  251.100    0.248    0.428   84.281   10.482
  251.400    0.237    0.408   87.888   10.484
  251.700    0.246    0.374   90.897   10.295
  252.000    0.230    0.401   92.704    9.925
  252.300    0.243    0.399   89.713    9.567
  252.600    0.241    0.416   95.720    9.393
  252.900    0.238    0.448   89.132    8.889
  253.200    0.243    0.465   89.144    8.567
  253.500    0.256    0.478   96.947    8.258
  253.800    0.237    0.442   94.558    8.110
  254.100    0.235    0.448   92.166    8.113
  254.400    0.237    0.423   91.574    8.115
  254.700    0.238    0.402   96.980    8.119
  255.000    0.236    0.424   95.190    8.121
  255.300    0.236    0.450  100.596    7.975
  255.600    0.219    0.491   94.010    7.687
  255.900    0.215    0.499   95.217    7.410
  256.200    0.243    0.481  100.024    7.411
  256.500    0.251    0.496   99.433    7.279
  256.800    0.255    0.464   98.843    7.147
  257.100    0.253    0.443   94.053    7.283
  257.400    0.250    0.454   98.861    7.286
  257.700    0.245    0.487  101.267    7.288
  258.000    0.232    0.477   98.277    7.291
  258.300    0.266    0.445   88.693    7.294
  258.600    0.266    0.485   89.302    7.296
  258.900    0.251    0.464   94.106    7.435
  259.200    0.248    0.446  100.112    7.437
  259.500    0.249    0.480  103.720    7.579
  259.800    0.238    0.491  101.929    7.869
  260.100    0.234    0.464   96.540    8.018
  260.400    0.235    0.452   91.152    8.639
  260.700    0.227    0.460   85.765    9.137
  261.000    0.218    0.419   83.975    9.311
  261.300    0.221    0.418   79.186    9.314
  261.600    0.229    0.402   83.393    9.317
  261.900    0.241    0.405   98.992    8.980
  262.200    0.264    0.424   96.602    8.497
  262.500    0.274    0.445   87.019    8.040
  262.800    0.281    0.460   85.826    8.044
  263.100    0.259    0.481   95.431    8.046
  263.400    0.263    0.462   94.841    8.049
  263.700    0.284    0.431   91.251    7.904
  264.000    0.292    0.459   97.855    7.761
  264.300    0.306    0.493   95.465    7.481
  264.600    0.334    0.510   88.878    7.347
  264.900    0.338    0.519   83.491    7.486
  265.200    0.262    0.444   86.497    7.917
  265.500    0.259    0.446   92.503    8.069
  265.800    0.254    0.459   93.111    8.222
  266.100    0.237    0.446   88.923    8.226
  266.400    0.219    0.459   87.132    8.227
  266.700    0.212    0.414   96.136    8.079
  267.000    0.211    0.411   96.745    8.234
  267.300    0.232    0.434   94.956    8.390
  267.600    0.254    0.418   85.968    9.557
  267.900    0.225    0.383   78.781    9.922
  268.200    0.209    0.401   75.194    9.924
  268.500    0.251    0.423   74.002    9.746
  268.800    0.263    0.450   94.399    9.394
  269.100    0.254    0.437   84.214    8.889
  269.400    0.254    0.455   89.620    8.729
  269.700    0.258    0.494   85.430    8.732
  270.000    0.252    0.515   85.439    8.897
  270.300    0.246    0.522   90.845    8.901
  270.600    0.244    0.496   85.457    8.905
  270.900    0.241    0.481   80.072    8.745
  271.200    0.244    0.449   78.281    8.746
  271.500    0.253    0.447   79.488    9.251
  271.800    0.269    0.436   81.296    9.604
  272.100    0.281    0.411   79.505    9.969
  272.400    0.267    0.385   76.516   10.350
  272.699    0.273    0.412   74.725   11.150
  272.999    0.238    0.420   80.131   12.237
  273.299    0.227    0.388   86.137   12.704
  273.599    0.227    0.383   92.143   13.437
  273.899    0.241    0.388   99.947   13.441
  274.199    0.247    0.392  108.352   13.200
  274.499    0.241    0.405  107.761   13.202
  274.799    0.243    0.418  103.572   12.964
  275.099    0.251    0.432   99.384   12.497
  275.399    0.264    0.469   95.194   11.825
  275.699    0.266    0.430   96.402   10.984
  275.999    0.231    0.446  102.407   10.202
  276.299    0.255    0.435   96.420   10.017
  276.599    0.279    0.411   85.635   10.208
  276.899    0.301    0.407   80.247   11.845
  277.199    0.299    0.407   85.653   13.000
  277.499    0.302    0.386   94.057   14.537
  277.799    0.314    0.406  100.063   15.092
  278.099    0.317    0.420  100.670   14.818
  278.399    0.313    0.386  104.278   14.020
  278.699    0.305    0.389   95.291   13.514
  278.999    0.302    0.392   82.108   13.029
  279.299    0.306    0.379   77.919   12.792
  279.599    0.307    0.371   73.130   12.797
  279.899    0.299    0.386   85.133   13.043
  280.199    0.278    0.396   85.142   13.045
  280.499    0.272    0.403   85.750   13.049
  280.799    0.290    0.410   90.557   12.815
  281.099    0.280    0.425   85.769   12.353
  281.399    0.279    0.439   94.173   12.129
  281.699    0.281    0.459   95.979   11.692
  281.999    0.253    0.456   83.995   11.271
  282.299    0.234    0.436   73.810   11.066
  282.599    0.238    0.410   69.622   10.667
  282.899    0.266    0.389   71.431   10.282
  283.199    0.276    0.375   75.636    9.912
  283.499    0.227    0.410   83.440    9.915
  283.799    0.263    0.445   85.848   10.487
  284.099    0.275    0.425   83.459   10.685
  284.399    0.276    0.394   76.271   11.512
  284.699    0.282    0.409   69.084   12.175
  284.999    0.284    0.397   66.695   12.180
  285.299    0.279    0.406   70.305   11.961
  285.599    0.258    0.409   74.507   10.905
  285.899    0.248    0.414   85.311   10.128
  286.199    0.232    0.411   91.917    9.408
  286.499    0.239    0.414   93.723    8.902
  286.799    0.252    0.416   94.336    8.740
  287.099    0.266    0.403   94.342    8.270
  287.399    0.276    0.378   94.352    7.973
  287.699    0.290    0.404   94.359    7.829
  287.999    0.279    0.457   95.567    7.979
  288.299    0.265    0.400  108.767    7.980
  288.599    0.236    0.416  117.772    7.836
  288.899    0.247    0.455  106.387    7.279
  289.199    0.261    0.450  106.397    6.761
  289.499    0.196    0.455  123.195    6.516
  289.799    0.214    0.470  131.000    6.053
  290.099    0.238    0.449  129.209    6.055
  290.399    0.236    0.406  122.024    6.057
  290.699    0.231    0.389  120.832    6.405
  290.999    0.231    0.391  117.243    7.433
  291.299    0.271    0.410  117.251    8.159
  291.599    0.310    0.431  104.070    8.469
  291.899    0.359    0.440  105.279    8.632
