~VERSION INFORMATION
 VERS.                 2.0:   CWLS LOG ASCII STANDARD -VERSION 2.0
 WRAP.                  NO:   ONE LINE PER DEPTH STEP
~WELL INFORMATION BLOCK
#MNEM.UNIT           DATA                    DESCRIPTION OF MNEMONIC
#---------    -------------------            -------------------------------
# Generated from Intellog Unique Number	CN_94_101/WELL/3189
WELL.         ATLANTIC EYMUNDSON             : Well_name    - WELL
LOC .         AA/02-35-099-11W4/0            : Location     - LOCATION
UWI .         AA/02-35-099-11W400            : Uwi          - UNIQUE WELL ID
ENTR.         TIM                            : Entered      - ENTERED BY
SRVC.         SCHLUMBERGER                   : Scn          - SERVICE COMPANY
DATE.         08/11/92                       : Date         - LOG DATE
STRT.M        9.144                          : top_depth    - START DEPTH
STOP.M        73.144                         : bot_depth    - STOP DEPTH
STEP.M        0.25                           : increment    - STEP LENGTH
 NULL. -999.2500:NULL Value
~CURVE INFORMATION BLOCK
#MNEM UNIT       ERCB CURVE CODE    CURVE DESCRIPTION
#-----------   ------------------   ----------------------------------
DEPT.M        00 001 00 00         : DEPTH        - DEPTH
ILD .OHMM     00 120 00 00         : RESD         - DEEP RESISTIVITY (DIL)
NPHI.V/V      00 330 00 00         : PHIN         - NEUTRON POROSITY (SANDSTONE)
GR  .API      00 310 00 00         : GR           - GAMMA RAY
~PARAMETER INFORMATION
#MNEM.UNIT           DATA             DESCRIPTION OF MNEMONIC
#---------         -----------     ------------------------------
GL  .M        314.645              : gl           - GROUND LEVEL ELEVATION
EREF.M        314.645              : kb           - ELEVATION OF DEPTH REFERENCE
DATM.M        314.645              : datum        - DATUM ELEVATION
TDD .M        75.2856              : tdd          - TOTAL DEPTH DRILLER
RUN .         ONE                  : Run          - RUN NUMBER
ENG .         JO                   : Engineer     - RECORDING ENGINEER
WIT .         TIM                  : Witness      - WITNESSED BY
MUD .         GEL                  : Mud_type     - MUD TYPE
MATR.         SANDSTONE            : Logunit      - NEUTRON MATRIX
TMAX.C        3.33333              : BHT          - MAXIMUM RECORDED TEMPERATURE
BHTD.M        75.5904              : BHTDEP       - MAXIMUM RECORDED TEMPERATURE
RMT .C        4.44444              : MDTP         - TEMPERATURE OF MUD
MUDD.KG/M     1050                 : MWT          - MUD DENSITY
NEUT.         1                    : NEUTRON      - NEUTRON TYPE
RESI.         0                    : RESIST       - RESISTIVITY TYPE
RM  .OHMM     13.8                 : RM           - RESISTIVITY OF MUD
RMC .OHMM     15.5                 : RMC          - RESISTIVITY OF MUD CAKE
RMF .OHMM     8.15                 : RMF          - RESISTIVITY OF MUD FILTRATE
SUFT.C        4                    : SUFT         - SURFACE TEMPERATURE
~A  DEPTH     RESD     PHIN       GR
    9.144    0.000    0.397   62.480
    9.394    0.000    0.379   53.773
    9.644    0.000    0.387   42.721
    9.894    0.000    0.410   37.696
   10.144    0.000    0.410   38.028
   10.394    0.000    0.396   40.369
   10.644    0.000    0.383   43.379
   10.894    0.000    0.375   46.055
   11.144    0.000    0.372   47.390
   11.394    0.000    0.379   47.388
   11.644    0.000    0.394   46.716
   11.894    0.000    0.406   44.704
   12.144    0.000    0.388   46.709
   12.394    0.000    0.368   52.064
   12.644    0.000    0.381   55.408
   12.894    0.000    0.376   55.741
   13.144    0.000    0.362   54.065
   13.394    0.000    0.356   52.052
   13.644    0.000    0.357   54.059
   13.894    0.000    0.366   58.074
   14.144    0.000    0.377   61.084
   14.394    0.000    0.388   63.760
   14.644    0.000    0.393   66.101
   14.894    0.000    0.385   68.442
   15.144    0.000    0.385   69.777
   15.394    0.000    0.385   67.431
   15.644    0.000    0.388   63.075
   15.894    0.000    0.396   63.407
   16.144    0.000    0.404   64.408
   16.394    0.000    0.404   61.393
   16.644    0.000    0.387   59.382
   16.894    0.000    0.392   64.401
   17.144    0.000    0.399   68.081
   17.394    0.000    0.411   68.748
   17.644    0.000    0.407   68.075
   17.894    0.000    0.393   67.067
   18.144    0.000    0.370   64.052
   18.394    0.000    0.384   59.027
   18.644    0.000    0.392   61.703
   18.894    0.000    0.397   64.378
   19.144    0.000    0.401   63.036
   19.394    0.000    0.407   56.672
   19.644    0.000    0.412   53.655
   19.894    0.000    0.417   54.322
   20.144    0.000    0.407   56.998
   20.394    0.000    0.405   58.333
   20.644    0.000    0.405   57.327
   20.894    0.000    0.404   55.315
   21.144    0.000    0.400   53.974
   21.394    0.000    0.390   52.297
   21.644    0.000    0.375   50.955
   21.894    0.000    0.377   52.626
   22.144    0.000    0.370   53.962
   22.394    0.000    0.359   52.285
   22.644    0.000    0.348   48.265
   22.894    0.000    0.335   49.936
   23.144    0.000    0.329   51.273
   23.394    0.000    0.339   51.270
   23.644    0.000    0.347   51.267
   23.894    0.000    0.347   52.938
   24.144    0.000    0.355   55.278
   24.394    0.000    0.390   58.289
   24.644    0.000    0.410   60.964
   24.894    0.000    0.420   60.962
   25.144    0.000    0.394   58.615
   25.394    0.000    0.390   48.902
   25.644    0.000    0.375   46.222
   25.894    0.000    0.347   42.870
   26.144    0.000    0.336   40.859
   26.394    0.000    0.334   40.857
   26.644    0.000    0.349   43.532
   26.894    0.000    0.355   46.877
   27.144    0.000    0.350   50.892
   27.394    0.000    0.344   54.572
   27.644    0.000    0.345   57.583
   27.894    0.000    0.342   61.597
   28.144    0.000    0.341   66.281
   28.394    0.000    0.345   68.623
   28.644    0.000    0.352   71.633
   28.894    0.000    0.360   76.318
   29.144    0.000    0.390   74.976
   29.394    0.000    0.396   69.950
   29.644    0.000    0.371   69.278
   29.894    0.000    0.360   69.275
   30.144    0.000    0.338   68.936
   30.394    0.000    0.329   68.600
   30.644   27.670    0.327   67.927
   30.894   34.278    0.323   67.254
   31.144   44.180    0.324   62.229
   31.394   59.361    0.333   62.561
   31.644   55.425    0.346   61.889
   31.894   47.547    0.326   58.539
   32.144   47.574    0.322   53.849
   32.394   50.883    0.327   51.502
   32.644   74.611    0.332   51.834
   32.894  101.644    0.339   49.823
   33.144  110.228    0.341   47.141
   33.394  130.669    0.341   49.146
   33.644  151.773    0.335   50.816
   33.894  139.279    0.327   51.150
   34.144  110.318    0.322   51.817
   34.394  121.537    0.320   54.492
   34.644  136.708    0.320   55.493
   34.894  140.022    0.328   58.504
   35.144  103.815    0.335   60.845
   35.394   56.406    0.336   63.855
   35.644   50.504    0.330   65.192
   35.894   51.842    0.323   65.859
   36.144   54.498    0.311   66.190
   36.394   61.106    0.305   65.183
   36.644   55.858    0.291   62.837
   36.894   90.795    0.266   57.812
   37.144  125.068    0.239   55.131
   37.394   79.639    0.247   52.450
   37.644   66.487    0.309   55.460
   37.894   81.657    0.329   61.484
   38.144  126.475    0.346   61.815
   38.394   69.843    0.358   60.808
   38.644   58.008    0.361   60.136
   38.894   48.149    0.363   60.468
   39.144   45.540    0.359   61.134
   39.394   48.855    0.355   61.465
   39.644   50.847    0.350   61.798
   39.894   48.244    0.344   62.129
   40.144   48.924    0.335   62.128
   40.394   49.603    0.324   63.128
   40.644   51.606    0.322   63.796
   40.894   54.256    0.325   65.132
   41.144   56.907    0.336   67.138
   41.394   57.587    0.343   66.800
   41.644   57.618    0.343   66.463
   41.894   52.365    0.343   67.799
   42.144   45.140    0.339   69.471
   42.394   41.209    0.333   71.476
   42.644   37.283    0.333   72.813
   42.894   35.982    0.339   74.149
   43.144   35.344    0.343   75.151
   43.394   36.029    0.343   76.488
   43.644   35.392    0.337   73.136
   43.894   34.749    0.334   67.776
   44.144   34.776    0.340   67.104
   44.394   35.455    0.345   71.788
   44.644   34.164    0.344   71.451
   44.894   33.521    0.337   70.109
   45.144   32.884    0.332   69.101
   45.394   34.222    0.322   68.429
   45.644   71.794    0.319   67.087
   45.894   77.743    0.321   66.415
   46.144   67.225    0.326   64.403
   46.394   61.318    0.330   62.057
   46.644   50.800    0.337   62.389
   46.894   39.624    0.341   66.738
   47.144   42.285    0.337   71.423
   47.394   41.642    0.336   69.076
   47.644   39.034    0.330   68.403
   47.894   35.767    0.325   69.406
   48.144   35.118    0.323   69.402
   48.394   36.468    0.329   68.730
   48.644   37.147    0.329   67.388
   48.894   37.169    0.326   65.040
   49.144   37.190    0.323   63.699
   49.394   35.235    0.326   63.696
   49.644   33.280    0.326   63.024
   49.894   32.642    0.329   59.673
   50.144   35.293    0.331   55.987
   50.394   61.667    0.334   53.306
   50.644  103.191    0.342   52.633
   50.894   97.937    0.346   54.640
   51.144   86.760    0.338   58.320
   51.394   59.116    0.333   63.004
   51.644   35.425    0.339   66.015
   51.894   17.666    0.345   69.025
   52.144   16.370    0.342   72.370
   52.394   18.362    0.341   75.716
   52.644   22.335    0.336   76.382
   52.894   29.613    0.338   73.701
   53.144   28.975    0.336   70.684
   53.394   27.020    0.332   66.664
   53.644   32.305    0.330   61.974
   53.894   47.476    0.328   59.962
   54.144   63.970    0.326   60.629
   54.394   60.698    0.324   61.966
   54.644   48.204    0.324   64.976
   54.894   37.027    0.327   66.312
   55.144   31.779    0.325   63.631
   55.394   26.535    0.323   60.280
   55.644   28.538    0.325   59.942
   55.894   27.890    0.328   60.274
   56.144   26.593    0.327   60.272
   56.394   26.615    0.321   60.938
   56.644   28.612    0.321   61.604
   56.894   29.956    0.319   60.933
   57.144   29.323    0.317   60.261
   57.394   28.686    0.321   57.244
   57.644   30.683    0.323   55.902
   57.894   37.944    0.320   57.572
   58.144   57.731    0.317   59.244
   58.394   50.507    0.320   60.579
   58.644   39.989    0.323   58.904
   58.894   43.962    0.325   56.892
   59.144   61.109    0.324   56.220
   59.394   61.136    0.324   55.882
   59.644   55.223    0.324   53.871
   59.894   46.028    0.324   51.524
   60.144   53.289    0.317   51.522
   60.394   93.496    0.306   48.171
   60.644   73.098    0.295   45.155
   60.894   55.334    0.305   42.807
   61.144   57.331    0.320   41.466
   61.394   98.855    0.313   39.454
   61.644   57.374    0.303   38.447
   61.894   50.149    0.309   38.444
   62.144   57.416    0.321   39.111
   62.394   64.029    0.333   39.778
   62.644   74.589    0.337   41.114
   62.894   76.586    0.333   42.450
   63.144   71.338    0.336   42.447
