~VERSION INFORMATION
 VERS.                 2.0:   CWLS LOG ASCII STANDARD -VERSION 2.0
 WRAP.                  NO:   ONE LINE PER DEPTH STEP
~WELL INFORMATION BLOCK
#MNEM.UNIT           DATA                    DESCRIPTION OF MNEMONIC
#---------    -------------------            -------------------------------
# Generated from Intellog Unique Number	CN_91_93/WELL/4001
WELL.         AOSTRA AO-72                   : Well_name    - WELL
LOC .         09-20-092-13W4                 : Location     - LOCATION
UWI .         AA/09-20-092-13W400            : Uwi          - UNIQUE WELL ID
ENTR.         JOETTE                         : Entered      - ENTERED BY
SRVC.         CENTURY                        : Scn          - SERVICE COMPANY
DATE.         03/16/92                       : Date         - LOG DATE
STRT.M        50                             : top_depth    - START DEPTH
STOP.M        190                            : bot_depth    - STOP DEPTH
STEP.M        0.25                           : increment    - STEP LENGTH
 NULL. -999.2500:NULL Value
~CURVE INFORMATION BLOCK
#MNEM UNIT       ERCB CURVE CODE    CURVE DESCRIPTION
#-----------   ------------------   ----------------------------------
DEPT.M        00 001 00 00         : DEPTH        - DEPTH
GR  .API      00 310 00 00         : GR           - GAMMA RAY
DPHI.V/V      00 890 00 00         : PHID         - DENSITY POROSITY (SANDSTONE)
ILD .OHMM     00 120 00 00         : RESD         - DEEP RESISTIVITY (DIL)
~PARAMETER INFORMATION
#MNEM.UNIT           DATA             DESCRIPTION OF MNEMONIC
#---------         -----------     ------------------------------
GL  .M        437.9                : gl           - GROUND LEVEL ELEVATION
EREF.M        437.9                : kb           - ELEVATION OF DEPTH REFERENCE
DATM.M        437.9                : datum        - DATUM ELEVATION
TDD .M        174.3                : tdd          - TOTAL DEPTH DRILLER
RUN .         ONE                  : Run          - RUN NUMBER
ENG .         BILL                 : Engineer     - RECORDING ENGINEER
WIT .         JIM                  : Witness      - WITNESSED BY
MUD .         GEL                  : Mud_type     - MUD TYPE
MATR.         SANDSTONE            : Logunit      - NEUTRON MATRIX
TMAX.C        18                   : BHT          - MAXIMUM RECORDED TEMPERATURE
BHTD.M        194.3                : BHTDEP       - MAXIMUM RECORDED TEMPERATURE
RMT .C        18                   : MDTP         - TEMPERATURE OF MUD
MUDD.KG/M     1100                 : MWT          - MUD DENSITY
NEUT.         1                    : NEUTRON      - NEUTRON TYPE
RESI.         0                    : RESIST       - RESISTIVITY TYPE
RM  .OHMM     9.37                 : RM           - RESISTIVITY OF MUD
RMC .OHMM     9.37                 : RMC          - RESISTIVITY OF MUD CAKE
RMF .OHMM     9.37                 : RMF          - RESISTIVITY OF MUD FILTRATE
SUFT.C        4                    : SUFT         - SURFACE TEMPERATURE
~A  DEPTH       GR     PHID     RESD
# ...
  158.500   78.347    0.259    5.591
  158.750   83.792    0.299    6.264
  159.000   87.413    0.333    7.841
  159.250   70.921    0.357   11.180
  159.500   45.554    0.311   13.740
  159.750   37.959    0.282   18.879
  160.000   42.788    0.265   20.763
  160.250   39.926    0.283   23.293
  160.500   37.088    0.305   24.688
  160.750   43.076    0.303   25.216
  161.000   50.910    0.293   27.224
  161.250   48.616    0.283   27.807
  161.500   56.994    0.246   29.472
  161.750   83.168    0.239   22.376
  162.000   96.303    0.287   14.120
  162.250   92.258    0.295    7.269
  162.500   82.888    0.277    6.900
  162.750   90.083    0.254    6.918
  163.000   97.326    0.257    6.937
  163.250   90.891    0.263    7.080
  163.500   82.680    0.266    7.232
  163.750   84.551    0.264    7.534
  164.000   87.013    0.261    8.436
  164.250   88.932    0.248    7.295
  164.500   94.920    0.256    7.048
  164.750  102.139    0.267    7.072
  165.000  101.051    0.266    7.091
  165.250   89.291    0.256    7.804
  165.500   90.571    0.253    8.114
  165.750   98.973    0.243    8.600
  166.000   87.213    0.231    9.115
  166.250  102.714    0.241    9.667
  166.500   82.672    0.260   10.838
  166.750   64.996    0.276   12.360
  167.000   46.137    0.279   14.638
  167.250   48.008    0.272   25.112
  167.500   59.960    0.262   34.505
  167.750   79.010    0.251   42.404
  168.000   70.233    0.237   15.649
  168.250   79.818    0.248   10.846
  168.500   91.793    0.261   10.466
  168.750   72.295    0.261    9.928
  169.000   83.064    0.251   10.329
  169.250   79.042    0.238   10.181
  169.500   75.565    0.231    9.824
  169.750   86.333    0.240    9.505
  170.000   90.570    0.263    9.343
  170.250   95.423    0.272    9.368
  170.500   88.396    0.277    9.233
  170.750   96.798    0.280    9.258
  171.000   87.404    0.249    9.112
  171.250   91.074    0.192    8.805
  171.500   99.452    0.178    8.828
  171.750   94.224    0.248    9.023
  172.000   81.872    0.261    9.035
  172.250   83.767    0.262    8.893
  172.500   89.187    0.276    8.917
  172.750   98.772    0.278    9.457
  173.000   76.340    0.284   10.017
  173.250   47.424    0.267   10.043
  173.500   42.172    0.265   11.259
  173.750   33.985    0.273   13.583
  174.000   33.490    0.281   19.013
  174.250   44.258    0.273   23.365
  174.500   51.453    0.264   33.936
  174.750   62.222    0.251   35.968
  175.000   74.765    0.253   21.078
  175.250   61.846    0.269   15.720
  175.500   58.392    0.273   14.370
  175.750   44.242    0.265   14.153
  176.000   57.377    0.248   16.142
  176.250   53.923    0.254   11.602
  176.500   37.455    0.275   18.484
  176.750   42.283    0.270   24.916
  177.000   49.478    0.234   39.695
  177.250   76.244    0.236   20.437
  177.500   75.772    0.261   24.219
  177.750   73.478    0.274   20.944
  178.000   82.495    0.279   26.218
  178.250   77.835    0.283   25.806
  178.500   72.015    0.272   26.358
  178.750   67.354    0.284   28.477
  179.000   74.573    0.313   34.995
  179.250   74.077    0.276   43.006
  179.500   78.314    0.227   23.842
  179.750   67.761    0.197   22.615
  180.000   60.734    0.215   22.691
  180.250   60.830    0.267   31.739
  180.500   88.779    0.263   33.639
  180.750   85.917    0.264   23.315
  181.000   76.547    0.272   22.513
  181.250   87.907    0.282   31.491
  181.500   83.838    0.281   26.733
  181.750   65.595    0.280   21.884
  182.000   72.790    0.276   23.627
  182.250   90.066    0.276   22.412
  182.500   74.165    0.277   23.302
  182.750   61.222    0.283   23.801
  183.000   51.261    0.280   39.348
  183.250   41.276    0.294   79.783
  183.500   40.804    0.287   70.281
  183.750   40.284    0.268   58.529
  184.000   32.098    0.279  132.604
  184.250   41.707    0.287   69.546
  184.500   45.329    0.296  179.343
  184.750   41.875    0.291  103.172
  185.000   33.665    0.296  180.300
  185.250   40.884    0.302  252.368
  185.500   38.022    0.300  195.182
  185.750   28.652    0.309  100.490
  186.000   28.748    0.293  279.040
  186.250   31.210    0.297  318.882
  186.500   36.039    0.258  285.957
  186.750   72.886    0.239   16.241
  187.000   89.570    0.222   15.123
  187.250   93.216    0.219   15.457
  187.500   83.254    0.218   15.488
  187.750   63.804    0.220   16.114
  188.000   29.515    0.218   16.777
  188.250   16.005    0.187   19.160
  188.500   17.284    0.123   82.933
  188.750   21.521    0.074  127.330
  189.000   24.575   -0.001  226.672
  189.250   23.512   -0.049  192.423
  189.500   18.851   -0.068   99.003
  189.750   11.280   -0.068  224.301
  190.000   18.451   -0.041   72.726
