~VERSION INFORMATION
 VERS.                 2.0:   CWLS LOG ASCII STANDARD -VERSION 2.0
 WRAP.                  NO:   ONE LINE PER DEPTH STEP
~WELL INFORMATION BLOCK
#MNEM.UNIT           DATA                    DESCRIPTION OF MNEMONIC
#---------    -------------------            -------------------------------
# Generated from Intellog Unique Number	CN_94_101/WELL/3232
WELL.         03-23-096-08W4                 : Well_name    - WELL
LOC .         AA/03-23-096-08W4/0            : Location     - LOCATION
UWI .         AA/03-23-096-08W400            : Uwi          - UNIQUE WELL ID
ENTR.         JOETTE                         : Entered      - ENTERED BY
SRVC.         SCHLUMBERGER                   : Scn          - SERVICE COMPANY
DATE.         07/20/92                       : Date         - LOG DATE
STRT.F        0                              : top_depth    - START DEPTH
STOP.F        410.105                        : bot_depth    - STOP DEPTH
STEP.F        0.82021                        : increment    - STEP LENGTH
 NULL. -999.2500:NULL Value
~CURVE INFORMATION BLOCK
#MNEM UNIT       ERCB CURVE CODE    CURVE DESCRIPTION
#-----------   ------------------   ----------------------------------
DEPT.F        00 001 00 00         : DEPTH        - DEPTH
GR  .API      00 310 00 00         : GR           - GAMMA RAY
DPHI.V/V      00 890 00 00         : PHID         - DENSITY POROSITY (SANDSTONE)
ILD .OHMM     00 120 00 00         : RESD         - DEEP RESISTIVITY (DIL)
~PARAMETER INFORMATION
#MNEM.UNIT           DATA             DESCRIPTION OF MNEMONIC
#---------         -----------     ------------------------------
GL  .M        329.275              : gl           - GROUND LEVEL ELEVATION
EREF.M        324.703              : kb           - ELEVATION OF DEPTH REFERENCE
DATM.M        324.703              : datum        - DATUM ELEVATION
TDD .M        129.54               : tdd          - TOTAL DEPTH DRILLER
RUN .         ONE                  : Run          - RUN NUMBER
ENG .         JO                   : Engineer     - RECORDING ENGINEER
WIT .         TIM                  : Witness      - WITNESSED BY
MUD .         GEL                  : Mud_type     - MUD TYPE
MATR.         SANDSTONE            : Logunit      - NEUTRON MATRIX
TMAX.F        65                   : BHT          - MAXIMUM RECORDED TEMPERATURE
BHTD.F        425                  : BHTDEP       - MAXIMUM RECORDED TEMPERATURE
RMT .F        65                   : MDTP         - TEMPERATURE OF MUD
MUDD.LB/G     1.12                 : MWT          - MUD DENSITY
NEUT.         1                    : NEUTRON      - NEUTRON TYPE
RESI.         0                    : RESIST       - RESISTIVITY TYPE
RM  .OHMM     10.5                 : RM           - RESISTIVITY OF MUD
RMC .OHMM     10.5                 : RMC          - RESISTIVITY OF MUD CAKE
RMF .OHMM     10.5                 : RMF          - RESISTIVITY OF MUD FILTRATE
SUFT.F        39.2                 : SUFT         - SURFACE TEMPERATURE
~A  DEPTH       GR     PHID     RESD
# ...
  177.986   39.006    0.289  142.038
  178.806   26.140    0.255  469.831
  179.626   20.697    0.243  678.933
  180.446   22.663    0.254  596.938
  181.266   26.205    0.273  564.952
  182.087   27.395    0.280  642.690
  182.907   25.457    0.271  816.476
  183.727   23.914    0.255 1018.340
  184.547   23.933    0.243 1342.210
  185.367   25.518    0.232 1736.810
  186.188   28.270    0.222 1613.780
  187.008   31.803    0.239 1018.800
  187.828   36.117    0.273  705.175
  188.648   39.268    0.302  421.277
  189.469   38.506    0.303  205.555
  190.289   35.006    0.302  497.279
  191.109   27.997    0.314  705.495
  191.929   26.064    0.303  964.726
  192.749   24.521    0.304 1837.300
  193.570   22.978    0.313 2857.820
  194.390   21.825    0.321 3133.580
  195.210   24.191    0.330 1739.180
  196.030   29.291    0.329  746.035
  196.850   32.823    0.322  545.685
  197.671   32.447    0.310  620.772
  198.491   28.956    0.313 1118.750
  199.311   30.537    0.319 1296.330
  200.131   32.898    0.325  247.448
  200.951   34.869    0.316  102.310
  201.772   37.235    0.298  132.392
  202.592   36.088    0.280  118.562
  203.412   33.759    0.280  100.479
  204.232   30.654    0.289  217.663
  205.052   27.159    0.302  357.778
  205.873   23.664    0.311  556.502
  206.693   20.949    0.313  949.055
  207.513   21.368    0.312  949.182
  208.333   22.163    0.301  789.704
  209.154   23.353    0.288  694.332
  209.974   24.153    0.290  775.470
  210.794   19.100    0.296 1120.630
  211.614   20.295    0.304 1184.360
  212.434   21.476    0.310  985.397
  213.255   23.452    0.318  761.676
  214.075   24.251    0.324  682.126
  214.895   23.498    0.333  508.219
  215.715   22.727    0.325  463.606
  216.535   21.584    0.315  508.328
  217.356   20.422    0.305  622.446
  218.176   17.707    0.300  567.790
  218.996   18.117    0.297  262.170
  219.816   21.654    0.288  148.210
  220.636   22.454    0.279  358.541
  221.457   20.135    0.283  682.817
  222.277   18.982    0.279  762.610
  223.097   18.220    0.271  791.327
  223.917   17.853    0.286  634.581
  224.738   18.267    0.297  518.362
  225.558   18.276    0.305  600.626
  226.378   18.300    0.299  735.464
  227.198   18.319    0.294  934.387
  228.018   17.556    0.288  852.341
  228.839   16.794    0.282  884.366
  229.659   17.203    0.265 1024.740
  230.479   19.179    0.261 1165.750
  231.299   20.760    0.282 1063.410
  232.119   19.993    0.282  683.819
  232.940   16.893    0.302  683.892
  233.760   18.478    0.316  792.446
  234.580   20.454    0.309  918.255
  235.400   21.634    0.303  792.636
  236.220   22.434    0.312  659.478
  237.041   20.505    0.305  736.563
  237.861   22.481    0.299  807.637
  238.681   24.057    0.289  935.808
  239.501   26.418    0.278 1256.370
  240.322   30.341    0.267 1403.180
  241.142   39.345    0.250  272.820
  241.962   60.062    0.214   16.336
  242.782   67.500    0.194   21.139
  243.602   69.861    0.182   25.885
  244.423   68.318    0.167   28.383
  245.243   65.999    0.152   24.500
  246.063   67.579    0.136   23.617
  246.883   69.941    0.146   24.507
  247.703   73.474    0.152   24.963
  248.524   73.492    0.156   27.882
  249.344   71.954    0.152   28.404
  250.164   70.801    0.140   27.887
  250.984   70.820    0.132   27.891
  251.804   71.234    0.138   28.940
  252.625   71.253    0.149   31.154
  253.445   71.662    0.147   31.158
  254.265   72.852    0.143   33.540
  255.085   74.437    0.148   37.461
  255.906   75.237    0.146   38.868
  256.726   76.032    0.144   36.115
  257.546   75.270    0.160   30.606
  258.366   76.084    0.176   28.438
  259.186   76.484    0.174   27.413
  260.007   76.502    0.168   26.916
  260.827   75.354    0.168   25.009
  261.647   75.759    0.174   21.988
  262.467   79.687    0.174   19.692
  263.287   83.220    0.184   16.998
  264.108   85.976    0.197   14.143
  264.928   87.942    0.206   12.666
  265.748   90.309    0.196   14.146
  266.568   92.675    0.183   14.148
  267.388   90.346    0.165   14.412
  268.209   69.281    0.183   15.232
  269.029   61.096    0.175   17.977
  269.849   49.401    0.167   21.611
  270.669   31.069    0.198   24.137
  271.490   29.135    0.228   62.851
  272.310   33.840    0.272  111.204
  273.130   45.576    0.236   68.925
  273.950   53.014    0.202   47.707
  274.770   68.655    0.191   26.478
  275.591   67.893    0.207   19.014
  276.411   59.712    0.222   38.977
  277.231   47.627    0.214   59.523
  278.051   48.427    0.221   41.965
  278.871   50.007    0.212   45.176
  279.692   52.759    0.205   47.744
  280.512   57.863    0.201   40.461
  281.332   61.391    0.192   28.526
  282.152   75.861    0.176   24.175
  282.972   79.008    0.164   26.024
  283.793   80.584    0.152   31.286
  284.613   77.089    0.145   31.870
  285.433   74.765    0.158   33.069
  286.253   73.617    0.166   38.321
  287.073   74.026    0.167   39.759
  287.894   79.511    0.208   36.942
  288.714   79.921    0.218   30.736
  289.534   74.083    0.206   34.966
  290.354   71.763    0.208   46.086
  291.175   72.558    0.232   39.056
  291.995   77.267    0.257   22.079
  292.815   80.409    0.248   22.082
  293.635   82.771    0.209   26.063
  294.455   83.180    0.174   26.065
  295.276   89.065    0.187   22.089
  296.096   90.250    0.191   19.422
  296.916   92.612    0.195   18.046
  297.736   95.764    0.194   20.910
  298.556   88.359    0.194   24.680
  299.377   84.088    0.200   23.791
  300.197   84.497    0.158   22.104
  301.017   87.639    0.159   20.538
  301.837   90.386    0.175   21.707
  302.657   90.405    0.176   22.941
  303.478   88.481    0.175   22.943
  304.298   88.500    0.170   22.528
  305.118   89.690    0.157   22.530
  305.938   85.800    0.160   22.533
  306.759   78.795    0.165   23.815
  307.579   83.495    0.159   26.597
  308.399   76.485    0.149   31.391
  309.219   64.791    0.152   37.050
  310.039   57.001    0.172   41.381
  310.860   51.944    0.209   37.747
  311.680   50.010    0.205   34.432
  312.500   50.029    0.203   40.638
  313.320   52.785    0.207   68.043
  314.140   63.346    0.207   77.403
  314.961   68.050    0.206   80.316
  315.781   70.026    0.212   78.860
  316.601   64.579    0.207   77.430
  317.421   61.083    0.231   74.640
  318.241   56.417    0.243   66.846
  319.062   51.360    0.251   63.261
  319.882   46.303    0.261   60.982
  320.702   43.983    0.273   98.409
  321.522   43.612    0.277  132.119
  322.343   44.411    0.270  170.962
  323.163   45.987    0.260  247.057
  323.983   50.306    0.248  229.543
  324.803   56.572    0.240   62.156
  325.623   53.467    0.222   45.465
  326.444   39.039    0.303   91.499
  327.264   31.254    0.309  171.076
  328.084   32.444    0.317  198.231
  328.904   33.634    0.317  198.252
  329.724   34.434    0.313  164.951
  330.545   36.795    0.310  134.738
  331.365   38.380    0.305  127.515
  332.185   38.008    0.298  120.679
  333.005   36.075    0.300  116.331
  333.825   37.651    0.302  108.093
  334.646   41.969    0.302  100.432
  335.466   44.726    0.304   93.313
  336.286   37.322    0.310   93.323
  337.106   33.826    0.315   95.071
  337.927   29.550    0.314   96.847
  338.747   30.350    0.316   96.855
  339.567   33.106    0.317   96.868
  340.387   35.863    0.320   96.878
  341.207   35.096    0.321   95.124
  342.028   31.996    0.312   93.397
  342.848   32.796    0.313   91.704
  343.668   33.595    0.313   86.793
  344.488   34.009    0.310   83.663
  345.308   35.590    0.307   80.646
  346.129   38.337    0.304   76.327
  346.949   42.260    0.314   74.941
  347.769   40.717    0.313   74.949
  348.589   40.741    0.314   74.959
  349.409   39.978    0.318   82.190
  350.230   36.093    0.313  106.357
  351.050   36.507    0.307  123.239
  351.870   38.083    0.303  110.368
  352.690   41.625    0.302  125.554
  353.510   38.125    0.293  135.159
  354.331   33.463    0.290  116.672
  355.151   30.354    0.275  110.420
