~VERSION INFORMATION
 VERS.                 2.0:   CWLS LOG ASCII STANDARD -VERSION 2.0
 WRAP.                  NO:   ONE LINE PER DEPTH STEP
~WELL INFORMATION BLOCK
#MNEM.UNIT           DATA                    DESCRIPTION OF MNEMONIC
#---------    -------------------            -------------------------------
# Generated from Intellog Unique Number	CN_94_101/WELL/4986
WELL.         06-31-101-12W4                 : Well_name    - WELL
LOC .         AA/06-31-101-12W4/0            : Location     - LOCATION
UWI .         AA/06-31-101-12W400            : Uwi          - UNIQUE WELL ID
ENTR.         TIM                            : Entered      - ENTERED BY
SRVC.         SCHLUMBERGER                   : Scn          - SERVICE COMPANY
DATE.         08/13/92                       : Date         - LOG DATE
STRT.M        350                            : top_depth    - START DEPTH
STOP.M        580                            : bot_depth    - STOP DEPTH
STEP.M        0.25                           : increment    - STEP LENGTH
NULL. -999.2500:NULL Value
~CURVE INFORMATION BLOCK
#MNEM UNIT       ERCB CURVE CODE    CURVE DESCRIPTION
#-----------   ------------------   ----------------------------------
DEPT.M        00 001 00 00         : DEPTH        - DEPTH
GR  .API      00 310 00 00         : GR           - GAMMA RAY
ILD .OHMM     00 120 00 00         : RESD         - DEEP RESISTIVITY (DIL)
NPHI.V/V      00 330 00 00         : PHIN         - NEUTRON POROSITY (SANDSTONE)
DPHI.V/V      00 890 00 00         : PHID         - DENSITY POROSITY (SANDSTONE)
~PARAMETER INFORMATION
#MNEM.UNIT           DATA             DESCRIPTION OF MNEMONIC
#---------         -----------     ------------------------------
GL  .M        788.8                : gl           - GROUND LEVEL ELEVATION
EREF.M        792.2                : kb           - ELEVATION OF DEPTH REFERENCE
DATM.M        792.2                : datum        - DATUM ELEVATION
TDD .M        586                  : tdd          - TOTAL DEPTH DRILLER
RUN .         ONE                  : Run          - RUN NUMBER
ENG .         JO                   : Engineer     - RECORDING ENGINEER
WIT .         TIM                  : Witness      - WITNESSED BY
MUD .         GEL                  : Mud_type     - MUD TYPE
MATR.         SANDSTONE            : Logunit      - NEUTRON MATRIX
TMAX.C        17                   : BHT          - MAXIMUM RECORDED TEMPERATURE
BHTD.M        586                  : BHTDEP       - MAXIMUM RECORDED TEMPERATURE
RMT .C        15                   : MDTP         - TEMPERATURE OF MUD
MUDD.KG/M     1040                 : MWT          - MUD DENSITY
NEUT.         1                    : NEUTRON      - NEUTRON TYPE
RESI.         0                    : RESIST       - RESISTIVITY TYPE
RM  .OHMM     0.75                 : RM           - RESISTIVITY OF MUD
RMC .OHMM     0.75                 : RMC          - RESISTIVITY OF MUD CAKE
RMF .OHMM     0.75                 : RMF          - RESISTIVITY OF MUD FILTRATE
SUFT.C        4                    : SUFT         - SURFACE TEMPERATURE
~A  DEPTH       GR     RESD     PHIN     PHID
# ...
  393.500   67.041    8.151    0.451    0.314
  393.750   68.325    6.897    0.444    0.320
  394.000   72.107    6.061    0.452    0.312
  394.250   77.787    6.547    0.478    0.300
  394.500   80.332    7.339    0.499    0.298
  394.750   81.003    7.769    0.514    0.311
  395.000   77.928    8.078    0.534    0.331
  395.250   74.216    6.970    0.483    0.341
  395.500   69.892    6.356    0.445    0.356
  395.750   66.828    5.690    0.442    0.364
  396.000   66.251    4.998    0.444    0.373
  396.250   66.922    4.477    0.439    0.369
  396.500   70.716    4.161    0.446    0.359
  396.750   76.372    4.166    0.490    0.338
  397.000   86.422    4.023    0.498    0.327
  397.250   92.714    3.952    0.528    0.315
  397.500   95.895    3.885    0.539    0.307
  397.750   97.816    3.966    0.528    0.306
  398.000  100.985    3.972    0.528    0.306
  398.250   99.784    3.980    0.520    0.310
  398.500   98.582    3.985    0.514    0.320
  398.750   97.992    3.921    0.510    0.319
  399.000   97.415    3.924    0.529    0.310
  399.250   96.849    3.717    0.536    0.311
  399.500   96.896    3.654    0.528    0.312
  399.750   95.706    3.525    0.522    0.311
  400.000   95.129    3.466    0.524    0.313
  400.250   97.049    3.472    0.528    0.312
  400.500   98.345    3.476    0.529    0.308
  400.750   98.392    3.482    0.530    0.299
  401.000   98.439    3.490    0.559    0.289
  401.250  100.996    3.428    0.569    0.273
  401.500  102.269    3.370    0.572    0.252
  401.750  104.189    3.314    0.575    0.237
  402.000  106.110    3.257    0.573    0.264
  402.250  108.666    3.202    0.573    0.310
  402.500  109.326    3.147    0.569    0.303
  402.750  111.270    3.154    0.561    0.297
  403.000  111.930    3.159    0.553    0.292
  403.250  112.625    3.164    0.549    0.284
  403.500  113.285    3.170    0.547    0.284
  403.750  113.332    3.175    0.544    0.288
  404.000  113.379    3.179    0.543    0.293
  404.250  112.801    3.128    0.545    0.308
  404.500  112.224    3.132    0.551    0.305
  404.750  111.635    3.137    0.554    0.298
  405.000  111.081    3.084    0.551    0.295
  405.250  111.104    3.090    0.547    0.294
  405.500  110.527    3.035    0.550    0.291
  405.750  109.961    3.041    0.553    0.286
  406.000  108.135    2.990    0.557    0.286
  406.250  106.933    2.994    0.584    0.284
  406.500  105.731    2.999    0.589    0.294
  406.750  105.154    3.003    0.589    0.299
  407.000  105.201    3.009    0.581    0.302
  407.250  105.236    3.013    0.580    0.301
  407.500  103.410    3.074    0.589    0.303
  407.750  102.208    3.081    0.591    0.305
  408.000  102.255    3.145    0.574    0.307
  408.250  103.551    3.149    0.562    0.311
  408.500  104.859    3.213    0.560    0.320
  408.750  104.906    3.282    0.552    0.327
  409.000  104.964    3.285    0.549    0.326
  409.250  104.375    3.417    0.554    0.322
  409.500  104.422    3.487    0.560    0.318
  409.750  104.469    3.557    0.570    0.314
  410.000  104.528    3.633    0.578    0.309
  410.250  105.188    3.636    0.584    0.302
  410.500  106.496    3.782    0.591    0.288
  410.750  107.155    3.859    0.591    0.278
  411.000  108.475    3.866    0.591    0.270
  411.250  108.498    3.875    0.595    0.261
  411.500  108.581    3.880    0.598    0.253
  411.750  108.604    3.675    0.596    0.259
  412.000  108.039    3.546    0.567    0.275
  412.250  108.074    3.420    0.562    0.288
  412.500  108.133    3.299    0.577    0.297
  412.750  108.156    3.183    0.585    0.302
  413.000  108.215    3.015    0.585    0.305
  413.250  108.262    2.964    0.578    0.312
  413.500  107.060    2.860    0.564    0.318
  413.750  106.471    2.811    0.558    0.324
  414.000  104.020    2.764    0.567    0.332
  414.250  102.194    2.768    0.592    0.340
  414.500  101.628    2.774    0.599    0.350
  414.750  101.687    2.776    0.601    0.361
  415.000  101.734    2.781    0.597    0.358
  415.250  101.781    2.786    0.595    0.352
  415.500  101.215    2.791    0.598    0.347
  415.750  100.626    2.796    0.600    0.344
  416.000  100.685    2.799    0.603    0.344
  416.250  100.720    2.857    0.603    0.344
  416.500  100.767    2.972    0.600    0.344
  416.750   99.577    2.974    0.595    0.349
  417.000   98.988    3.154    0.592    0.360
  417.250   98.399    3.217    0.587    0.355
  417.500   97.197    3.474    0.581    0.346
  417.750   95.995    3.749    0.578    0.355
  418.000   95.429    4.046    0.556    0.362
  418.250   94.216    4.885    0.545    0.328
  418.500   91.765    6.013    0.526    0.312
  418.750   86.191    7.260    0.487    0.292
  419.000   78.745    8.605    0.461    0.270
  419.250   73.159    8.618    0.465    0.263
  419.500   66.962    7.862    0.478    0.313
  419.750   73.890    6.781    0.491    0.330
  420.000   79.557    5.529    0.507    0.313
  420.250   83.976    4.950    0.565    0.290
  420.500   86.521    4.354    0.535    0.278
  420.750   82.832    4.197    0.485    0.246
  421.000   82.243    3.978    0.469    0.192
  421.250   86.662    3.981    0.525    0.213
  421.500   92.329    4.143    0.566    0.244
  421.750   97.384    4.224    0.541    0.334
  422.000   94.945    4.475    0.533    0.337
  422.250   92.506    4.832    0.523    0.327
  422.500   91.905    5.218    0.511    0.315
  422.750   88.841    5.321    0.498    0.310
  423.000   86.390    5.138    0.492    0.303
  423.250   88.311    4.956    0.489    0.301
  423.500   90.844    4.693    0.497    0.330
  423.750   91.515    4.530    0.521    0.340
  424.000   89.100    4.891    0.529    0.350
  424.250   88.487    5.277    0.516    0.345
  424.500   85.435    5.694    0.505    0.341
  424.750   84.210    6.503    0.485    0.329
  425.000   79.885    7.284    0.465    0.312
  425.250   73.688    7.574    0.471    0.302
  425.500   68.114    7.589    0.477    0.289
  425.750   65.027    7.051    0.472    0.289
  426.000   63.213    5.749    0.464    0.328
  426.250   67.643    4.432    0.447    0.336
  426.500   71.425    3.823    0.495    0.325
  426.750   75.843    3.237    0.525    0.330
  427.000   79.649    3.064    0.551    0.345
  427.250   83.455    3.013    0.576    0.363
  427.500   85.364    3.017    0.593    0.378
  427.750   87.272    3.079    0.607    0.373
  428.000   89.841    3.326    0.571    0.365
  428.250   89.888    3.457    0.548    0.358
  428.500   89.923    3.732    0.533    0.347
  428.750   89.982    3.953    0.532    0.340
  429.000   90.041    4.036    0.538    0.351
  429.250   90.064    4.041    0.538    0.359
  429.500   89.487    3.973    0.538    0.366
  429.750   88.308    3.905    0.539    0.372
  430.000   85.846    3.770    0.546    0.378
  430.250   87.766    3.639    0.556    0.365
  430.500   90.299    3.574    0.568    0.368
  430.750   92.844    3.450    0.565    0.392
  431.000   95.401    3.329    0.589    0.393
  431.250   96.697    3.333    0.592    0.383
  431.500   97.369    3.277    0.584    0.375
  431.750   98.040    3.345    0.577    0.373
  432.000   98.712    3.415    0.574    0.369
  432.250   99.395    3.483    0.574    0.364
  432.500   99.442    3.556    0.581    0.359
  432.750   98.229    3.698    0.591    0.357
  433.000   93.280    3.843    0.571    0.352
  433.250   87.718    4.150    0.550    0.343
  433.500   87.765    4.478    0.546    0.341
  433.750   87.800    5.021    0.537    0.346
  434.000   88.472    5.219    0.531    0.343
  434.250   89.155    5.531    0.523    0.337
  434.500   89.202    5.535    0.517    0.323
  434.750   89.249    5.651    0.513    0.311
  435.000   87.423    5.660    0.511    0.308
  435.250   86.834    5.667    0.506    0.302
  435.500   84.383    5.571    0.501    0.293
  435.750   80.082    5.180    0.494    0.283
  436.000   79.481    4.906    0.490    0.283
  436.250   80.153    4.558    0.521    0.290
  436.500   82.710    4.316    0.531    0.296
  436.750   84.005    4.164    0.551    0.306
