~VERSION INFORMATION
 VERS.                 2.0:   CWLS LOG ASCII STANDARD -VERSION 2.0
 WRAP.                  NO:   ONE LINE PER DEPTH STEP
~WELL INFORMATION BLOCK
#MNEM.UNIT           DATA                    DESCRIPTION OF MNEMONIC
#---------    -------------------            -------------------------------
# Generated from Intellog Unique Number	CX_WELLS/WELL/2645
NULL.         -999.25                        : NULL_VALUE
WELL.         ARCO ACI MCMURRAY OV           : Well_name    - WELL              
LOC .         07-26-080-10W4                 : Location     - LOCATION          
UWI .         AA/07-26-080-10W400            : Uwi          - UNIQUE WELL ID    
ENTR.         T                              : Entered      - ENTERED BY        
SRVC.         SCHLUMBERGER                   : Scn          - SERVICE COMPANY   
DATE.         19 JAN 76                      : Date         - LOG DATE
STRT.F        800                            : top_depth    - START DEPTH       
STOP.F        1549.67                        : bot_depth    - STOP DEPTH        
STEP.F        0.82                           : increment    - STEP LENGTH       
~CURVE INFORMATION BLOCK
#MNEM UNIT       ERCB CURVE CODE    CURVE DESCRIPTION
#-----------   ------------------   ----------------------------------
DEPT.F        00 001 00 00         : DEPTH        - DEPTH                       
GR  .API      00 310 00 00         : GR           - GAMMA RAY                   
NPHI.V/V      00 330 00 00         : PHIN         - NEUTRON POROSITY (SANDSTONE)
ILD .OHMM     00 120 00 00         : RESD         - DEEP RESISTIVITY (DIL)      
~PARAMETER INFORMATION       
#MNEM.UNIT           DATA             DESCRIPTION OF MNEMONIC
#---------         -----------     ------------------------------
GL  .F        2280                 : gl           - GROUND LEVEL ELEVATION      
EREF.F        2289                 : kb           - ELEVATION OF DEPTH REFERENCE
DATM.F        2289                 : datum        - DATUM ELEVATION             
TDD .F        1556                 : tdd          - TOTAL DEPTH DRILLER         
RUN .         ONE                  : Run          - RUN NUMBER                  
ENG .         BILL                 : Engineer     - RECORDING ENGINEER          
WIT .         JIM                  : Witness      - WITNESSED BY                
MUD .         GEL                  : Mud_type     - MUD TYPE                    
MATR.         SANDSTONE            : Logunit      - NEUTRON MATRIX              
TMAX.F        77                   : BHT          - MAXIMUM RECORDED TEMPERATURE
BHTD.F        1556                 : BHTDEP       - MAXIMUM RECORDED TEMPERATURE
MATR.         1                    : LOGUNIT      - NEUTRON MATRIX              
RMT .F        77                   : MDTP         - TEMPERATURE OF MUD          
NEUT.         1                    : NEUTRON      - NEUTRON TYPE                
RESI.         0                    : RESIST       - RESISTIVITY TYPE            
RMC .OHMM     6                    : RMC          - RESISTIVITY OF MUD CAKE     
RMF .OHMM     6                    : RMF          - RESISTIVITY OF MUD FILTRATE 
SUFT.F        32                   : SUFT         - SURFACE TEMPERATURE         
~A  DEPTH       GR     PHIN     RESD
  800.000   98.205    0.520    1.495
  800.820   98.247    0.521    1.503
  801.640   98.372    0.522    1.480
  802.461   97.830    0.526    1.488
  803.281   97.934    0.527    1.495
  804.101   98.017    0.531    1.473
  804.921   98.080    0.535    1.454
  805.741   98.205    0.537    1.460
  806.562   98.268    0.544    1.439
  807.382   97.809    0.546    1.419
  808.202   97.871    0.545    1.404
  809.022   97.329    0.543    1.408
  809.843   96.181    0.543    1.387
  810.663   94.491    0.544    1.393
  811.483   93.343    0.544    1.373
  812.303   91.653    0.545    1.380
  813.123   91.089    0.548    1.361
  813.944   91.194    0.552    1.366
  814.764   90.651    0.554    1.346
  815.584   90.755    0.560    1.330
  816.404   90.255    0.564    1.310
  817.224   90.317    0.569    1.315
  818.045   90.421    0.574    1.273
  818.865   90.484    0.576    1.256
  819.685   89.983    0.579    1.238
  820.505   89.462    0.577    1.222
  821.325   89.566    0.572    1.205
  822.146   89.629    0.566    1.210
  822.966   89.712    0.558    1.215
  823.786   89.837    0.552    1.266
  824.606   89.900    0.543    1.295
  825.427   89.420    0.541    1.348
  826.247   89.483    0.544    1.404
  827.067   89.545    0.552    1.462
  827.887   89.649    0.551    1.495
  828.707   90.380    0.546    1.558
  829.528   90.421    0.539    1.593
  830.348   90.505    0.533    1.662
  831.168   90.588    0.525    1.696
  831.988   91.298    0.520    1.738
  832.808   91.382    0.512    1.777
  833.629   91.465    0.502    1.817
  834.449   92.154    0.491    1.825
  835.269   92.884    0.485    1.868
  836.089   93.573    0.484    1.876
  836.909   94.261    0.486    1.881
  837.730   94.929    0.488    1.889
  838.550   95.659    0.493    1.899
  839.370   95.722    0.498    1.840
  840.190   95.826    0.502    1.782
  841.010   94.073    0.506    1.755
  841.831   90.547    0.505    1.766
  842.651   88.836    0.503    1.770
  843.471   87.667    0.502    1.779
  844.291   87.187    0.500    1.821
  845.112   86.686    0.501    1.828
  845.932   86.728    0.504    1.836
  846.752   86.206    0.503    1.779
  847.572   85.684    0.507    1.751
  848.392   83.952    0.509    1.728
  849.213   76.189    0.497    1.735
  850.033   70.221    0.411    1.840
  850.853   66.653    0.374    2.025
  851.673   63.710    0.362    2.227
  852.493   62.604    0.365    2.787
  853.314   62.688    0.380    3.297
  854.134   62.813    0.395    4.048
  854.954   63.481    0.403    4.538
  855.774   64.775    0.410    4.393
  856.594   66.674    0.412    4.177
  857.415   68.594    0.417    3.900
  858.235   69.887    0.422    3.841
  859.055   71.786    0.425    3.656
  859.875   73.685    0.432    3.609
  860.696   76.836    0.434    3.554
  861.516   78.088    0.440    3.508
  862.336   81.824    0.448    3.523
  863.156   85.538    0.462    3.533
  863.976   92.300    0.497    3.552
  864.797   99.645    0.528    3.635
  865.617  110.643    0.552    3.713
  866.437  121.640    0.581    3.946
  867.257  134.453    0.606    4.031
  868.077  130.906    0.621    4.279
  868.898  116.444    0.622    4.451
  869.718   85.643    0.611    4.639
  870.538   74.812    0.513    4.831
  871.358   65.818    0.301    5.133
  872.178   61.665    0.299    5.443
  872.999   58.723    0.295    5.668
  873.819   55.175    0.288    6.011
  874.639   47.392    0.279    6.265
  875.459   42.028    0.278    6.531
  876.280   40.296    0.278    6.544
  877.100   39.795    0.277    6.571
  877.920   39.879    0.277    6.611
  878.740   39.378    0.277    6.639
  879.560   37.667    0.275    6.666
  880.381   37.103    0.272    6.566
  881.201   34.766    0.270    6.606
  882.021   32.450    0.271    6.633
  882.841   31.302    0.276    6.654
  883.661   28.401    0.280    6.688
  884.482   27.254    0.277    6.832
  885.302   25.543    0.219    6.881
  886.122   25.021    0.153    6.902
  886.942   24.499    0.090    6.930
  887.762   24.583    0.114    6.710
  888.583   24.666    0.311    6.616
  889.403   25.960    0.310    6.523
  890.223   26.649    0.311    6.426
  891.043   28.548    0.313    6.234
  891.864   28.631    0.308    6.147
  892.684   28.109    0.304    5.952
  893.504   25.793    0.298    5.874
  894.324   23.497    0.295    5.786
  895.144   22.934    0.296    5.810
  895.965   22.412    0.298    5.828
  896.785   21.306    0.303    5.965
  897.605   21.390    0.307    6.100
  898.425   22.099    0.317    6.125
  899.245   22.162    0.335    6.269
  900.066   22.245    0.334    6.301
  900.886   22.329    0.333    6.334
  901.706   22.412    0.331    6.353
  902.526   23.143    0.330    6.270
  903.346   25.626    0.329    6.283
  904.167   28.172    0.327    6.208
  904.987   29.445    0.324    6.121
  905.807   31.365    0.319    6.140
  906.627   32.659    0.316    6.060
  907.448   33.347    0.315    6.079
  908.268   34.036    0.315    6.006
  909.088   32.304    0.318    5.934
  909.908   30.572    0.324    5.845
  910.728   30.655    0.339    5.757
  911.549   39.232    0.369    5.671
  912.369   53.255    0.383    5.603
  913.189   71.515    0.397    5.519
  914.009   80.113    0.404    5.442
  914.829   78.986    0.411    5.184
  915.650   78.464    0.413    5.200
  916.470   78.548    0.414    5.035
  917.290   80.467    0.416    4.870
  918.110   82.366    0.418    4.635
  918.930   83.055    0.419    4.488
  919.751   82.533    0.422    4.263
  920.571   86.269    0.426    3.984
  921.391   89.357    0.428    3.649
  922.211   95.513    0.434    3.288
  923.031   98.623    0.436    3.012
  923.852  102.963    0.442    2.711
  924.672  105.467    0.451    2.486
  925.492  106.761    0.462    2.236
  926.312  108.055    0.471    1.978
  927.133  108.765    0.483    1.814
  927.953  108.869    0.493    1.754
  928.773  107.137    0.500    1.610
  929.593  106.594    0.500    1.617
  930.413  105.467    0.500    1.746
  931.234  103.756    0.501    1.957
  932.054  100.856    0.500    2.192
  932.874   99.103    0.488    2.455
  933.694   96.160    0.471    3.017
  934.514   91.402    0.451    3.572
  935.335   87.250    0.436    3.996
  936.155   86.707    0.416    4.817
  936.975   86.811    0.402    5.309
  937.795   86.895    0.402    5.428
  938.615   87.584    0.401    5.456
  939.436   88.293    0.401    5.369
  940.256   89.002    0.400    5.110
  941.076   89.044    0.397    4.858
  941.896   90.338    0.404    4.454
  942.717   92.863    0.415    4.079
  943.537   95.367    0.426    3.740
  944.357   97.892    0.438    3.367
  945.177  102.212    0.446    3.087
  945.997  105.321    0.456    2.885
  946.818  108.472    0.457    2.897
  947.638  109.161    0.457    2.906
  948.458  109.265    0.456    2.977
  949.278  108.702    0.454    3.160
  950.098  107.575    0.443    3.345
  950.919  106.469    0.432    3.682
  951.739  105.363    0.425    3.980
  952.559  104.236    0.422    4.386
  953.379  101.899    0.420    4.646
  954.199  100.751    0.417    4.927
  955.020   97.851    0.424    5.038
  955.840   97.892    0.430    5.064
  956.660   97.976    0.432    5.084
  957.480   98.706    0.439    5.008
  958.301   99.979    0.447    4.859
  959.121  101.878    0.452    4.700
  959.941  103.819    0.451    4.313
  960.761  102.087    0.436    4.248
  961.581  100.960    0.425    4.113
  962.402   99.228    0.407    4.135
  963.222   97.475    0.393    4.156
  964.042   98.184    0.386    4.164
  964.862   99.478    0.388    4.110
  965.682  100.167    0.390    4.057
  966.503   98.435    0.396    4.069
  967.323   94.887    0.396    4.016
  968.143   93.781    0.396    3.893
  968.963   95.659    0.393    3.901
  969.783   97.016    0.393    3.846
  970.604   97.663    0.394    3.735
  971.424   98.957    0.407    3.743
  972.244   99.061    0.418    3.694
  973.064   97.329    0.420    3.573
  973.885   93.176    0.420    3.588
  974.705   89.629    0.419    3.954
  975.525   87.291    0.421    4.193
  976.345   85.559    0.420    4.446
  977.165   86.874    0.420    4.630
