~VERSION INFORMATION
 VERS.                 2.0:   CWLS LOG ASCII STANDARD -VERSION 2.0
 WRAP.                  NO:   ONE LINE PER DEPTH STEP
~WELL INFORMATION BLOCK
#MNEM.UNIT           DATA                    DESCRIPTION OF MNEMONIC
#---------    -------------------            -------------------------------
# Generated from Intellog Unique Number	CN_94_101/WELL/3222
WELL.         05-26-096-07W4                 : Well_name    - WELL
LOC .         AA/05-26-096-07W4/0            : Location     - LOCATION
UWI .         AA/05-26-096-07W400            : Uwi          - UNIQUE WELL ID
ENTR.         JOETTE                         : Entered      - ENTERED BY
SRVC.         SCHLUMBERGER                   : Scn          - SERVICE COMPANY
DATE.         07/20/92                       : Date         - LOG DATE
STRT.F        0                              : top_depth    - START DEPTH
STOP.F        397.802                        : bot_depth    - STOP DEPTH
STEP.F        0.82021                        : increment    - STEP LENGTH
 NULL. -999.2500:NULL Value
~CURVE INFORMATION BLOCK
#MNEM UNIT       ERCB CURVE CODE    CURVE DESCRIPTION
#-----------   ------------------   ----------------------------------
DEPT.F        00 001 00 00         : DEPTH        - DEPTH
ILD .OHMM     00 120 00 00         : RESD         - DEEP RESISTIVITY (DIL)
GR  .API      00 310 00 00         : GR           - GAMMA RAY
DPHI.V/V      00 890 00 00         : PHID         - DENSITY POROSITY (SANDSTONE)
~PARAMETER INFORMATION
#MNEM.UNIT           DATA             DESCRIPTION OF MNEMONIC
#---------         -----------     ------------------------------
GL  .M        357.957              : gl           - GROUND LEVEL ELEVATION
EREF.M        357.957              : kb           - ELEVATION OF DEPTH REFERENCE
DATM.M        357.957              : datum        - DATUM ELEVATION
TDD .M        124.663              : tdd          - TOTAL DEPTH DRILLER
RUN .         ONE                  : Run          - RUN NUMBER
ENG .         JO                   : Engineer     - RECORDING ENGINEER
WIT .         TIM                  : Witness      - WITNESSED BY
MUD .         GEL                  : Mud_type     - MUD TYPE
MATR.         SANDSTONE            : Logunit      - NEUTRON MATRIX
TMAX.F        35                   : BHT          - MAXIMUM RECORDED TEMPERATURE
BHTD.F        409                  : BHTDEP       - MAXIMUM RECORDED TEMPERATURE
RMT .F        35                   : MDTP         - TEMPERATURE OF MUD
MUDD.LB/G     1.1                  : MWT          - MUD DENSITY
NEUT.         1                    : NEUTRON      - NEUTRON TYPE
RESI.         0                    : RESIST       - RESISTIVITY TYPE
RM  .OHMM     8.75                 : RM           - RESISTIVITY OF MUD
RMC .OHMM     8.75                 : RMC          - RESISTIVITY OF MUD CAKE
RMF .OHMM     8.75                 : RMF          - RESISTIVITY OF MUD FILTRATE
SUFT.F        39.2                 : SUFT         - SURFACE TEMPERATURE
~A  DEPTH     RESD       GR     PHID
    0.000 2485.180   97.929    0.453
    0.820 2443.180   84.461    0.454
    1.640 2276.490   52.720    0.445
    2.461 1935.840   62.373    0.410
    3.281 1740.070   66.427    0.404
    4.101 1876.750   68.123    0.407
    4.921 1846.160   43.127    0.426
    5.741 1629.390   34.861    0.416
    6.562 1546.240   32.567    0.357
    7.382 1579.650   28.686    0.296
    8.202 1767.180   28.773    0.255
    9.022 1870.290   28.860    0.225
    9.843 1876.080   28.154    0.224
   10.663 1749.170   27.051    0.210
   11.483 1689.490   25.572    0.236
   12.303 1603.270   24.844    0.268
   13.123 1667.100   21.360    0.304
   13.944 1801.380   17.855    0.378
   14.764 1836.900   14.393    0.485
   15.584 1910.030   16.067    0.513
   16.404 1948.890   18.534    0.511
   17.224 1883.560   20.208    0.509
   18.045 1856.310   21.485    0.502
   18.865 1930.220   21.991    0.492
   19.685 1831.710   20.469    0.500
   20.505 1182.530   16.985    0.488
   21.326  449.517   16.697    0.481
   22.146   70.910   17.996    0.489
   22.966   35.483   18.436    0.492
   23.786   24.214   18.170    0.455
   24.606   19.839   17.463    0.433
   25.427   15.681   19.159    0.417
   26.247   12.402   20.018    0.388
   27.067   12.425   20.899    0.376
   27.887   13.158   19.398    0.378
   28.707 1430.740   17.898    0.398
   29.528 2145.870   17.192    0.421
   30.348 2991.460   18.094    0.421
   31.168 2406.560   20.165    0.411
   31.988 1248.330   21.839    0.376
   32.808  806.900   25.100    0.362
   33.629  502.528   28.780    0.357
   34.449  285.801   32.437    0.344
   35.269  271.216   33.340    0.282
   36.089  202.799   30.628    0.275
   36.910  157.289   26.747    0.265
   37.730  200.112   23.263    0.244
   38.550  204.309   24.540    0.222
   39.370  183.534   27.801    0.223
   40.190  147.740   27.492    0.216
   41.011  130.474   25.617    0.207
   41.831  128.269   28.084    0.189
   42.651  128.666   25.394    0.195
   43.471  126.647   24.291    0.210
   44.291  122.326   25.568    0.203
   45.111  113.980   27.285    0.193
   45.932  104.280   28.122    0.208
   46.752  102.644   29.443    0.227
   47.572  108.700   30.720    0.246
   48.392  105.056   31.182    0.251
   49.213   94.374   32.856    0.266
   50.033   86.395   34.992    0.266
   50.853  131.888   35.829    0.236
   51.673  153.135   35.520    0.229
   52.493  168.211   32.829    0.221
   53.314  148.369   32.916    0.226
   54.134  151.481   34.215    0.241
   54.954  189.231   33.530    0.240
   55.774  211.696   31.193    0.260
   56.594  220.124   28.106    0.256
   57.415  208.891   28.193    0.225
   58.235  174.415   31.498    0.218
   59.055  165.514   31.585    0.228
   59.875  192.298   30.482    0.246
   60.696  218.961   28.563    0.280
   61.516  211.883   27.085    0.259
   62.336  197.183   30.346    0.250
   63.156  170.877   32.395    0.239
   63.976  174.354   35.281    0.242
   64.797  217.938   34.574    0.261
   65.617  218.478   33.471    0.266
   66.437  199.884   33.580    0.234
   67.257  204.076   33.688    0.217
   68.077  216.117   33.732    0.218
   68.898  205.088   36.640    0.228
   69.718  180.784   37.498    0.264
   70.538  181.232   35.205    0.287
   71.358  172.089   34.917    0.315
   72.178  148.947   36.194    0.326
   72.999  133.801   37.471    0.338
   73.819  204.383   36.765    0.308
   74.639  228.788   34.053    0.312
   75.459  209.187   27.792    0.323
   76.279  162.344   27.085    0.325
   77.100  128.315   29.553    0.330
   77.920  117.467   32.857    0.335
   78.740  122.219   34.531    0.333
   79.560  126.928   33.406    0.330
   80.381  144.707   32.325    0.324
   81.201  174.170   34.792    0.320
   82.021  213.632   34.879    0.331
   82.841  184.903   32.586    0.330
   83.661  157.235   30.667    0.324
   84.482  160.632   29.960    0.314
   85.302  179.813   31.656    0.322
   86.122  144.656   33.770    0.330
   86.942  108.165   34.211    0.332
   87.763   87.070   36.743    0.340
   88.583   97.407   36.787    0.354
   89.403  148.790   32.510    0.322
   90.223  172.974   29.401    0.302
   91.043  149.620   29.906    0.263
   91.864  124.849   32.770    0.239
   92.684  127.468   36.450    0.270
   93.504  130.222   39.314    0.314
   94.324   82.597   43.016    0.331
   95.144   61.800   45.065    0.338
   95.965   67.884   46.761    0.348
   96.785   81.705   46.847    0.341
   97.605   96.618   42.152    0.329
   98.425  112.184   39.880    0.326
   99.245  106.459   38.755    0.334
  100.066   97.338   37.298    0.336
  100.886   79.801   37.738    0.335
  101.706   69.112   41.043    0.332
  102.526   62.084   43.136    0.323
  103.346   69.455   43.597    0.323
  104.167   70.955   42.076    0.331
  104.987   62.547   39.010    0.336
  105.807   52.256   39.494    0.337
  106.627   65.238   39.956    0.346
  107.448   64.215   41.630    0.353
  108.268   49.804   42.951    0.348
  109.088   42.378   41.032    0.349
  109.908   47.438   39.929    0.351
  110.728   39.560   42.793    0.347
  111.549   22.914   45.679    0.348
  112.369   46.047   43.782    0.343
  113.189   57.522   41.864    0.337
  114.009   38.566   39.195    0.325
  114.829   46.390   38.467    0.318
  115.650   63.499   37.761    0.325
  116.470   75.089   36.304    0.330
  117.290   66.231   36.347    0.332
  118.110   60.594   36.434    0.334
  118.930   75.648   34.559    0.321
  119.751   99.829   33.831    0.332
  120.571  101.986   33.918    0.342
  121.391   95.028   34.842    0.348
  122.211   93.479   32.924    0.342
  123.031   88.709   27.037    0.344
  123.852   81.159   23.532    0.348
  124.672   69.015   28.402    0.346
  125.492   49.752   40.457    0.336
  126.312   27.765   43.299    0.327
  127.133   22.763   46.582    0.323
  127.953   43.328   43.495    0.326
  128.773   53.145   39.989    0.315
  129.593   34.310   40.495    0.322
  130.413   27.619   43.359    0.331
  131.234   38.502   52.615    0.332
  132.054   23.544   53.892    0.335
  132.874   24.038   52.392    0.322
  133.694   39.505   48.093    0.306
  134.514   46.744   43.419    0.299
  135.335   50.384   42.316    0.301
  136.155   30.252   46.370    0.291
  136.975   17.512   58.007    0.273
  137.795   16.021   61.311    0.295
  138.615   28.886   49.849    0.318
  139.436   55.929   46.343    0.322
  140.256  123.229   41.647    0.331
  141.076  178.077   34.989    0.325
  141.896  210.581   29.103    0.331
  142.717  175.826   39.925    0.326
  143.537  138.971   38.865    0.302
  144.357  100.183   36.528    0.292
  145.177  158.730   29.473    0.296
  145.997  362.756   27.554    0.307
  146.818  135.313   35.598    0.316
  147.638   82.745   40.071    0.324
  148.458   82.950   44.169    0.326
  149.278  124.488   41.854    0.312
  150.098  139.266   38.789    0.318
  150.919  129.765   39.648    0.329
  151.739  108.281   46.104    0.328
  152.559  100.893   47.778    0.316
  153.379  266.898   43.898    0.305
  154.199  621.214   37.240    0.302
  155.020  966.423   34.528    0.304
  155.840  968.816   30.625    0.299
  156.660  186.992   30.316    0.287
  157.480   71.082   48.322    0.264
  158.301   60.408   56.366    0.272
  159.121   49.524   60.839    0.276
  159.941   44.488   63.307    0.263
  160.761  189.436   52.681    0.241
  161.581  539.150   40.800    0.264
  162.402  838.755   28.169    0.276
  163.222  991.238   24.288    0.293
  164.042  923.610   25.566    0.310
  164.862  429.313   28.827    0.311
  165.682  210.805   37.708    0.301
  166.503  231.558   44.958    0.286
  167.323  347.300   47.007    0.289
  168.143  100.290   51.480    0.295
  168.963   65.981   55.578    0.287
  169.783   71.207   54.475    0.279
  170.604  103.028   55.752    0.284
  171.424   87.503   61.791    0.281
  172.244   58.667   65.073    0.272
  173.064   61.003   63.573    0.277
  173.885   65.795   64.872    0.268
  174.705   68.499   63.350    0.270
  175.525   61.458   59.845    0.269
  176.345   53.226   61.937    0.278
  177.165   79.830   58.035    0.270
