~VERSION INFORMATION
 VERS.                 2.0:   CWLS LOG ASCII STANDARD -VERSION 2.0
 WRAP.                  NO:   ONE LINE PER DEPTH STEP
~WELL INFORMATION BLOCK
#MNEM.UNIT           DATA                    DESCRIPTION OF MNEMONIC
#---------    -------------------            -------------------------------
# Generated from Intellog Unique Number	CN_94_101/WELL/2348
WELL.         01-06-098-10W4                 : Well_name    - WELL
LOC .         AA/01-06-098-10W4/0            : Location     - LOCATION
UWI .         AA/01-06-098-10W400            : Uwi          - UNIQUE WELL ID
ENTR.         TIM                            : Entered      - ENTERED BY
SRVC.         SCHLUMBERGER                   : Scn          - SERVICE COMPANY
DATE.         08/13/92                       : Date         - LOG DATE
STRT.M        0                              : top_depth    - START DEPTH
STOP.M        75                             : bot_depth    - STOP DEPTH
STEP.M        0.25                           : increment    - STEP LENGTH
 NULL. -999.2500:NULL Value
~CURVE INFORMATION BLOCK
#MNEM UNIT       ERCB CURVE CODE    CURVE DESCRIPTION
#-----------   ------------------   ----------------------------------
DEPT.M        00 001 00 00         : DEPTH        - DEPTH
DPHI.V/V      00 890 00 00         : PHID         - DENSITY POROSITY (SANDSTONE)
NPHI.V/V      00 330 00 00         : PHIN         - NEUTRON POROSITY (SANDSTONE)
ILD .OHMM     00 120 00 00         : RESD         - DEEP RESISTIVITY (DIL)
GR  .API      00 310 00 00         : GR           - GAMMA RAY
~PARAMETER INFORMATION
#MNEM.UNIT           DATA             DESCRIPTION OF MNEMONIC
#---------         -----------     ------------------------------
GL  .M        253.64               : gl           - GROUND LEVEL ELEVATION
EREF.M        253.64               : kb           - ELEVATION OF DEPTH REFERENCE
DATM.M        253.64               : datum        - DATUM ELEVATION
TDD .M        79.2                 : tdd          - TOTAL DEPTH DRILLER
RUN .         ONE                  : Run          - RUN NUMBER
ENG .         JO                   : Engineer     - RECORDING ENGINEER
WIT .         TIM                  : Witness      - WITNESSED BY
MUD .         GEL                  : Mud_type     - MUD TYPE
MATR.         SANDSTONE            : Logunit      - NEUTRON MATRIX
TMAX.C        10                   : BHT          - MAXIMUM RECORDED TEMPERATURE
BHTD.M        79.2                 : BHTDEP       - MAXIMUM RECORDED TEMPERATURE
RMT .C        10                   : MDTP         - TEMPERATURE OF MUD
MUDD.KG/M     1000                 : MWT          - MUD DENSITY
NEUT.         1                    : NEUTRON      - NEUTRON TYPE
RESI.         0                    : RESIST       - RESISTIVITY TYPE
RM  .OHMM     15                   : RM           - RESISTIVITY OF MUD
RMC .OHMM     15                   : RMC          - RESISTIVITY OF MUD CAKE
RMF .OHMM     15                   : RMF          - RESISTIVITY OF MUD FILTRATE
SUFT.C        4                    : SUFT         - SURFACE TEMPERATURE
~A  DEPTH     PHID     PHIN     RESD       GR
# ...
   43.500    0.311    0.511  132.870   38.380
   43.750    0.309    0.560  136.857   37.164
   44.000    0.307    0.581  135.096   37.806
   44.250    0.307    0.594  129.576   39.077
   44.500    0.311    0.585  120.755   38.483
   44.750    0.315    0.586   94.864   54.675
   45.000    0.316    0.528   60.160   70.860
   45.250    0.318    0.496   44.009   87.667
   45.500    0.317    0.543   43.431   92.666
   45.750    0.311    0.564   45.377   69.078
   46.000    0.305    0.568   51.643   79.049
   46.250    0.300    0.547   57.943   90.884
   46.500    0.303    0.561   39.471   84.697
   46.750    0.309    0.583   38.402   59.244
   47.000    0.309    0.582   48.292   44.357
   47.250    0.308    0.589   67.120   38.791
   47.500    0.307    0.599   84.429   50.626
   47.750    0.306    0.599   80.979   56.868
   48.000    0.308    0.594   77.669   51.302
   48.250    0.309    0.590   72.401   41.386
   48.500    0.312    0.588   70.440   37.070
   48.750    0.316    0.586   67.561   42.069
   49.000    0.320    0.586   66.692   47.062
   49.250    0.325    0.586   64.851   54.547
   49.500    0.331    0.575   60.452   58.310
   49.750    0.338    0.548   50.278   59.580
   50.000    0.339    0.525   40.640   58.986
   50.250    0.339    0.514   35.774   57.149
   50.500    0.343    0.485   31.507   54.690
   50.750    0.349    0.493   36.383   54.711
   51.000    0.358    0.508   32.953   69.660
   51.250    0.372    0.523   29.424   77.767
   51.500    0.359    0.552   25.186   79.658
   51.750    0.330    0.576   24.504   83.415
   52.000    0.348    0.567   24.529   83.442
   52.250    0.360    0.553   26.748   80.362
   52.500    0.347    0.534   31.323   72.310
   52.750    0.337    0.508   37.206   56.801
   53.000    0.324    0.491   38.322   49.993
   53.250    0.318    0.479   34.227   50.641
   53.500    0.322    0.486   28.875   49.426
   53.750    0.328    0.497   24.710   45.103
   54.000    0.334    0.506   21.145   43.888
   54.250    0.337    0.510   19.157   42.679
   54.500    0.339    0.506   17.119   38.349
   54.750    0.343    0.502   16.646   37.755
   55.000    0.344    0.502   16.195   47.726
   55.250    0.341    0.501   15.761   50.861
   55.500    0.334    0.496   15.554   45.295
   55.750    0.329    0.489   15.350   45.944
   56.000    0.331    0.487   15.148   52.186
   56.250    0.329    0.494   15.164   55.942
   56.500    0.320    0.567   15.180   52.240
   56.750    0.317    0.517   14.977   46.053
   57.000    0.315    0.476   14.997   50.431
   57.250    0.310    0.451   15.012   51.708
   57.500    0.306    0.482   14.819   51.114
   57.750    0.310    0.484   14.831   50.513
   58.000    0.310    0.519   14.846   53.648
   58.250    0.299    0.511   15.292   58.654
   58.500    0.282    0.463   15.977   70.489
   58.750    0.256    0.412   16.456  122.104
   59.000    0.251    0.466   15.556  149.476
   59.250    0.209    0.595   12.396  151.996
   59.500    0.213    0.596   12.060  147.667
   59.750    0.217    0.591   12.785  137.129
   60.000    0.221    0.594   12.798  133.428
   60.250    0.225    0.600   12.808  140.291
   60.500    0.233    0.605   12.640  149.033
   60.750    0.240    0.602   12.838  146.567
   61.000    0.243    0.600   12.859  144.102
   61.250    0.248    0.598   12.866  137.293
   61.500    0.251    0.597   12.879  129.242
   61.750    0.250    0.588   12.896   99.439
   62.000    0.250    0.545   12.723   78.330
   62.250    0.277    0.519   12.556   64.064
   62.500    0.287    0.572   12.395   62.227
   62.750    0.298    0.584   12.411   59.147
   63.000    0.310    0.597   12.418   56.067
   63.250    0.320    0.598   12.434   58.587
   63.500    0.324    0.590   12.629   57.993
   63.750    0.333    0.592   12.635   54.913
   64.000    0.346    0.592   12.649   52.455
   64.250    0.362    0.593   12.665   51.860
   64.500    0.363    0.595   12.675   52.509
   64.750    0.274    0.596   12.874   58.744
   65.000    0.225    0.596   12.887  133.982
   65.250    0.185    0.595   12.904  137.117
   65.500    0.189    0.595   12.915  134.659
   65.750    0.193    0.596   13.117  129.093
   66.000    0.195    0.596   13.316  122.906
   66.250    0.198    0.596   13.912  119.826
   66.500    0.194    0.596   14.330  123.582
   66.750    0.193    0.593   14.146  127.959
   67.000    0.192    0.590   13.960  126.744
   67.250    0.187    0.586   13.582  123.049
   67.500    0.186    0.585   13.403  118.720
   67.750    0.180    0.585   13.044  113.775
   68.000    0.177    0.583   13.054  108.831
   68.250    0.169    0.582   12.883  108.237
   68.500    0.155    0.576   12.899  112.615
   68.750    0.137    0.568   13.283  118.242
   69.000    0.126    0.553   14.488  118.269
   69.250    0.127    0.527   14.504  116.426
   69.500    0.037    0.504   15.153  107.753
   69.750    0.022    0.426   15.832   99.701
   70.000    0.025    0.341   16.779   96.628
   70.250    0.029    0.265   19.091   99.756
   70.500    0.037    0.308   19.951  104.140
   70.750    0.042    0.339   18.865  107.268
   71.000    0.048    0.434   17.086  114.132
   71.250    0.077    0.559   16.623  111.680
   71.500    0.123    0.580   16.173  116.672
   71.750    0.179    0.586   15.735  126.650
   72.000    0.187    0.585   15.533  132.270
   72.250    0.192    0.582   15.549  132.933
   72.500    0.204    0.579   15.561  130.461
   72.750    0.206    0.573   15.805  123.659
   73.000    0.199    0.566   16.053  121.194
   73.250    0.186    0.562   16.301  117.492
   73.500    0.176    0.552   16.790  110.684
   73.750    0.158    0.530   17.794  102.625
   74.000    0.139    0.527   19.128   87.116
   74.250    0.109    0.499   20.853   60.427
   74.500    0.083    0.478   23.066   67.905
   74.750    0.082    0.449   27.806   67.933
   75.000    0.085    0.394   29.461   67.960
