~VERSION INFORMATION
 VERS.                 2.0:   CWLS LOG ASCII STANDARD -VERSION 2.0
 WRAP.                  NO:   ONE LINE PER DEPTH STEP
~WELL INFORMATION BLOCK
#MNEM.UNIT           DATA                    DESCRIPTION OF MNEMONIC
#---------    -------------------            -------------------------------
# Generated from Intellog Unique Number	CN_94_101/WELL/2832
WELL.         06-08-096-14W4                 : Well_name    - WELL
LOC .         AA/06-08-096-14W4/0            : Location     - LOCATION
UWI .         AA/06-08-096-14W400            : Uwi          - UNIQUE WELL ID
ENTR.         JOETTE                         : Entered      - ENTERED BY
SRVC.         SCHLUMBERGER                   : Scn          - SERVICE COMPANY
DATE.         07/07/92                       : Date         - LOG DATE
STRT.M        40                             : top_depth    - START DEPTH
STOP.M        310                            : bot_depth    - STOP DEPTH
STEP.M        0.25                           : increment    - STEP LENGTH
 NULL. -999.2500:NULL Value
~CURVE INFORMATION BLOCK
#MNEM UNIT       ERCB CURVE CODE    CURVE DESCRIPTION
#-----------   ------------------   ----------------------------------
DEPT.M        00 001 00 00         : DEPTH        - DEPTH
CALI.MM       00 280 01 00         : CAL          - CALIPER
GR  .API      00 310 00 00         : GR           - GAMMA RAY
NPHI.V/V      00 330 00 00         : PHIN         - NEUTRON POROSITY (SANDSTONE)
DPHI.V/V      00 890 00 00         : PHID         - DENSITY POROSITY (SANDSTONE)
ILD .OHMM     00 120 00 00         : RESD         - DEEP RESISTIVITY (DIL)
~PARAMETER INFORMATION
#MNEM.UNIT           DATA             DESCRIPTION OF MNEMONIC
#---------         -----------     ------------------------------
GL  .M        559.67               : gl           - GROUND LEVEL ELEVATION
EREF.M        562.67               : kb           - ELEVATION OF DEPTH REFERENCE
DATM.M        562.67               : datum        - DATUM ELEVATION
TDD .M        320                  : tdd          - TOTAL DEPTH DRILLER
RUN .         ONE                  : Run          - RUN NUMBER
ENG .         JO                   : Engineer     - RECORDING ENGINEER
WIT .         TIM                  : Witness      - WITNESSED BY
MUD .         GEL                  : Mud_type     - MUD TYPE
MATR.         SANDSTONE            : Logunit      - NEUTRON MATRIX
TMAX.C        17                   : BHT          - MAXIMUM RECORDED TEMPERATURE
BHTD.M        320                  : BHTDEP       - MAXIMUM RECORDED TEMPERATURE
RMT .C        15                   : MDTP         - TEMPERATURE OF MUD
MUDD.KG/M     1120                 : MWT          - MUD DENSITY
NEUT.         1                    : NEUTRON      - NEUTRON TYPE
RESI.         0                    : RESIST       - RESISTIVITY TYPE
RM  .OHMM     0.709                : RM           - RESISTIVITY OF MUD
RMC .OHMM     0.709                : RMC          - RESISTIVITY OF MUD CAKE
RMF .OHMM     0.709                : RMF          - RESISTIVITY OF MUD FILTRATE
SUFT.C        4                    : SUFT         - SURFACE TEMPERATURE
~A  DEPTH      CAL       GR     PHIN     PHID     RESD
# ...
  149.500  160.283   48.631    0.548    0.278   10.733
  149.750  155.567   43.444    0.555    0.283   15.593
  150.000  153.770   37.695    0.552    0.285   26.293
  150.250  152.010   36.617    0.527    0.277   34.246
  150.500  152.084   36.706    0.503    0.320   34.291
  150.750  151.260   36.212    0.495    0.351   33.154
  151.000  150.511   31.653    0.482    0.380   30.299
  151.250  150.585   32.910    0.449    0.394   29.254
  151.500  150.697   34.751    0.447    0.385   28.246
  151.750  150.883   36.008    0.452    0.385   26.807
  152.000  151.032   34.907    0.450    0.389   26.367
  152.250  151.181   32.661    0.445    0.381   25.952
  152.500  150.357   31.583    0.445    0.380   27.022
  152.750  150.543   31.088    0.448    0.388   28.118
  153.000  150.692   31.178    0.442    0.387   29.239
  153.250  149.793   30.706    0.442    0.389   29.905
  153.500  149.979   30.795    0.431    0.385   30.526
  153.750  150.165   32.052    0.435    0.382   30.587
  154.000  150.352   32.141    0.442    0.382   30.669
  154.250  150.426   29.918    0.443    0.380   29.651
  154.500  151.622   29.379    0.437    0.377   29.710
  154.750  151.734   28.862    0.429    0.377   29.830
  155.000  151.734   28.951    0.430    0.374   30.449
  155.250  150.123   29.041    0.447    0.372   31.081
  155.500  152.181   30.948    0.458    0.371   33.608
  155.750  152.367   31.577    0.451    0.376   33.653
  156.000  152.441   32.834    0.445    0.371   33.145
  156.250  152.628   33.507    0.442    0.369   32.023
  156.500  152.814   33.012    0.433    0.370   29.814
  156.750  152.888   31.956    0.438    0.372   28.257
  157.000  153.037   32.023    0.446    0.369   26.800
  157.250  154.233   33.864    0.446    0.367   26.395
  157.500  154.345   37.456    0.440    0.370   26.925
  157.750  154.494   39.881    0.437    0.373   27.033
  158.000  154.606   41.160    0.439    0.377   26.084
  158.250  154.829   41.811    0.448    0.373   24.284
  158.500  154.904   42.507    0.449    0.362   22.608
  158.750  156.063   44.347    0.441    0.367   18.486
  159.000  157.147   47.962    0.452    0.368   16.269
  159.250  162.161   51.554    0.453    0.368   11.469
  159.500  167.175   56.875    0.447    0.364    9.199
  159.750  166.351   62.847    0.438    0.348    7.952
  160.000  166.537   61.747    0.463    0.313    7.268
  160.250  168.595   61.252    0.494    0.307    6.637
  160.500  170.727   65.451    0.495    0.298    6.184
  160.750  174.805   70.188    0.487    0.301    6.196
  161.000  178.809   74.386    0.488    0.328    6.217
  161.250  184.796   74.476    0.479    0.332    6.123
  161.500  189.810   73.981    0.497    0.327    5.908
  161.750  195.834   75.822    0.526    0.302    5.206
  162.000  200.885   79.998    0.523    0.303    4.844
  162.250  202.943   82.445    0.522    0.308    4.424
  162.500  206.011   80.805    0.528    0.287    4.195
  162.750  209.116   79.682    0.535    0.283    4.212
  163.000  211.174   77.436    0.543    0.270    4.218
  163.250  213.343   76.380    0.555    0.253    4.311
  163.500  215.401   75.886    0.556    0.256    4.652
  163.750  216.486   76.537    0.535    0.263    4.582
  164.000  217.607   77.232    0.522    0.270    4.185
  164.250  219.777   77.905    0.524    0.272    3.754
  164.500  220.861   78.556    0.538    0.273    3.695
  164.750  222.058   79.274    0.538    0.272    3.707
  165.000  222.170   79.319    0.539    0.268    3.715
  165.250  221.383   80.576    0.554    0.274    3.730
  165.500  221.457   82.439    0.599    0.276    3.737
  165.750  221.606   85.447    0.572    0.272    3.745
  166.000  220.782   86.704    0.562    0.272    3.757
  166.250  220.931   84.436    0.560    0.272    3.762
  166.500  220.144   82.774    0.579    0.272    3.845
  166.750  220.256   82.863    0.560    0.273    3.858
  167.000  220.405   82.953    0.553    0.274    3.863
  167.250  220.553   81.874    0.549    0.273    3.949
  167.500  219.729   78.505    0.576    0.280    3.959
  167.750  219.878   77.966    0.586    0.284    3.967
  168.000  220.064   76.304    0.600    0.282    3.836
  168.250  220.176   72.891    0.594    0.275    3.843
  168.500  220.399   71.229    0.588    0.268    3.856
  168.750  220.474   74.259    0.583    0.261    3.942
  169.000  219.650   74.349    0.581    0.256    4.023
  169.250  218.863   72.687    0.580    0.266    4.031
  169.500  218.039   72.192    0.566    0.281    4.123
  169.750  218.188   72.304    0.574    0.282    4.132
  170.000  217.364   72.932    0.595    0.279    4.217
  170.250  216.540   73.606    0.595    0.264    4.229
  170.500  215.678   73.111    0.588    0.269    4.243
  170.750  214.854   69.136    0.586    0.275    4.254
  171.000  213.057   69.225    0.595    0.282    4.265
  171.250  212.196   68.731    0.593    0.289    4.280
  171.500  210.436   66.440    0.563    0.291    4.285
  171.750  210.548   63.049    0.532    0.279    4.224
  172.000  207.815   62.532    0.545    0.287    4.229
  172.250  205.045   63.250    0.576    0.295    4.089
  172.500  203.210   63.901    0.603    0.300    4.022
  172.750  201.450   66.326    0.597    0.299    3.675
  173.000  198.717   69.918    0.580    0.303    3.295
  173.250  197.856   72.342    0.558    0.307    2.852
  173.500  196.995   77.102    0.556    0.303    2.856
  173.750  195.235   76.024    0.567    0.270    2.856
  174.000  193.475   74.946    0.564    0.222    3.096
  174.250  193.550   75.641    0.585    0.267    2.879
  174.500  192.763   76.314    0.561    0.294    2.943
  174.750  191.901   76.987    0.563    0.313    3.004
  175.000  191.077   77.705    0.581    0.304    3.016
  175.250  189.317   77.772    0.588    0.304    3.020
  175.500  188.456   77.233    0.596    0.313    3.087
  175.750  187.632   74.987    0.608    0.311    3.095
  176.000  187.781   72.741    0.617    0.293    3.101
  176.250  187.930   71.079    0.606    0.276    3.170
  176.500  190.998   75.839    0.589    0.250    3.176
  176.750  195.076   78.286    0.608    0.219    3.189
  177.000  198.181   78.398    0.597    0.192    3.134
  177.250  199.229   79.049    0.550    0.274    3.145
  177.500  201.435   80.283    0.550    0.307    3.153
  177.750  201.472   79.811    0.557    0.297    3.162
  178.000  201.658   77.565    0.556    0.283    3.172
  178.250  201.807   75.319    0.554    0.284    3.176
  178.500  200.946   75.409    0.555    0.305    3.185
  178.750  200.196   74.353    0.552    0.292    3.255
  179.000  200.308   73.814    0.555    0.298    3.515
  179.250  197.575   72.151    0.565    0.296    3.726
  179.500  196.714   69.344    0.564    0.278    3.806
  179.750  194.917   68.266    0.579    0.283    3.746
  180.000  192.147   66.020    0.593    0.294    3.687
  180.250  188.441   64.897    0.611    0.299    3.979
  180.500  186.569   59.755    0.609    0.305    4.802
  180.750  182.863   60.405    0.542    0.310    6.128
  181.000  180.992   61.707    0.495    0.305    7.539
  181.250  175.340   62.336    0.481    0.296    8.299
  181.500  172.570   63.592    0.464    0.284    7.580
  181.750  171.746   66.062    0.468    0.287    6.675
  182.000  173.841   67.296    0.481    0.300    5.984
  182.250  176.909   67.992    0.476    0.310    5.173
  182.500  178.030   67.475    0.481    0.308    4.998
  182.750  174.250   67.003    0.497    0.297    5.401
  183.000  167.625   65.925    0.511    0.293    5.828
  183.250  162.909   64.240    0.536    0.303    9.131
  183.500  161.112   59.659    0.561    0.291    9.679
  183.750  160.288   54.472    0.530    0.286   10.072
  184.000  159.501   56.357    0.518    0.284   10.280
  184.250  158.640   57.570    0.490    0.249   10.119
  184.500  158.751   58.827    0.468    0.231    9.966
  184.750  158.900   56.019    0.471    0.261    9.809
  185.000  159.124   54.357    0.478    0.281    9.648
  185.250  159.235   52.695    0.490    0.289    9.674
  185.500  159.384   52.784    0.479    0.319    9.353
  185.750  161.479   53.458    0.471    0.328    9.036
