~Version : LASO    vs 4.00
VERS.                2.00:   CWLS Log ASCII Standard -VERSION 2.0
WRAP.                  NO:
~Well Information Block
#MNEM.UNIT       Data                        Description of Mnemonic
#----.----      -------------------------- : -----------------------------
STRT.M            11.0000:
STOP.M           176.0000:
STEP.M             0.1000:
NULL.           -999.2500:
COMP.  MOBIL OIL CANADA LTD.  :COMPANY
WELL.  MOBIL CLARKE OV 5-32   :WELL
FLD.   CLARKE                 :FIELD
LOC.   05-32-089-08W4         :LOCATION
CTRY.  CANADA                 :COUNTRY
PROV.  ALBERTA                :PROVINCE
SRVC.  SCHLUMBERGER           :SERVICE COMPANY
DATE.  04-MAR-81              :LOG DATE
UWI.   AA/05-32-089-08W400    :UNIQUE WELL ID
~Parameter Information Block
#MNEM.UNIT       Data                        Description of Mnemonic
#----.----      -------------------------- : -----------------------------
RUN .                   1                 : Run Number
GL  .M           391.1000                 : Ground Level Elevation
DREF.                  KB                 : Depth Reference
EREF.M           394.5000                 : Elevation of Depth Reference
TDL .M           176.5000                 : Total Depth Logger
TDD .M           174.0000                 : Total Depth Driller
CSGL.M            16.0000                 : Casing Bottom Logger
CSGD.M            14.6000                 : Casing Bottom Driller
CSGS.MM          219.0000                 : Casing Size
CSGW.KG/M          0.0000                 : Casing Weight
BHT .DEGC         23.0000                 : Bottom Hole Temperature
BS  .MM          159.0000                 : Bit Size
DFD .           1110.0000                 : Mud Weight (Density)
DFV .             90.0000                 : Mud Viscosity
DFPH.             10.0000                 : Mud pH
RM  .OHMM          1.9600                 : Mud Resistivity
RMT .DEGC         20.0000                 : Mud Resistivity Temperature
~Curve Information Block
#MNEM.UNIT        API CODE    Curve Description
#---------    ------------    -------------------------------------------
DEPT.M                    :   DEPTH
CALI.MM       42 280  1  1:   3 DENSITY CALIPER
DPHI.V/V                  :   DPHI
DT  .US/M     60 520  0  1:   2 SONIC INTERVAL TRANSIT TIME (COMPENSATED)
GR  .GAPI     42 310  1  1:   4 GAMMA RAY
ILD .OHMM      5 120 46  1:   6 DEEP INDUCTION
ILM .OHMM      5 120 44  1:   7 MEDIUM INDUCTION
NPHI.V/V                  :   NPHI
RHOB.K/M3     42 350  1  1:   5 BULK DENSITY
SFLU.OHMM      5 220  1  1:   8 FOCUSSED RESISTIVITY
SP  .MV        5  10  1  1:   9 SPONTANEOUS POTENTIAL
~A  Depth           CALI        DPHI          DT          GR         ILD         ILM        NPHI        RHOB        SFLU          SP
# ...
139.1000        167.2750      0.2533    444.0800     77.2350     22.8997     26.5357      0.3772   2184.0000     32.7967   -101.0100
139.2000        167.2750      0.2420    450.6800     80.5050     19.7620     23.9789      0.3824   2204.0000     23.7591    -99.2550
139.3000        167.2750      0.2333    454.3600     85.2600     19.7620     23.9789      0.3853   2204.0000     23.7591    -99.2550
139.4000        167.2750      0.2248    456.5200     92.2950     13.9261     16.4373      0.3881   2215.0000     41.2886    -97.7550
139.5000        167.2750      0.2098    452.0800     99.3300     13.9261     16.4373      0.3923   2215.0000     41.2886    -97.7550
139.6000        163.4500      0.1998    446.3200    106.3650     12.2414     12.3546      0.3937   2211.0000     37.6556   -102.0000
139.7000        163.4500      0.1886    438.6400    110.5950     12.2414     12.3546      0.3933   2211.0000     37.6556   -102.0000
139.8000        162.1750      0.1813    431.1600    112.4100     11.1643     10.0886      0.3915   2239.0000     14.3163   -100.2600
139.9000        162.1750      0.1780    425.3200    113.0700     11.1643     10.0886      0.3883   2239.0000     14.3163   -100.2600
140.0000        172.3750      0.1733    419.4800    113.4000     10.3712      9.1165      0.3853   2290.0000      6.6655    -95.7600
140.1000        172.3750      0.1700    414.9600    113.6400     10.3712      9.1165      0.3831   2290.0000      6.6655    -95.7600
140.2000        176.2000      0.1670    412.9600    113.8650      9.1165      8.3913      0.3810   2357.0000      6.7894    -90.0000
140.3000        176.2000      0.1621    412.3200    112.8900      9.1165      8.3913      0.3808   2357.0000      6.7894    -90.0000
140.4000        172.3750      0.1591    413.5600    112.0050      8.6264      8.1626      0.3807   2367.0000      7.8674    -89.5050
140.5000        172.3750      0.1577    415.0400    111.1050      8.6264      8.1626      0.3807   2367.0000      7.8674    -89.5050
140.6000        180.0250      0.1592    417.6800    113.7600      8.4690      8.0878      0.3814   2386.0000      8.0878    -90.0000
140.7000        180.0250      0.1635    416.2000    115.0800      8.4690      8.0878      0.3838   2386.0000      8.0878    -90.0000
140.8000        174.9250      0.1674    415.0000    115.5000      8.3144      8.0136      0.3897   2402.0000      8.6264    -90.2550
140.9000        174.9250      0.1677    414.3200    116.0550      8.3144      8.0136      0.3954   2402.0000      8.6264    -90.2550
141.0000        168.5500      0.1650    416.0400    117.6600      8.3144      7.9402      0.3993   2395.0000      9.1165    -91.5000
141.1000        168.5500      0.1623    422.5600    119.2650      8.3144      7.9402      0.4021   2395.0000      9.1165    -91.5000
141.2000        174.9250      0.1673    427.8400    120.5850      8.2382      7.7238      0.4066   2378.0000      9.1165    -91.7550
141.3000        174.9250      0.1717    433.1200    121.6950      8.2382      7.7238      0.4091   2378.0000      9.1165    -91.7550
141.4000        181.3000      0.1730    438.4000    119.0250      8.0136      7.3762      0.4099   2391.0000      6.9156    -90.0000
141.5000        181.3000      0.1714    441.4400    116.4150      8.0136      7.3762      0.4112   2391.0000      6.9156    -90.0000
141.6000        182.5750      0.1712    443.4000    114.8700      7.8674      7.3762      0.4137   2380.0000      6.3071    -89.5050
141.7000        182.5750      0.1736    443.0400    113.3250      7.8674      7.3762      0.4149   2380.0000      6.3071    -89.5050
141.8000        176.2000      0.1745    442.8000    111.8250      7.7238      7.3085      0.4165   2353.0000      6.7894    -89.0100
141.9000        176.2000      0.1770    442.7600    110.3700      7.7238      7.3085      0.4191   2353.0000      6.7894    -89.0100
142.0000        185.1250      0.1839    448.6800    108.9150      7.5828      7.0442      0.4245   2368.0000      8.1626    -88.2600
142.1000        185.1250      0.1911    447.9600    105.6900      7.5828      7.0442      0.4332   2368.0000      8.1626    -88.2600
142.2000        186.4000      0.1936    447.0000    101.7000      7.5828      7.0442      0.4358   2378.0000      8.0878    -88.0050
142.3000        186.4000      0.1931    443.1600     97.1550      7.5828      7.0442      0.4304   2378.0000      8.0878    -88.0050
142.4000        185.1250      0.1950    439.2400     90.4800      7.6530      7.1094      0.4200   2351.0000      8.1626    -88.0050
142.5000        185.1250      0.2043    433.8800     77.6850      7.6530      7.1094      0.4096   2351.0000      8.1626    -88.0050
142.6000        182.5750      0.2208    426.5600     69.7950      7.7238      7.4444      0.4033   2331.0000      7.1751    -90.0000
142.7000        182.5750      0.2337    422.5600     65.1450      7.7238      7.4444      0.3981   2331.0000      7.1751    -90.0000
142.8000        173.6500      0.2445    434.4000     60.4950      7.8674      7.5133      0.3935   2335.0000      6.7894    -92.7600
142.9000        173.6500      0.2524    447.5600     55.8450      7.8674      7.5133      0.3875   2335.0000      6.7894    -92.7600
143.0000        174.9250      0.2609    463.8000     51.4050      8.2382      7.5828      0.3814   2325.0000      6.4838    -95.0100
143.1000        174.9250      0.2662    469.0400     48.5700      8.2382      7.5828      0.3764   2325.0000      6.4838    -95.0100
143.2000        174.9250      0.2678    476.7600     46.1250      8.7868      7.9402      0.3741   2307.8999      6.5438   -100.5150
143.3000        174.9250      0.2638    480.6400     48.0300      8.7868      7.9402      0.3728   2307.8999      6.5438   -100.5150
143.4000        162.1750      0.2598    465.4800     51.2100     10.8600     10.0886      0.3717   2193.0000     11.6904   -112.2600
143.5000        162.1750      0.2567    452.4400     54.3900     10.8600     10.0886      0.3702   2193.0000     11.6904   -112.2600
143.6000        166.0000      0.2521    438.8400     57.5550     11.6904     12.2414      0.3684   2208.0000     20.6933   -113.2500
143.7000        166.0000      0.2489    425.0400     60.7350     11.6904     12.2414      0.3708   2208.0000     20.6933   -113.2500
143.8000        167.2750      0.2458    412.4800     63.9150     12.4690     14.7174      0.3804   2219.0000     45.2720   -108.0000
143.9000        167.2750      0.2412    407.1200     66.2550     12.4690     14.7174      0.3879   2219.0000     45.2720   -108.0000
144.0000        168.5500      0.2359    405.8800     68.2650     13.1774     15.2697      0.3952   2250.8999    491.8469   -107.0100
144.1000        168.5500      0.2343    405.4400     67.8600     13.1774     15.2697      0.3922   2250.8999    491.8469   -107.0100
144.2000        166.0000      0.2358    437.2000     67.4550     13.1774     13.2993      0.3860   2252.0000     36.6294   -106.2600
144.3000        166.0000      0.2427    447.8400     64.3950     13.1774     13.2993      0.3798   2252.0000     36.6294   -106.2600
144.4000        172.3750      0.2519    458.0000     62.1600     12.8183     12.0179      0.3737   2261.8999      9.1165   -106.2600
144.5000        172.3750      0.2509    463.8000     64.5150     12.8183     12.0179      0.3676   2261.8999      9.1165   -106.2600
144.6000        159.6250      0.2467    465.8400     66.1950     10.5640     10.4672      0.3626   2221.0000      9.4587   -116.7600
144.7000        159.6250      0.2416    467.0800     69.2400     10.5640     10.4672      0.3593   2221.0000      9.4587   -116.7600
144.8000        159.6250      0.2374    457.6400     71.6550      9.6345      9.6345      0.3556   2221.0000     11.7986   -120.7500
144.9000        159.6250      0.2333    451.9200     72.6300      9.6345      9.6345      0.3634   2221.0000     11.7986   -120.7500
145.0000        158.3750      0.2350    447.3600     70.5000      8.8681      8.9501      0.3698   2250.0000     14.9910   -119.5050
145.1000        158.3750      0.2376    445.0800     68.1450      8.8681      8.9501      0.3745   2250.0000     14.9910   -119.5050
