~VERSION INFORMATION
 VERS.                 2.0:   CWLS LOG ASCII STANDARD -VERSION 2.0
 WRAP.                  NO:   ONE LINE PER DEPTH STEP
~WELL INFORMATION BLOCK
#MNEM.UNIT           DATA                    DESCRIPTION OF MNEMONIC
#---------    -------------------            -------------------------------
# Generated from Intellog Unique Number	CN_91_93/WELL/2675
WELL.         07-02-091-17W4                 : Well_name    - WELL
LOC .         AA/07-02-091-17W4/0            : Location     - LOCATION
UWI .         AA/07-02-091-17W400            : Uwi          - UNIQUE WELL ID
ENTR.         JOETTE                         : Entered      - ENTERED BY
SRVC.         SCHLUMBERGER                   : Scn          - SERVICE COMPANY
DATE.         02/11/92                       : Date         - LOG DATE
STRT.M        75                             : top_depth    - START DEPTH
STOP.M        240                            : bot_depth    - STOP DEPTH
STEP.M        0.25                           : increment    - STEP LENGTH
 NULL. -999.2500:NULL Value
~CURVE INFORMATION BLOCK
#MNEM UNIT       ERCB CURVE CODE    CURVE DESCRIPTION
#-----------   ------------------   ----------------------------------
DEPT.M        00 001 00 00         : DEPTH        - DEPTH
GR  .API      00 310 00 00         : GR           - GAMMA RAY
CALI.MM       00 280 01 00         : CAL          - CALIPER
NPHI.V/V      00 330 00 00         : PHIN         - NEUTRON POROSITY (SANDSTONE)
DPHI.V/V      00 890 00 00         : PHID         - DENSITY POROSITY (SANDSTONE)
ILD .OHMM     00 120 00 00         : RESD         - DEEP RESISTIVITY (DIL)
~PARAMETER INFORMATION
#MNEM.UNIT           DATA             DESCRIPTION OF MNEMONIC
#---------         -----------     ------------------------------
GL  .M        501                  : gl           - GROUND LEVEL ELEVATION
EREF.M        504.29               : kb           - ELEVATION OF DEPTH REFERENCE
DATM.M        504.29               : datum        - DATUM ELEVATION
TDD .M        241                  : tdd          - TOTAL DEPTH DRILLER
RUN .         ONE                  : Run          - RUN NUMBER
ENG .         JO                   : Engineer     - RECORDING ENGINEER
WIT .         TIM                  : Witness      - WITNESSED BY
MUD .         GEL                  : Mud_type     - MUD TYPE
MATR.         SANDSTONE            : Logunit      - NEUTRON MATRIX
TMAX.C        1.66667              : BHT          - MAXIMUM RECORDED TEMPERATURE
BHTD.M        241                  : BHTDEP       - MAXIMUM RECORDED TEMPERATURE
RMT .C        18                   : MDTP         - TEMPERATURE OF MUD
MUDD.KG/M     1000                 : MWT          - MUD DENSITY
NEUT.         1                    : NEUTRON      - NEUTRON TYPE
RESI.         0                    : RESIST       - RESISTIVITY TYPE
RM  .OHMM     7.3                  : RM           - RESISTIVITY OF MUD
RMC .OHMM     7.3                  : RMC          - RESISTIVITY OF MUD CAKE
RMF .OHMM     7.3                  : RMF          - RESISTIVITY OF MUD FILTRATE
SUFT.C        4                    : SUFT         - SURFACE TEMPERATURE
~A  DEPTH       GR      CAL     PHIN     PHID     RESD
   75.000   79.014  213.801    0.519    0.481    9.849
   75.250   82.961  220.383    0.517    0.457    9.662
   75.500   87.514  225.956    0.517    0.433    9.478
   75.750  103.270  226.985    0.522    0.407    9.044
   76.000  108.731  212.876    0.550    0.388    8.472
   76.250  100.571  200.283    0.569    0.384    8.235
   76.500   88.777  188.194    0.579    0.418    8.235
   76.750   83.036  194.773    0.590    0.484    8.298
   77.000   83.959  211.953    0.586    0.544    8.927
   77.250   83.367  215.505    0.582    0.338   10.727
   77.500   83.367  201.900    0.583    0.320   14.533
   77.750   82.481  196.373    0.584    0.342   18.454
   78.000   75.227  195.886    0.580    0.343   20.413
   78.250   63.738  206.504    0.578    0.357   24.529
   78.500   56.786  211.066    0.577    0.381   27.381
   78.750   53.468  222.186    0.578    0.421   28.644
   79.000   52.271  225.236    0.582    0.408   28.631
   79.250   50.771  240.392    0.592    0.472   28.872
   79.500   49.571  240.915    0.602    0.478   29.382
   79.750   48.673  252.542    0.590    0.427   30.189
   80.000   50.506  260.130    0.572    0.375   31.007
   80.250   51.423  249.051    0.479    0.364   31.277
   80.500   51.740  244.025    0.483    0.352   31.543
   80.750   51.751  237.487    0.496    0.335   31.808
   81.000   51.763  222.875    0.481    0.291   31.808
   81.250   52.989  202.210    0.484    0.288   31.749
   81.500   55.117  194.664    0.477    0.326   31.740
   81.750   57.552  202.250    0.472    0.356   31.740
   82.000   58.476  198.741    0.468    0.338   31.974
   82.250   59.093  196.746    0.472    0.301   31.956
   82.500   59.711  201.305    0.485    0.344   31.956
   82.750   60.326  203.343    0.474    0.355   31.906
   83.000   60.339  200.336    0.500    0.337   31.888
   83.250   59.445  200.863    0.513    0.367   31.554
   83.500   59.156  204.917    0.513    0.352   31.545
   83.750   59.471  202.420    0.483    0.364   31.232
   84.000   59.480  197.393    0.467    0.390   30.922
   84.250   59.189  193.884    0.463    0.356   30.896
   84.500   58.596  192.892    0.464    0.338   30.870
   84.750   58.003  199.472    0.470    0.370   30.570
   85.000   57.714  207.564    0.483    0.423   30.544
   85.250   58.331  221.714    0.502    0.444   30.521
   85.500   59.857  224.762    0.509    0.358   30.215
   85.750   61.991  196.023    0.486    0.320   30.199
   86.000   61.698  193.019    0.475    0.296   29.893
   86.250   59.894  195.055    0.476    0.318   29.874
   86.500   57.183  200.121    0.480    0.377   29.034
   86.750   55.379  221.839    0.496    0.429   27.201
   87.000   55.694  243.554    0.518    0.457   25.718
   87.250   62.366  270.819    0.525    0.455   23.219
   87.500   70.252  293.044    0.493    0.410   20.017
   87.750   73.592  302.144    0.534    0.390   15.308
   88.000   75.723  310.741    0.557    0.390   11.815
   88.250   75.434  288.562    0.571    0.427    7.724
   88.500   74.538  271.430    0.584    0.453    7.037
   88.750   73.035  276.998    0.598    0.430   11.465
   89.000   65.178  257.344    0.570    0.467   14.297
   89.250   57.925  233.648    0.524    0.400   17.990
   89.500   55.211  210.460    0.501    0.442   22.850
   89.750   46.445  208.967    0.538    0.458   25.038
   90.000   43.431  245.821    0.559    0.482   26.688
   90.250   45.260  231.209    0.574    0.470   27.414
   90.500   50.418  204.489    0.536    0.440   27.650
   90.750   52.549  199.969    0.515    0.413   27.370
   91.000   52.563  205.034    0.482    0.355   27.347
   91.250   51.665  208.586    0.490    0.339   27.585
   91.500   49.863  206.084    0.527    0.388   27.549
   91.750   49.271  210.650    0.540    0.403   27.541
   92.000   54.125  211.175    0.476    0.334   27.541
   92.250   57.467  212.706    0.465    0.382   27.500
   92.500   57.782  225.340    0.475    0.386   26.487
   92.750   57.492  214.765    0.543    0.386   26.207
   93.000   57.203  228.915    0.559    0.414   25.487
   93.250   58.123  216.826    0.521    0.294   25.000
   93.500   58.439  212.306    0.514    0.320   24.527
   93.750   58.453  218.885    0.515    0.331   23.617
   94.000   57.554  216.890    0.519    0.329   23.385
   94.250   55.750  215.898    0.520    0.329   22.940
   94.500   52.133  223.994    0.537    0.349   21.687
   94.750   52.142  225.023    0.496    0.347   19.763
   95.000   53.066  213.944    0.467    0.365   17.514
   95.250   51.259  235.659    0.502    0.486   16.559
   95.500   47.336  244.256    0.533    0.506   15.950
   95.750   42.807  218.041    0.563    0.518   15.361
   96.000   41.306  213.520    0.601    0.511   15.207
   96.250   44.648  240.791    0.597    0.487   16.211
   96.500   48.900  251.404    0.571    0.474   18.094
   96.750   52.548  270.092    0.545    0.462   19.826
   97.000   54.980  291.305    0.527    0.460   20.555
   97.250   57.414  313.021    0.490    0.473   20.540
   97.500   59.850  315.062    0.546    0.490   19.963
   97.750   61.677  309.530    0.571    0.506   19.223
   98.000   64.112  258.591    0.534    0.484   18.345
   98.250   65.042  257.603    0.500    0.368   17.026
   98.500   65.951  208.683    0.475    0.293   15.803
   98.750   71.110  212.739    0.465    0.299   13.012
   99.000   71.110  215.787    0.504    0.292   10.812
   99.250   72.952  214.798    0.563    0.315    8.659
   99.500   85.377  200.189    0.575    0.306    7.604
   99.750   91.442  199.201    0.559    0.256    5.157
  100.000   94.181  198.719    0.562    0.256    4.699
  100.250  100.247  194.196    0.578    0.278    4.052
  100.500  105.103  188.666    0.596    0.304    3.215
  100.750  108.144  187.175    0.603    0.309    2.984
  101.000  107.249  192.743    0.618    0.305    2.927
  101.250  109.076  198.818    0.613    0.298    3.007
  101.500  113.025  201.363    0.614    0.298    3.061
  101.750  112.432  203.407    0.626    0.298    3.114
  102.000  110.929  202.923    0.623    0.314    3.509
  102.250  108.822  202.438    0.624    0.311    3.411
  102.500  107.321  204.472    0.632    0.306    3.315
  102.750  109.756  208.531    0.634    0.285    3.282
  103.000  108.860  210.572    0.573    0.298    3.190
  103.250  107.360  211.599    0.579    0.303    3.101
  103.500  105.254  211.621    0.593    0.309    3.042
  103.750  104.358  210.630    0.609    0.297    3.154
  104.000  100.737  208.635    0.618    0.274    3.489
  104.250   92.877  206.639    0.605    0.250    3.753
  104.500   81.993  205.648    0.603    0.202    3.927
  104.750   79.280  205.166    0.609    0.198    3.922
  105.000   88.675  201.652    0.593    0.247    3.993
  105.250  102.312  195.621    0.542    0.274    4.027
  105.500  103.535  199.675    0.587    0.269    3.988
  105.750  101.734  202.727    0.580    0.277    3.912
  106.000  102.351  203.754    0.537    0.294    3.873
  106.250  102.664  204.277    0.528    0.272    3.942
  106.500  102.979  204.299    0.534    0.277    4.163
  106.750  102.689  204.325    0.534    0.288    5.096
  107.000  101.796  205.854    0.514    0.292    5.533
  107.250  100.596  211.424    0.509    0.268    5.952
  107.500   99.395  206.399    0.513    0.268    6.229
  107.750   92.749  203.394    0.560    0.252    6.229
  108.000   91.246  204.426    0.570    0.198    7.142
  108.250   83.993  201.924    0.483    0.152    8.904
  108.500   81.888  197.403    0.467    0.185    9.849
  108.750   80.992  201.457    0.482    0.211   12.392
  109.000   82.218  210.559    0.495    0.248   14.619
  109.250   82.218  223.700    0.479    0.263   15.158
  109.500   83.152  208.077    0.490    0.254   15.716
  109.750   85.278  206.586    0.502    0.250   15.557
  110.000   86.200  221.238    0.507    0.247   14.986
  110.250   87.121  229.334    0.509    0.263   13.780
  110.500   86.830  214.215    0.481    0.240   14.553
  110.750   85.031  203.141    0.456    0.216   17.488
  111.000   82.315  198.618    0.447    0.251   18.134
  111.250   78.996  194.095    0.440    0.287   19.327
