~VERSION INFORMATION
 VERS.                 2.0:   CWLS LOG ASCII STANDARD -VERSION 2.0
 WRAP.                  NO:   ONE LINE PER DEPTH STEP
~WELL INFORMATION BLOCK
#MNEM.UNIT           DATA                    DESCRIPTION OF MNEMONIC
#---------    -------------------            -------------------------------
# Generated from Intellog Unique Number	CX_WELLS/WELL/3682
WELL.         AMOCO C31 GREGOIRE             : Well_name    - WELL
LOC .         AA/06-24-085-08W4/0            : Location     - LOCATION
UWI .         AA/06-24-085-08W400            : Uwi          - UNIQUE WELL ID
ENTR.         T                              : Entered      - ENTERED BY
SRVC.         SCHLUMBERGER                   : Scn          - SERVICE COMPANY
DATE.         03/04/92                       : Date         - LOG DATE
STRT.F        200                            : top_depth    - START DEPTH
STOP.F        989.862                        : bot_depth    - STOP DEPTH
STEP.F        0.82                           : increment    - STEP LENGTH
 NULL. -999.2500:NULL Value
~CURVE INFORMATION BLOCK
#MNEM UNIT       ERCB CURVE CODE    CURVE DESCRIPTION
#-----------   ------------------   ----------------------------------
DEPT.F        00 001 00 00         : DEPTH        - DEPTH
GR  .API      00 310 00 00         : GR           - GAMMA RAY
NPHI.V/V      00 330 00 00         : PHIN         - NEUTRON POROSITY (SANDSTONE)
ILD .OHMM     00 120 00 00         : RESD         - DEEP RESISTIVITY (OTHER)
~PARAMETER INFORMATION
#MNEM.UNIT           DATA             DESCRIPTION OF MNEMONIC
#---------         -----------     ------------------------------
GL  .F        1738                 : gl           - GROUND LEVEL ELEVATION
EREF.F        1742                 : kb           - ELEVATION OF DEPTH REFERENCE
DATM.F        1742                 : datum        - DATUM ELEVATION
TDD .F        1008                 : tdd          - TOTAL DEPTH DRILLER
RUN .         ONE                  : Run          - RUN NUMBER
ENG .         JO                   : Engineer     - RECORDING ENGINEER
WIT .         TIM                  : Witness      - WITNESSED BY
MUD .         GEL                  : Mud_type     - MUD TYPE
MATR.         SANDSTONE            : Logunit      - NEUTRON MATRIX
TMAX.F        70                   : BHT          - MAXIMUM RECORDED TEMPERATURE
BHTD.F        1005                 : BHTDEP       - MAXIMUM RECORDED TEMPERATURE
RMT .F        60                   : MDTP         - TEMPERATURE OF MUD
MUDD.LB/G     1                    : MWT          - MUD DENSITY
NEUT.         1                    : NEUTRON      - NEUTRON TYPE
RESI.         4.27                 : RESIST       - RESISTIVITY TYPE
RM  .OHMM     4.27                 : RM           - RESISTIVITY OF MUD
RMC .OHMM     3.86                 : RMC          - RESISTIVITY OF MUD CAKE
RMF .OHMM     3                    : RMF          - RESISTIVITY OF MUD FILTRATE
SUFT.F        32.2                 : SUFT         - SURFACE TEMPERATURE
~A  DEPTH       GR     PHIN     RESD
# ...
  377.986  130.813    0.404   12.206
  378.806  131.242    0.403   12.202
  379.626  132.625    0.403   11.987
  380.446  133.550    0.401   11.978
  381.266  134.933    0.400   11.969
  382.087  134.886    0.397   11.962
  382.907  134.857    0.393   12.150
  383.727  134.343    0.391   12.346
  384.547  134.315    0.387   12.541
  385.367  134.754    0.385   12.938
  386.188  135.660    0.384   13.135
  387.008  135.146    0.390   13.532
  387.828  134.631    0.391   13.930
  388.648  134.117    0.390   14.328
  389.469  132.640    0.391   14.316
  390.289  132.126    0.392   14.106
  391.109  131.611    0.395   13.894
  391.929  128.723    0.399   15.100
  392.749  119.144    0.403   16.110
  393.570  112.910    0.405   17.929
  394.390  112.872    0.403   18.532
  395.210  115.675    0.401   18.726
  396.030  116.600    0.394   17.902
  396.850  117.507    0.393   17.488
  397.671  116.992    0.394   16.460
  398.491  114.562    0.396   16.045
  399.311  112.160    0.399   16.440
  400.131  110.216    0.400   16.225
  400.951  106.832    0.404   16.017
  401.772  102.505    0.405   15.193
  402.592   99.131    0.408   14.576
  403.412   89.551    0.410   14.364
  404.232   76.644    0.413   20.658
  405.052   73.251    0.411   23.900
  405.873   74.177    0.407   24.503
  406.693   76.045    0.406   25.709
  407.513   77.419    0.406   25.908
  408.333   77.876    0.406   26.509
  409.154   77.362    0.405   26.904
  409.974   75.418    0.404   26.893
  410.794   70.614    0.402   26.886
  411.614   63.885    0.403   26.877
  412.434   65.744    0.405   26.665
  413.255   67.155    0.406   26.453
  414.075   69.005    0.406   25.427
  414.895   69.463    0.405   24.196
  415.715   68.939    0.399   22.967
  416.535   67.948    0.389   22.346
  417.356   66.948    0.373   22.131
  418.176   66.920    0.352   22.533
  418.996   67.826    0.334   23.541
  419.816   67.798    0.307   24.548
  420.636   67.274    0.292   26.776
  421.457   66.769    0.264   64.183
  422.277   65.283    0.218   69.257
  423.097   64.301    0.226   72.501
  423.917   63.787    0.259   43.616
  424.738   64.216    0.402   33.644
  425.558   64.665    0.404   23.669
  426.378   64.618    0.407   16.745
  427.198   64.589    0.407   16.736
  428.018   65.019    0.406   16.727
  428.839   65.944    0.403   16.512
  429.659   66.859    0.399   16.300
  430.479   68.728    0.399   16.494
  431.299   70.588    0.402   16.691
  432.119   72.924    0.402   16.885
  432.940   73.858    0.400   16.061
  433.760   76.671    0.396   15.645
  434.580   79.484    0.395   15.839
  435.400   79.923    0.396   15.825
  436.220   79.399    0.400   15.414
  437.041   78.894    0.403   14.791
  437.861   78.866    0.403   14.583
  438.681   78.819    0.406   14.978
  439.501   78.790    0.407   15.173
  440.322   78.753    0.407   15.161
  441.142   77.762    0.405   14.949
  441.962   76.752    0.400   14.737
  442.782   75.752    0.398   14.524
  443.602   75.723    0.397   14.314
  444.423   75.676    0.399   14.506
  445.243   75.181    0.403   14.696
  446.063   73.713    0.405   14.484
  446.883   70.330    0.407   14.070
  447.703   70.769    0.407   13.860
  448.524   72.142    0.407   13.442
  449.344   72.600    0.406   13.435
  450.164   74.459    0.404   13.630
  450.984   75.375    0.405   13.621
  451.804   76.290    0.407   12.997
  452.625   75.767    0.408   12.785
  453.445   74.309    0.409   12.776
  454.265   70.925    0.407   13.173
  455.085   70.411    0.404   13.164
  455.906   71.803    0.400   12.952
  456.726   72.709    0.403   12.742
  457.546   72.690    0.406   12.118
  458.366   71.213    0.411   12.312
  459.186   69.746    0.409   12.509
  460.007   69.699    0.408   12.701
  460.827   70.138    0.408   12.491
  461.647   70.100    0.408   12.279
  462.467   70.072    0.408   12.267
  463.287   70.025    0.409   12.258
  464.108   70.473    0.409   12.249
  464.928   72.800    0.408   12.240
  465.748   74.201    0.407   12.231
  466.568   75.603    0.406   12.220
  467.388   76.995    0.407   12.005
  468.209   76.957    0.407   11.797
  469.029   76.434    0.408   11.583
  469.849   76.396    0.408   11.775
  470.669   77.302    0.406   11.967
  471.490   77.741    0.405   12.163
  472.310   78.647    0.406   12.157
  473.130   79.105    0.409   11.942
  473.950   79.535    0.411   11.732
  474.770   79.964    0.415   11.517
  475.591   79.945    0.411   11.709
  476.411   81.338    0.410   11.703
  477.231   83.197    0.414   11.892
  478.051   85.533    0.417   11.888
  478.871   86.935    0.423   11.879
  479.692   87.374    0.425   11.870
  480.512   87.336    0.419   11.861
  481.332   87.775    0.411   11.849
  482.152   87.728    0.409   11.840
  482.972   87.690    0.408   11.628
  483.793   87.662    0.408   11.617
  484.613   87.148    0.406   11.610
  485.433   86.633    0.404   11.800
  486.253   86.110    0.404   11.795
  487.073   86.072    0.404   11.782
  487.894   86.025    0.405   11.775
  488.714   85.034    0.409   11.768
  489.534   83.090    0.415   11.958
  490.354   85.445    0.427   12.154
  491.175   91.126    0.426   12.346
  491.995   97.762    0.421   11.727
  492.815  104.873    0.414   10.094
  493.635  105.780    0.408    8.052
  494.455  107.162    0.407    7.636
  495.276  108.097    0.409    7.625
  496.096  110.433    0.409    8.020
  496.916  113.741    0.405    8.217
  497.736  118.470    0.402    8.614
  498.556  117.479    0.400    9.010
  499.377  114.572    0.399    9.206
  500.197  112.142    0.397    9.396
  501.017  110.674    0.396    9.389
  501.837  109.693    0.391    9.380
  502.657  108.206    0.390    9.574
  503.478  107.701    0.389   10.171
  504.298  107.673    0.394   10.573
  505.118  108.103    0.401   10.970
  505.938  108.065    0.409   10.961
  506.759  108.494    0.420   10.546
  507.579  107.036    0.423    9.520
  508.399  100.326    0.421    9.308
  509.219   94.569    0.419    9.906
  510.039   95.961    0.420   10.909
  510.860   98.783    0.421   10.498
  511.680  101.128    0.420    9.066
  512.500  101.072    0.417    9.461
  513.320  101.025    0.412    9.861
  514.140  100.996    0.412   10.056
  514.961  100.959    0.412    9.839
  515.781  101.398    0.411    9.425
  516.601  102.323    0.408    8.804
  517.421  103.706    0.405    8.797
  518.241  105.107    0.402    9.195
  519.062  107.453    0.403    9.794
  519.882  112.181    0.410    9.988
  520.702  119.293    0.419    8.962
  521.522  120.666    0.426    8.343
  522.343  119.208    0.436    7.519
  523.163  117.750    0.434    7.509
  523.983  115.787    0.432    7.704
  524.803  117.179    0.428    7.898
  525.623  119.534    0.427    7.891
  526.444  122.356    0.427    7.882
  527.264  119.459    0.426    7.462
  528.084  109.393    0.425    7.254
  528.904  105.552    0.423    7.040
  529.724  102.178    0.422    7.638
  530.545   99.757    0.418    8.443
  531.365   97.813    0.411    9.247
  532.185   96.803    0.410    9.644
  533.005   97.242    0.415   10.042
  533.825   99.578    0.420   10.236
  534.646  100.989    0.421   10.026
  535.466  105.232    0.427    9.407
  536.286  107.587    0.438    8.379
  537.106  113.268    0.441    7.351
  537.927  119.427    0.440    6.527
  538.747  118.427    0.440    6.319
  539.567  117.912    0.443    6.305
  540.387  118.342    0.444    6.301
  541.207  119.276    0.445    6.088
  542.028  120.192    0.444    6.075
  542.848  116.332    0.442    5.863
  543.668  113.911    0.440    5.854
  544.488  111.013    0.441    5.844
  545.308  108.593    0.441    5.835
  546.129  105.686    0.441    5.826
  546.949  104.695    0.437    6.023
  547.769  104.648    0.436    6.217
  548.589  105.077    0.430    6.610
  549.409  105.049    0.428    6.807
  550.230  105.497    0.423    7.205
  551.050  106.890    0.416    7.602
  551.870  107.328    0.412    7.591
  552.690  108.235    0.410    7.584
  553.510  109.627    0.408    7.369
  554.331  110.552    0.408    7.358
  555.151  113.374    0.408    7.354
