~VERSION INFORMATION
 VERS.                 2.0:   CWLS LOG ASCII STANDARD -VERSION 2.0
 WRAP.                  NO:   ONE LINE PER DEPTH STEP
~WELL INFORMATION BLOCK
#MNEM.UNIT           DATA                    DESCRIPTION OF MNEMONIC
#---------    -------------------            -------------------------------
# Generated from Intellog Unique Number	CN_94_101/WELL/2641
WELL.         CALSTAN TEST HOLE #9           : Well_name    - WELL
LOC .         07-24-094-13W4                 : Location     - LOCATION
UWI .         AA/07-24-094-13W400            : Uwi          - UNIQUE WELL ID
ENTR.         JOETTE                         : Entered      - ENTERED BY
SRVC.         SCHLUMBERGER                   : Scn          - SERVICE COMPANY
DATE.         03 FEB 59                      : Date         - LOG DATE
STRT.F        50                             : top_depth    - START DEPTH
STOP.F        369.882                        : bot_depth    - STOP DEPTH
STEP.F        0.8202                         : increment    - STEP LENGTH
 NULL. -999.2500:NULL Value
~CURVE INFORMATION BLOCK
#MNEM UNIT       ERCB CURVE CODE    CURVE DESCRIPTION
#-----------   ------------------   ----------------------------------
DEPT.F        00 001 00 00         : DEPTH        - DEPTH
GR  .API      00 310 00 00         : GR           - GAMMA RAY
NPHI.V/V      00 330 00 00         : PHIN         - NEUTRON POROSITY (SANDSTONE)
ILD .OHMM     00 120 00 00         : RESD         - DEEP RESISTIVITY (DIL)
~PARAMETER INFORMATION
#MNEM.UNIT           DATA             DESCRIPTION OF MNEMONIC
#---------         -----------     ------------------------------
GL  .F        1180.5               : gl           - GROUND LEVEL ELEVATION
EREF.F        1180.5               : kb           - ELEVATION OF DEPTH REFERENCE
DATM.F        1180.5               : datum        - DATUM ELEVATION
TDD .F        373                  : tdd          - TOTAL DEPTH DRILLER
RUN .         ONE                  : Run          - RUN NUMBER
ENG .         JO                   : Engineer     - RECORDING ENGINEER
WIT .         TIM                  : Witness      - WITNESSED BY
MUD .         GEL                  : Mud_type     - MUD TYPE
MATR.         SANDSTONE            : Logunit      - NEUTRON MATRIX
TMAX.F        60                   : BHT          - MAXIMUM RECORDED TEMPERATURE
BHTD.F        373                  : BHTDEP       - MAXIMUM RECORDED TEMPERATURE
RMT .F        60                   : MDTP         - TEMPERATURE OF MUD
MUDD.LB/G     1.13                 : MWT          - MUD DENSITY
NEUT.         1                    : NEUTRON      - NEUTRON TYPE
RESI.         0                    : RESIST       - RESISTIVITY TYPE
RM  .OHMM     5.5                  : RM           - RESISTIVITY OF MUD
RMC .OHMM     5.5                  : RMC          - RESISTIVITY OF MUD CAKE
RMF .OHMM     5.5                  : RMF          - RESISTIVITY OF MUD FILTRATE
SUFT.F        39.2                 : SUFT         - SURFACE TEMPERATURE
~A  DEPTH       GR     PHIN     RESD
   50.000   75.286    0.448   21.748
   50.820   75.663    0.456   23.116
   51.640   75.673    0.450   24.332
   52.461   71.993    0.423   25.472
   53.281   60.197    0.415   26.080
   54.101   57.253    0.388   29.349
   54.921   55.051    0.375   33.455
   55.742   53.585    0.363   35.584
   56.562   53.596    0.362   36.572
   57.382   55.451    0.359   38.624
   58.202   54.723    0.363   37.103
   59.022   57.688    0.402   24.023
   59.843   56.593    0.452   24.631
   60.663   55.860    0.450   23.033
   61.483   56.977    0.421   22.652
   62.303   60.311    0.410   23.640
   63.123   62.533    0.408   23.868
   63.944   63.284    0.419   22.498
   64.764   61.077    0.435   22.726
   65.584   56.290    0.432   23.866
   66.404   52.984    0.405   25.767
   67.224   51.149    0.377   27.515
   68.045   50.052    0.350   29.568
   68.865   50.060    0.347   30.328
   69.685   51.549    0.333   28.350
   70.505   53.032    0.331   29.186
   71.326   56.366    0.393   20.744
   72.146   59.328    0.411   18.843
   72.966   67.459    0.408   17.397
   73.786   68.943    0.419   15.420
   74.606   73.381    0.435   14.050
   75.427   73.391    0.452   13.973
   76.247   75.616    0.474   13.365
   77.067   77.102    0.497   12.376
   77.887   75.636    0.506   11.995
   78.707   74.172    0.494   12.450
   79.528   73.078    0.484   12.602
   80.348   71.979    0.489   12.601
   81.168   69.408    0.486   12.677
   81.988   71.630    0.476   12.829
   82.808   74.592    0.473   13.588
   83.629   76.447    0.469   14.652
   84.449   75.722    0.462   13.967
   85.269   75.730    0.453   12.826
   86.089   77.956    0.467   12.825
   86.909   79.814    0.480   13.205
   87.730   80.929    0.477   13.813
   88.550   77.987    0.447   15.257
   89.370   72.464    0.434   15.485
   90.190   69.151    0.432   23.545
   91.010   68.792    0.439   11.301
   91.831   73.968    0.461   11.377
   92.651   78.406    0.486   11.528
   93.471   80.631    0.492   11.451
   94.291   83.224    0.491   10.995
   95.112   85.820    0.493   10.386
   95.932   81.771    0.527    9.853
   96.752   81.412    0.538    9.472
   97.572   78.470    0.529    9.091
   98.392   77.745    0.538    8.634
   99.213   80.704    0.548    8.482
  100.033   83.669    0.558    8.861
  100.853   79.987    0.529    9.849
  101.673   74.092    0.501   10.381
  102.493   72.257    0.480   10.076
  103.314   78.172    0.475   10.152
  104.134   77.816    0.479   11.064
  104.954   76.350    0.495   12.584
  105.774   76.729    0.484   12.811
  106.594   74.525    0.463   12.431
  107.415   76.380    0.463   11.898
  108.235   79.711    0.478   11.745
  109.055   81.566    0.488   11.592
  109.875   85.269    0.481   12.048
  110.696   87.865    0.469   12.580
  111.516   86.397    0.467   12.960
  112.336   84.193    0.470   13.415
  113.156   80.882    0.468   15.239
  113.976   77.571    0.429   16.456
  114.797   74.629    0.398   14.402
  115.617   76.115    0.388   12.805
  116.437   85.353    0.461   12.271
  117.257   84.994    0.453   12.271
  118.077   82.049    0.434   12.575
  118.898   83.538    0.433   12.422
  119.718   83.920    0.443   10.520
  120.538   82.085    0.454   10.595
  121.358   83.202    0.465   10.595
  122.178   84.688    0.480   10.823
  122.999   85.436    0.480   11.278
  123.819   84.337    0.452   12.723
  124.639   80.288    0.436   14.471
  125.459   77.346    0.439   12.569
  126.280   79.573    0.442   10.972
  127.100   80.687    0.442   10.895
  127.920   83.283    0.454   10.362
  128.740   85.876    0.485   10.818
  129.560   86.255    0.482   11.197
  130.381   83.683    0.489   10.969
  131.201   81.850    0.492   10.588
  132.021   80.751    0.491   10.435
  132.841   82.606    0.461   10.739
  133.661   85.202    0.478   11.347
  134.482   85.212    0.497   12.639
  135.302   85.963    0.500   14.463
  136.122   83.018    0.414   16.364
  136.942   77.862    0.407   12.409
  137.762   71.230    0.441    9.063
  138.583   75.299    0.478    7.769
  139.403   80.106    0.506    8.377
  140.223   83.069    0.498    9.745
  141.043   80.496    0.483   10.657
  141.864   80.506    0.489   11.189
  142.684   79.040    0.516    8.831
  143.504   76.469    0.508    8.830
  144.324   76.111    0.492    9.362
  145.144   79.811    0.486    9.818
  145.965   82.407    0.491   10.121
  146.785   80.941    0.485    9.969
  147.605   79.106    0.476    9.360
  148.425   77.268    0.538    7.610
  149.245   73.588    0.554    7.153
  150.066   68.432    0.563    6.392
  150.886   65.859    0.571    6.011
  151.706   64.763    0.571    6.087
  152.526   65.513    0.558    6.086
  153.346   66.997    0.550    6.086
  154.167   65.531    0.569    6.009
  154.987   62.963    0.565    5.780
  155.807   64.080    0.553    5.932
  156.627   65.197    0.558    7.756
  157.448   66.314    0.554    9.353
  158.268   63.370    0.500   12.394
  159.088   54.155    0.477   14.294
  159.908   52.320    0.465   14.446
  160.728   54.544    0.470   13.761
  161.549   54.554    0.460   13.456
  162.369   50.877    0.444   15.433
  163.189   50.146    0.427   19.386
  164.009   50.897    0.411   22.808
  164.829   62.718    0.470    7.523
  165.650   68.630    0.521    7.902
  166.470   76.758    0.503    8.358
  167.290   77.509    0.489    8.814
  168.110   80.100    0.490    8.965
  168.930   77.901    0.495    8.736
  169.751   78.278    0.486    8.736
  170.571   77.181    0.491    8.735
  171.391   74.977    0.495    9.191
  172.211   77.201    0.486    9.875
  173.031   80.166    0.489    9.114
  173.852   82.387    0.536    8.124
  174.672   83.504    0.530    8.048
  175.492   80.932    0.527    8.504
  176.312   83.161    0.533    9.187
  177.133   83.537    0.524   10.784
  177.953   84.286    0.486   12.152
  178.773   79.499    0.474   14.128
  179.593   67.703    0.453   18.006
  180.413   59.592    0.446   14.508
  181.234   49.636    0.461   17.625
  182.054   40.052    0.415   22.567
  182.874   37.851    0.375   40.740
  183.694   41.551    0.375   39.371
  184.514   45.989    0.384   38.914
  185.335   51.166    0.409   38.305
  186.155   48.224    0.381   38.305
  186.975   37.532    0.344   38.988
  187.795   36.805    0.285   38.836
  188.615   39.767    0.299   37.162
  189.436   42.729    0.333   36.857
  190.256   47.170    0.356   35.640
  191.076   43.121    0.362   35.412
  191.896   40.550    0.367   34.803
  192.717   41.665    0.373   34.194
  193.537   40.568    0.368   34.117
  194.357   39.471    0.374   34.573
  195.177   38.743    0.411   37.158
  195.997   39.123    0.392   39.895
  196.818   40.980    0.389   36.928
  197.638   40.250    0.395   34.494
  198.458   36.570    0.415   32.669
  199.278   31.414    0.391   29.550
  200.098   35.117    0.385   28.637
  200.919   39.186    0.389   31.374
  201.739   39.568    0.381   32.971
  202.559   37.361    0.370   32.590
  203.379   37.371    0.383   33.806
  204.199   38.119    0.402   34.110
  205.020   37.025    0.384   31.752
  205.840   36.295    0.384   28.709
  206.660   34.462    0.393   26.351
  207.480   35.210    0.391   25.590
  208.301   37.435    0.373   25.514
  209.121   40.399    0.362   24.905
  209.941   40.043    0.358   25.437
  210.761   39.310    0.363   25.816
  211.581   37.847    0.371   25.664
  212.402   37.859    0.394   23.762
  213.222   38.605    0.368   24.217
  214.042   40.089    0.372   22.088
  214.862   41.575    0.397   21.631
  215.682   40.114    0.402   20.946
  216.503   39.017    0.390   20.565
  217.323   38.656    0.368   20.412
  218.143   38.666    0.364   19.652
  218.963   39.783    0.400   19.575
  219.783   42.010    0.389   20.563
  220.604   42.389    0.361   21.095
  221.424   40.923    0.367   19.041
  222.244   39.457    0.379   18.356
  223.064   40.574    0.369   18.735
  223.885   41.322    0.360   19.267
  224.705   39.118    0.368   19.191
  225.525   41.343    0.377   17.669
  226.345   43.938    0.377   17.669
  227.165   41.732    0.389   17.744
