~VERSION INFORMATION
 VERS.                 2.0:   CWLS LOG ASCII STANDARD -VERSION 2.0
 WRAP.                  NO:   ONE LINE PER DEPTH STEP
~WELL INFORMATION BLOCK
#MNEM.UNIT           DATA                    DESCRIPTION OF MNEMONIC
#---------    -------------------            -------------------------------
# Generated from Intellog Unique Number	CN_94_101/WELL/4989
WELL.         07-09-099-14W4                 : Well_name    - WELL
LOC .         AA/07-09-099-14W4/0            : Location     - LOCATION
UWI .         AA/07-09-099-14W400            : Uwi          - UNIQUE WELL ID
ENTR.         TIM                            : Entered      - ENTERED BY
SRVC.         SCHLUMBERGER                   : Scn          - SERVICE COMPANY
DATE.         08/11/92                       : Date         - LOG DATE
STRT.M        350                            : top_depth    - START DEPTH
STOP.M        550                            : bot_depth    - STOP DEPTH
STEP.M        0.25                           : increment    - STEP LENGTH
 NULL. -999.2500:NULL Value
~CURVE INFORMATION BLOCK
#MNEM UNIT       ERCB CURVE CODE    CURVE DESCRIPTION
#-----------   ------------------   ----------------------------------
DEPT.M        00 001 00 00         : DEPTH        - DEPTH
GR  .API      00 310 00 00         : GR           - GAMMA RAY
ILD .OHMM     00 120 00 00         : RESD         - DEEP RESISTIVITY (DIL)
NPHI.V/V      00 330 00 00         : PHIN         - NEUTRON POROSITY (SANDSTONE)
DPHI.V/V      00 890 00 00         : PHID         - DENSITY POROSITY (SANDSTONE)
~PARAMETER INFORMATION
#MNEM.UNIT           DATA             DESCRIPTION OF MNEMONIC
#---------         -----------     ------------------------------
GL  .M        792                  : gl           - GROUND LEVEL ELEVATION
EREF.M        795.6                : kb           - ELEVATION OF DEPTH REFERENCE
DATM.M        795.6                : datum        - DATUM ELEVATION
TDD .M        551                  : tdd          - TOTAL DEPTH DRILLER
RUN .         ONE                  : Run          - RUN NUMBER
ENG .         JO                   : Engineer     - RECORDING ENGINEER
WIT .         TIM                  : Witness      - WITNESSED BY
MUD .         GEL                  : Mud_type     - MUD TYPE
MATR.         SANDSTONE            : Logunit      - NEUTRON MATRIX
TMAX.C        30                   : BHT          - MAXIMUM RECORDED TEMPERATURE
BHTD.M        551                  : BHTDEP       - MAXIMUM RECORDED TEMPERATURE
RMT .C        27                   : MDTP         - TEMPERATURE OF MUD
MUDD.KG/M     1050                 : MWT          - MUD DENSITY
NEUT.         1                    : NEUTRON      - NEUTRON TYPE
RESI.         0                    : RESIST       - RESISTIVITY TYPE
RM  .OHMM     3.5                  : RM           - RESISTIVITY OF MUD
RMC .OHMM     3.5                  : RMC          - RESISTIVITY OF MUD CAKE
RMF .OHMM     3.5                  : RMF          - RESISTIVITY OF MUD FILTRATE
SUFT.C        4                    : SUFT         - SURFACE TEMPERATURE
~A  DEPTH       GR     RESD     PHIN     PHID
# ...
  524.000   67.219    9.597    0.338    0.318
  524.250   63.638   10.479    0.338    0.317
  524.500   59.467   10.858    0.338    0.319
  524.750   57.106   11.065    0.338    0.321
  525.000   57.172   11.084    0.340    0.321
  525.250   55.414   11.092    0.343    0.324
  525.500   51.847   11.110    0.346    0.327
  525.750   48.266   11.122    0.347    0.328
  526.000   45.905   10.946    0.347    0.326
  526.250   44.161   10.969    0.347    0.327
  526.500   43.007   10.792    0.346    0.326
  526.750   43.059   10.622    0.347    0.324
  527.000   43.715   10.100    0.347    0.322
  527.250   44.357    9.439    0.344    0.321
  527.500   46.246    9.131    0.343    0.323
  527.750   48.108    9.144    0.339    0.331
  528.000   52.987    9.319    0.339    0.333
  528.250   56.056    9.656    0.340    0.332
  528.500   57.315    9.834    0.341    0.329
  528.750   55.558   10.193    0.344    0.327
  529.000   53.197   10.565    0.345    0.325
  529.250   52.030   10.409    0.342    0.326
  529.500   51.505    9.724    0.337    0.326
  529.750   51.531    9.085    0.332    0.326
  530.000   51.584    8.343    0.332    0.321
  530.250   51.649    7.797    0.330    0.319
  530.500   54.731    7.287    0.328    0.314
  530.750   56.607    6.694    0.327    0.313
  531.000   57.840    6.365    0.327    0.317
  531.250   56.698    6.376    0.327    0.319
  531.500   53.118    6.611    0.329    0.311
  531.750   48.947    6.850    0.332    0.299
  532.000   45.392    6.979    0.331    0.296
  532.250   41.221    6.636    0.333    0.299
  532.500   41.864    6.098    0.336    0.308
  532.750   44.933    5.794    0.341    0.313
  533.000   49.209    5.322    0.346    0.316
  533.250   52.881    5.062    0.351    0.320
  533.500   52.947    4.901    0.354    0.316
  533.750   51.202    4.904    0.356    0.316
  534.000   50.022    4.996    0.359    0.318
  534.250   48.264    5.090    0.360    0.323
  534.500   45.903    5.097    0.364    0.326
  534.750   46.559    4.846    0.365    0.326
  535.000   50.835    4.610    0.359    0.329
  535.250   57.537    4.383    0.351    0.322
  535.500   62.416    4.098    0.347    0.275
  535.750   63.675    4.032    0.345    0.303
  536.000   57.091    4.036    0.342    0.329
  536.250   48.697    4.044    0.342    0.339
  536.500   41.496    4.048    0.347    0.338
  536.750   39.148    3.984    0.351    0.336
  537.000   37.994    3.660    0.348    0.336
  537.250   36.827    3.542    0.343    0.336
  537.500   34.466    3.366    0.339    0.334
  537.750   33.915    2.937    0.340    0.333
  538.000   35.790    2.792    0.343    0.328
  538.250   37.653    2.609    0.343    0.321
  538.500   39.515    2.438    0.336    0.313
  538.750   41.994    2.241    0.339    0.303
  539.000   46.270    2.131    0.340    0.296
  539.250   48.722    2.097    0.344    0.288
  539.500   51.804    2.063    0.350    0.282
  539.750   53.063    1.996    0.353    0.277
  540.000   50.099    1.865    0.357    0.282
  540.250   43.528    1.744    0.356    0.302
  540.500   41.141    1.686    0.347    0.309
  540.750   38.780    1.605    0.336    0.307
  541.000   38.242    1.579    0.338    0.307
  541.250   40.721    1.527    0.340    0.307
  541.500   43.174    1.478    0.334    0.312
  541.750   46.243    1.454    0.328    0.319
  542.000   52.328    1.407    0.330    0.275
  542.250   58.414    1.384    0.335    0.277
  542.500   57.273    1.362    0.339    0.289
  542.750   53.692    1.341    0.337    0.299
  543.000   48.315    1.297    0.338    0.299
  543.250   49.574    1.277    0.337    0.294
  543.500   52.040    1.235    0.341    0.299
  543.750   55.725    1.155    0.342    0.305
  544.000   54.571    1.079    0.348    0.310
  544.250   54.020    1.080    0.349    0.315
  544.500   54.072    1.046    0.347    0.309
  544.750   54.741    1.047    0.338    0.307
  545.000   56.603    1.031    0.332    0.303
  545.250   57.863    1.031    0.329    0.298
  545.500   56.092    1.033    0.331    0.299
  545.750   54.938    1.034    0.334    0.304
  546.000   54.387    1.018    0.336    0.305
  546.250   53.233    1.020    0.336    0.308
  546.500   50.898    1.021    0.336    0.308
  546.750   48.511    1.022    0.335    0.306
  547.000   45.559    1.006    0.334    0.306
  547.250   43.802    1.008    0.337    0.306
  547.500   43.854    1.009    0.342    0.308
  547.750   43.303    1.010    0.345    0.310
  548.000   42.766    1.029    0.351    0.311
  548.250   42.792    1.066    0.354    0.311
  548.500   42.844    1.165    0.352    0.309
  548.750   43.513    1.187    0.341    0.305
  549.000   44.772    1.230    0.341    0.307
  549.250   46.044    1.253    0.341    0.310
  549.500   46.700    1.255    0.342    0.313
  549.750   47.356    1.256    0.342    0.312
  550.000   47.395    1.258    0.337    0.306
