~VERSION INFORMATION
 VERS.                 2.0:   CWLS LOG ASCII STANDARD -VERSION 2.0
 WRAP.                  NO:   ONE LINE PER DEPTH STEP
~WELL INFORMATION BLOCK
#MNEM.UNIT           DATA                    DESCRIPTION OF MNEMONIC
#---------    -------------------            -------------------------------
# Generated from Intellog Unique Number	CC_84_87/WELL/2615
WELL.         HUDSON BAY OIL                 : Well_name    - WELL
LOC .         AA/07-18-087-10W4/0            : Location     - LOCATION
UWI .         AA/07-18-087-10W400            : Uwi          - UNIQUE WELL ID
ENTR.         TIM                            : Entered      - ENTERED BY
SRVC.         SCHLUMBERGER                   : Scn          - SERVICE COMPANY
DATE.         01\13\92                       : Date         - LOG DATE
STRT.M        30.48                          : top_depth    - START DEPTH
STOP.M        170.73                         : bot_depth    - STOP DEPTH
STEP.M        0.25                           : increment    - STEP LENGTH
 NULL. -999.2500:NULL Value
~CURVE INFORMATION BLOCK
#MNEM UNIT       ERCB CURVE CODE    CURVE DESCRIPTION
#-----------   ------------------   ----------------------------------
DEPT.M        00 001 00 00         : DEPTH        - DEPTH
NPHI.V/V      00 330 00 00         : PHIN         - NEUTRON POROSITY (SANDSTONE)
GR  .API      00 310 00 00         : GR           - GAMMA RAY
ILD .OHMM     00 120 00 00         : RESD         - DEEP RESISTIVITY (DIL)
~PARAMETER INFORMATION
#MNEM.UNIT           DATA             DESCRIPTION OF MNEMONIC
#---------         -----------     ------------------------------
GL  .M        426.933              : gl           - GROUND LEVEL ELEVATION
EREF.M        426.933              : kb           - ELEVATION OF DEPTH REFERENCE
DATM.M        426.933              : datum        - DATUM ELEVATION
TDD .M        172.212              : tdd          - TOTAL DEPTH DRILLER
RUN .         ONE                  : Run          - RUN NUMBER
ENG .         JO                   : Engineer     - RECORDING ENGINEER
WIT .         TIM                  : Witness      - WITNESSED BY
MUD .         GEL                  : Mud_type     - MUD TYPE
MATR.         SANDSTONE            : Logunit      - NEUTRON MATRIX
TMAX.C        21.1111              : BHT          - MAXIMUM RECORDED TEMPERATURE
BHTD.M        172.212              : BHTDEP       - MAXIMUM RECORDED TEMPERATURE
RMT .C        18                   : MDTP         - TEMPERATURE OF MUD
MUDD.KG/M     9083.33              : MWT          - MUD DENSITY
NEUT.         1                    : NEUTRON      - NEUTRON TYPE
RESI.         0                    : RESIST       - RESISTIVITY TYPE
RM  .OHMM     7.3                  : RM           - RESISTIVITY OF MUD
RMC .OHMM     7.3                  : RMC          - RESISTIVITY OF MUD CAKE
RMF .OHMM     7.3                  : RMF          - RESISTIVITY OF MUD FILTRATE
SUFT.C        4                    : SUFT         - SURFACE TEMPERATURE
~A  DEPTH     PHIN       GR     RESD
   30.480    0.422  156.551   18.135
   30.730    0.426  163.069   15.257
   30.980    0.430  171.761   14.197
   31.230    0.436  175.564   14.587
   31.480    0.441  178.281   14.604
   31.730    0.447  180.997   14.275
   31.980    0.450  180.456   13.923
   32.230    0.440  178.284   12.869
   32.480    0.434  175.569   12.880
   32.730    0.432  172.312   12.177
   32.980    0.434  176.658   11.848
   33.230    0.436  180.461   11.870
   33.480    0.437  182.092   12.618
   33.730    0.440  182.093   12.646
   33.980    0.445  183.180   12.657
   34.230    0.446  186.983   11.591
   34.480    0.459  184.269   10.531
   34.730    0.464  181.554    9.828
   34.980    0.461  178.296    9.493
   35.230    0.453  177.211    9.878
   35.480    0.444  184.274   10.263
   35.730    0.435  182.102   10.291
   35.980    0.431  178.844    9.583
   36.230    0.437  175.043    8.880
   36.480    0.443  178.303    8.177
   36.730    0.442  182.649    7.836
   36.980    0.448  182.650    7.870
   37.230    0.453  182.109    7.881
   37.480    0.457  182.653    7.546
   37.730    0.462  182.654    7.574
   37.980    0.463  182.112    7.223
   38.230    0.463  183.742    7.250
   38.480    0.460  185.373    7.284
   38.730    0.455  184.288    7.295
   38.980    0.448  182.117    6.960
   39.230    0.447  180.489    6.982
   39.480    0.447  179.403    6.653
   39.730    0.449  176.145    6.664
   39.980    0.451  171.258    6.681
   40.230    0.447  166.915    6.709
   40.480    0.445  165.829    6.380
   40.730    0.452  170.719    6.396
   40.980    0.457  175.065    6.413
   41.230    0.462  172.894    6.084
   41.480    0.457  173.438    6.095
   41.730    0.448  174.525    6.123
   41.980    0.443  179.414    6.145
   42.230    0.440  182.131    6.893
   42.480    0.440  176.701    6.915
   42.730    0.444  171.271    6.937
   42.980    0.446  165.841    7.322
   43.230    0.452  167.471    7.344
   43.480    0.456  177.249    7.010
   43.730    0.457  173.992    7.037
   43.980    0.455  171.820    7.422
   44.230    0.450  167.476    8.170
   44.480    0.442  157.157   10.368
   44.730    0.431  150.098   11.478
   44.980    0.419  146.297   11.500
   45.230    0.413  140.324   10.440
   45.480    0.420  138.152    9.369
   45.730    0.431  142.498    7.946
   45.980    0.456  149.017    7.238
   46.230    0.457  152.820    6.541
   46.480    0.454  155.537    6.200
   46.730    0.444  158.254    6.585
   46.980    0.436  157.169    7.701
   47.230    0.423  147.394    9.173
   47.480    0.415  140.877   10.640
   47.730    0.407  135.447   12.849
   47.980    0.403  132.732   13.234
   48.230    0.399  126.759   13.619
   48.480    0.400  129.476   13.998
   48.730    0.409  139.796   10.032
   48.980    0.424  147.402    7.879
   49.230    0.449  151.205    6.451
   49.480    0.456  154.464    8.292
   49.730    0.451  152.293   11.572
   49.980    0.433  147.949   15.950
   50.230    0.409  142.519   19.599
   50.480    0.380  135.459   21.797
   50.730    0.369  126.770   18.555
   50.980    0.377  114.822   16.408
   51.230    0.393  114.281   14.617
   51.480    0.394  117.540   12.826
   51.730    0.406  130.034   10.673
   51.980    0.420  140.354    8.168
   52.230    0.416  145.243    8.542
   52.480    0.413  149.590    8.933
   52.730    0.417  152.850    9.317
   52.980    0.424  158.825    9.334
   53.230    0.441  162.086    9.730
   53.480    0.456  159.914    9.379
   53.730    0.453  156.113    8.324
   53.980    0.451  153.398    7.616
   54.230    0.452  151.228    6.924
   54.480    0.454  150.686    6.573
   54.730    0.450  149.057    6.595
   54.980    0.446  147.429    6.255
   55.230    0.450  146.343    6.277
   55.480    0.445  142.543    6.667
   55.730    0.440  138.199    7.058
   55.980    0.427  136.571    7.080
   56.230    0.415  134.399    7.827
   56.480    0.415  137.116    9.300
   56.730    0.419  142.005   10.773
   56.980    0.431  146.895   10.075
   57.230    0.435  146.353    8.647
   57.480    0.424  145.268    7.582
   57.730    0.428  143.096    7.604
   57.980    0.440  140.382    7.264
   58.230    0.460  159.392    6.204
   58.480    0.458  168.627    5.852
   58.730    0.458  174.059    5.518
   58.980    0.464  171.888    5.545
   59.230    0.466  167.001    5.205
   59.480    0.462  163.200    5.222
   59.730    0.464  160.486    5.612
   59.980    0.461  157.228    5.997
   60.230    0.455  153.427    6.744
   60.480    0.431  149.626    7.497
   60.730    0.418  144.739    7.882
   60.980    0.412  143.111    9.361
   61.230    0.414  151.259   10.465
   61.480    0.418  152.890   10.125
   61.730    0.422  149.632    9.059
   61.980    0.428  149.090    7.631
   62.230    0.432  149.091    7.291
   62.480    0.433  149.092    8.401
   62.730    0.430  149.637   10.599
   62.980    0.420  149.638   13.884
   63.230    0.405  144.751   15.357
   63.480    0.404  133.889   13.577
   63.730    0.395  128.459   14.682
   63.980    0.270  124.658   19.055
   64.230    0.138  117.055   24.154
   64.480    0.090  104.021   68.061
   64.730    0.101  107.281   40.158
   64.980    0.273  123.576   18.430
   65.230    0.390  126.293   16.997
   65.480    0.394  129.553   15.931
   65.730    0.398  134.442   14.140
   65.980    0.405  132.814   10.174
   66.230    0.412  136.617    9.109
   66.480    0.419  142.593    8.043
   66.730    0.428  148.568    7.346
   66.980    0.450  148.569    7.374
   67.230    0.461  148.571    7.385
   67.480    0.455  148.572    7.050
   67.730    0.455  149.660    7.072
   67.980    0.453  149.660    7.457
   68.230    0.447  150.748   10.018
   68.480    0.442  150.206   12.578
   68.730    0.424  146.948   11.886
   68.980    0.408  142.061   10.458
   69.230    0.397  138.260    9.387
   69.480    0.398  138.805    8.322
   69.730    0.407  139.349    8.712
   69.980    0.410  139.350   10.547
   70.230    0.401  141.524   12.014
   70.480    0.388  144.240   12.410
   70.730    0.369  146.957   12.790
   70.980    0.353  142.070   14.262
   71.230    0.323  132.838   18.998
   71.480    0.353  122.520   29.541
   71.730    0.376  132.297   19.048
   71.980    0.389  132.298   14.725
   72.230    0.398  133.929   13.659
   72.480    0.413  133.930   14.044
   72.730    0.430  136.647   13.336
   72.980    0.407  138.278   11.183
   73.230    0.287  136.649    7.579
   73.480    0.237  132.305    6.519
   73.730    0.245  121.443   19.232
   73.980    0.325  113.841   41.015
   74.230    0.386  116.557   31.248
   74.480    0.411  127.422   24.375
   74.730    0.415  138.828   12.432
   74.980    0.411  153.494    7.378
   75.230    0.406  153.496    8.850
   75.480    0.409  153.497    9.960
   75.730    0.415  154.584   11.082
   75.980    0.420  156.214   10.016
   76.230    0.427  154.586    8.594
   76.480    0.427  155.130    7.880
   76.730    0.427  153.502    6.463
   76.980    0.428  146.442    6.111
   77.230    0.431  145.900    6.139
   77.480    0.431  146.445    7.255
   77.730    0.431  145.360    8.365
   77.980    0.428  145.361    8.750
   78.230    0.424  144.819    8.772
   78.480    0.415  143.191    8.069
   78.730    0.400  140.476    7.729
   78.980    0.403  137.218   11.739
   79.230    0.411  138.849   12.130
   79.480    0.408  140.479   11.064
   79.730    0.406  141.567    9.999
   79.980    0.406  141.025    8.939
   80.230    0.406  137.767    8.950
   80.480    0.407  137.768    9.340
   80.730    0.407  138.312    9.725
   80.980    0.407  138.314   10.835
   81.230    0.404  138.315   11.583
   81.480    0.402  139.946   11.968
   81.730    0.399  142.662   12.358
   81.980    0.396  142.663   13.111
   82.230    0.391  141.035   13.864
   82.480    0.384  138.321   13.875
   82.730    0.395  132.890   13.903
   82.980    0.404  136.693   13.563
   83.230    0.410  148.644   13.591
   83.480    0.420  157.335   13.239
   83.730    0.430  162.224   12.536
   83.980    0.444  164.398   11.114
   84.230    0.450  168.201    9.691
   84.480    0.449  170.918    8.988
