~VERSION INFORMATION
 VERS.                 2.0:   CWLS LOG ASCII STANDARD -VERSION 2.0
 WRAP.                  NO:   ONE LINE PER DEPTH STEP
~WELL INFORMATION BLOCK
#MNEM.UNIT           DATA                    DESCRIPTION OF MNEMONIC
#---------    -------------------            -------------------------------
# Generated from Intellog Unique Number	CX_WELLS/WELL/3794
WELL.         HUDSON BAY                     : Well_name    - WELL
LOC .         AA/06-25-086-17W4/0            : Location     - LOCATION
UWI .         AA/06-25-086-17W400            : Uwi          - UNIQUE WELL ID
ENTR.         T                              : Entered      - ENTERED BY
SRVC.         SCHLUMBERGER                   : Scn          - SERVICE COMPANY
DATE.         03/04/92                       : Date         - LOG DATE
STRT.F        330                            : top_depth    - START DEPTH
STOP.F        809.823                        : bot_depth    - STOP DEPTH
STEP.F        0.82                           : increment    - STEP LENGTH
 NULL. -999.2500:NULL Value
~CURVE INFORMATION BLOCK
#MNEM UNIT       ERCB CURVE CODE    CURVE DESCRIPTION
#-----------   ------------------   ----------------------------------
DEPT.F        00 001 00 00         : DEPTH        - DEPTH
GR  .API      00 310 00 00         : GR           - GAMMA RAY
NPHI.V/V      00 330 00 00         : PHIN         - NEUTRON POROSITY (SANDSTONE)
ILD .OHMM     00 120 00 00         : RESD         - DEEP RESISTIVITY (DIL)
~PARAMETER INFORMATION
#MNEM.UNIT           DATA             DESCRIPTION OF MNEMONIC
#---------         -----------     ------------------------------
GL  .F        1692                 : gl           - GROUND LEVEL ELEVATION
EREF.F        1692                 : kb           - ELEVATION OF DEPTH REFERENCE
DATM.F        1692                 : datum        - DATUM ELEVATION
TDD .F        814                  : tdd          - TOTAL DEPTH DRILLER
RUN .         ONE                  : Run          - RUN NUMBER
ENG .         JO                   : Engineer     - RECORDING ENGINEER
WIT .         TIM                  : Witness      - WITNESSED BY
MUD .         GEL                  : Mud_type     - MUD TYPE
MATR.         SANDSTONE            : Logunit      - NEUTRON MATRIX
TMAX.F        57                   : BHT          - MAXIMUM RECORDED TEMPERATURE
BHTD.F        814                  : BHTDEP       - MAXIMUM RECORDED TEMPERATURE
RMT .F        60                   : MDTP         - TEMPERATURE OF MUD
MUDD.LB/G     9.6                  : MWT          - MUD DENSITY
NEUT.         1                    : NEUTRON      - NEUTRON TYPE
RESI.         6.5                  : RESIST       - RESISTIVITY TYPE
RM  .OHMM     9.5                  : RM           - RESISTIVITY OF MUD
RMC .OHMM     9.5                  : RMC          - RESISTIVITY OF MUD CAKE
RMF .OHMM     9.5                  : RMF          - RESISTIVITY OF MUD FILTRATE
SUFT.F        39.2                 : SUFT         - SURFACE TEMPERATURE
~A  DEPTH       GR     PHIN     RESD
  330.000   66.899    0.379   22.356
  330.820   61.569    0.329   21.850
  331.640   58.176    0.271   21.344
  332.461   55.755    0.298   20.838
  333.281   58.180    0.312   20.670
  334.101   62.545    0.330   20.502
  334.921   65.456    0.331   20.504
  335.741   64.488    0.333   20.506
  336.562   63.035    0.343   20.507
  337.382   60.129    0.345   20.509
  338.202   57.706    0.345   21.019
  339.022   53.830    0.348   23.561
  339.843   51.407    0.354   18.482
  340.663   48.501    0.354   16.960
  341.483   46.080    0.348   16.454
  342.303   44.626    0.342   16.456
  343.123   45.113    0.338   16.457
  343.944   49.962    0.328   16.459
  344.764   54.327    0.330   16.291
  345.584   56.753    0.362   15.954
  346.404   55.785    0.368   15.618
  347.224   52.878    0.365   15.450
  348.045   52.880    0.367   15.283
  348.865   52.397    0.370   15.284
  349.685   51.914    0.374   15.286
  350.505   52.885    0.377   15.287
  351.325   53.857    0.376   15.459
  352.146   54.343    0.374   15.800
  352.966   51.437    0.366   15.970
  353.786   50.469    0.347   16.989
  354.606   54.833    0.340   17.837
  355.427   58.229    0.313   18.855
  356.247   58.715    0.289   19.873
  357.067   56.778    0.261   20.891
  357.887   54.356    0.248   19.368
  358.707   51.449    0.231   15.644
  359.528   46.118    0.221   14.800
  360.348   42.242    0.227   13.954
  361.168   41.275    0.256   13.617
  361.988   43.700    0.283   13.789
  362.808   46.125    0.340   25.138
  363.629   50.490    0.359   28.696
  364.449   48.553    0.381   30.730
  365.269   45.646    0.378   32.764
  366.089   42.739    0.369   26.838
  366.909   40.802    0.326   19.558
  367.730   38.380    0.110   15.664
  368.550   36.443    0.094   14.142
  369.370   34.505    0.125   13.127
  370.190   31.599    0.183   12.283
  371.010   36.448    0.259   12.115
  371.831   50.508    0.307   12.625
  372.651   50.026    0.361   12.966
  373.471   49.542    0.378   12.968
  374.291   49.060    0.389   12.969
  375.112   49.062    0.393   12.971
  375.932   49.063    0.397   12.973
  376.752   48.580    0.398   12.974
  377.572   46.159    0.398   13.316
  378.392   45.675    0.399   13.656
  379.213   44.707    0.399   13.996
  380.033   44.225    0.398   13.998
  380.853   45.195    0.397   14.000
  381.673   48.590    0.394   14.001
  382.493   48.592    0.391   14.003
  383.314   48.594    0.388   13.836
  384.134   49.565    0.386   13.838
  384.954   51.506    0.384   13.840
  385.774   53.448    0.381   14.011
  386.594   55.389    0.379   14.013
  387.415   56.359    0.375   14.014
  388.235   57.816    0.372   14.016
  389.055   58.302    0.372   14.018
  389.875   58.789    0.384   14.020
  390.696   58.306    0.395   14.191
  391.516   56.369    0.393   14.193
  392.336   53.946    0.391   14.195
  393.156   52.009    0.389   14.197
  393.976   54.435    0.391   14.030
  394.797   58.800    0.392   14.030
  395.617   58.802    0.392   14.033
  396.437   57.349    0.391   14.035
  397.257   55.896    0.389   14.036
  398.077   53.959    0.391   14.037
  398.898   53.477    0.393   14.209
  399.718   52.023    0.394   14.210
  400.538   49.602    0.393   14.382
  401.358   50.089    0.388   14.553
  402.178   52.514    0.384   14.554
  402.999   55.909    0.382   14.726
  403.819   56.396    0.387   14.728
  404.639   55.913    0.387   14.899
  405.459   55.429    0.381   14.901
  406.280   54.462    0.377   14.903
  407.100   56.403    0.380   14.904
  407.920   52.526    0.384   15.075
  408.740   53.013    0.387   15.077
  409.560   56.893    0.388   15.079
  410.381   57.865    0.385   15.250
  411.201   57.381    0.382   15.252
  412.021   57.383    0.382   15.254
  412.841   59.324    0.383   15.087
  413.661   62.234    0.384   14.918
  414.482   61.751    0.383   14.921
  415.302   60.299    0.381   14.922
  416.122   58.846    0.378   15.940
  416.942   57.394    0.376   16.958
  417.762   58.366    0.375   16.960
  418.583   59.337    0.372   18.486
  419.403   59.339    0.369   52.190
  420.223   58.855    0.365   61.676
  421.043   58.857    0.361   54.565
  421.864   57.405    0.353   36.953
  422.684   55.467    0.342   15.277
  423.504   54.015    0.300   12.738
  424.324   54.986    0.253   12.063
  425.144   56.927    0.247   12.065
  425.965   58.869    0.310   12.236
  426.785   58.870    0.356   12.238
  427.605   59.356    0.380   12.409
  428.425   59.843    0.390   12.411
  429.245   59.845    0.390   12.412
  430.066   61.786    0.391   12.246
  430.886   63.726    0.390   12.247
  431.706   64.698    0.389   12.080
  432.526   62.276    0.389   12.081
  433.346   61.792    0.390   12.591
  434.167   63.248    0.392   12.085
  434.987   65.674    0.394   10.562
  435.807   67.615    0.398    8.193
  436.627   69.072    0.409    7.687
  437.448   71.013    0.422   11.245
  438.268   71.984    0.434   11.417
  439.088   72.955    0.436   11.418
  439.908   74.896    0.440   11.420
  440.728   76.837    0.441   11.422
  441.549   76.354    0.440   11.255
  442.369   73.447    0.439   11.256
  443.189   71.025    0.437   11.258
  444.009   69.572    0.440   11.429
  444.829   67.635    0.441   11.939
  445.650   68.122    0.442   12.280
  446.470   70.547    0.443   11.604
  447.290   75.397    0.450   10.759
  448.110   77.823    0.450    9.913
  448.930   80.733    0.442    8.391
  449.751   90.915    0.449    6.868
  450.571   93.825    0.455    6.870
  451.391   98.675    0.467    7.211
  452.211  101.585    0.478    8.398
  453.031  104.981    0.486    9.247
  453.852  107.406    0.486    9.249
  454.672  107.408    0.482    8.742
  455.492   96.260    0.476    8.067
  456.312   87.535    0.473    7.899
  457.133   84.629    0.467    7.731
  457.953   83.661    0.462    9.766
  458.773   88.511    0.462   11.800
  459.593   86.574    0.462   14.681
  460.413   76.880    0.457   16.715
  461.234   74.943    0.444   17.394
  462.054   71.551    0.415   17.566
  462.874   73.007    0.391   18.244
  463.694   76.887    0.378   19.263
  464.514   79.798    0.375   18.079
  465.335   82.224    0.381   14.355
  466.155   84.164    0.389   13.171
  466.975   85.620    0.402   12.495
  467.795   88.531    0.413   12.836
  468.615   90.956    0.420   13.177
  469.436   96.291    0.422   13.178
  470.256   95.323    0.421   13.349
  471.076   94.840    0.420   13.182
  471.896   96.781    0.421   12.845
  472.717   97.752    0.421   12.678
  473.537   99.693    0.420   12.510
  474.357   97.271    0.426   12.682
  475.177   94.364    0.428   12.683
  475.997   86.610    0.435   12.346
  476.818   85.157    0.441   12.179
  477.638   82.734    0.441   11.842
  478.458   80.313    0.439   11.843
  479.278   78.376    0.436   13.200
  480.098   76.438    0.434   14.556
  480.919   74.501    0.428   14.389
  481.739   69.656    0.422   13.883
  482.559   66.263    0.411   13.207
  483.379   66.750    0.411   12.362
  484.199   73.539    0.417   11.348
  485.020   77.904    0.422   10.672
  485.840   73.542    0.429   11.521
  486.660   65.303    0.442   13.386
  487.480   62.881    0.442   14.742
  488.301   65.307    0.435   14.236
  489.121   69.186    0.430   13.730
  489.941   72.097    0.430   12.716
  490.761   71.130    0.429   12.209
  491.581   71.131    0.429   11.703
  492.402   71.132    0.429   11.028
  493.222   68.711    0.428   10.521
  494.042   67.258    0.429   10.015
  494.862   66.291    0.429   10.186
  495.682   67.747    0.421   13.067
  496.503   71.142    0.422   14.762
  497.323   75.506    0.425   13.409
  498.143   79.386    0.431   12.395
  498.963   78.903    0.429   11.380
  499.783   77.935    0.422   11.382
  500.604   76.484    0.414   12.908
  501.424   76.000    0.408   13.587
  502.244   76.002    0.405   12.913
  503.064   75.519    0.404   12.744
  503.885   74.552    0.401   12.915
  504.705   73.584    0.399   13.256
  505.525   73.585    0.398   13.427
  506.345   74.072    0.396   13.937
  507.165   75.044    0.399   14.108
