~VERSION INFORMATION
 VERS.                 2.0:   CWLS LOG ASCII STANDARD -VERSION 2.0
 WRAP.                  NO:   ONE LINE PER DEPTH STEP
~WELL INFORMATION BLOCK
#MNEM.UNIT           DATA                    DESCRIPTION OF MNEMONIC
#---------    -------------------            -------------------------------
# Generated from Intellog Unique Number	CN_94_101/WELL/3182
WELL.         THE CALIFORNIA STANDARD COMPAN : Well_name    - WELL
LOC .         AA/03-13-095-13W4/0            : Location     - LOCATION
UWI .         AA/03-13-095-13W4/0            : Uwi          - UNIQUE WELL ID
ENTR.         JOETTE                         : Entered      - ENTERED BY
SRVC.         SCHLUMBERGER                   : Scn          - SERVICE COMPANY
DATE.         07/16/92                       : Date         - LOG DATE
STRT.F        50                             : top_depth    - START DEPTH
STOP.F        529.823                        : bot_depth    - STOP DEPTH
STEP.F        0.8202                         : increment    - STEP LENGTH
 NULL. -999.2500:NULL Value
~CURVE INFORMATION BLOCK
#MNEM UNIT       ERCB CURVE CODE    CURVE DESCRIPTION
#-----------   ------------------   ----------------------------------
DEPT.F        00 001 00 00         : DEPTH        - DEPTH
ILD .OHMM     00 120 00 00         : RESD         - DEEP RESISTIVITY (DIL)
GR  .API      00 310 00 00         : GR           - GAMMA RAY
NPHI.V/V      00 330 00 00         : PHIN         - NEUTRON POROSITY (SANDSTONE)
~PARAMETER INFORMATION
#MNEM.UNIT           DATA             DESCRIPTION OF MNEMONIC
#---------         -----------     ------------------------------
GL  .F        1216.4               : gl           - GROUND LEVEL ELEVATION
EREF.F        1216.4               : kb           - ELEVATION OF DEPTH REFERENCE
DATM.F        1216.4               : datum        - DATUM ELEVATION
TDD .F        531                  : tdd          - TOTAL DEPTH DRILLER
RUN .         ONE                  : Run          - RUN NUMBER
ENG .         JO                   : Engineer     - RECORDING ENGINEER
WIT .         TIM                  : Witness      - WITNESSED BY
MUD .         GEL                  : Mud_type     - MUD TYPE
MATR.         SANDSTONE            : Logunit      - NEUTRON MATRIX
TMAX.C        37                   : BHT          - MAXIMUM RECORDED TEMPERATURE
BHTD.M        531                  : BHTDEP       - MAXIMUM RECORDED TEMPERATURE
RMT .C        37                   : MDTP         - TEMPERATURE OF MUD
MUDD.KG/M     1030                 : MWT          - MUD DENSITY
NEUT.         1                    : NEUTRON      - NEUTRON TYPE
RESI.         0                    : RESIST       - RESISTIVITY TYPE
RM  .OHMM     14                   : RM           - RESISTIVITY OF MUD
RMC .OHMM     14                   : RMC          - RESISTIVITY OF MUD CAKE
RMF .OHMM     14                   : RMF          - RESISTIVITY OF MUD FILTRATE
SUFT.C        4                    : SUFT         - SURFACE TEMPERATURE
~A  DEPTH     RESD       GR     PHIN
# ...
  227.986    4.361   65.316    0.653
  228.806    4.394   62.722    0.652
  229.626    3.705   64.087    0.633
  230.446    3.738   65.463    0.589
  231.266    6.666   64.627    0.549
  232.087    9.586   64.676    0.501
  232.907   11.784   63.409    0.481
  233.727   13.261   56.365    0.493
  234.547   12.572   59.954    0.502
  235.367   13.343   64.466    0.478
  236.188   14.803   63.605    0.467
  237.008   17.001   60.999    0.484
  237.828   20.651   57.064    0.523
  238.648   19.962   58.884    0.577
  239.469   13.491   77.533    0.587
  240.289    7.036   87.332    0.587
  241.109    6.339   91.376    0.587
  241.929    5.650   87.872    0.588
  242.749    5.683   83.065    0.591
  243.570    5.724   85.314    0.589
  244.390    6.487   88.461    0.578
  245.210    6.520   91.608    0.567
  246.030    7.274   91.215    0.565
  246.850    7.307   87.293    0.572
  247.671    7.340   84.231    0.586
  248.491    7.373   82.965    0.590
  249.311    6.684   85.681    0.587
  250.131    6.717   88.374    0.580
  250.951    6.750   91.963    0.569
  251.772    6.783   95.110    0.524
  252.592    7.537   93.389    0.487
  253.412    8.292   81.918    0.476
  254.232   10.482   59.838    0.460
  255.052   10.523   46.142    0.436
  255.873   11.999   39.995    0.427
  256.693   14.919   29.864    0.420
  257.513   19.283   31.241    0.410
  258.333   25.812   38.814    0.400
  259.154   25.123   47.284    0.403
  259.974   20.825   55.300    0.441
  260.794   17.971   58.459    0.436
  261.614   15.847   47.431    0.407
  262.434   15.158   43.497    0.403
  263.255   15.904   39.563    0.392
  264.075   18.832   38.284    0.390
  264.895   21.744   41.873    0.396
  265.715   27.551   45.033    0.406
  266.535   25.427   48.192    0.415
  267.356   20.407   49.569    0.432
  268.176   16.110   52.261    0.460
  268.996   11.820   54.978    0.462
  269.816   11.845   52.359    0.450
  270.636   15.486   48.867    0.445
  271.457   15.519   44.945    0.445
  272.277   15.552   44.539    0.445
  273.097   14.158   43.715    0.430
  273.917   14.183   43.322    0.404
  274.738   19.981   42.055    0.330
  275.558   42.389   41.194    0.323
  276.378   49.648   39.915    0.410
  277.198   33.072   39.977    0.431
  278.018   14.339   40.456    0.426
  278.839   14.372   42.275    0.433
  279.659   15.848   46.762    0.454
  280.479   16.603   63.642    0.505
  281.299   10.140   76.538    0.538
  282.119    8.007   78.800    0.517
  282.940    6.605   76.205    0.518
  283.760    6.646   75.799    0.527
  284.580    6.679   73.636    0.532
  285.400    6.712   67.931    0.500
  286.220    6.736   66.222    0.489
  287.041    7.499   65.385    0.483
  287.861    8.254   63.221    0.515
  288.681    9.008   65.029    0.556
  289.501    8.320   87.219    0.577
  290.322    6.187   91.718    0.546
  291.142    6.212   80.678    0.516
  291.962   16.349   63.897    0.475
  292.782   22.886   56.422    0.329
  293.602   21.484   52.918    0.292
  294.423   46.770   49.868    0.358
  295.243   70.621   49.475    0.429
  296.063   64.158   45.110    0.429
  296.883   37.486   43.377    0.427
  297.703   23.805   46.966    0.421
  298.524   24.560   51.453    0.423
  299.344   26.036   51.957    0.434
  300.164   28.243   51.563    0.437
  300.984   27.554   53.383    0.420
  301.804   27.587   55.190    0.407
  302.625   27.620   57.906    0.411
  303.445   25.479   59.726    0.418
  304.265   23.347   58.902    0.428
  305.085   22.658   56.738    0.425
  305.906   23.421   54.561    0.398
  306.726   29.227   51.082    0.393
  307.546   33.591   49.803    0.390
  308.366   30.737   48.069    0.409
  309.186   39.431   52.102    0.423
  310.007   29.367   56.134    0.443
  310.827   38.053   57.523    0.460
  311.647   33.034   56.674    0.450
  312.467   46.780   48.314    0.419
  313.287   69.196   37.286    0.391
  314.108   84.386   30.696    0.374
  314.928  105.358   31.188    0.357
  315.748   96.000   41.429    0.342
  316.568   44.787   50.329    0.345
  317.388   76.578   54.829    0.363
  318.209   85.993   51.325    0.394
  319.029   91.809   46.050    0.407
  319.849   81.737   41.686    0.413
  320.669   61.552   43.050    0.410
  321.490   48.593   47.980    0.404
  322.310   37.808   52.455    0.398
  323.130   45.772   52.073    0.404
  323.950   59.518   51.679    0.411
  324.770   72.551   54.384    0.418
  325.591   41.540   56.203    0.424
  326.411   27.146   55.367    0.422
  327.231   29.336   55.416    0.416
  328.051   34.421   57.235    0.413
  328.871   51.071   59.497    0.416
  329.692   32.330   60.431    0.413
  330.512   33.084   58.267    0.405
  331.332   36.726   53.903    0.389
  332.152   33.150   52.193    0.398
  332.972   28.860   53.103    0.412
  333.793   26.720   54.492    0.433
  334.613   30.362   54.529    0.428
  335.433   39.056   54.147    0.410
  336.253   59.298   50.643    0.379
  337.073   65.835   46.709    0.390
  337.894   47.094   47.213    0.407
  338.714   24.038   50.347    0.410
  339.534   23.349   54.404    0.411
  340.354   24.104   56.666    0.417
  341.175   24.859   54.047    0.419
  341.995   26.335   50.113    0.410
  342.815   26.368   47.064    0.402
  343.635   26.401   48.908    0.392
  344.455   27.877   49.817    0.381
  345.276   32.962   50.309    0.367
  346.096   69.805   47.260    0.363
  346.916   90.056   43.337    0.378
  347.736  108.863   42.501    0.396
  348.556   48.973   45.636    0.399
  349.377   44.675   48.783    0.396
  350.197   83.691   48.832    0.392
  351.017   62.071   42.685    0.388
  351.837   44.052   39.193    0.382
  352.657   38.311   43.225    0.371
  353.478   65.779   46.385    0.358
  354.298   80.247   49.101    0.348
  355.118   96.159   46.483    0.362
  355.938  101.974   39.880    0.377
  356.759   81.067   31.545    0.370
  357.579   76.778   32.454    0.355
  358.399   73.915   36.499    0.342
  359.219   63.844   36.548    0.350
  360.039   58.111   39.695    0.357
  360.860   66.075   48.595    0.362
  361.680   81.281   52.640    0.373
  362.500   75.540   49.160    0.383
  363.320   80.625   48.324    0.385
  364.140   87.867   48.373    0.388
  364.961   93.674   45.767    0.392
  365.781  110.308   43.136    0.396
  366.601  129.836   37.886    0.398
  367.421  122.652   40.135    0.402
  368.241   98.136   41.967    0.406
  369.062   72.194   41.585    0.399
  369.882   80.880   39.409    0.395
  370.702   97.521   36.815    0.400
  371.522   83.111   36.409    0.409
  372.343   78.091   36.901    0.416
  373.163   65.132   39.162    0.414
  373.983   56.504   41.424    0.407
  374.803   78.198   40.158    0.399
  375.623   84.005   37.981    0.384
  376.444   92.699   32.719    0.393
  377.264   99.950   27.457    0.411
  378.084   64.616   22.638    0.426
  378.904   45.883   25.785    0.436
  379.724   27.142   44.877    0.460
  380.545   17.070   62.199    0.497
  381.365   16.381   72.440    0.500
  382.185   15.700   82.681    0.471
  383.005   15.012   82.742    0.443
  383.825   15.044   81.906    0.435
  384.646   15.077   79.287    0.464
  385.466   16.554   75.783    0.471
  386.286   20.195   75.832    0.479
  387.106   23.115   83.859    0.486
  387.927   20.261   83.466    0.471
  388.747   18.859   79.089    0.448
  389.567   23.936   76.040    0.441
  390.387   35.517   80.084    0.444
  391.207   52.880   79.236    0.434
  392.028   69.514   62.897    0.413
  392.848   95.530   47.886    0.397
  393.668   95.563   39.980    0.384
  394.488   97.761   37.804    0.383
  395.308  102.863   37.410    0.387
  396.129  101.444   38.369    0.393
  396.949   85.598   37.951    0.394
  397.769   63.248   36.229    0.401
  398.589   47.402   34.951    0.409
  399.409   33.721   33.672    0.418
  400.230   30.145   34.163    0.422
  401.050   32.344   54.584    0.416
  401.870   33.098   63.054    0.409
  402.690   33.861   64.000    0.403
  403.510   33.886   59.611    0.394
  404.331   33.935   57.004    0.395
  405.151   34.673   57.053    0.400
