~Version : LASO    vs 4.00 - DATA COPYRIGHT - RILEYS DATASHARE INTERNATIONAL
 VERS.                2.0 :   CWLS Log ASCII Standard -VERSION 2.0
 WRAP.                 NO :   One line per depth step
~Well Information Block
#MNEM.UNIT       Data                        Description of Mnemonic
#----.----      -------------------------- : -----------------------------
 STRT.M             0.0000                 : Start Depth
 STOP.M           204.7500                 : End Depth
 STEP.M             0.1250                 : Depth Increment
 NULL.           -999.25                   : NULL Value
 COMP.                                     : COMPANY
 WELL.    MOBIL CLARKE OV 7-25             : WELL NAME
 FLD .    WILDCAT                          : FIELD NAME
 LOC .    07-25-090-08W4                   : WELL LOCATION
 PROV.    ALBERTA                          : PROVINCE
 SRVC.    DRESSER ATLAS                    : LOGGING SERVICE COMPANY
 DATE.    19-FEB-81                        : DATE LOGGED
 UWI .    AA/07-25-090-08W400              : UNIQUE WELL ID
~Curve Information Block
#MNEM.UNIT        API CODE                   Curve Description
#----.----      LG--CV-CL--M               : -----------------
 DEPT.M          0   1  0  0               : 1 DEPTH
 DT  .US/M      60 520 42  1               : 2 SONIC INTERVAL TRANSIT TIME (COMPENSATED)
 CALI.MM        42 280  1  1               : 3 DENSITY CALIPER
 GR  .GAPI      42 310  1  1               : 4 GAMMA RAY
 NPHI.V/V       42 890  3  1               : 5 NEUTRON POROSITY (SANDSTONE)
 RHOB.K/M3      42 350  1  1               : 6 BULK DENSITY
 IL  .OHMM       5 120 45  1               : 7 INDUCTION
 SFL .OHMM       5 220  6  1               : 8 FOCUSSED RESISTIVITY
 SP  .MV         5  10  1  1               : 9 SPONTANEOUS POTENTIAL
~Parameter Information Block
#MNEM.UNIT       Data                        Description of Mnemonic
#----.----      -------------------------- : -----------------------------
 RUN .                   1                 : Run Number
 GL  .M           449.0000                 : Ground Level Elevation
 DREF.                  KB                 : Depth Reference
 EREF.M           449.0000                 : Elevation of Depth Reference
 TDL .M           202.0000                 : Total Depth Logger
 TDD .M           205.0000                 : Total Depth Driller
 BHT .DEGC         20.0000                 : Bottom Hole Temperature
 BS  .MM          159.0000                 : Bit Size
 DFD .           9999.0000                 : Mud Weight (Density)
 DFV .            150.0000                 : Mud Viscosity
 RM  .OHMM          4.1000                 : Mud Resistivity
 RMT .DEGC         20.0000                 : Mud Resistivity Temperature
 RMF .OHMM          3.9000                 : Mud Filtrate Resistivity
 RMFT.DEGC          8.0000                 : RMF Temperature
 RMC .OHMM          7.8000                 : Mud Cake Resistivity
 RMCT.DEGC          8.0000                 : RMC Temperature
~Asc DEPTH      DT         CALI       GR         NPHI       RHOB       IL         SFL        SP   
# ...
   91.1250   498.0400   183.0750   106.4700     0.4046  2122.7000     5.7750    10.6600  -128.4300
   91.2500   467.3600   179.4000   111.2550     0.4035  2135.0000     5.9000    11.0250  -128.4300
   91.3750   440.5600   180.9250   114.2100     0.4069  2139.3000     5.9600    11.2700  -128.4300
   91.5000   460.4800   179.7000   116.9700     0.4120  2134.3999     6.1450    11.8850  -128.2500
   91.6250   490.6800   182.7750   117.7050     0.4142  2130.7000     6.3900    12.1900  -128.0700
   91.7500   468.3200   186.7500   117.3450     0.4109  2127.0000     6.6350    12.4950  -127.8750
   91.8750   470.5200   188.2750   116.2350     0.4149  2131.8999     6.9400    12.9900  -127.6950
   92.0000   497.5600   196.8750   115.1250     0.4145  2142.3000     7.1850    13.2350  -127.8750
   92.1250   515.7600   195.6250   114.3900     0.4160  2149.1001     7.4950    12.4950  -127.5150
   92.2500   516.2400   195.0250   112.1850     0.4223  2158.3000     7.7400    11.8850  -127.6950
   92.3750   514.5200   195.9500   110.8950     0.4277  2169.8999     7.9850    11.5150  -127.6950
   92.5000   511.8000   195.6250   111.2550     0.4223  2173.0000     8.2300    11.7000  -127.6950
   92.6250   507.4000   196.2500   112.1850     0.4201  2165.6001     8.4750    12.7450  -127.6950
   92.7500   505.9200   197.4750   112.9200     0.4160  2166.2000     8.7200    14.2750  -128.0700
   92.8750   507.4000   197.4750   113.2800     0.4072  2170.5000     8.9650    15.0700  -128.6250
   93.0000   509.3600   195.9500   114.7650     0.4017  2173.6001     9.2100    15.0100  -128.4300
   93.1250   512.5600   196.5500   114.3900     0.4002  2175.3999     9.2750    14.9500  -128.2500
   93.2500   512.3200   197.1750   113.1000     0.3984  2177.3000     9.2100    14.9500  -128.0700
   93.3750   511.8000   197.4750   111.2550     0.3951  2181.0000     9.1500    15.3750  -127.6950
   93.5000   511.5600   197.4750   111.2550     0.3907  2179.7000     8.9050    15.8700  -127.8750
   93.6250   510.6000   197.4750   112.7400     0.3851  2174.2000     8.9050    15.5000  -127.8750
   93.7500   509.3600   196.2500   113.1000     0.3833  2169.8999     8.8450    13.9050  -127.6950
   93.8750   506.4000   195.0250   113.1000     0.3764  2166.2000     8.7800    12.4950  -126.9600
   94.0000   500.7200   194.4000   113.1000     0.3775  2167.5000     8.7800    11.8250  -126.2100
   94.1250   487.2400   193.1750   114.3900     0.3749  2171.1001     8.8450    11.8850  -125.8500
   94.2500   482.8400   188.6000   114.9450     0.3745  2173.0000     8.9050    12.1900  -125.8500
   94.3750   481.3600   187.0500   113.8350     0.3676  2174.2000     9.1500    12.6800  -125.6550
   94.5000   485.0400   195.6250   115.3200     0.3602  2178.5000     9.4550    13.4800  -125.8500
   94.6250   507.6400   198.1000   114.9450     0.3565  2187.1001     9.8250    14.3950  -126.0300
   94.7500   525.0800   198.1000   112.3650     0.3551  2192.6001    10.3150    15.5600  -126.7650
   94.8750   500.4800   200.5500   112.1850     0.3631  2193.2000    10.9300    16.1750  -127.8750
   95.0000   455.5600   197.4750   112.9200     0.3676  2195.7000    11.6650    15.9300  -128.6250
   95.1250   462.2000   189.2000   111.9900     0.3731  2201.2000    12.2800    15.2550  -129.0000
   95.2500   475.4400   186.4500   109.9650     0.3731  2207.3000    13.0150    14.8250  -129.0000
   95.3750   456.7600   185.5250   107.9400     0.3624  2210.3999    13.7500    14.7050  -129.3600
   95.5000   428.0400   183.3750   107.3850     0.3643  2212.2000    14.5500    15.0100  -129.9150
   95.6250   430.0000   182.1500   108.8700     0.3683  2215.8999    15.1600    15.8700  -130.4700
   95.7500   433.4400   181.8500   109.7850     0.3631  2219.6001    15.6550    17.2150  -131.2200
   95.8750   441.8000   182.7750   107.9400     0.3529  2226.8999    16.5750    19.0550  -131.4000
   96.0000   466.6000   187.6750   105.0000     0.3470  2233.0000    17.5550    19.9100  -131.0250
   96.1250   541.5600   187.6750   102.7800     0.3411  2236.1001    18.7200    19.1750  -130.4700
   96.2500   408.8800   186.7500   101.3100     0.3334  2244.1001    19.6400    17.0300  -129.9150
   96.3750   189.2000   185.5250    98.5500     0.3235  2255.1001    19.9500    15.8050  -129.5550
   96.5000   188.7200   184.0000    95.2200     0.3194  2273.5000    19.7000    17.4000  -129.0000
   96.6250   520.1600   182.7750    93.0150     0.3165  2302.8999    18.8450    22.1200  -128.4300
   96.7500   509.6000   188.2750    93.0150     0.3132  2337.2000    17.6800    28.9800  -127.3200
   96.8750   498.0400   199.9250    93.5700     0.2959  2399.7000    16.5100    33.8200  -126.2100
   97.0000   490.2000   202.6750    93.0150     0.2838  2484.3000    15.5900    32.9000  -125.8500
   97.1250   488.2400   203.0000    92.1000     0.2743  2549.8000    14.5500    26.3450  -126.0300
   97.2500   509.1200   202.6750    91.9050     0.2710  2576.2000    13.5050    18.5000  -126.9600
   97.3750   514.5200   203.3000    92.6400     0.2908  2541.2000    12.5250    13.4150  -128.2500
   97.5000   510.3200   203.0000    94.6800     0.3139  2463.3999    11.6650    11.8250  -129.1800
   97.6250   506.6400   202.6750    97.8000     0.3338  2394.2000    10.8700    11.7600  -129.5550
   97.7500   506.4000   203.0000   101.6700     0.3455  2329.2000    10.1300    12.0700  -129.1800
   97.8750   506.6400   203.6000   105.0000     0.3709  2255.1001     9.5800    12.3750  -128.6250
   98.0000   506.6400   205.1250   107.2050     0.3800  2185.8999     9.2100    12.0700  -127.8750
   98.1250   505.1600   205.4500   107.2050     0.3848  2150.8999     8.9650    11.3350  -126.5850
   98.2500   504.4400   205.4500   107.2050     0.3870  2143.6001     8.8450    10.8450  -126.0300
   98.3750   505.9200   205.1250   107.5800     0.3958  2143.6001     8.7200    10.7200  -125.8500
   98.5000   507.8800   204.8250   107.3850     0.3984  2147.2000     8.7200    10.8450  -125.8500
   98.6250   510.0800   205.1250   107.3850     0.3899  2150.3000     8.6600    11.2700  -126.5850
   98.7500   505.6800   204.8250   106.6500     0.3818  2150.3000     8.7200    11.6400  -127.5150
   98.8750   492.8800   204.5250   105.0000     0.3826  2147.2000     8.7200    11.3950  -127.8750
   99.0000   483.3200   204.2250   103.8900     0.3844  2144.2000     8.7200    10.7200  -127.5150
   99.1250   506.8800   203.9000   103.8900     0.3863  2141.7000     8.7200    11.0900  -127.6950
   99.2500   505.6800   203.3000   103.1550     0.3885  2143.6001     8.7200    12.2500  -128.2500
   99.3750   501.2000   203.0000   101.8650     0.3870  2150.8999     8.7200    12.7450  -128.8050
   99.5000   498.8000   202.6750   102.0450     0.3808  2159.5000     8.6600    12.0700  -127.8750
   99.6250   495.8400   202.6750   100.5750     0.3822  2169.3000     8.6000    11.0250  -126.9600
   99.7500   497.0800   203.0000    99.0900     0.3874  2179.1001     8.3550    10.6600  -126.5850
   99.8750   499.2800   202.0750    99.2850     0.4021  2184.0000     8.0450    11.0900  -126.7650
  100.0000   500.7200   200.5500   100.7550     0.4087  2184.0000     7.8600    12.0700  -126.9600
  100.1250   505.1600   200.2250   101.6700     0.4116  2183.3999     7.6800    12.6800  -127.3200
  100.2500   505.9200   199.9250   101.3100     0.4064  2185.8999     7.4950    11.6400  -126.9600
  100.3750   506.8800   200.5500   103.5150     0.3998  2190.8000     7.3100    10.2300  -126.5850
  100.5000   506.1600   201.7750   105.9150     0.4010  2195.7000     7.2500     9.9250  -126.2100
  100.6250   505.9200   204.8250   107.9400     0.4079  2190.8000     7.0650    10.2300  -126.4050
  100.7500   506.8800   205.4500   108.3150     0.4076  2179.7000     6.8800    10.6000  -126.4050
  100.8750   506.4000   206.3500   110.1600     0.3980  2174.8000     6.7550    10.6000  -126.5850
  101.0000   504.2000   206.6750   112.5450     0.3962  2176.7000     6.6350    10.5350  -126.4050
  101.1250   502.2000   206.6750   113.4750     0.3965  2178.5000     6.5100    10.5350  -126.4050
