~VERSION INFORMATION
 VERS.                 2.0:   CWLS LOG ASCII STANDARD -VERSION 2.0
 WRAP.                  NO:   ONE LINE PER DEPTH STEP
~WELL INFORMATION BLOCK
#MNEM.UNIT           DATA                    DESCRIPTION OF MNEMONIC
#---------    -------------------            -------------------------------
# Generated from Intellog Unique Number	CW_79_81/WELL/637
WELL.         07-33-079-25W4                 : Well_name    - WELL
LOC .         AA/07-33-079-25W4/0            : Location     - LOCATION
UWI .         AA/07-33-079-25W4/0            : Uwi          - UNIQUE WELL ID
ENTR.         MAX                            : Entered      - ENTERED BY
SRVC.         SCHLUMBERGER                   : Scn          - SERVICE COMPANY
STRT.M        200                            : top_depth    - START DEPTH
STOP.M        475                            : bot_depth    - STOP DEPTH
STEP.M        0.25                           : increment    - STEP LENGTH
 NULL. -999.2500:NULL Value
~CURVE INFORMATION BLOCK
#MNEM UNIT       ERCB CURVE CODE    CURVE DESCRIPTION
#-----------   ------------------   ----------------------------------
DEPT.M        00 001 00 00         : DEPTH        - DEPTH
ILD .OHMM     00 120 00 00         : RESD         - DEEP RESISTIVITY (DIL)
NPHI.V/V      00 330 00 00         : PHIN         - NEUTRON POROSITY (SANDSTONE)
DPHI.V/V      00 890 00 00         : PHID         - DENSITY POROSITY (SANDSTONE)
CALI.MM       00 280 01 00         : CAL          - CALIPER
GR  .API      00 310 00 00         : GR           - GAMMA RAY
~PARAMETER INFORMATION
#MNEM.UNIT           DATA             DESCRIPTION OF MNEMONIC
#---------         -----------     ------------------------------
GL  .M        557.85               : gl           - GROUND LEVEL ELEVATION
EREF.M        562.3                : kb           - ELEVATION OF DEPTH REFERENCE
DATM.M        557.85               : datum        - DATUM ELEVATION
TDD .M        485.5                : tdd          - TOTAL DEPTH DRILLER
RUN .         ONE                  : Run          - RUN NUMBER
ENG .         BILL                 : Engineer     - RECORDING ENGINEER
WIT .         JIM                  : Witness      - WITNESSED BY
MUD .         GEL                  : Mud_type     - MUD TYPE
MATR.         SANDSTONE            : Logunit      - NEUTRON MATRIX
TMAX.C        17.7                 : BHT          - MAXIMUM RECORDED TEMPERATURE
BHTD.M        485                  : BHTDEP       - MAXIMUM RECORDED TEMPERATURE
RMT .C        20                   : MDTP         - TEMPERATURE OF MUD
MUDD.KG/M     1110                 : MWT          - MUD DENSITY
NEUT.         1                    : NEUTRON      - NEUTRON TYPE
RESI.         0                    : RESIST       - RESISTIVITY TYPE
RM  .OHMM     11.3                 : RM           - RESISTIVITY OF MUD
RMC .OHMM     0.25                 : RMC          - RESISTIVITY OF MUD CAKE
RMF .OHMM     4.93                 : RMF          - RESISTIVITY OF MUD FILTRATE
SUFT.C        -15                  : SUFT         - SURFACE TEMPERATURE
~A  DEPTH     RESD     PHIN     PHID      CAL       GR
# ...
  419.000   23.275    0.411    0.250  254.453   51.643
  419.250   34.143    0.371    0.285  252.969   37.888
  419.500   51.947    0.339    0.303  252.483   28.023
  419.750   64.085    0.353    0.311  251.502   22.646
  420.000   74.175    0.368    0.317  251.013   22.354
  420.250   82.026    0.370    0.322  251.025   24.757
  420.500   83.560    0.356    0.319  250.539   25.063
  420.750   83.599    0.332    0.312  250.055   24.474
  421.000   84.390    0.315    0.312  249.570   22.984
  421.250   87.553    0.309    0.313  249.084   21.197
  421.500   90.008    0.334    0.314  248.099   21.504
  421.750   90.867    0.352    0.316  248.112   22.708
  422.000   91.726    0.359    0.316  248.125   23.015
  422.250   96.044    0.346    0.316  248.136   21.826
  422.500  100.557    0.337    0.312  248.150   21.236
  422.750  104.326    0.330    0.309  247.665   22.142
  423.000  106.282    0.333    0.310  247.679   23.944
  423.250  107.292    0.348    0.311  247.689   25.148
  423.500  108.316    0.362    0.306  247.206   25.753
  423.750  108.348    0.368    0.303  247.215   25.762
  424.000  108.385    0.353    0.306  247.229   25.171
  424.250  108.422    0.351    0.312  246.745   24.280
  424.500  106.504    0.362    0.309  246.259   24.288
  424.750  103.662    0.360    0.301  246.273   25.194
  425.000   99.985    0.361    0.299  246.284   25.201
  425.250   93.845    0.378    0.303  246.295   25.508
  425.500   88.884    0.376    0.309  246.311   27.311
  425.750   88.884    0.352    0.304  246.322   27.318
  426.000   86.538    0.339    0.302  246.336   26.728
  426.250   76.894    0.341    0.302  245.848   25.841
  426.500   70.219    0.344    0.301  245.863   26.146
  426.750   61.828    0.320    0.297  245.874   28.547
  427.000   52.490    0.316    0.295  245.888   30.648
  427.250   45.383    0.339    0.294  246.399   32.749
  427.500   36.480    0.385    0.290  247.410   36.049
  427.750   30.691    0.392    0.289  248.422   41.142
  428.000   27.519    0.389    0.286  248.930   46.236
  428.250   22.733    0.386    0.277  249.941   48.936
  428.500   19.478    0.361    0.252  249.955   48.345
  428.750   19.306    0.335    0.237  249.968   45.960
  429.000   19.848    0.352    0.235  249.979   41.180
  429.250   21.358    0.373    0.263  249.991   36.104
  429.500   22.772    0.385    0.292  250.004   37.307
  429.750   26.357    0.383    0.301  250.515   41.802
  430.000   29.955    0.384    0.301  250.529   43.006
  430.250   32.826    0.392    0.301  251.042   41.817
  430.500   33.746    0.385    0.300  251.055   42.126
  430.750   32.255    0.372    0.289  251.564   45.124
  431.000   31.109    0.379    0.279  251.578   49.620
  431.250   31.984    0.396    0.273  251.593   49.328
  431.500   32.883    0.402    0.265  251.602   48.140
  431.750   32.595    0.387    0.240  251.117   48.146
  432.000   30.314    0.351    0.213  250.631   54.437
  432.250   27.936    0.295    0.130  250.150   64.916
  432.500   25.510    0.309    0.116  250.160   67.018
  432.750   21.856    0.348    0.142  250.174   59.545
  433.000   19.244    0.336    0.131  250.183   53.570
  433.250   15.898    0.282    0.096  250.197   55.074
  433.500   14.127    0.274    0.075  250.210   81.109
  433.750   11.992    0.319    0.122  250.226  101.161
  434.000   10.274    0.351    0.160  250.238   98.476
  434.250   10.093    0.350    0.155  250.249   86.517
  434.500   10.567    0.369    0.180  249.765   75.754
  434.750   11.267    0.352    0.169  249.779   70.378
  435.000   12.805    0.295    0.147  249.291   63.505
  435.250   15.371    0.262    0.109  249.305   64.410
  435.500   18.118    0.283    0.100  249.318   71.299
  435.750   18.969    0.367    0.177  249.327   73.401
  436.000   18.633    0.392    0.244  249.340   75.802
  436.250   16.708    0.405    0.241  249.854   80.596
  436.500   14.056    0.398    0.236  249.867   84.493
  436.750   12.264    0.382    0.232  249.881   84.203
  437.000   11.829    0.389    0.233  249.392   82.114
  437.250   11.834    0.401    0.229  249.406   80.626
  437.500   11.624    0.387    0.225  249.417   81.232
  437.750   11.110    0.361    0.231  249.433   79.746
  438.000   10.238    0.367    0.236  249.447   80.051
  438.250    8.613    0.382    0.233  249.459   83.350
  438.500    7.379    0.409    0.220  249.472   86.350
  438.750    6.208    0.427    0.212  249.484   89.349
  439.000    5.417    0.433    0.212  249.993   92.949
  439.250    5.224    0.472    0.203  250.007   92.655
  439.500    5.470    0.458    0.178  250.022   80.996
  439.750    6.104    0.355    0.116  250.032   75.917
  440.000    7.530    0.364    0.160  250.046   73.531
  440.250    8.559    0.418    0.211  250.057   75.034
  440.500    9.552    0.451    0.277  249.571   82.222
  440.750   10.184    0.464    0.307  249.585   86.419
  441.000   10.470    0.480    0.346  249.599   89.119
  441.250   10.007    0.545    0.402  249.612   90.324
  441.500    9.055    0.530    0.370  249.624   86.142
  441.750    7.688    0.486    0.347  249.639   83.159
  442.000    6.769    0.469    0.308  249.651   83.765
  442.250    6.296    0.448    0.247  249.662   87.064
  442.500    6.241    0.425    0.237  249.675   90.662
  442.750    6.243    0.410    0.270  249.689   92.763
  443.000    6.188    0.524    0.288  249.701   93.370
  443.250    5.914    0.558    0.301  249.714   92.780
  443.500    5.705    0.545    0.303  249.730   93.085
  443.750    5.604    0.512    0.281  249.738   97.581
  444.000    5.555    0.486    0.220  249.753  103.272
  444.250    5.659    0.488    0.183  249.764  104.178
  444.500    6.034    0.492    0.119  249.777   98.501
  444.750    6.493    0.459    0.045  249.791   90.730
  445.000    7.179    0.450    0.062  249.804   85.053
  445.250    8.697    0.434    0.089  250.315   80.275
  445.500    9.358    0.417    0.229  250.330   75.496
  445.750    9.193    0.394    0.246  250.341   81.787
  446.000    8.706    0.440    0.242  250.354   98.248
  446.250    7.324    0.465    0.206  250.368  107.230
  446.500    6.333    0.447    0.154  250.379  109.931
  446.750    6.335    0.442    0.159  250.390  108.443
  447.000    6.694    0.417    0.205  249.907   99.475
  447.250    7.137    0.404    0.219  249.918   89.311
  447.500    7.472    0.377    0.227  249.932   84.831
  447.750    7.753    0.354    0.234  249.945   86.335
  448.000    7.826    0.349    0.245  249.956   93.223
  448.250    7.829    0.360    0.258  249.970   98.617
  448.500    7.904    0.460    0.264  249.983  103.112
  448.750    8.275    0.440    0.254  249.995  105.214
  449.000    8.743    0.442    0.265  250.009  105.520
  449.250    9.153    0.487    0.269  250.020  102.237
  449.500    9.760    0.496    0.234  250.033   92.073
  449.750   10.695    0.300    0.096  250.046   73.232
  450.000   11.828    0.262    0.111  250.058   80.721
  450.250   11.940    0.303    0.170  250.074   88.805
  450.500   11.412    0.355    0.203  250.085  104.968
  450.750   10.613    0.343    0.214  250.097  106.472
  451.000    9.870    0.330    0.202  250.609   99.299
  451.250    9.784    0.316    0.187  250.623   92.126
  451.500    9.967    0.303    0.183  251.134   77.775
  451.750   10.062    0.316    0.223  251.148   73.893
  452.000   10.439    0.343    0.235  251.161   84.371
  452.250   10.733    0.343    0.209  251.172   86.473
  452.500   10.834    0.308    0.174  251.683   78.702
  452.750   10.741    0.279    0.162  252.197   77.215
  453.000    9.898    0.394    0.211  252.207   87.993
  453.250    7.532    0.449    0.234  252.721   99.967
  453.500    6.166    0.463    0.256  252.734  101.470
  453.750    6.001    0.407    0.289  253.243   87.417
  454.000    5.950    0.381    0.293  253.256   80.543
  454.250    6.006    0.371    0.287  253.270   78.756
  454.500    6.064    0.363    0.274  253.284   79.663
  454.750    6.290    0.362    0.270  253.298   80.268
  455.000    6.893    0.362    0.257  253.309   79.677
  455.250    7.350    0.349    0.241  253.320   79.387
