~VERSION INFORMATION
 VERS.                 2.0:   CWLS LOG ASCII STANDARD -VERSION 2.0
 WRAP.                  NO:   ONE LINE PER DEPTH STEP
~WELL INFORMATION BLOCK
#MNEM.UNIT           DATA                    DESCRIPTION OF MNEMONIC
#---------    -------------------            -------------------------------
# Generated from Intellog Unique Number	CN_94_101/WELL/2347
WELL.         01-05-101-13W4                 : Well_name    - WELL
LOC .         AA/01-05-101-13W4/0            : Location     - LOCATION
UWI .         AA/01-05-101-13W400            : Uwi          - UNIQUE WELL ID
ENTR.         TIM                            : Entered      - ENTERED BY
SRVC.         SCHLUMBERGER                   : Scn          - SERVICE COMPANY
DATE.         08/13/92                       : Date         - LOG DATE
STRT.M        350                            : top_depth    - START DEPTH
STOP.M        550                            : bot_depth    - STOP DEPTH
STEP.M        0.25                           : increment    - STEP LENGTH
NULL. -999.2500:NULL Value
~CURVE INFORMATION BLOCK
#MNEM UNIT       ERCB CURVE CODE    CURVE DESCRIPTION
#-----------   ------------------   ----------------------------------
DEPT.M        00 001 00 00         : DEPTH        - DEPTH
DPHI.V/V      00 890 00 00         : PHID         - DENSITY POROSITY (SANDSTONE)
NPHI.V/V      00 330 00 00         : PHIN         - NEUTRON POROSITY (SANDSTONE)
ILD .OHMM     00 120 00 00         : RESD         - DEEP RESISTIVITY (DIL)
GR  .API      00 310 00 00         : GR           - GAMMA RAY
~PARAMETER INFORMATION
#MNEM.UNIT           DATA             DESCRIPTION OF MNEMONIC
#---------         -----------     ------------------------------
GL  .M        775.3                : gl           - GROUND LEVEL ELEVATION
EREF.M        778.7                : kb           - ELEVATION OF DEPTH REFERENCE
DATM.M        778.7                : datum        - DATUM ELEVATION
TDD .M        554                  : tdd          - TOTAL DEPTH DRILLER
RUN .         ONE                  : Run          - RUN NUMBER
ENG .         JO                   : Engineer     - RECORDING ENGINEER
WIT .         TIM                  : Witness      - WITNESSED BY
MUD .         GEL                  : Mud_type     - MUD TYPE
MATR.         SANDSTONE            : Logunit      - NEUTRON MATRIX
TMAX.C        29                   : BHT          - MAXIMUM RECORDED TEMPERATURE
BHTD.M        554                  : BHTDEP       - MAXIMUM RECORDED TEMPERATURE
RMT .C        10                   : MDTP         - TEMPERATURE OF MUD
MUDD.KG/M     1000                 : MWT          - MUD DENSITY
NEUT.         1                    : NEUTRON      - NEUTRON TYPE
RESI.         0                    : RESIST       - RESISTIVITY TYPE
RM  .OHMM     6                    : RM           - RESISTIVITY OF MUD
RMC .OHMM     6                    : RMC          - RESISTIVITY OF MUD CAKE
RMF .OHMM     6                    : RMF          - RESISTIVITY OF MUD FILTRATE
SUFT.C        4                    : SUFT         - SURFACE TEMPERATURE
~A  DEPTH     PHID     PHIN     RESD       GR
  350.000    0.249    0.563    2.934  141.559
  350.250    0.254    0.561    2.943  143.462
  350.500    0.257    0.562    2.952  145.985
  350.750    0.252    0.563    2.959  147.262
  351.000    0.239    0.562    2.968  145.420
  351.250    0.240    0.555    2.980  144.186
  351.500    0.245    0.550    2.782  142.952
  351.750    0.250    0.552    2.787  142.350
  352.000    0.246    0.571    2.587  142.374
  352.250    0.246    0.583    2.387  141.152
  352.500    0.252    0.583    1.978  140.544
  352.750    0.257    0.578    1.990  138.070
  353.000    0.262    0.577    2.208  136.836
  353.250    0.257    0.577    2.427  134.988
  353.500    0.255    0.575    2.436  133.139
  353.750    0.252    0.571    2.652  131.899
  354.000    0.252    0.557    2.875  129.425
  354.250    0.252    0.542    3.094  127.564
  354.500    0.253    0.525    2.896  124.470
  354.750    0.258    0.514    2.691  123.235
  355.000    0.262    0.503    2.282  122.001
  355.250    0.265    0.499    2.296  123.290
  355.500    0.270    0.500    2.303  124.561
  355.750    0.274    0.504    2.519  125.832
  356.000    0.277    0.510    2.531  127.741
  356.250    0.276    0.519    2.331  129.012
  356.500    0.269    0.532    2.340  132.180
  356.750    0.264    0.536    2.138  134.077
  357.000    0.262    0.541    1.734  137.859
  357.250    0.262    0.549    1.529  139.142
  357.500    0.262    0.539    1.543  136.036
  357.750    0.263    0.523    1.550  133.549
  358.000    0.270    0.570    1.768  130.442
  358.250    0.272    0.559    2.196  127.968
  358.500    0.277    0.546    3.042  126.733
  358.750    0.277    0.530    3.888  121.754
  359.000    0.278    0.524    4.109  116.762
  359.250    0.270    0.490    4.118  113.023
  359.500    0.263    0.460    3.918  112.427
  359.750    0.248    0.466    3.509  116.836
  360.000    0.238    0.491    2.679  121.244
  360.250    0.227    0.495    2.480  125.032
  360.500    0.223    0.490    2.700  128.188
  360.750    0.275    0.481    2.707  128.838
  361.000    0.312    0.467    2.298  126.358
  361.250    0.286    0.468    1.682  123.883
  361.500    0.281    0.494    1.691  123.269
  361.750    0.286    0.551    1.698  123.300
  362.000    0.299    0.569    2.335  122.078
  362.250    0.298    0.570    2.765  121.470
  362.500    0.298    0.544    2.772  119.616
  362.750    0.296    0.538    2.575  119.634
  363.000    0.293    0.512    2.372  122.164
  363.250    0.286    0.518    2.175  125.952
  363.500    0.281    0.532    2.393  130.354
  363.750    0.277    0.540    2.823  130.384
  364.000    0.271    0.543    3.039  127.277
  364.250    0.277    0.515    3.051  123.538
  364.500    0.283    0.508    3.058  119.805
  364.750    0.280    0.496    2.863  120.456
  365.000    0.284    0.508    2.658  126.117
  365.250    0.293    0.534    2.249  130.537
  365.500    0.294    0.541    2.049  127.424
  365.750    0.280    0.575    1.640  126.196
  366.000    0.279    0.596    1.442  127.473
  366.250    0.278    0.593    1.870  126.245
  366.500    0.271    0.586    2.086  123.764
  366.750    0.264    0.580    2.728  120.037
  367.000    0.255    0.565    2.732  116.311
  367.250    0.243    0.531    2.742  114.444
  367.500    0.207    0.531    2.542  112.590
  367.750    0.192    0.558    2.553  109.495
  368.000    0.179    0.568    3.190  108.881
  368.250    0.169    0.566    3.202  110.784
  368.500    0.155    0.510    3.000  114.566
  368.750    0.181    0.498    2.381  118.974
  369.000    0.255    0.508    2.184  122.756
  369.250    0.273    0.518    2.191  126.538
  369.500    0.279    0.546    1.995  129.068
  369.750    0.285    0.565    2.002  125.967
  370.000    0.294    0.572    2.009  122.240
  370.250    0.296    0.557    1.812  119.121
  370.500    0.295    0.566    2.239  115.388
  370.750    0.289    0.560    2.455  109.776
  371.000    0.286    0.546    2.890  105.417
  371.250    0.286    0.536    2.897  102.316
  371.500    0.282    0.520    2.904  106.092
  371.750    0.276    0.524    2.702  113.005
  372.000    0.274    0.526    2.502  124.929
  372.250    0.274    0.527    2.511  133.101
  372.500    0.274    0.526    2.734  135.004
  372.750    0.275    0.520    2.950  133.776
  373.000    0.275    0.515    2.964  130.669
  373.250    0.273    0.508    3.181  126.936
  373.500    0.273    0.503    3.192  125.708
  373.750    0.275    0.500    3.199  125.732
  374.000    0.276    0.495    3.627  125.763
  374.250    0.279    0.492    4.054  125.161
  374.500    0.282    0.488    4.064  122.686
  374.750    0.283    0.484    4.071  120.820
  375.000    0.285    0.476    3.871  120.224
  375.250    0.289    0.474    3.464  122.127
  375.500    0.288    0.478    3.262  124.657
  375.750    0.267    0.483    2.646  125.302
  376.000    0.264    0.488    2.653  125.952
  376.250    0.269    0.487    2.453  125.977
  376.500    0.273    0.488    2.253  124.122
  376.750    0.274    0.498    0.798  123.521
  377.000    0.277    0.519    1.016  126.050
  377.250    0.277    0.544    1.448  129.832
  377.500    0.276    0.554    1.665  133.614
  377.750    0.274    0.555    1.676  137.402
  378.000    0.272    0.544    1.683  138.053
  378.250    0.271    0.534    1.904  136.199
  378.500    0.271    0.521    1.911  135.603
  378.750    0.272    0.506    1.920  135.615
  379.000    0.275    0.491    1.929  135.646
  379.250    0.270    0.484    1.730  132.533
  379.500    0.267    0.475    1.741  127.547
  379.750    0.266    0.468    1.960  122.561
  380.000    0.271    0.471    2.180  121.333
  380.250    0.275    0.486    2.394  124.495
  380.500    0.283    0.501    2.615  123.267
  380.750    0.284    0.525    2.831  120.787
  381.000    0.277    0.530    2.841  119.559
  381.250    0.254    0.505    3.061  118.343
  381.500    0.251    0.497    3.071  118.355
  381.750    0.247    0.524    3.080  117.759
  382.000    0.250    0.529    3.094  119.669
  382.250    0.252    0.525    3.099  120.313
  382.500    0.254    0.499    2.901  122.216
  382.750    0.252    0.498    2.908  122.867
  383.000    0.249    0.505    3.131  121.639
  383.250    0.248    0.509    3.138  120.417
  383.500    0.249    0.510    3.145  122.314
  383.750    0.256    0.511    3.156  124.838
  384.000    0.265    0.518    3.166  127.367
  384.250    0.262    0.518    3.173  127.392
  384.500    0.262    0.517    3.182  125.543
  384.750    0.271    0.514    3.191  125.574
  385.000    0.278    0.508    3.205  127.477
  385.250    0.282    0.513    3.005  127.495
  385.500    0.284    0.524    2.803  126.888
  385.750    0.277    0.523    2.601  125.033
  386.000    0.272    0.523    2.194  123.179
  386.250    0.264    0.524    1.994  126.961
  386.500    0.257    0.532    1.587  135.753
  386.750    0.244    0.546    1.385  138.289
  387.000    0.238    0.550    1.190  134.555
  387.250    0.239    0.540    1.197  128.950
  387.500    0.241    0.533    1.204  127.083
  387.750    0.242    0.536    1.215  123.350
  388.000    0.249    0.536    1.224  148.431
  388.250    0.260    0.532    1.231  150.960
  388.500    0.267    0.532    1.241  152.237
  388.750    0.264    0.532    1.250  152.262
  389.000    0.256    0.533    1.262  151.660
  389.250    0.251    0.538    1.269  149.179
  389.500    0.254    0.547    1.489  144.194
  389.750    0.266    0.545    1.708  138.582
  390.000    0.277    0.534    1.717  133.596
  390.250    0.288    0.528    1.726  128.617
  390.500    0.293    0.540    1.733  128.641
  390.750    0.288    0.567    1.743  129.286
  391.000    0.285    0.600    1.752  129.316
  391.250    0.280    0.592    1.766  129.341
  391.500    0.277    0.579    1.775  128.113
  391.750    0.273    0.569    1.784  127.511
  392.000    0.269    0.563    1.794  127.535
  392.250    0.267    0.558    2.012  130.065
  392.500    0.267    0.552    2.021  133.227
  392.750    0.275    0.550    2.031  134.492
  393.000    0.280    0.547    1.624  136.395
  393.250    0.277    0.547    1.422  136.419
