~VERSION INFORMATION
 VERS.                 2.0:   CWLS LOG ASCII STANDARD -VERSION 2.0
 WRAP.                  NO:   ONE LINE PER DEPTH STEP
~WELL INFORMATION BLOCK
#MNEM.UNIT           DATA                    DESCRIPTION OF MNEMONIC
#---------    -------------------            -------------------------------
# Generated from Intellog Unique Number	CC_84_87/WELL/1059
NULL.         -999.25                        : NULL_VALUE
WELL.         PCI PCEJ HANGST OV             : Well_name    - WELL              
LOC .         05-13-084-11W4                 : Location     - LOCATION          
UWI .         AA/05-13-084-11W400            : Uwi          - UNIQUE WELL ID    
ENTR.         DW                             : Entered      - ENTERED BY        
SRVC.         SCHLUMBERGER                   : Scn          - SERVICE COMPANY   
DATE.         30 JAN 84                      : Date         - LOG DATE
STRT.M        135                            : top_depth    - START DEPTH       
STOP.M        379.796                        : bot_depth    - STOP DEPTH        
STEP.M        0.3                            : increment    - STEP LENGTH       
~CURVE INFORMATION BLOCK
#MNEM UNIT       ERCB CURVE CODE    CURVE DESCRIPTION
#-----------   ------------------   ----------------------------------
DEPT.M        00 001 00 00         : DEPTH        - DEPTH                       
DPHI.V/V      00 890 00 00         : PHID         - DENSITY POROSITY (LIMESTONE)
NPHI.V/V      00 330 00 00         : PHIN         - NEUTRON POROSITY (LIMESTONE)
GR  .API      00 310 00 00         : GR           - GAMMA RAY                   
ILD .OHMM     00 120 00 00         : RESD         - DEEP RESISTIVITY (DIL)      
~PARAMETER INFORMATION       
#MNEM.UNIT           DATA             DESCRIPTION OF MNEMONIC
#---------         -----------     ------------------------------
GL  .M        615.3                : gl           - GROUND LEVEL ELEVATION      
EREF.M        618.5                : kb           - ELEVATION OF DEPTH REFERENCE
DATM.M        618.5                : datum        - DATUM ELEVATION             
TDD .M        388                  : tdd          - TOTAL DEPTH DRILLER         
RUN .         ONE                  : Run          - RUN NUMBER                  
ENG .         BILL                 : Engineer     - RECORDING ENGINEER          
WIT .         JIM                  : Witness      - WITNESSED BY                
MUD .         GEL                  : Mud_type     - MUD TYPE                    
MATR.         LIMESTONE            : Logunit      - NEUTRON MATRIX              
TMAX.C        19.4                 : BHT          - MAXIMUM RECORDED TEMPERATURE
BHTD.M        388                  : BHTDEP       - MAXIMUM RECORDED TEMPERATURE
MATR.         1                    : LOGUNIT      - NEUTRON MATRIX              
RMT .C        25                   : MDTP         - TEMPERATURE OF MUD          
NEUT.         1                    : NEUTRON      - NEUTRON TYPE                
RESI.         0                    : RESIST       - RESISTIVITY TYPE            
RMC .OHMM     0.25                 : RMC          - RESISTIVITY OF MUD CAKE     
RMF .OHMM     0.25                 : RMF          - RESISTIVITY OF MUD FILTRATE 
SUFT.C        4                    : SUFT         - SURFACE TEMPERATURE         
~A  DEPTH     PHID     PHIN       GR     RESD
# ...
  291.600    0.223    0.357   88.966    9.850
  291.900    0.178    0.362   93.794    9.311
  292.200    0.190    0.408   91.344    9.664
  292.500    0.228    0.448   88.892    9.664
  292.800    0.211    0.458   94.934    9.135
  293.100    0.222    0.479   93.092    8.163
  293.400    0.288    0.485   87.006    8.162
  293.700    0.262    0.435   80.312    8.795
  294.000    0.253    0.440   79.680    9.478
  294.300    0.252    0.425   80.868   10.803
  294.600    0.249    0.408   81.451   11.642
  294.900    0.217    0.404   83.248   11.861
  295.200    0.225    0.434   86.258    9.652
  295.500    0.267    0.453   91.692    8.154
  295.800    0.245    0.454   91.055    6.635
  296.100    0.248    0.460   93.463    6.042
  296.400    0.274    0.499   95.865    5.299
  296.700    0.273    0.520   99.479    3.927
  297.000    0.272    0.514  102.488    3.380
  297.300    0.236    0.456  101.251    3.380
  297.600    0.210    0.474  103.656    3.642
  297.900    0.213    0.454   99.386    5.006
  298.200    0.219    0.415   89.662    6.505
  298.500    0.224    0.396   84.785    7.844
  298.799    0.199    0.404   88.401    9.282
  299.099    0.231    0.421   82.314   10.191
  299.399    0.231    0.407   75.619   10.383
  299.699    0.151    0.338   79.841   10.577
  299.999    0.220    0.375   91.945   10.039
  300.299    0.205    0.404   81.610   10.019
  300.599    0.184    0.384   85.223    9.994
  300.899    0.210    0.396   85.203    9.422
  301.199    0.213    0.422   86.392    8.882
  301.499    0.183    0.441   90.613    8.535
  301.799    0.210    0.422   94.226    8.049
  302.099    0.209    0.400   93.598    7.732
  302.399    0.224    0.425   94.182    7.286
  302.699    0.242    0.441   97.187    7.005
  302.999    0.253    0.435   98.984    5.903
  303.299    0.235    0.424   99.567    4.280
  303.599    0.234    0.420   93.479    3.222
  303.899    0.285    0.493   81.936    2.982
  304.199    0.316    0.535   70.998    3.205
  304.499    0.291    0.487   67.331    4.238
  304.799    0.261    0.401   70.342    6.037
  305.099    0.251    0.415   72.739    6.371
  305.399    0.228    0.404   73.933    6.007
  305.699    0.233    0.402   78.155    4.876
  305.999    0.248    0.420   84.802    3.737
  306.299    0.253    0.438   89.025    3.525
  306.599    0.255    0.457   83.544    3.517
  306.899    0.269    0.491   81.695    4.313
  307.199    0.240    0.432   84.103    6.029
  307.499    0.220    0.465   76.802    6.989
  307.799    0.091    0.386   70.715    6.970
  308.099    0.116    0.369   76.148    5.871
  308.399    0.258    0.412   84.008    4.766
  308.699    0.266    0.469   90.046    3.588
  308.999    0.261    0.517   94.270    3.081
  309.299    0.259    0.538   96.670    2.903
  309.599    0.282    0.538   93.612    3.123
  309.899    0.285    0.523   91.163    3.485
  310.199    0.247    0.488   89.319    3.748
  310.499    0.257    0.479   88.693    4.029
  310.799    0.232    0.489   89.882    4.173
  311.099    0.215    0.485   93.499    3.862
  311.399    0.169    0.460   97.107    3.711
  311.699    0.000    0.464   94.052    4.063
  311.999    0.036    0.486   90.394    4.210
  312.299    0.153    0.488   90.369    4.200
  312.599    0.187    0.454   97.018    3.813
  312.899    0.210    0.487   95.783    3.398
  313.199    0.225    0.465   98.182    3.144
  313.499    0.272    0.471  104.225    3.138
  313.799    0.273    0.466  107.840    3.440
  314.099    0.237    0.487   89.019    4.060
  314.399    0.166    0.424   93.240    4.534
  314.699    0.207    0.484   93.214    4.963
  314.999    0.247    0.517   81.062    5.340
  315.299    0.234    0.431   73.157    6.549
  315.599    0.181    0.340   67.069    8.182
  315.899    0.149    0.336   70.077    8.465
  316.199    0.138    0.364   83.394    8.774
  316.499    0.151    0.407   79.125    9.432
  316.799    0.203    0.391   80.923    8.892
  317.099    0.159    0.370   82.716    8.229
  317.399    0.156    0.423   80.269    7.905
  317.699    0.168    0.412   77.817    8.040
  317.999    0.089    0.358   82.645    8.641
  318.299    0.114    0.391   89.295    9.289
  318.599    0.173    0.419   93.513    9.802
  318.899    0.000    0.389   89.849    9.962
  319.199    0.048    0.374   91.043    9.934
  319.499    0.142    0.390   95.867   10.101
  319.799    0.181    0.385   98.264   10.661
  320.099    0.063    0.376   98.852   12.596
  320.399    0.075    0.392   98.827   18.629
  320.699    0.218    0.467   90.925   26.537
  320.999    0.263    0.431   61.793   37.803
  321.299    0.255    0.270   56.920   39.876
  321.599    0.256    0.276   56.284   35.542
  321.899    0.284    0.287   56.267   23.476
  322.199    0.299    0.294   59.274   18.012
  322.499    0.284    0.303   65.922   17.305
  322.799    0.119    0.325   78.630   19.669
  323.099    0.171    0.359   85.884   21.154
  323.398    0.228    0.360   87.071   20.702
  323.698    0.247    0.260   82.200   19.896
  323.998    0.249    0.280   67.623   18.761
  324.298    0.241    0.291   50.013   17.694
  324.598    0.231    0.264   49.384   16.375
  324.898    0.252    0.270   47.309   15.729
  325.198    0.244    0.273   35.708   15.398
  325.498    0.245    0.316   36.235   15.350
  325.798    0.239    0.353   39.790   15.601
  326.098    0.236    0.352   42.139   16.473
  326.398    0.252    0.328   38.427   18.049
  326.698    0.277    0.364   31.680   20.147
  326.998    0.295    0.395   35.235   22.496
  327.298    0.299    0.372   36.959   27.579
  327.598    0.275    0.344   33.254   33.193
  327.898    0.253    0.344   30.153   41.471
  328.198    0.242    0.383   29.459   51.800
  328.498    0.271    0.381   32.421   65.937
  328.798    0.284    0.356   29.310   93.945
  329.098    0.262    0.363   25.583  149.791
  329.398    0.275    0.327   24.910  201.718
  329.698    0.281    0.329   26.018  208.770
  329.998    0.244    0.364   27.170  200.694
  330.298    0.250    0.372   30.130  182.250
  330.598    0.274    0.349   30.039  165.536
  330.898    0.276    0.356   28.143  153.201
  331.198    0.269    0.368   26.853  141.741
  331.498    0.253    0.380   26.787  144.016
  331.798    0.227    0.368   32.168  152.000
  332.098    0.223    0.362   38.150  148.801
  332.398    0.246    0.365   36.846  148.489
  332.698    0.219    0.361   34.360  196.125
  332.998    0.211    0.358   31.834  249.821
  333.298    0.241    0.360   31.144  295.000
  333.598    0.256    0.369   29.273  317.117
  333.898    0.284    0.377   24.951  322.123
  334.198    0.222    0.383   28.494  292.611
  334.498    0.211    0.351   28.430  260.988
  334.798    0.228    0.346   26.534  215.753
  335.098    0.241    0.354   34.329  211.223
  335.398    0.275    0.393   37.292  222.945
  335.698    0.274    0.385   34.790  258.359
  335.998    0.274    0.368   30.465  341.475
  336.298    0.278    0.364   29.166  373.869
  336.598    0.282    0.373   29.670  339.724
  336.898    0.270    0.379   31.425  224.336
  337.198    0.251    0.387   34.382  137.410
  337.498    0.255    0.393   34.923  107.419
  337.798    0.260    0.371   31.800   90.501
  338.098    0.274    0.381   29.906  101.036
  338.398    0.272    0.374   34.081  126.128
  338.698    0.208    0.373   38.863  133.184
  338.998    0.227    0.397   39.989  140.472
  339.298    0.312    0.376   33.235  135.010
  339.598    0.339    0.367   28.315  124.963
  339.898    0.280    0.380   30.657   94.066
  340.198    0.198    0.368   36.042   74.896
  340.498    0.203    0.375   40.202   67.999
  340.798    0.225    0.375   44.381   66.613
  341.098    0.273    0.363   39.442   61.630
  341.398    0.246    0.362   43.004   55.975
  341.698    0.240    0.355   46.571   54.776
  341.998    0.249    0.372   44.663   61.159
  342.298    0.253    0.382   42.173   70.800
  342.598    0.246    0.383   38.449   72.057
  342.898    0.229    0.351   29.881   76.012
  343.198    0.220    0.348   30.395   75.877
  343.498    0.222    0.370   34.563   72.858
