~VERSION INFORMATION
 VERS.                 2.0:   CWLS LOG ASCII STANDARD -VERSION 2.0
 WRAP.                  NO:   ONE LINE PER DEPTH STEP
~WELL INFORMATION BLOCK
#MNEM.UNIT           DATA                    DESCRIPTION OF MNEMONIC
#---------    -------------------            -------------------------------
# Generated from Intellog Unique Number	CS_77_79/WELL/925
WELL.         PEX PCEJ ALGAR OV              : Well_name    - WELL
LOC .         AA/09-11-079-15W4/0            : Location     - LOCATION
UWI .         AA/09-11-079-15W4/0            : Uwi          - UNIQUE WELL ID
ENTR.         JHS                            : Entered      - ENTERED BY
SRVC.         SCHLUMBERGER                   : Scn          - SERVICE COMPANY
STRT.M        225                            : top_depth    - START DEPTH
STOP.M        455                            : bot_depth    - STOP DEPTH
STEP.M        0.25                           : increment    - STEP LENGTH
 NULL. -999.2500:NULL Value
~CURVE INFORMATION BLOCK
#MNEM UNIT       ERCB CURVE CODE    CURVE DESCRIPTION
#-----------   ------------------   ----------------------------------
DEPT.M        00 001 00 00         : DEPTH        - DEPTH
DPHI.V/V      00 890 00 00         : PHID         - DENSITY POROSITY (LIMESTONE)
NPHI.V/V      00 330 00 00         : PHIN         - NEUTRON POROSITY (LIMESTONE)
GR  .API      00 310 00 00         : GR           - GAMMA RAY
ILD .OHMM     00 120 00 00         : RESD         - DEEP RESISTIVITY (DIL)
RHOB.KG/M3    00 350 00 00         : DENS         - BULK DENSITY
~PARAMETER INFORMATION
#MNEM.UNIT           DATA             DESCRIPTION OF MNEMONIC
#---------         -----------     ------------------------------
GL  .M        633.71               : gl           - GROUND LEVEL ELEVATION
EREF.M        637.08               : kb           - ELEVATION OF DEPTH REFERENCE
DATM.M        637.08               : datum        - DATUM ELEVATION
TDD .M        454                  : tdd          - TOTAL DEPTH DRILLER
RUN .         ONE                  : Run          - RUN NUMBER
ENG .         BILL                 : Engineer     - RECORDING ENGINEER
WIT .         JIM                  : Witness      - WITNESSED BY
MUD .         GEL                  : Mud_type     - MUD TYPE
MATR.         LIMESTONE            : Logunit      - NEUTRON MATRIX
TMAX.C        20                   : BHT          - MAXIMUM RECORDED TEMPERATURE
BHTD.M        454                  : BHTDEP       - MAXIMUM RECORDED TEMPERATURE
MATR.         1                    : LOGUNIT      - NEUTRON MATRIX
RMT .C        25                   : MDTP         - TEMPERATURE OF MUD
NEUT.         1                    : NEUTRON      - NEUTRON TYPE
RESI.         0                    : RESIST       - RESISTIVITY TYPE
RMC .OHMM     0.25                 : RMC          - RESISTIVITY OF MUD CAKE
RMF .OHMM     0.25                 : RMF          - RESISTIVITY OF MUD FILTRATE
SUFT.C        15                   : SUFT         - SURFACE TEMPERATURE
~A  DEPTH     PHID     PHIN       GR     RESD     DENS
# ...
  334.500    0.293    0.425   70.640    7.787    0.000
  334.750    0.296    0.429   75.012    7.791    0.000
  335.000    0.308    0.481   82.495    7.505    0.000
  335.250    0.326    0.522   91.225    6.578    0.000
  335.500    0.288    0.508   94.974    5.552    0.000
  335.750    0.273    0.514   93.746    4.687    0.000
  336.000    0.273    0.486   88.159    3.600    0.000
  336.250    0.273    0.481   93.776    2.613    0.000
  336.500    0.281    0.518   88.810    1.896    0.000
  336.750    0.329    0.541   87.582    1.601    0.000
  337.000    0.321    0.542   93.195    1.571    0.000
  337.250    0.311    0.529   98.814    1.972    0.000
  337.500    0.293    0.525   99.451    2.251    0.000
  337.750    0.314    0.530   91.997    2.719    0.000
  338.000    0.313    0.545   87.656    2.990    0.000
  338.250    0.284    0.534   93.896    3.165    0.000
  338.500    0.273    0.511   93.286    3.107    0.000
  338.750    0.299    0.510   95.166    2.993    0.000
  339.000    0.296    0.504  101.406    3.110    0.000
  339.250    0.303    0.483  100.799    3.230    0.000
  339.500    0.289    0.467   95.211    3.619    0.000
  339.750    0.257    0.449   91.492    4.055    0.000
  340.000    0.230    0.463   95.245    4.292    0.000
  340.250    0.233    0.480   96.504    4.719    0.000
  340.500    0.257    0.473   94.029    4.995    0.000
  340.750    0.268    0.465   91.552    5.390    0.000
  341.000    0.259    0.473   97.792    5.291    0.000
  341.250    0.263    0.454   97.183    5.292    0.000
  341.500    0.260    0.444   91.598    5.498    0.000
  341.750    0.260    0.438   86.017    6.160    0.000
  342.000    0.297    0.452   82.291    6.645    0.000
  342.250    0.300    0.443   73.594    7.307    0.000
  342.500    0.310    0.434   70.498    7.590    0.000
  342.750    0.321    0.427   68.021    8.034    0.000
  343.000    0.334    0.418   62.433    8.669    0.000
  343.250    0.340    0.433   53.738    9.353    0.000
  343.500    0.330    0.421   51.263    9.534    0.000
  343.750    0.319    0.408   51.279    9.718    0.000
  344.000    0.333    0.409   54.404    9.908    0.000
  344.250    0.325    0.401   52.554   10.101    0.000
  344.500    0.323    0.391   51.944   10.104    0.000
  344.750    0.323    0.392   53.203   10.300    0.000
  345.000    0.336    0.408   50.105   10.306    0.000
  345.250    0.333    0.420   48.877   10.309    0.000
  345.500    0.325    0.426   50.760   10.312    0.000
  345.750    0.314    0.436   55.752   10.123    0.000
  346.000    0.303    0.444   58.882    9.753    0.000
  346.250    0.313    0.413   55.781    9.573    0.000
  346.500    0.310    0.394   54.551    9.576    0.000
  346.750    0.318    0.389   54.570    9.227    0.000
  347.000    0.310    0.387   51.477    9.229    0.000
  347.250    0.319    0.387   52.108    9.234    0.000
  347.500    0.318    0.404   58.969    9.063    0.000
  347.750    0.310    0.388   62.718    9.238    0.000
  348.000    0.311    0.405   66.467    9.070    0.000
  348.250    0.331    0.410   62.751    9.246    0.000
  348.500    0.317    0.435   66.500    9.426    0.000
  348.750    0.311    0.426   67.134    9.429    0.000
  349.000    0.311    0.410   65.281    9.432    0.000
  349.250    0.305    0.421   71.523    9.617    0.000
  349.500    0.295    0.443   74.647    9.620    0.000
  349.750    0.284    0.435   76.534    9.623    0.000
  350.000    0.240    0.412   68.180    9.630    0.000
  350.250    0.249    0.416   70.033    9.636    0.000
  350.500    0.252    0.409   78.083    9.639    0.000
  350.750    0.219    0.422   73.116    9.464    0.000
  351.000    0.221    0.411   70.010    9.118    0.000
  351.250    0.258    0.419   72.484    8.621    0.000
  351.500    0.257    0.440   82.392    8.305    0.000
  351.750    0.240    0.426   81.146    7.561    0.000
  352.000    0.241    0.411   81.138    6.754    0.000
  352.250    0.254    0.419   84.231    6.385    0.000
  352.500    0.256    0.412   83.603    6.389    0.000
  352.750    0.243    0.416   86.694    6.514    0.000
  353.000    0.262    0.401   82.348    6.898    0.000
  353.250    0.283    0.404   75.523    7.303    0.000
  353.500    0.296    0.416   76.134    7.445    0.000
  353.750    0.285    0.425   79.848    7.735    0.000
  354.000    0.303    0.419   81.698    7.887    0.000
  354.250    0.308    0.387   80.453    8.043    0.000
  354.500    0.290    0.399   78.584    8.045    0.000
  354.750    0.273    0.419   79.818    8.049    0.000
  355.000    0.245    0.437   76.711    8.053    0.000
  355.250    0.230    0.430   73.604    8.058    0.000
  355.500    0.240    0.411   85.994    7.909    0.000
  355.750    0.257    0.404   89.705    7.914    0.000
  356.000    0.266    0.424   89.078    7.918    0.000
  356.250    0.244    0.411   86.590    7.775    0.000
  356.500    0.226    0.434   86.584    7.777    0.000
  356.750    0.227    0.421   95.254    7.494    0.000
  357.000    0.246    0.425   95.248    7.496    0.000
  357.250    0.252    0.451   88.420    7.362    0.000
  357.500    0.268    0.450   85.314    7.364    0.000
  357.750    0.287    0.440   87.787    7.652    0.000
  358.000    0.249    0.445   87.161    7.800    0.000
  358.250    0.247    0.400   82.194    7.805    0.000
  358.500    0.236    0.408   89.005    7.663    0.000
  358.750    0.241    0.433   95.197    7.523    0.000
  359.000    0.234    0.460   92.090    7.387    0.000
  359.250    0.224    0.439   94.561    7.251    0.000
  359.500    0.218    0.434   95.793    7.119    0.000
  359.750    0.226    0.426  100.746    6.732    0.000
  360.000    0.219    0.435   90.200    6.733    0.000
  360.250    0.240    0.447   93.910    6.489    0.000
  360.500    0.233    0.436   93.905    6.369    0.000
  360.750    0.224    0.431   96.996    6.254    0.000
  361.000    0.230    0.428  103.807    6.141    0.000
  361.250    0.241    0.443  106.898    6.144    0.000
  361.500    0.233    0.447  106.271    6.146    0.000
  361.750    0.240    0.430   93.868    6.267    0.000
  362.000    0.243    0.426   85.183    6.762    0.000
  362.250    0.261    0.418   87.655    7.158    0.000
  362.500    0.233    0.398   91.367    7.871    0.000
  362.750    0.228    0.393   83.921    8.655    0.000
  363.000    0.217    0.385   93.211    9.162    0.000
  363.250    0.225    0.399   93.823    9.884    0.000
  363.500    0.218    0.383   91.956   10.468    0.000
  363.750    0.208    0.397   96.288   10.473    0.000
  364.000    0.217    0.424   97.519   10.090    0.000
  364.250    0.238    0.408   95.034    9.904    0.000
  364.500    0.244    0.395   89.448    9.190    0.000
  364.750    0.230    0.392   94.399    8.688    0.000
  365.000    0.227    0.398   93.772    8.213    0.000
  365.250    0.241    0.411   90.664    7.765    0.000
  365.500    0.261    0.420   86.320    7.623    0.000
  365.750    0.258    0.407   77.635    7.772    0.000
  366.000    0.211    0.395   78.246    8.874    0.000
  366.250    0.138    0.371   74.521    9.944    0.000
  366.500    0.117    0.360   68.316   10.332    0.000
  366.750    0.165    0.367   84.422   10.336    0.000
  367.000    0.229    0.413  103.011   10.148    0.000
  367.250    0.295    0.426  106.103    9.777    0.000
  367.500    0.284    0.419   87.500    9.599    0.000
  367.750    0.270    0.412   75.097    9.076    0.000
  368.000    0.292    0.405   88.724    8.911    0.000
  368.250    0.282    0.401   93.676    9.084    0.000
  368.500    0.277    0.419   93.669    9.440    0.000
  368.750    0.275    0.428   89.943    9.623    0.000
  369.000    0.269    0.424   86.215    9.449    0.000
  369.250    0.261    0.432   79.391    9.275    0.000
  369.500    0.275    0.442   80.622    9.108    0.000
  369.750    0.290    0.427   81.236    9.113    0.000
  370.000    0.292    0.424   76.270    9.116    0.000
  370.250    0.302    0.405   76.879    9.294    0.000
  370.500    0.319    0.387   73.156    9.477    0.000
  370.750    0.331    0.375   70.670    9.482    0.000
