~VERSION INFORMATION
 VERS.                 2.0:   CWLS LOG ASCII STANDARD -VERSION 2.0
 WRAP.                  NO:   ONE LINE PER DEPTH STEP
~WELL INFORMATION BLOCK
#MNEM.UNIT           DATA                    DESCRIPTION OF MNEMONIC
#---------    -------------------            -------------------------------
# Generated from Intellog Unique Number	CC_88_90/WELL/3679
WELL.         07-18-089-12W4                 : Well_name    - WELL
LOC .         AA/07-18-089-12W4/0            : Location     - LOCATION
UWI .         AA/07-18-089-12W400            : Uwi          - UNIQUE WELL ID
ENTR.         TIM                            : Entered      - ENTERED BY
SRVC.         SCHLUMBERGER                   : Scn          - SERVICE COMPANY
DATE.         01-04-92                       : Date         - LOG DATE
STRT.F        100                            : top_depth    - START DEPTH
STOP.F        689.731                        : bot_depth    - STOP DEPTH
STEP.F        0.82                           : increment    - STEP LENGTH
 NULL. -999.2500:NULL Value
~CURVE INFORMATION BLOCK
#MNEM UNIT       ERCB CURVE CODE    CURVE DESCRIPTION
#-----------   ------------------   ----------------------------------
DEPT.F        00 001 00 00         : DEPTH        - DEPTH
GR  .API      00 310 00 00         : GR           - GAMMA RAY
NPHI.V/V      00 330 00 00         : PHIN         - NEUTRON POROSITY (SANDSTONE)
ILD .OHMM     00 120 00 00         : RESD         - DEEP RESISTIVITY (DIL)
~PARAMETER INFORMATION
#MNEM.UNIT           DATA             DESCRIPTION OF MNEMONIC
#---------         -----------     ------------------------------
GL  .F        1673                 : gl           - GROUND LEVEL ELEVATION
EREF.F        1673                 : kb           - ELEVATION OF DEPTH REFERENCE
DATM.F        1673                 : datum        - DATUM ELEVATION
TDD .F        691                  : tdd          - TOTAL DEPTH DRILLER
RUN .         ONE                  : Run          - RUN NUMBER
ENG .         BILL                 : Engineer     - RECORDING ENGINEER
WIT .         JIM                  : Witness      - WITNESSED BY
MUD .         GEL                  : Mud_type     - MUD TYPE
MATR.         SANDSTONE            : Logunit      - NEUTRON MATRIX
TMAX.F        44                   : BHT          - MAXIMUM RECORDED TEMPERATURE
BHTD.F        691                  : BHTDEP       - MAXIMUM RECORDED TEMPERATURE
MATR.         1                    : LOGUNIT      - NEUTRON MATRIX
RMT .F        62                   : MDTP         - TEMPERATURE OF MUD
NEUT.         1                    : NEUTRON      - NEUTRON TYPE
RESI.         0                    : RESIST       - RESISTIVITY TYPE
RMC .OHMM     6.1                  : RMC          - RESISTIVITY OF MUD CAKE
RMF .OHMM     8.6                  : RMF          - RESISTIVITY OF MUD FILTRATE
SUFT.F        40                   : SUFT         - SURFACE TEMPERATURE
~A  DEPTH       GR     PHIN     RESD
# ...
  277.986   50.644    0.423   21.506
  278.806   51.542    0.420   21.504
  279.626   52.886    0.418   21.430
  280.446   52.466    0.420   21.354
  281.266   49.841    0.423   21.279
  282.087   48.967    0.421   21.205
  282.907   46.338    0.414   21.056
  283.727   47.240    0.409   20.908
  284.547   49.458    0.415   20.687
  285.367   52.128    0.419   20.465
  286.188   51.704    0.421   20.244
  287.008   50.838    0.422   20.095
  287.828   50.418    0.419   19.873
  288.648   49.985    0.416   19.798
  289.469   50.447    0.416   19.724
  290.289   51.786    0.423   19.649
  291.109   52.244    0.429   19.427
  291.929   52.706    0.433   19.206
  292.749   53.163    0.433   18.984
  293.570   57.144    0.430   18.762
  294.390   57.606    0.424   18.541
  295.210   55.858    0.420   18.172
  296.030   54.111    0.420   17.951
  296.850   52.805    0.418   17.729
  297.671   52.821    0.417   17.507
  298.491   53.279    0.415   17.212
  299.311   53.740    0.414   16.990
  300.131   52.434    0.414   16.842
  300.951   50.687    0.414   16.694
  301.772   48.944    0.417   16.473
  302.592   48.078    0.418   16.177
  303.412   48.095    0.418   16.029
  304.232   48.111    0.415   15.880
  305.052   49.010    0.409   15.879
  305.873   48.149    0.407   15.805
  306.693   47.724    0.416   15.876
  307.513   48.182    0.429   15.875
  308.333   49.962    0.432   16.020
  309.154   52.629    0.410   16.019
  309.974   52.641    0.371   16.091
  310.794   50.016    0.332   16.236
  311.614   46.501    0.282   16.235
  312.434   42.990    0.382   16.381
  313.255   42.124    0.408   16.526
  314.075   45.673    0.421   16.672
  314.895   50.539    0.427   16.744
  315.715   53.202    0.433   16.963
  316.535   53.218    0.436   17.181
  317.356   51.030    0.436   17.254
  318.176   49.283    0.430   17.399
  318.996   47.981    0.438   17.544
  319.816   47.556    0.443   17.617
  320.636   47.577    0.441   17.762
  321.457   47.589    0.437   17.907
  322.277   47.614    0.429   18.199
  323.097   48.063    0.432   18.272
  323.917   49.852    0.434   18.417
  324.738   51.632    0.436   18.489
  325.558   52.531    0.436   18.488
  326.378   51.665    0.432   18.413
  327.198   49.918    0.423   18.338
  328.018   48.171    0.416   18.263
  328.839   46.428    0.416   18.262
  329.659   47.326    0.416   18.261
  330.479   49.988    0.420   18.406
  331.299   49.560    0.424   18.552
  332.119   48.694    0.427   18.770
  332.940   47.833    0.428   19.062
  333.760   47.850    0.427   19.135
  334.580   48.752    0.421   19.427
  335.400   50.096    0.415   19.646
  336.220   50.104    0.417   19.718
  337.041   51.003    0.424   19.717
  337.861   52.787    0.428   19.715
  338.681   53.253    0.429   19.788
  339.501   52.379    0.428   19.786
  340.322   51.077    0.428   19.858
  341.142   50.648    0.431   19.930
  341.962   50.228    0.429   20.002
  342.782   52.013    0.423   20.147
  343.602   54.238    0.430   20.293
  344.423   54.687    0.436   20.438
  345.243   55.153    0.438   20.584
  346.063   54.279    0.430   20.730
  346.883   53.859    0.426   21.021
  347.703   55.203    0.423   21.387
  348.524   56.097    0.430   21.533
  349.344   56.554    0.433   21.752
  350.164   56.130    0.436   22.044
  350.984   55.265    0.434   22.483
  351.804   53.967    0.433   22.849
  352.625   54.428    0.435   23.215
  353.445   54.878    0.438   23.581
  354.265   55.776    0.435   23.432
  355.085   57.556    0.432   21.375
  355.906   57.132    0.440    7.422
  356.726   55.397    0.444    7.421
  357.546   54.523    0.431    7.567
  358.366   54.540    0.425    8.153
  359.186   55.883    0.449    9.179
  360.007   58.105    0.484   10.940
  360.827   59.885    0.501    9.764
  361.647   62.992    0.491    7.413
  362.467   65.210    0.480    7.778
  363.287   69.195    0.478    8.291
  364.108   73.180    0.482    9.097
  364.928   78.492    0.487    9.390
  365.748   79.831    0.495    8.874
  366.568   78.525    0.502   10.489
  367.388   76.782    0.502   16.361
  368.209   78.562    0.497   18.416
  369.029   80.783    0.488   20.543
  369.849   82.123    0.479   21.350
  370.669   82.139    0.467   19.660
  371.490   80.392    0.448   18.924
  372.310   78.645    0.434   20.979
  373.130   73.811    0.428   21.858
  373.950   68.095    0.428   22.591
  374.770   65.470    0.432    8.492
  375.591   67.254    0.444    7.609
  376.411   68.594    0.448    7.241
  377.231   66.843    0.445    7.093
  378.051   61.568    0.439    7.017
  378.871   61.588    0.442    7.016
  379.692   63.810    0.468    7.015
  380.512   66.472    0.494    7.087
  381.332   67.374    0.508    7.306
  382.152   69.151    0.478    7.525
  382.972   74.459    0.476    8.037
  383.793   81.975    0.484    8.183
  384.613   86.846    0.491    8.622
  385.433   86.422    0.494    8.987
  386.253   86.875    0.494    9.133
  387.073   92.191    0.493    9.351
  387.894   95.290    0.493    9.351
  388.714   97.071    0.499    9.423
  389.534   99.733    0.505    9.421
  390.354  100.195    0.511    9.346
  391.175   97.566    0.515    8.978
  391.995   96.259    0.519    8.756
  392.815   95.839    0.513    8.314
  393.635   97.619    0.512    8.166
  394.455   98.954    0.513    7.945
  395.276  102.948    0.516    7.723
  396.096  105.606    0.517    7.501
  396.916  107.390    0.519    7.426
  397.736  102.993    0.520    7.719
  398.556   98.600    0.520    8.084
  399.377   94.653    0.521    8.817
  400.197   93.787    0.524   12.047
  401.017   93.363    0.534   12.633
  401.837   91.615    0.540   13.512
  402.657   88.995    0.537   15.861
  403.478   89.003    0.525   17.328
  404.298   89.024    0.507   19.236
  405.118   89.040    0.480   20.262
  405.938   87.730    0.474   19.967
  406.759   81.581    0.473   19.378
  407.579   77.184    0.469   14.016
  408.399   73.232    0.460   14.529
  409.219   68.403    0.457   15.703
  410.039   66.655    0.460   17.170
  410.860   65.790    0.467   19.151
  411.680   66.688    0.467   20.471
  412.500   67.583    0.461   21.571
  413.320   72.017    0.462   21.643
  414.140   74.238    0.491   21.055
  414.961   74.251    0.487   17.529
  415.781   74.267    0.478   15.985
  416.601   73.402    0.465   14.956
  417.421   71.218    0.458   14.000
  418.241   68.593    0.463   13.191
  419.062   68.168    0.468   12.382
  419.882   68.181    0.456   11.940
  420.702   68.638    0.456   11.278
  421.522   72.186    0.469   10.762
  422.343   74.408    0.476   10.467
  423.163   74.865    0.473   10.539
  423.983   74.882    0.471   11.125
  424.803   76.221    0.483   12.225
  425.623   80.210    0.500   12.958
  426.444   82.877    0.510   13.397
  427.264   82.452    0.503   13.322
  428.084   81.142    0.493   12.881
  428.904   78.958    0.483   11.925
  429.724   78.978    0.469   11.042
  430.545   79.869    0.464   11.041
  431.365   81.657    0.453   11.186
  432.185   80.351    0.452   11.478
  433.005   78.600    0.472   11.477
  433.825   75.975    0.491   11.255
  434.646   73.341    0.491   11.474
  435.466   78.208    0.488   12.060
  436.286   81.757    0.478   13.234
  437.106   76.482    0.459   16.977
  437.927   61.065    0.457   18.077
  438.747   63.286    0.467   18.663
  439.567   69.476    0.476   19.176
  440.387   74.784    0.458   19.541
  441.207   75.250    0.451   20.054
  442.028   71.739    0.453   20.567
  442.848   73.515    0.448   20.712
  443.668   73.972    0.445   19.610
  444.488   71.784    0.442   10.430
  445.308   68.277    0.439    8.005
  446.129   66.526    0.439    7.123
  446.949   66.988    0.443    6.681
  447.769   66.122    0.455    6.900
  448.589   63.493    0.464    7.338
  449.409   59.982    0.479    7.778
  450.230   71.022    0.497    8.878
  451.050   81.185    0.517   10.198
  451.870   85.174    0.536   12.179
  452.690   81.659    0.530   12.105
  453.510   82.557    0.508   11.883
  454.331   81.692    0.495   11.661
  455.151   80.831    0.482   11.953
