~Version : LASO    vs 4.00
VERS.                2.00:   CWLS Log ASCII Standard -VERSION 2.0
WRAP.                  NO:
~Well Information Block
#MNEM.UNIT       Data                        Description of Mnemonic
#----.----      -------------------------- : -----------------------------
STRT.M            15.0000:
STOP.M           186.3750:
STEP.M             0.1250:
NULL.           -999.2500:
COMP.  MOBIL OIL OF CANADA                :COMPANY
WELL.  MOBIL CLARKE OV 2-19               :WELL
FLD.                                      :FIELD
LOC.   02-19-090-07W4                     :LOCATION
CTRY.  CANADA                             :COUNTRY
PROV.  ALBERTA                            :PROVINCE
SRVC.  DRESSER ATLAS                      :SERVICE COMPANY
DATE.  24-FEB-81                          :LOG DATE
UWI.   AA/02-19-090-07W400                :UNIQUE WELL ID
~Parameter Information Block
#MNEM.UNIT       Data                        Description of Mnemonic
#----.----      -------------------------- : -----------------------------
RUN .                   1                 : Run Number
GL  .M           444.6000                 : Ground Level Elevation
DREF.                  KB                 : Depth Reference
EREF.M           444.6000                 : Elevation of Depth Reference
TDL .M           186.3000                 : Total Depth Logger
TDD .M           185.0000                 : Total Depth Driller
CSGL.M            14.7000                 : Casing Bottom Logger
CSGD.M            14.7000                 : Casing Bottom Driller
CSGS.MM          219.0000                 : Casing Size
CSGW.KG/M          0.0000                 : Casing Weight
BHT .DEGC         20.0000                 : Bottom Hole Temperature
BS  .MM          159.0000                 : Bit Size
DFD .           9999.0000                 : Mud Weight (Density)
DFV .             90.0000                 : Mud Viscosity
RM  .OHMM          2.5000                 : Mud Resistivity
RMT .DEGC         20.0000                 : Mud Resistivity Temperature
~Curve Information Block
#MNEM.UNIT        API CODE    Curve Description
#---------    ------------    -------------------------------------------
DEPT.M                    :   DEPTH
CALI.MM       42 280  1  1:   3 DENSITY CALIPER
DPHI.V/V                  :   DPHI
DT  .US/M     60 520 32  1:   2 SONIC INTERVAL TRANSIT TIME (COMPENSATED)
GR  .GAPI     42 310  1  1:   4 GAMMA RAY
ILD .OHMM      5 120 45  1:   7 DEEP INDUCTION
NPHI.V/V      42 890  3  1:   5 NEUTRON POROSITY (SANDSTONE)
RHOB.K/M3     42 350  1  1:   6 BULK DENSITY
SN  .OHMM      5  40 16  1:   8 SHORT NORMAL
SP  .MV        5  10  1  1:   9 SPONTANEOUS POTENTIAL
~A  Depth           CALI        DPHI          DT          GR         ILD        NPHI        RHOB          SN          SP
# ...
90.3750         208.7750      0.3202    544.5600     94.6500      4.6300      0.4966   2104.8999      8.9750    -45.9300
90.5000         208.4750      0.3138    499.3200     94.4700      5.0150      0.4906   2117.7000      9.1600    -46.1700
90.6250         208.4750      0.3085    516.0800     94.3650      5.2100      0.4865   2127.5000      9.4050    -46.8000
90.7500         207.8750      0.3033    586.8000     94.5000      5.4650      0.4831   2142.1001      9.4050    -46.8450
90.8750         206.0750      0.2960    593.3600     90.5400      5.7250      0.4565   2155.5000      9.1600    -47.4750
91.0000         201.8500      0.2892    573.7200     89.5200      5.9200      0.4591   2165.3000      9.1600    -48.1050
91.1250         200.6500      0.2836    569.2000     89.5200      6.1800      0.4580   2179.3000      9.3400    -48.6000
91.2500         202.7500      0.2805    559.3600     89.8650      6.3050      0.4610   2195.2000      9.7100    -49.2750
91.3750         206.3750      0.2778    519.9200     92.0100      6.5000      0.4583   2200.1001     10.3200    -49.4100
91.5000         207.2750      0.2791    503.6000     92.5500      6.5000      0.4456   2201.8999     10.5600    -49.4400
91.6250         206.9750      0.2811    504.1200     92.6850      6.5650      0.4430   2190.8999     10.5000    -50.6850
91.7500         206.6750      0.2833    502.8800     92.8650      6.6950      0.4497   2189.7000     10.6850    -51.3150
91.8750         205.1500      0.2849    500.9600     92.9100      6.7600      0.4456   2188.5000     11.0500    -51.3450
92.0000         204.8500      0.2883    503.1200     89.7450      6.7600      0.4523   2181.2000     11.2300    -51.3750
92.1250         205.7750      0.2922    510.8000     88.9050      6.8250      0.4482   2168.3000     11.2300    -51.4050
92.2500         204.8500      0.2901    521.0800     91.4700      7.0150      0.4475   2167.1001     10.7450    -50.2350
92.3750         203.6500      0.2875    532.8400     92.4450      7.0800      0.4430   2172.6001      9.4650    -50.5050
92.5000         205.1500      0.2872    537.3600     93.0000      7.2100      0.4433   2172.6001      9.6450    -50.9100
92.6250         204.5500      0.2886    544.8000     94.7100      7.2750      0.4445   2173.8000     10.0150    -50.9400
92.7500         202.4500      0.2913    525.4000     97.6500      7.5350      0.4426   2170.8000     10.5600    -50.9700
92.8750         199.7500      0.2971    482.8400     96.1500      7.7250      0.4216   2159.8000     11.4150    -52.4250
93.0000         199.7500      0.3035    478.7600     94.9650      8.0500      0.4193   2145.8000     12.2700    -52.8450
93.1250         200.0500      0.3088    476.6000     94.1850      8.4350      0.4152   2131.2000     12.7550    -52.3950
93.2500         200.9500      0.3095    477.8000     93.4050      8.9550      0.4175   2132.3999     12.3900    -52.9050
93.3750         201.8500      0.3086    477.8000     92.5350      9.5350      0.4246   2141.5000     12.3900    -54.1350
93.5000         204.5500      0.3037    476.6000     91.6050     10.3100      0.4186   2162.2000     12.7550    -56.1000
93.6250         209.0750      0.2947    473.4800     90.1350     11.0850      0.4208   2178.1001     13.4250    -57.8250
93.7500         208.1750      0.2853    463.9200     88.0800     11.5350      0.4325   2194.0000     14.5850    -57.8550
93.8750         206.3750      0.2746    390.0000     85.4550     11.8600      0.4272   2228.7000     15.6250    -56.0700
94.0000         204.8500      0.2636    298.4000     83.5500     12.1150      0.4201   2257.3999     15.5600    -54.9000
94.1250         205.7750      0.2473    239.5200     82.5300     11.9250      0.4137   2261.0000     19.6450    -53.7300
94.2500         205.4750      0.2400    393.6000     81.1050     11.6650      0.4092   2259.2000     24.9500    -53.1600
94.3750         204.8500      0.2352    396.4800     79.3350     11.2800      0.3919   2256.2000     27.6950    -53.4150
94.5000         204.5500      0.2301    379.7200     77.6100     10.9550      0.3856   2256.8000     24.7700    -54.1050
94.6250         204.5500      0.2259    443.3600     77.1150     10.5050      0.3822   2267.1001     19.2200    -55.0650
94.7500         203.9500      0.2209    492.4000     76.3950      9.7950      0.3724   2297.6001     13.6100    -55.3200
94.8750         204.2500      0.2013    509.6000     76.7250      9.0850      0.3544   2347.0000     12.2700    -54.1500
95.0000         203.6500      0.1546    508.8800     77.3550      8.7600      0.3488   2417.7000     11.8400    -53.9550
95.1250         203.9500      0.0884    508.8800     79.0050      8.3100      0.3391   2453.1001     11.1100    -53.9850
95.2500         203.6500      0.0567    511.5200     83.0550      7.9850      0.3356   2453.1001     10.7450    -54.0150
95.3750         200.9500      0.0818    524.9200     85.5900      7.7900      0.3676   2446.3999     10.6250    -54.5700
95.5000         198.8500      0.1514    536.8800     87.1500      7.7900      0.3841   2349.3999     10.5600    -55.2900
95.6250         197.9250      0.2013    559.3600     87.3750      7.9200      0.4066   2269.6001     11.4150    -56.5650
95.7500         197.9250      0.2308    593.3600     87.5700      8.1150      0.4280   2200.1001     13.0000    -57.0900
95.8750         199.4500      0.2517    688.9600     86.7900      8.0500      0.4351   2169.0000     13.7950    -55.9050
96.0000         200.0500      0.2653    408.6800     86.3550      8.0500      0.4235   2153.1001     14.7100    -54.1350
96.1250         201.5500      0.2766    400.5200     82.8750      8.1150      0.4231   2153.7000     17.7550    -52.7100
96.2500         201.5500      0.2945    475.4000     81.9000      7.9850      0.4253   2162.2000     26.7200    -52.4700
96.3750         201.2500      0.2935    591.6400     79.5000      8.0500      0.4178   2171.3999     23.4900    -52.5750
96.5000         199.7500      0.2922    578.2800     78.7950      7.8550      0.4190   2183.6001     12.0250    -53.7450
96.6250         194.6250      0.2871    519.4400     77.6700      7.6650      0.4133   2188.5000     11.8400    -54.1350
96.7500         191.6250      0.2818    512.4800     75.9450      7.4050      0.4096   2210.3999     11.4150    -53.8050
96.8750         188.3000      0.2737    526.6000     75.4200      7.0150      0.4032   2241.5000     10.6850    -53.5500
97.0000         182.8750      0.2490    549.3200     77.3550      6.6950      0.3946   2331.8000     10.2550    -52.9650
97.1250         184.1000      0.1955    563.6800     79.2900      6.3700      0.3867   2451.8999     10.1350    -52.6950
97.2500         187.1000      0.1643    568.7200     80.1900      6.1150      0.3852   2448.2000     10.3800    -52.2450
97.3750         189.2000      0.1410    570.8400     80.7600      5.9850      0.4216   2333.0000      9.8900    -50.6100
97.5000         188.9000      0.1248    562.0000     82.1550      5.8550      0.4321   2249.3999      9.4650    -49.7850
97.6250         185.9000      0.1174    539.5200     83.9550      5.7900      0.4460   2203.1001      9.3400    -49.2150
97.7500         188.0000      0.1907    529.0000     86.4150      5.7250      0.4598   2201.8999      9.3400    -49.2450
97.8750         189.5000      0.2276    533.2800     88.4400      5.5300      0.4828   2192.7000      9.2800    -48.3450
98.0000         190.4000      0.2519    538.5600     89.3550      5.5300      0.4828   2181.8000      9.2800    -48.3750
98.1250         193.1250      0.2704    551.4800     90.9750      5.4650      0.4760   2166.5000      9.3400    -48.4050
98.2500         194.6250      0.2809    579.7200     90.5250      5.4650      0.4730   2142.7000      9.2200    -48.4350
98.3750         198.8500      0.2882    573.0000     89.6400      5.4050      0.4790   2134.2000      9.2200    -49.6800
98.5000         198.2500      0.2972    553.8800     90.8100      5.4050      0.4707   2165.3000      9.1600    -49.7100
98.6250         200.9500      0.2952    558.8800     91.7850      5.3400      0.4685   2188.5000      9.1600    -50.2950
