~VERSION INFORMATION
 VERS.                 2.0:   CWLS LOG ASCII STANDARD -VERSION 2.0
 WRAP.                  NO:   ONE LINE PER DEPTH STEP
~WELL INFORMATION BLOCK
#MNEM.UNIT           DATA                    DESCRIPTION OF MNEMONIC
#---------    -------------------            -------------------------------
# Generated from Intellog Unique Number	CC_88_90/WELL/1068
WELL.         07-11-090-15W4                 : Well_name    - WELL
LOC .         AA/07-11-090-15W4/0            : Location     - LOCATION
UWI .         AA/07-11-090-15W400            : Uwi          - UNIQUE WELL ID
ENTR.         DW                             : Entered      - ENTERED BY
SRVC.         SCHLUMBERGER                   : Scn          - SERVICE COMPANY
STRT.M        75                             : top_depth    - START DEPTH
STOP.M        199.75                         : bot_depth    - STOP DEPTH
STEP.M        0.25                           : increment    - STEP LENGTH
 NULL. -999.2500:NULL Value
~CURVE INFORMATION BLOCK
#MNEM UNIT       ERCB CURVE CODE    CURVE DESCRIPTION
#-----------   ------------------   ----------------------------------
DEPT.M        00 001 00 00         : DEPTH        - DEPTH
GR  .API      00 310 00 00         : GR           - GAMMA RAY
DPHI.V/V      00 890 00 00         : PHID         - DENSITY POROSITY (SANDSTONE)
NPHI.V/V      00 330 00 00         : PHIN         - NEUTRON POROSITY (SANDSTONE)
ILD .OHMM     00 120 00 00         : RESD         - DEEP RESISTIVITY (DIL)
~PARAMETER INFORMATION
#MNEM.UNIT           DATA             DESCRIPTION OF MNEMONIC
#---------         -----------     ------------------------------
GL  .M        468.52               : gl           - GROUND LEVEL ELEVATION
EREF.M        471.72               : kb           - ELEVATION OF DEPTH REFERENCE
DATM.M        471.72               : datum        - DATUM ELEVATION
TDD .M        206                  : tdd          - TOTAL DEPTH DRILLER
RUN .         ONE                  : Run          - RUN NUMBER
ENG .         BILL                 : Engineer     - RECORDING ENGINEER
WIT .         JIM                  : Witness      - WITNESSED BY
MUD .         GEL                  : Mud_type     - MUD TYPE
MATR.         SANDSTONE            : Logunit      - NEUTRON MATRIX
TMAX.C        25                   : BHT          - MAXIMUM RECORDED TEMPERATURE
BHTD.M        206                  : BHTDEP       - MAXIMUM RECORDED TEMPERATURE
MATR.         1                    : LOGUNIT      - NEUTRON MATRIX
RMT .C        25                   : MDTP         - TEMPERATURE OF MUD
NEUT.         1                    : NEUTRON      - NEUTRON TYPE
RESI.         0                    : RESIST       - RESISTIVITY TYPE
RMC .OHMM     0.25                 : RMC          - RESISTIVITY OF MUD CAKE
RMF .OHMM     0.25                 : RMF          - RESISTIVITY OF MUD FILTRATE
SUFT.C        15                   : SUFT         - SURFACE TEMPERATURE
~A  DEPTH       GR     PHID     PHIN     RESD
# ...
  118.500  112.582    0.189    0.454   11.832
  118.750  108.982    0.182    0.435   12.508
  119.000  110.089    0.193    0.426   12.466
  119.250  113.609    0.213    0.455   11.856
  119.500  116.703    0.219    0.495   11.281
  119.750  118.500    0.216    0.491   11.552
  120.000  120.018    0.226    0.458   13.049
  120.250  119.920    0.233    0.426   16.303
  120.500  115.725    0.232    0.402   19.482
  120.750  111.944    0.224    0.395   21.883
  121.000  106.953    0.212    0.402   22.577
  121.250  104.696    0.211    0.408   22.198
  121.500  112.641    0.237    0.416   21.786
  121.750  114.700    0.266    0.429   18.631
  122.000  113.348    0.250    0.435   17.005
  122.250  111.521    0.235    0.436   16.238
  122.500  109.153    0.244    0.442   15.913
  122.750  106.687    0.253    0.448   17.659
  123.000  105.264    0.253    0.439   21.067
  123.250  103.995    0.243    0.430   23.922
  123.500   99.570    0.220    0.429   27.024
  123.750   94.078    0.207    0.432   28.622
  124.000   90.729    0.209    0.443   28.285
  124.250   89.772    0.217    0.460   26.470
  124.500   90.470    0.233    0.473   23.691
  124.750   93.918    0.255    0.480   22.695
  125.000   98.937    0.250    0.469   20.187
  125.250  109.090    0.270    0.447   17.511
  125.500  120.158    0.289    0.433   16.210
  125.750  122.833    0.265    0.438   15.593
  126.000  115.853    0.252    0.458   15.412
  126.250  106.805    0.244    0.471   16.341
  126.500  102.273    0.195    0.452   18.037
  126.750  106.469    0.158    0.420   20.749
  127.000  112.769    0.182    0.433   23.483
  127.250  111.907    0.233    0.471   25.717
  127.500  105.376    0.245    0.453   28.270
  127.750  101.081    0.228    0.417   30.183
  128.000   98.050    0.210    0.363   31.405
  128.250   97.446    0.162    0.333   29.384
  128.500  101.289    0.149    0.355   25.161
  128.750  107.876    0.205    0.398   22.246
  129.000  112.166    0.241    0.421   20.619
  129.250  111.351    0.274    0.437   17.676
  129.500  109.876    0.278    0.446   15.546
  129.750  109.849    0.267    0.450   15.480
  130.000  109.108    0.262    0.455   16.733
  130.250  105.853    0.221    0.453   17.974
  130.500  101.112    0.122    0.426   18.139
  130.750   96.624    0.093    0.386   16.641
  131.000   97.176    0.094    0.371   14.558
  131.250  106.397    0.149    0.397   13.573
  131.500  115.244    0.212    0.435   13.313
  131.750  117.520    0.226    0.454   12.905
  132.000  119.020    0.223    0.458   13.214
  132.250  118.161    0.189    0.443   14.808
  132.500  116.386    0.161    0.429   15.642
  132.750  115.853    0.178    0.429   15.643
  133.000  115.873    0.200    0.434   15.120
  133.250  116.180    0.188    0.436   14.081
  133.500  119.033    0.182    0.444   13.033
  133.750  123.143    0.208    0.452   12.399
  134.000  120.953    0.213    0.462   12.141
  134.250  114.637    0.196    0.475   12.085
  134.500  113.884    0.182    0.468   12.136
  134.750  118.456    0.177    0.444   11.710
  135.000  119.080    0.181    0.437   10.436
  135.250  119.469    0.219    0.438    9.723
  135.500  121.001    0.224    0.437    9.824
  135.750  121.872    0.210    0.438   10.610
  136.000  121.019    0.201    0.451   12.269
  136.250  116.475    0.185    0.452   14.188
  136.500  109.250    0.170    0.416   14.980
  136.750  109.689    0.194    0.412   14.630
  137.000  113.742    0.199    0.420   13.440
  137.250  114.926    0.195    0.424   12.244
  137.500  113.771    0.205    0.439   11.554
  137.750  112.694    0.213    0.470   11.998
  138.000  111.732    0.192    0.488   13.687
  138.250  112.105    0.151    0.463   14.651
  138.500  108.637    0.152    0.444   15.208
  138.750  110.416    0.193    0.446   15.421
  139.000  115.945    0.220    0.475   15.282
  139.250  118.358    0.217    0.500   14.591
  139.500  119.176    0.217    0.476   13.493
  139.750  115.946    0.218    0.453   13.483
  140.000  116.012    0.211    0.442   13.482
  140.250  119.682    0.184    0.434   14.845
  140.500  120.681    0.159    0.425   16.408
  140.750  118.205    0.142    0.414   16.198
  141.000  119.794    0.132    0.412   15.163
  141.250  127.316    0.196    0.449   13.852
  141.500  129.285    0.234    0.484   12.350
  141.750  127.071    0.233    0.497   11.555
  142.000  124.069    0.225    0.479   11.408
  142.250  121.349    0.215    0.451   11.542
  142.500  121.077    0.197    0.463   12.139
  142.750  122.087    0.182    0.489   12.417
  143.000  123.143    0.174    0.489   11.838
  143.250  124.227    0.181    0.480   10.133
  143.500  125.022    0.193    0.492    8.493
  143.750  124.578    0.216    0.520    7.556
  144.000  121.745    0.257    0.536    6.798
  144.250  116.446    0.249    0.543    7.216
  144.500  113.674    0.241    0.541    7.624
  144.750  112.360    0.176    0.485    8.095
  145.000  116.638    0.146    0.435    8.450
  145.250  122.626    0.206    0.450    8.627
  145.500  118.079    0.220    0.483    8.884
  145.750  113.465    0.207    0.526    8.000
  146.000  114.106    0.181    0.507    7.262
  146.250  118.412    0.142    0.453    6.909
  146.500  124.135    0.142    0.451    6.905
  146.750  129.448    0.199    0.487    7.358
  147.000  132.273    0.236    0.484    8.115
  147.250  132.488    0.219    0.479    9.106
  147.500  131.080    0.216    0.480    9.690
  147.750  129.807    0.210    0.472    9.988
  148.000  130.302    0.213    0.455   10.382
  148.250  131.958    0.225    0.439   10.902
  148.500  132.312    0.197    0.432   11.439
  148.750  131.211    0.174    0.427   12.175
  149.000  130.471    0.172    0.408   13.028
  149.250  122.676    0.113    0.394   13.596
  149.500  112.302    0.095    0.375   13.386
  149.750  111.612    0.175    0.366   12.377
  150.000  119.961    0.211    0.406   11.068
  150.250  125.216    0.214    0.426    9.872
  150.500  125.382    0.209    0.441    9.407
  150.750  127.386    0.202    0.439    9.271
  151.000  131.081    0.212    0.430    9.148
  151.250  131.523    0.226    0.440    9.239
  151.500  129.292    0.209    0.458    9.915
  151.750  127.012    0.214    0.457   11.305
  152.000  121.408    0.233    0.450   12.078
  152.250  115.968    0.233    0.447   12.456
  152.500  115.882    0.227    0.435   12.837
  152.750  119.394    0.225    0.414   12.537
  153.000  120.672    0.209    0.404   11.366
  153.250  120.188    0.208    0.401   11.001
  153.500  119.904    0.209    0.405   10.563
  153.750  120.596    0.204    0.425   10.216
  154.000  121.673    0.194    0.448   10.638
  154.250  118.843    0.174    0.450   10.886
  154.500  110.849    0.147    0.426    9.457
  154.750  109.442    0.133    0.394    7.423
  155.000  115.804    0.113    0.372    5.454
  155.250  124.908    0.193    0.411    4.505
  155.500  132.724    0.273    0.477    4.740
  155.750  131.396    0.248    0.509    5.905
  156.000  114.639    0.242    0.516    7.850
  156.250   95.814    0.263    0.497   10.041
  156.500   86.115    0.261    0.448   13.479
  156.750   79.620    0.258    0.402   16.808
  157.000   73.706    0.268    0.396   21.310
  157.250   66.092    0.280    0.403   33.415
  157.500   53.518    0.301    0.379   56.917
  157.750   48.875    0.317    0.371   82.360
  158.000   47.458    0.312    0.386   97.261
  158.250   47.882    0.312    0.401  111.941
  158.500   48.624    0.311    0.392  120.090
  158.750   48.706    0.300    0.371  116.543
  159.000   49.805    0.304    0.372  114.958
  159.250   49.785    0.321    0.390  109.568
  159.500   50.533    0.336    0.407  108.318
  159.750   51.730    0.333    0.418  109.179
  160.000   52.607    0.322    0.425  108.380
  160.250   52.889    0.321    0.429  106.590
  160.500   52.307    0.330    0.434  103.089
  160.750   51.732    0.335    0.444   94.316
  161.000   51.762    0.331    0.444   84.074
  161.250   51.232    0.324    0.434   77.669
  161.500   49.949    0.302    0.442   72.810
  161.750   49.209    0.281    0.465   67.512
