~VERSION INFORMATION
 VERS.                 2.0:   CWLS LOG ASCII STANDARD -VERSION 2.0
 WRAP.                  NO:   ONE LINE PER DEPTH STEP
~WELL INFORMATION BLOCK
#MNEM.UNIT           DATA                    DESCRIPTION OF MNEMONIC
#---------    -------------------            -------------------------------
# Generated from Intellog Unique Number	CN_94_101/WELL/1063
WELL.         01-31-094-08W4                 : Well_name    - WELL
LOC .         AA/01-31-094-08W4/0            : Location     - LOCATION
UWI .         AA/01-31-094-08W400            : Uwi          - UNIQUE WELL ID
ENTR.         JOETTE                         : Entered      - ENTERED BY
SRVC.         SCHLUMBERGER                   : Scn          - SERVICE COMPANY
DATE.         04/29/92                       : Date         - LOG DATE
STRT.M        5                              : top_depth    - START DEPTH
STOP.M        85                             : bot_depth    - STOP DEPTH
STEP.M        0.25                           : increment    - STEP LENGTH
 NULL. -999.2500:NULL Value
~CURVE INFORMATION BLOCK
#MNEM UNIT       ERCB CURVE CODE    CURVE DESCRIPTION
#-----------   ------------------   ----------------------------------
DEPT.M        00 001 00 00         : DEPTH        - DEPTH
ILD .OHMM     00 120 00 00         : RESD         - DEEP RESISTIVITY (DIL)
DPHI.V/V      00 890 00 00         : PHID         - DENSITY POROSITY (SANDSTONE)
NPHI.V/V      00 330 00 00         : PHIN         - NEUTRON POROSITY (SANDSTONE)
GR  .API      00 310 00 00         : GR           - GAMMA RAY
CALI.MM       00 280 01 00         : CAL          - CALIPER
~PARAMETER INFORMATION
#MNEM.UNIT           DATA             DESCRIPTION OF MNEMONIC
#---------         -----------     ------------------------------
GL  .M        340.49               : gl           - GROUND LEVEL ELEVATION
EREF.M        340.49               : kb           - ELEVATION OF DEPTH REFERENCE
DATM.M        340.49               : datum        - DATUM ELEVATION
TDD .M        91                   : tdd          - TOTAL DEPTH DRILLER
RUN .         ONE                  : Run          - RUN NUMBER
ENG .         JO                   : Engineer     - RECORDING ENGINEER
WIT .         TIM                  : Witness      - WITNESSED BY
MUD .         GEL                  : Mud_type     - MUD TYPE
MATR.         SANDSTONE            : Logunit      - NEUTRON MATRIX
TMAX.C        9                    : BHT          - MAXIMUM RECORDED TEMPERATURE
BHTD.M        91                   : BHTDEP       - MAXIMUM RECORDED TEMPERATURE
RMT .C        9                    : MDTP         - TEMPERATURE OF MUD
MUDD.KG/M     1030                 : MWT          - MUD DENSITY
NEUT.         1                    : NEUTRON      - NEUTRON TYPE
RESI.         0                    : RESIST       - RESISTIVITY TYPE
RM  .OHMM     13.5                 : RM           - RESISTIVITY OF MUD
RMC .OHMM     10.5                 : RMC          - RESISTIVITY OF MUD CAKE
RMF .OHMM     12.5                 : RMF          - RESISTIVITY OF MUD FILTRATE
SUFT.C        4                    : SUFT         - SURFACE TEMPERATURE
~A  DEPTH     RESD     PHID     PHIN       GR      CAL
    5.000    0.969    0.325    0.632   50.000  146.225
    5.250    0.951    0.357    0.577   60.542  145.622
    5.500    0.506    0.359    0.547   70.181  145.020
    5.750    1.169    0.365    0.583   84.337  144.819
    6.000    9.115    0.376    0.607   85.843  144.418
    6.250   10.101    0.368    0.637   89.759  144.217
    6.500    8.874    0.375    0.664  101.807  144.217
    6.750    7.795    0.379    0.636   90.964  144.217
    7.000    7.799    0.365    0.639   95.783  144.217
    7.250    7.803    0.365    0.635   90.362  144.618
    7.500    7.879    0.378    0.604   99.096  145.020
    7.750    7.884    0.380    0.534  103.916  145.422
    8.000    7.888    0.389    0.615  101.506  146.024
    8.250    7.746    0.376    0.571   84.940  146.426
    8.500    7.262    0.366    0.648   88.253  146.426
    8.750    7.199    0.386    0.618   92.169  145.221
    9.000    8.127    0.381    0.578   88.855  144.618
    9.250    8.056    0.377    0.679   91.868  144.418
    9.500    6.330    0.377    0.652  102.410  144.618
    9.750    5.560    0.362    0.667   90.663  144.819
   10.000    5.165    0.374    0.701   87.651  145.020
   10.250    5.072    0.379    0.639   84.337  145.221
   10.500    5.267    0.355    0.596   76.506  145.221
   10.750    5.837    0.344    0.582  103.012  145.823
   11.000    6.291    0.352    0.587   96.385  146.024
   11.250    6.121    0.361    0.585   84.639  146.024
   11.500    5.846    0.344    0.636   87.651  145.823
   11.750    5.903    0.335    0.608   90.060  145.221
   12.000    6.304    0.288    0.566   94.879  146.024
   12.250    6.731    0.255    0.568   90.362  145.020
   12.500    7.321    0.280    0.477   96.988  144.016
   12.750    9.680    0.343    0.537  114.458  142.811
   13.000   11.771    0.327    0.647  103.614  142.811
   13.250    6.319    0.293    0.702  108.735  143.012
   13.500    5.870    0.281    0.540  115.060  143.012
   13.750    7.340    0.266    0.550  103.313  143.012
   14.000    7.836    0.282    0.495   98.795  143.213
   14.250   10.076    0.318    0.429   90.060  143.815
   14.500   11.376    0.338    0.454   83.132  144.217
   14.750   12.843    0.351    0.568   78.012  142.811
   15.000    8.778    0.368    0.493   98.193  141.606
   15.250    8.384    0.378    0.581   64.157  140.402
   15.500    9.035    0.352    0.438   62.349  136.185
   15.750   28.091    0.336    0.383   63.554  132.369
   16.000   26.093    0.340    0.362   63.855  135.382
   16.250   26.351    0.358    0.324   75.904  138.795
   16.500   32.041    0.375    0.254   76.506  141.205
   16.750  128.016    0.381    0.270   65.362  139.197
   17.000   97.824    0.380    0.274   66.868  137.590
   17.250   98.792    0.350    0.301   61.145  137.390
   17.500   69.431    0.340    0.327   58.434  139.197
   17.750   62.719    0.345    0.384   69.879  140.602
   18.000   58.254    0.336    0.378   66.566  140.803
   18.250   74.909    0.332    0.383   74.096  140.402
   18.500   81.483    0.319    0.417   83.735  140.201
   18.750   83.047    0.323    0.366   90.362  140.402
   19.000   82.325    0.313    0.386   89.458  140.402
   19.250   93.809    0.306    0.415   87.651  140.402
   19.500   62.943    0.318    0.421   87.048  140.602
   19.750   60.676    0.314    0.393   87.349  140.602
   20.000   64.782    0.318    0.373   75.904  140.602
   20.250   96.656    0.325    0.324   75.301  140.602
   20.500  126.613    0.339    0.304   50.904  140.803
   20.750  217.164    0.342    0.254   59.639  140.602
   21.000  182.106    0.346    0.283   65.964  139.398
   21.250  178.841    0.334    0.357   55.723  137.992
   21.500  136.661    0.338    0.407   51.205  137.791
   21.750   96.954    0.329    0.408   59.337  138.394
   22.000   97.901    0.334    0.452   50.301  139.598
   22.250  150.209    0.351    0.394   53.916  140.602
   22.500  164.908    0.343    0.350   56.325  141.205
   22.750  208.135    0.336    0.350   52.108  141.606
   23.000  285.627    0.323    0.341   48.494  140.602
   23.250  176.251    0.341    0.336   57.530  140.000
   23.500  132.202    0.346    0.330   58.133  140.000
   23.750  280.782    0.331    0.454   67.169  140.602
   24.000  731.617    0.325    0.436   56.325  141.406
   24.250 1389.910    0.338    0.443   51.807  142.008
   24.500 1352.360    0.344    0.462   50.602  142.410
   24.750 1123.550    0.353    0.479   39.759  142.410
   25.000  874.667    0.366    0.506   36.747  142.410
   25.250  740.311    0.383    0.503   40.060  142.410
   25.500  650.322    0.353    0.560   45.482  142.410
   25.750  312.266    0.335    0.523   38.253  142.410
   26.000  372.771    0.327    0.499   40.060  142.410
   26.250  492.832    0.334    0.406   33.434  142.410
   26.500  282.340    0.329    0.429   41.265  142.209
   26.750  269.655    0.346    0.417   46.084  141.606
   27.000  640.274    0.372    0.408   43.976  140.201
   27.250  410.104    0.382    0.483   45.783  136.386
   27.500  690.407    0.375    0.425   49.699  133.574
   27.750  629.451    0.363    0.414   52.410  132.570
   28.000  168.300    0.350    0.405   51.807  132.972
   28.250  270.468    0.351    0.447   43.373  135.582
   28.500  388.819    0.347    0.473   44.880  137.390
   28.750  881.361    0.344    0.436   47.289  139.197
   29.000  915.132    0.336    0.397   45.482  139.799
   29.250 1584.170    0.348    0.414   45.482  140.402
   29.500 1908.900    0.344    0.407   33.735  140.602
   29.750 1857.330    0.344    0.382   37.048  140.803
   30.000 1875.480    0.344    0.405   36.446  141.004
   30.250  461.224    0.341    0.403   42.470  141.004
   30.500  776.516    0.349    0.424   35.843  141.004
   30.750 1809.830    0.347    0.438   37.651  141.004
   31.000  633.567    0.336    0.421   37.349  141.004
   31.250  702.100    0.340    0.379   42.771  140.803
   31.500  869.880    0.342    0.375   42.470  140.602
   31.750  328.021    0.349    0.407   53.313  140.201
   32.000  683.848    0.340    0.387   37.651  140.201
   32.250  912.596    0.330    0.374   30.723  140.201
   32.500  779.626    0.309    0.393   41.867  140.201
   32.750  285.922    0.326    0.428   54.518  140.201
   33.000  313.919    0.307    0.398   55.422  140.402
   33.250   80.877    0.286    0.382   66.868  139.799
   33.500   79.427    0.268    0.393   80.121  140.201
   33.750   66.604    0.231    0.489  112.349  142.811
   34.000   44.684    0.208    0.444   94.277  145.622
   34.250   21.456    0.217    0.506   90.663  144.618
   34.500   20.876    0.207    0.579  112.952  142.209
   34.750   19.754    0.218    0.507  100.904  142.410
   35.000   18.695    0.237    0.466  101.205  143.414
   35.250   18.530    0.241    0.526  104.819  144.418
   35.500   18.367    0.233    0.529  119.578  144.217
   35.750   17.707    0.235    0.454  103.614  143.213
   36.000   17.550    0.243    0.434  100.301  143.414
   36.250   17.076    0.247    0.454  102.711  143.815
   36.500   16.462    0.244    0.513  128.614  143.815
   36.750   15.870    0.238    0.474  114.157  142.811
   37.000   15.585    0.240    0.497  100.000  145.020
   37.250   15.306    0.250    0.449  103.313  143.815
   37.500   15.172    0.245    0.518  122.590  143.012
   37.750   15.322    0.243    0.484  117.169  142.811
   38.000   15.329    0.239    0.509  103.614  142.811
   38.250   15.624    0.222    0.483   97.892  142.410
   38.500   15.778    0.208    0.457  113.253  142.008
   38.750   16.692    0.214    0.420   98.494  141.406
   39.000   18.326    0.242    0.438  111.446  141.004
   39.250   17.181    0.252    0.464  100.301  140.402
   39.500   17.512    0.250    0.471  114.458  140.201
   39.750   19.049    0.255    0.480   93.072  140.000
   40.000   20.152    0.265    0.451   99.398  140.402
   40.250   20.733    0.231    0.460   92.470  142.008
   40.500   21.131    0.244    0.430   92.771  141.807
   40.750   22.148    0.228    0.456   88.253  140.602
   41.000   24.542    0.261    0.481   81.928  139.398
   41.250   27.969    0.273    0.497   84.036  139.197
