~VERSION INFORMATION
 VERS.                 2.0:   CWLS LOG ASCII STANDARD -VERSION 2.0
 WRAP.                  NO:   ONE LINE PER DEPTH STEP
~WELL INFORMATION BLOCK
#MNEM.UNIT           DATA                    DESCRIPTION OF MNEMONIC
#---------    -------------------            -------------------------------
# Generated from Intellog Unique Number	CX_WELLS/WELL/3616
WELL.         AMOCO C21                      : Well_name    - WELL
LOC .         AA/08-21-085-08W4/0            : Location     - LOCATION
UWI .         AA/08-21-085-08W400            : Uwi          - UNIQUE WELL ID
ENTR.         T                              : Entered      - ENTERED BY
SRVC.         SCHLUMBERGER                   : Scn          - SERVICE COMPANY
STRT.F        600                            : top_depth    - START DEPTH
STOP.F        1360.33                        : bot_depth    - STOP DEPTH
STEP.F        0.82                           : increment    - STEP LENGTH
 NULL. -999.2500:NULL Value
~CURVE INFORMATION BLOCK
#MNEM UNIT       ERCB CURVE CODE    CURVE DESCRIPTION
#-----------   ------------------   ----------------------------------
DEPT.F        00 001 00 00         : DEPTH        - DEPTH
GR  .API      00 310 00 00         : GR           - GAMMA RAY
NPHI.V/V      00 330 00 00         : PHIN         - NEUTRON POROSITY (SANDSTONE)
ILD .OHMM     00 120 00 00         : RESD         - DEEP RESISTIVITY (OTHER)
~PARAMETER INFORMATION
#MNEM.UNIT           DATA             DESCRIPTION OF MNEMONIC
#---------         -----------     ------------------------------
GL  .F        2144.6               : gl           - GROUND LEVEL ELEVATION
EREF.F        2149                 : kb           - ELEVATION OF DEPTH REFERENCE
DATM.F        2149                 : datum        - DATUM ELEVATION
TDD .F        1373                 : tdd          - TOTAL DEPTH DRILLER
RUN .         ONE                  : Run          - RUN NUMBER
ENG .         BILL                 : Engineer     - RECORDING ENGINEER
WIT .         JIM                  : Witness      - WITNESSED BY
MUD .         GEL                  : Mud_type     - MUD TYPE
MATR.         SANDSTONE            : Logunit      - NEUTRON MATRIX
TMAX.F        80                   : BHT          - MAXIMUM RECORDED TEMPERATURE
BHTD.F        1373                 : BHTDEP       - MAXIMUM RECORDED TEMPERATURE
MATR.         1                    : LOGUNIT      - NEUTRON MATRIX
RMT .F        80                   : MDTP         - TEMPERATURE OF MUD
NEUT.         1                    : NEUTRON      - NEUTRON TYPE
RESI.         10                   : RESIST       - RESISTIVITY TYPE
RMC .OHMM     2                    : RMC          - RESISTIVITY OF MUD CAKE
RMF .OHMM     3.9                  : RMF          - RESISTIVITY OF MUD FILTRATE
SUFT.F        39.2                 : SUFT         - SURFACE TEMPERATURE
~A  DEPTH       GR     PHIN     RESD
# ...
  777.986   66.792    0.399    7.760
  778.806   65.047    0.399    8.466
  779.626   63.889    0.400    9.172
  780.446   63.923    0.402    9.024
  781.266   64.545    0.402    8.639
  782.087   65.175    0.401    8.255
  782.907   64.630    0.401    7.951
  783.727   64.656    0.400    7.722
  784.547   64.094    0.402    7.729
  785.367   63.541    0.407    7.888
  786.188   63.567    0.409    7.973
  787.008   63.601    0.411    8.289
  787.828   62.443    0.414    8.995
  788.648   62.486    0.412    9.313
  789.469   62.520    0.409    8.854
  790.289   62.554    0.408    8.624
  791.109   63.781    0.405    8.395
  791.929   64.419    0.404    8.089
  792.749   63.858    0.404    8.019
  793.570   62.104    0.404    8.022
  794.390   60.358    0.401    7.951
  795.210   59.805    0.399    8.112
  796.030   59.831    0.399   11.934
  796.850   59.865    0.407   11.704
  797.671   59.312    0.409   11.320
  798.491   58.154    0.403   11.326
  799.311   57.583    0.398   13.512
  800.131   56.425    0.397   14.685
  800.951   56.468    0.399   15.781
  801.772   57.090    0.399   14.230
  802.592   57.720    0.397   13.767
  803.412   60.147    0.392   12.060
  804.232   63.767    0.387   10.431
  805.052   68.570    0.383    9.269
  805.873   71.584    0.380    9.431
  806.693   68.647    0.369   12.394
  807.513   66.884    0.364   15.047
  808.333   64.551    0.357   16.453
  809.154   63.376    0.376   17.550
  809.974   62.814    0.403   14.520
  810.794   64.637    0.410   12.500
  811.614   68.256    0.412   10.326
  812.434   71.270    0.412   10.254
  813.255   73.706    0.411   11.349
  814.075   73.732    0.409   17.350
  814.895   73.775    0.405   18.912
  815.715   73.809    0.404   14.948
  816.535   74.431    0.402   13.865
  817.356   74.465    0.398   14.261
  818.176   74.499    0.395   14.498
  818.996   74.542    0.393   14.658
  819.816   73.980    0.392   14.509
  820.636   72.235    0.389   14.359
  821.457   71.085    0.386   14.364
  822.277   70.506    0.384   14.682
  823.097   71.733    0.382   14.764
  823.917   74.151    0.381   14.614
  824.738   75.991    0.381   14.230
  825.558   73.062    0.373   13.692
  826.378   72.483    0.365   13.308
  827.198   71.316    0.352   12.849
  828.018   69.562    0.319   12.696
  828.839   67.808    0.288   13.324
  829.659   67.255    0.263   26.098
  830.479   67.289    0.264   26.026
  831.299   69.120    0.257   27.200
  832.119   70.934    0.240   28.139
  832.940   72.161    0.258   13.119
  833.760   75.184    0.283   12.112
  834.580   76.419    0.295   11.886
  835.400   74.665    0.328   11.812
  836.220   72.902    0.385   11.739
  837.041   70.552    0.358   11.436
  837.861   67.606    0.320   11.286
  838.681   65.256    0.251   11.135
  839.501   62.310    0.196   11.217
  840.322   59.968    0.175   38.317
  841.142   61.791    0.160   37.233
  841.962   63.630    0.185   33.736
  842.782   64.244    0.194   29.070
  843.602   65.470    0.220   12.335
  844.423   65.522    0.250   10.628
  845.243   65.547    0.283   11.025
  846.063   64.406    0.319   11.421
  846.883   64.424    0.388   11.424
  847.703   64.458    0.387   11.431
  848.524   64.492    0.387   11.358
  849.344   64.552    0.386   11.051
  850.164   63.973    0.393    9.889
  850.984   63.411    0.403    9.116
  851.804   64.646    0.407    9.666
  852.625   65.268    0.406   11.154
  853.445   66.503    0.403   11.313
  854.265   67.133    0.398   11.318
  855.085   67.167    0.396   11.247
  855.906   66.605    0.398   11.174
  856.726   65.456    0.398   11.181
  857.546   65.499    0.390   11.421
  858.366   65.525    0.376   11.502
  859.186   66.155    0.364   11.508
  860.007   66.198    0.353   11.594
  860.827   66.232    0.380   11.597
  861.647   66.854    0.389   11.682
  862.467   66.309    0.397   11.686
  863.287   65.747    0.400   11.769
  864.108   65.781    0.402   11.934
  864.928   65.816    0.403   11.937
  865.748   67.638    0.404   12.098
  866.568   68.856    0.405   12.338
  867.388   70.687    0.405   12.421
  868.209   73.131    0.404   12.427
  869.029   74.349    0.403   12.511
  869.849   75.567    0.402   12.515
  870.669   76.793    0.402   12.444
  871.490   76.836    0.401   12.216
  872.310   75.678    0.403   11.831
  873.130   74.520    0.402   10.902
  873.950   74.546    0.404   10.831
  874.770   76.377    0.408   11.537
  875.591   78.804    0.409   11.698
  876.411   81.810    0.407   11.471
  877.231   83.632    0.405   11.243
  878.051   81.878    0.403   10.548
  878.871   79.537    0.407    9.073
  879.692   78.371    0.408    8.536
  880.512   78.422    0.410    8.774
  881.332   79.061    0.413    9.324
  882.152   79.674    0.414    9.720
  882.972   80.900    0.412    9.569
  883.793   82.127    0.408    9.653
  884.613   83.966    0.404    9.814
  885.433   85.184    0.410    9.897
  886.253   88.207    0.416    9.980
  887.073   91.826    0.419    9.987
  887.894   93.649    0.419    9.914
  888.714   94.279    0.415    9.842
  889.534   93.130    0.411    9.692
  890.354   92.559    0.406    9.541
  891.175   90.201    0.403    9.317
  891.995   89.639    0.402    9.243
  892.815   90.287    0.398    9.170
  893.635   91.513    0.397    9.022
  894.455   92.143    0.392    8.948
  895.276   93.974    0.391    8.874
  896.096   94.596    0.394    8.803
  896.916   97.023    0.399    8.807
  897.736  100.046    0.403    8.738
  898.556  101.264    0.403    8.587
  899.377  103.078    0.403    8.359
  900.197  107.906    0.401    7.896
  901.017  110.904    0.402    7.123
  901.837  116.303    0.405    5.728
  902.657  126.479    0.408    4.955
  903.478  130.694    0.408    4.182
  904.298  133.113    0.408    3.953
  905.118  131.955    0.408    3.882
  905.938  130.209    0.409    3.886
  906.759  129.639    0.409    3.893
  907.579  128.481    0.409    3.901
  908.399  127.919    0.409    3.904
  909.219  126.761    0.409    3.912
  910.039  126.796    0.409    3.992
  910.860  130.415    0.409    3.999
  911.680  134.621    0.410    4.004
  912.500  138.232    0.411    4.010
  913.320  134.690    0.413    4.017
  914.140  128.167    0.414    4.022
  914.961  123.433    0.414    4.026
  915.781  118.699    0.415    4.031
  916.601  115.753    0.422    4.038
  917.421  111.614    0.425    4.045
  918.241  115.830    0.427    4.050
  919.062  120.632    0.434    4.133
  919.882  125.444    0.437    4.139
  920.702  127.854    0.438    4.145
  921.522  130.281    0.434    4.073
  922.343  129.123    0.432    3.999
  923.163  128.561    0.428    3.849
  923.983  128.604    0.425    3.621
  924.803  129.226    0.425    3.394
  925.623  130.461    0.429    3.320
  926.444  129.899    0.431    3.252
  927.264  127.557    0.432    3.254
  928.084  125.795    0.433    3.340
  928.904  124.058    0.435    3.343
  929.724  123.488    0.436    3.348
  930.545  123.513    0.437    3.277
  931.365  122.364    0.433    2.975
  932.185  118.822    0.431    2.824
  933.005  107.539    0.427    2.751
  933.825  105.785    0.425    2.987
  934.646  108.817    0.422    3.772
  935.466  110.018    0.422    4.324
  936.286  114.233    0.421    4.639
  937.106  117.844    0.421    4.800
  937.927  123.242    0.419    4.806
  938.747  131.026    0.418    4.270
  939.567  133.453    0.419    4.039
  940.387  135.275    0.423    3.658
  941.207  141.270    0.427    3.583
  942.028  146.099    0.431    3.590
  942.848  145.520    0.436    3.597
  943.668  144.362    0.443    3.523
  944.488  144.413    0.444    3.296
  945.308  143.843    0.444    3.068
  946.129  143.877    0.441    2.916
  946.949  143.911    0.440    2.766
  947.769  143.954    0.435    2.695
  948.589  143.384    0.433    2.621
  949.409  142.226    0.427    2.629
  950.230  141.672    0.422    2.555
  951.050  140.515    0.418    2.484
  951.870  139.365    0.417    2.569
  952.690  137.620    0.414    2.884
  953.510  135.857    0.408    3.512
  954.331  132.920    0.402    4.142
  955.151  131.745    0.401    4.301
