~Version : LASO    vs 4.00
VERS.                2.00:   CWLS Log ASCII Standard -VERSION 2.0
WRAP.                  NO:
~Well Information Block
#MNEM.UNIT       Data                        Description of Mnemonic
#----.----      -------------------------- : -----------------------------
STRT.M            15.0000:
STOP.M           186.3750:
STEP.M             0.1250:
NULL.           -999.2500:
COMP.  MOBIL OIL OF CANADA                :COMPANY
WELL.  MOBIL CLARKE OV 2-19               :WELL
FLD.                                      :FIELD
LOC.   02-19-090-07W4                     :LOCATION
CTRY.  CANADA                             :COUNTRY
PROV.  ALBERTA                            :PROVINCE
SRVC.  DRESSER ATLAS                      :SERVICE COMPANY
DATE.  24-FEB-81                          :LOG DATE
UWI.   AA/02-19-090-07W400                :UNIQUE WELL ID
~Parameter Information Block
#MNEM.UNIT       Data                        Description of Mnemonic
#----.----      -------------------------- : -----------------------------
RUN .                   1                 : Run Number
GL  .M           444.6000                 : Ground Level Elevation
DREF.                  KB                 : Depth Reference
EREF.M           444.6000                 : Elevation of Depth Reference
TDL .M           186.3000                 : Total Depth Logger
TDD .M           185.0000                 : Total Depth Driller
CSGL.M            14.7000                 : Casing Bottom Logger
CSGD.M            14.7000                 : Casing Bottom Driller
CSGS.MM          219.0000                 : Casing Size
CSGW.KG/M          0.0000                 : Casing Weight
BHT .DEGC         20.0000                 : Bottom Hole Temperature
BS  .MM          159.0000                 : Bit Size
DFD .           9999.0000                 : Mud Weight (Density)
DFV .             90.0000                 : Mud Viscosity
RM  .OHMM          2.5000                 : Mud Resistivity
RMT .DEGC         20.0000                 : Mud Resistivity Temperature
~Curve Information Block
#MNEM.UNIT        API CODE    Curve Description
#---------    ------------    -------------------------------------------
DEPT.M                    :   DEPTH
CALI.MM       42 280  1  1:   3 DENSITY CALIPER
DPHI.V/V                  :   DPHI
DT  .US/M     60 520 32  1:   2 SONIC INTERVAL TRANSIT TIME (COMPENSATED)
GR  .GAPI     42 310  1  1:   4 GAMMA RAY
ILD .OHMM      5 120 45  1:   7 DEEP INDUCTION
NPHI.V/V      42 890  3  1:   5 NEUTRON POROSITY (SANDSTONE)
RHOB.K/M3     42 350  1  1:   6 BULK DENSITY
SN  .OHMM      5  40 16  1:   8 SHORT NORMAL
SP  .MV        5  10  1  1:   9 SPONTANEOUS POTENTIAL
~A  Depth           CALI        DPHI          DT          GR         ILD        NPHI        RHOB          SN          SP
# ...
132.2500        188.6000      0.2820    437.6000     56.8050     16.0550      0.4452   2198.2000     19.3400    -60.2100
132.3750        188.6000      0.2670    431.1600     56.4750     15.7950      0.4066   2254.8999     21.0500    -59.6400
132.5000        189.2000      0.2586    425.6400     68.0400     15.8600      0.4028   2215.3000     21.4750    -60.0150
132.6250        188.9000      0.2505    422.2800     69.6150     16.1850      0.4148   2148.2000     20.5000    -59.4300
132.7500        189.8000      0.2722    421.1200     70.4400     16.7650      0.4306   2124.3999     21.9650    -58.5300
132.8750        191.0000      0.2924    424.4400     70.2000     17.5400      0.4418   2158.0000     22.6950    -59.5050
133.0000        197.6250      0.2865    435.9200     69.8700     18.8950      0.4426   2178.1001     23.9150    -60.1950
133.1250        197.9250      0.2839    443.8400     68.7000     20.8350      0.4437   2172.6001     27.6350    -64.5900
133.2500        196.7250      0.2854    435.9200     66.8250     23.0950      0.4482   2164.1001     26.7200    -68.3550
133.3750        192.8250      0.2894    448.3600     65.8200     24.9650      0.4426   2158.0000     29.5250    -69.7800
133.5000        190.1000      0.2924    474.6800     65.3850     27.4200      0.4366   2158.0000     37.0850    -74.6550
133.6250        190.1000      0.2931    486.1600     64.0050     30.4550      0.4340   2161.6001     56.9000    -77.1900
133.7500        191.9250      0.2931    487.1200     62.5500     34.1350      0.4283   2156.2000     73.6000    -80.3550
133.8750        191.0000      0.2977    527.5600     61.9650     37.6200      0.4175   2142.7000     70.4000    -85.3500
134.0000        189.8000      0.2969    506.7600     61.6950     40.5900      0.4077   2142.1001     88.4500    -86.6550
134.1250        188.6000      0.2947    461.5200     63.4050     44.2050      0.4017   2151.3000    106.1000    -87.0600
134.2500        188.9000      0.2950    444.0800     63.3450     49.8850      0.3987   2173.2000    120.7000    -85.4250
134.3750        188.6000      0.2937    452.9200     63.2850     53.3500      0.3743   2183.6001    156.1000    -84.8550
134.5000        187.7000      0.2954    435.4400     63.5100     54.9500      0.3698   2170.2000    148.1500    -83.6850
134.6250        185.9000      0.3009    438.5600     64.8600     55.5500      0.3649   2153.1001     99.3000    -80.5950
134.7500        183.4750      0.3093    453.8800     64.1550     55.3000      0.3571   2126.3000     82.0500    -78.9300
134.8750        183.4750      0.3143    429.9600     61.0200     52.7000      0.3623   2104.3000    113.4000    -79.7100
135.0000        184.7000      0.3132    417.0400     57.6450     52.7000      0.3691   2114.7000    113.4000    -82.6050
135.1250        185.6000      0.3088    412.4800     56.1150     49.3050      0.3784   2124.3999    126.2000    -84.4500
135.2500        186.5000      0.3048    415.3600     56.6100     46.9800      0.3818   2145.2000    123.7500    -83.2650
135.3750        187.7000      0.3020    408.4400     57.2400     45.5600      0.3833   2147.6001    154.2500    -82.0050
135.5000        187.4000      0.3004    394.3200     57.8550     44.7850      0.3833   2148.8000    191.4500    -81.3450
135.6250        187.7000      0.3021    410.0800     58.3500     45.1100      0.3859   2156.8000    130.5000    -80.3550
135.7500        186.8000      0.3060    412.0000     58.8450     45.8850      0.3878   2154.3000     62.2000    -79.5750
135.8750        186.8000      0.3094    433.8000     59.9100     46.6600      0.3938   2139.1001     49.5250    -80.7150
136.0000        188.6000      0.3095    452.6800     61.3800     46.8500      0.3826   2131.2000     57.2500    -82.7850
136.1250        189.2000      0.3077    462.4800     62.8950     45.9500      0.3784   2137.2000     76.0500    -82.3350
136.2500        189.2000      0.3053    461.0400     65.6400     45.1750      0.3751   2144.0000     95.1500    -82.3200
136.3750        189.5000      0.3028    442.6400     67.7700     44.4650      0.3649   2147.0000    105.3000    -79.3950
136.5000        189.5000      0.3002    433.5600     68.7450     43.3650      0.3559   2156.2000    118.9000    -74.1000
136.6250        189.5000      0.2976    421.3600     68.2050     41.8150      0.3461   2170.2000    121.3500    -73.3800
136.7500        188.0000      0.3017    418.2400     66.7800     39.8150      0.3446   2166.5000    128.0500    -72.8100
136.8750        186.5000      0.3091    420.1600     61.8750     38.1350      0.3409   2133.6001    147.5500    -71.1600
137.0000        185.0000      0.3147    417.0400     60.1200     36.2650      0.3443   2113.5000    105.5000    -71.1600
137.1250        184.7000      0.3205    416.0800     59.0400     34.8450      0.3424   2111.0000     57.9000    -69.3900
137.2500        184.4000      0.3212    419.9200     58.7850     33.1000      0.3481   2115.3000     38.3650    -69.3000
137.3750        184.7000      0.3198    457.4800     60.7800     31.6150      0.3567   2120.2000     44.5850    -72.9600
137.5000        185.6000      0.3146    466.3200     63.1650     30.5800      0.3537   2133.6001     55.5500    -74.2650
137.6250        186.8000      0.3094    464.1600     66.4500     30.7100      0.3567   2142.7000     54.9999    -75.5700
137.7500        188.0000      0.3052    431.6400     69.8400     31.4850      0.3631   2140.3000     44.7100    -76.0500
137.8750        188.6000      0.3002    441.2000     74.0550     32.5850      0.3728   2150.7000     42.2700    -75.4800
138.0000        187.4000      0.2950    463.9200     76.5150     33.6800      0.3803   2171.3999     53.9999    -74.6850
138.1250        185.3000      0.2885    485.9200     75.1500     35.2300      0.3796   2188.5000     84.4000    -74.3400
138.2500        184.4000      0.2844    494.8000     73.9050     37.3600      0.3751   2183.0000    129.2500    -73.9350
138.3750        184.4000      0.2833    459.3600     72.4800     39.4900      0.3694   2178.1001    142.6500    -73.9500
138.5000        184.4000      0.2837    446.9200     71.0550     42.8500      0.3694   2169.6001    100.7000    -75.4200
138.6250        184.1000      0.2858    415.3600     69.6300     46.1400      0.3664   2172.0000     65.7000    -76.2750
138.7500        184.1000      0.2879    407.9600     65.8650     49.7550      0.3623   2170.8000     65.9500    -75.2700
138.8750        184.4000      0.2910    375.4000     60.9900     51.9999      0.3646   2153.1001     93.6500    -74.6100
139.0000        184.7000      0.3042    408.6800     57.9150     52.4000      0.3642   2125.1001    115.2500    -75.0750
139.1250        184.7000      0.3087    412.0000     56.1600     53.2000      0.3638   2125.7000    136.6000    -76.4100
139.2500        185.0000      0.3131    409.8400     55.2750     54.4000      0.3619   2135.3999    131.7000    -77.0400
139.3750        185.9000      0.3137    407.7200     55.1400     54.9000      0.3653   2147.6001    121.9500    -75.2700
139.5000        185.9000      0.3116    408.6800     57.3300     54.0500      0.3702   2165.3000    101.2000    -71.8650
139.6250        185.6000      0.3081    411.7600     55.3500     52.4000      0.3781   2162.2000    126.8000    -67.7250
139.7500        185.3000      0.3031    424.4400     52.3650     49.3700      0.3822   2156.8000    145.1000    -62.5200
139.8750        185.3000      0.3002    424.2000     49.9200     44.0750      0.3826   2150.7000    101.9999    -60.4050
140.0000        186.5000      0.2987    427.0800     50.1150     40.9750      0.3844   2143.3000    111.6000    -57.2850
140.1250        187.4000      0.2984    430.9200     50.3850     40.9750      0.3871   2144.0000    111.6000    -55.5750
140.2500        188.3000      0.3012    435.4400     51.2400     39.5550      0.3886   2147.0000    103.9999    -55.6050
140.3750        188.3000      0.3034    491.2000     52.0050     38.6550      0.3841   2143.3000     62.8500    -55.6500
140.5000        188.0000      0.3057    516.5600     54.2850     38.0700      0.3863   2125.1001     44.7100    -56.1150
