~VERSION INFORMATION
 VERS.                 2.0:   CWLS LOG ASCII STANDARD -VERSION 2.0
 WRAP.                  NO:   ONE LINE PER DEPTH STEP
~WELL INFORMATION BLOCK
#MNEM.UNIT           DATA                    DESCRIPTION OF MNEMONIC
#---------    -------------------            -------------------------------
# Generated from Intellog Unique Number	CW_79_81/WELL/2445
WELL.         04-30-081-19W4                 : Well_name    - WELL
LOC .         AA/04-30-081-19W4/0            : Location     - LOCATION
UWI .         AA/04-30-081-19W400            : Uwi          - UNIQUE WELL ID
ENTR.         MAX                            : Entered      - ENTERED BY
SRVC.         COMPUTALOG                     : Scn          - SERVICE COMPANY
STRT.M        185                            : top_depth    - START DEPTH
STOP.M        374.75                         : bot_depth    - STOP DEPTH
STEP.M        0.25                           : increment    - STEP LENGTH
 NULL. -999.2500:NULL Value
~CURVE INFORMATION BLOCK
#MNEM UNIT       ERCB CURVE CODE    CURVE DESCRIPTION
#-----------   ------------------   ----------------------------------
DEPT.M        00 001 00 00         : DEPTH        - DEPTH
ILD .OHMM     00 120 00 00         : RESD         - DEEP RESISTIVITY (DIL)
NPHI.V/V      00 330 00 00         : PHIN         - NEUTRON POROSITY (SANDSTONE)
DPHI.V/V      00 890 00 00         : PHID         - DENSITY POROSITY (SANDSTONE)
GR  .API      00 310 00 00         : GR           - GAMMA RAY
CALI.MM       00 280 01 00         : CAL          - CALIPER
~PARAMETER INFORMATION
#MNEM.UNIT           DATA             DESCRIPTION OF MNEMONIC
#---------         -----------     ------------------------------
GL  .M        585                  : gl           - GROUND LEVEL ELEVATION
EREF.M        588.2                : kb           - ELEVATION OF DEPTH REFERENCE
DATM.M        585                  : datum        - DATUM ELEVATION
TDD .M        376                  : tdd          - TOTAL DEPTH DRILLER
RUN .         ONE                  : Run          - RUN NUMBER
ENG .         BILL                 : Engineer     - RECORDING ENGINEER
WIT .         JIM                  : Witness      - WITNESSED BY
MUD .         GEL                  : Mud_type     - MUD TYPE
MATR.         SANDSTONE            : Logunit      - NEUTRON MATRIX
TMAX.C        18                   : BHT          - MAXIMUM RECORDED TEMPERATURE
BHTD.M        376                  : BHTDEP       - MAXIMUM RECORDED TEMPERATURE
MATR.         1                    : LOGUNIT      - NEUTRON MATRIX
RMT .C        20                   : MDTP         - TEMPERATURE OF MUD
NEUT.         1                    : NEUTRON      - NEUTRON TYPE
RESI.         0                    : RESIST       - RESISTIVITY TYPE
RMC .OHMM     7                    : RMC          - RESISTIVITY OF MUD CAKE
RMF .OHMM     9                    : RMF          - RESISTIVITY OF MUD FILTRATE
SUFT.C        -15                  : SUFT         - SURFACE TEMPERATURE
~A  DEPTH     RESD     PHIN     PHID       GR      CAL
# ...
  294.500    7.644    0.486    0.279   75.468  250.274
  294.750    7.700    0.448    0.256   75.963  249.886
  295.000    7.756    0.451    0.250   78.459  250.107
  295.250    7.756    0.460    0.256   78.471  250.328
  295.500    7.698    0.472    0.263   76.785  250.346
  295.750    7.605    0.503    0.250   79.819  250.366
  296.000    7.431    0.440    0.244   81.599  250.385
  296.250    7.431    0.393    0.239   81.368  251.212
  296.500    7.471    0.402    0.232   81.862  252.037
  296.750    7.526    0.422    0.226   82.964  252.862
  297.000    7.595    0.432    0.222   84.188  253.485
  297.250    7.719    0.435    0.224   84.229  253.509
  297.500    7.778    0.401    0.244   81.966  253.526
  297.750    7.607    0.391    0.239   83.676  253.948
  298.000    7.439    0.383    0.226   87.204  254.673
  298.250    7.303    0.389    0.220   89.882  255.903
  298.500    7.209    0.409    0.219   90.741  257.740
  298.750    7.166    0.433    0.204   89.956  260.443
  299.000    7.221    0.427    0.194   87.187  261.721
  299.250    7.381    0.390    0.202   86.227  261.741
  299.500    7.546    0.391    0.213   86.904  261.757
  299.750    7.517    0.395    0.217   88.371  262.178
  300.000    7.095    0.400    0.215   89.645  261.757
  300.250    6.222    0.435    0.214   90.071  257.505
  300.500    6.219    0.425    0.219   92.340  257.052
  300.750    6.262    0.428    0.232   90.129  255.807
  301.000    6.513    0.422    0.246   89.197  254.561
  301.250    6.924    0.408    0.246   86.498  253.719
  301.500    7.523    0.390    0.241   81.543  252.979
  301.750    8.709    0.364    0.264   75.487  251.062
  302.000   10.159    0.356    0.261   70.893  249.760
  302.250   11.639    0.349    0.218   68.198  249.740
  302.500   13.285    0.289    0.156   62.209  249.710
  302.750   15.097    0.207    0.095   59.022  249.274
  303.000   16.520    0.147    0.061   59.918  248.637
  303.250   15.873    0.184    0.105   63.293  248.518
  303.500   14.600    0.263    0.213   72.928  248.074
  303.750   13.455    0.354    0.231   80.469  247.636
  304.000   11.636    0.383    0.238   81.428  247.201
  304.250   10.465    0.397    0.240   81.412  246.766
  304.500   10.053    0.415    0.233   82.309  246.331
  304.750   10.149    0.425    0.207   82.493  245.889
  305.000    9.915    0.413    0.218   83.494  245.869
  305.250    9.766    0.410    0.230   85.184  245.838
  305.500    9.833    0.403    0.235   84.680  245.202
  305.750   10.009    0.398    0.241   83.564  244.970
  306.000   10.208    0.395    0.246   82.509  245.650
  306.250   10.399    0.386    0.228   81.070  247.156
  306.500   10.635    0.373    0.202   80.038  246.709
  306.750   10.945    0.366    0.213   82.703  246.271
  307.000   11.754    0.324    0.168   81.162  246.145
  307.250   12.605    0.316    0.148   79.438  246.526
  307.500   13.075    0.347    0.174   79.847  247.311
  307.750   12.850    0.356    0.204   83.050  248.259
  308.000   12.274    0.392    0.216   83.285  249.076
  308.250   11.143    0.396    0.230   83.757  249.045
  308.500   10.531    0.388    0.239   84.410  248.411
  308.750   10.226    0.378    0.243   85.125  247.978
  309.000   10.055    0.379    0.241   86.207  248.049
  309.250    9.786    0.398    0.226   89.092  248.421
  309.500    9.560    0.384    0.219   92.633  248.392
  309.750    9.556    0.368    0.220   89.690  248.776
  310.000    9.551    0.389    0.216   87.844  249.460
  310.250    9.546    0.399    0.216   86.851  250.854
  310.500    9.560    0.388    0.221   86.406  252.351
  310.750    9.653    0.373    0.225   85.788  252.150
  311.000    9.796    0.366    0.216   83.992  251.274
  311.250    9.720    0.373    0.206   83.733  252.056
  311.500    9.645    0.374    0.202   84.570  252.230
  311.750    9.535    0.375    0.203   86.139  252.405
  312.000    9.374    0.381    0.208   88.013  252.785
  312.250    9.081    0.405    0.215   90.206  253.078
  312.500    8.672    0.427    0.223   92.728  252.626
  312.750    8.418    0.423    0.219   94.176  252.595
  313.000    8.125    0.441    0.213   92.331  253.177
  313.250    8.005    0.446    0.208   90.364  254.167
  313.500    8.060    0.431    0.202   88.702  255.054
  313.750    8.114    0.409    0.196   84.922  255.107
  314.000    8.111    0.398    0.204   84.395  255.501
  314.250    8.106    0.418    0.209   85.111  255.876
  314.500    7.706    0.426    0.209   88.205  255.339
  314.750    7.350    0.423    0.207   92.334  254.500
  315.000    7.214    0.413    0.208   93.963  253.763
  315.250    7.327    0.396    0.213   86.749  253.237
  315.500    7.380    0.365    0.212   83.683  252.785
  315.750    7.006    0.370    0.204   85.129  253.572
  316.000    6.577    0.390    0.200   90.050  255.881
  316.250    6.297    0.414    0.195   91.498  258.700
  316.500    6.312    0.431    0.195   88.495  259.995
  316.750    7.047    0.424    0.221   86.187  256.115
  317.000    8.287    0.422    0.221   86.933  253.116
  317.250    9.098    0.405    0.209   87.160  252.278
  317.500   10.152    0.366    0.196   86.656  251.440
  317.750   11.331    0.332    0.182   84.202  251.007
  318.000   12.555    0.291    0.151   78.760  251.080
  318.250   14.336    0.185    0.062   66.578  251.452
  318.500   16.856    0.123    0.005   52.081  251.420
  318.750   22.016    0.087    0.005   51.333  251.801
  319.000   24.752    0.079    0.006   52.596  252.489
  319.250   24.740    0.089    0.011   56.359  253.479
  319.500   22.989    0.109    0.029   61.462  254.467
  319.750   19.429    0.147    0.080   65.100  254.840
  320.000   16.350    0.195    0.116   65.082  254.810
  320.250   14.623    0.221    0.143   67.260  255.595
  320.500   13.775    0.241    0.167   68.890  255.772
  320.750   13.326    0.265    0.188   70.094  255.134
  321.000   13.104    0.288    0.202   70.444  253.782
  321.250   13.096    0.285    0.182   68.757  251.952
  321.500   13.090    0.232    0.136   67.724  251.081
  321.750   13.084    0.209    0.119   64.048  251.050
  322.000   12.648    0.271    0.150   64.763  251.326
  322.250   12.007    0.329    0.196   68.283  251.504
  322.500   11.322    0.357    0.231   72.350  251.175
  322.750   10.562    0.388    0.232   74.342  249.837
  323.000   10.011    0.372    0.240   75.850  249.385
  323.250    9.575    0.365    0.239   75.586  248.950
  323.500    9.004    0.380    0.235   77.154  249.430
  323.750    8.491    0.382    0.225   79.213  250.419
  324.000    8.171    0.372    0.214   81.088  251.612
  324.250    8.154    0.391    0.214   82.367  253.051
  324.500    8.088    0.406    0.214   80.319  254.288
  324.750    8.025    0.398    0.219   78.353  254.670
  325.000    7.963    0.394    0.216   79.494  255.051
  325.250    7.930    0.382    0.214   81.549  255.427
  325.500    7.941    0.368    0.211   83.116  255.700
  325.750    8.018    0.372    0.202   83.890  255.754
  326.000    8.138    0.381    0.191   85.397  256.148
  326.250    8.497    0.386    0.201   86.844  256.122
  326.500    8.825    0.398    0.203   89.387  255.790
  326.750    9.182    0.400    0.205   91.807  255.560
  327.000    9.557    0.389    0.211   93.496  255.533
  327.250    9.866    0.373    0.216   93.947  255.497
  327.500   10.013    0.360    0.210   91.389  255.467
  327.750   10.081    0.381    0.194   89.180  255.445
  328.000   10.039    0.377    0.188   90.077  254.804
  328.250    9.960    0.364    0.195   92.010  254.774
  328.500    9.919    0.351    0.206   94.004  255.764
  328.750   10.018    0.346    0.201   96.588  257.357
  329.000   10.165    0.353    0.207   98.601  257.334
  329.250   10.311    0.355    0.193   97.365  257.305
  329.500   10.628    0.376    0.188   97.593  257.275
  329.750   10.861    0.380    0.183   97.578  257.247
  330.000   10.916    0.366    0.178   96.709  257.119
  330.250   10.910    0.369    0.186   96.078  256.763
  330.500   10.905    0.355    0.186   99.109  257.157
  330.750   10.899    0.344    0.182  100.067  257.538
