~VERSION INFORMATION
 VERS.                 2.0:   CWLS LOG ASCII STANDARD -VERSION 2.0
 WRAP.                  NO:   ONE LINE PER DEPTH STEP
~WELL INFORMATION BLOCK
#MNEM.UNIT           DATA                    DESCRIPTION OF MNEMONIC
#---------    -------------------            -------------------------------
# Generated from Intellog Unique Number	CN_94_101/WELL/2816
WELL.         03-02-096-15W4                 : Well_name    - WELL
LOC .         AA/03-02-096-15W4/0            : Location     - LOCATION
UWI .         AA/03-02-096-15W400            : Uwi          - UNIQUE WELL ID
ENTR.         JOETTE                         : Entered      - ENTERED BY
SRVC.         SCHLUMBERGER                   : Scn          - SERVICE COMPANY
DATE.         07/07/92                       : Date         - LOG DATE
STRT.M        50                             : top_depth    - START DEPTH
STOP.M        330                            : bot_depth    - STOP DEPTH
STEP.M        0.25                           : increment    - STEP LENGTH
 NULL. -999.2500:NULL Value
~CURVE INFORMATION BLOCK
#MNEM UNIT       ERCB CURVE CODE    CURVE DESCRIPTION
#-----------   ------------------   ----------------------------------
DEPT.M        00 001 00 00         : DEPTH        - DEPTH
CALI.MM       00 280 01 00         : CAL          - CALIPER
GR  .API      00 310 00 00         : GR           - GAMMA RAY
NPHI.V/V      00 330 00 00         : PHIN         - NEUTRON POROSITY (SANDSTONE)
DPHI.V/V      00 890 00 00         : PHID         - DENSITY POROSITY (SANDSTONE)
ILD .OHMM     00 120 00 00         : RESD         - DEEP RESISTIVITY (DIL)
~PARAMETER INFORMATION
#MNEM.UNIT           DATA             DESCRIPTION OF MNEMONIC
#---------         -----------     ------------------------------
GL  .M        577.32               : gl           - GROUND LEVEL ELEVATION
EREF.M        580.67               : kb           - ELEVATION OF DEPTH REFERENCE
DATM.M        580.67               : datum        - DATUM ELEVATION
TDD .M        330                  : tdd          - TOTAL DEPTH DRILLER
RUN .         ONE                  : Run          - RUN NUMBER
ENG .         JO                   : Engineer     - RECORDING ENGINEER
WIT .         TIM                  : Witness      - WITNESSED BY
MUD .         GEL                  : Mud_type     - MUD TYPE
MATR.         SANDSTONE            : Logunit      - NEUTRON MATRIX
TMAX.C        19                   : BHT          - MAXIMUM RECORDED TEMPERATURE
BHTD.M        330                  : BHTDEP       - MAXIMUM RECORDED TEMPERATURE
RMT .C        13                   : MDTP         - TEMPERATURE OF MUD
MUDD.KG/M     1000                 : MWT          - MUD DENSITY
NEUT.         1                    : NEUTRON      - NEUTRON TYPE
RESI.         0                    : RESIST       - RESISTIVITY TYPE
RM  .OHMM     2.5                  : RM           - RESISTIVITY OF MUD
RMC .OHMM     2.5                  : RMC          - RESISTIVITY OF MUD CAKE
RMF .OHMM     2.5                  : RMF          - RESISTIVITY OF MUD FILTRATE
SUFT.C        4                    : SUFT         - SURFACE TEMPERATURE
~A  DEPTH      CAL       GR     PHIN     PHID     RESD
# ...
  123.000  191.114   80.782    0.477    0.243    5.409
  123.250  197.347   82.049    0.486    0.255    5.515
  123.500  198.452   81.525    0.496    0.263    5.633
  123.750  199.623   79.190    0.494    0.267    5.857
  124.000  197.743   76.875    0.486    0.268    6.087
  124.250  192.847   75.728    0.514    0.264    6.213
  124.500  187.917   76.411    0.513    0.259    6.349
  124.750  191.100   79.507    0.490    0.255    6.129
  125.000  195.222   81.417    0.490    0.261    5.809
  125.250  198.404   83.306    0.495    0.269    5.309
  125.500  197.498   83.989    0.492    0.281    4.764
  125.750  193.640   81.655    0.478    0.284    4.433
  126.000  197.795   80.507    0.480    0.285    3.977
  126.250  196.922   83.020    0.504    0.286    4.135
  126.500  193.031   83.100    0.533    0.290    4.631
  126.750  190.113   79.558    0.539    0.291    4.471
  127.000  194.268   76.017    0.545    0.292    3.796
  127.250  194.400   72.475    0.539    0.285    3.346
  127.500  191.515   70.141    0.509    0.288    3.607
  127.750  179.644   69.013    0.488    0.293    4.113
  128.000  186.784   69.696    0.481    0.297    6.300
  128.250  191.977   71.586    0.497    0.284    6.796
  128.500  193.049   72.268    0.515    0.273    7.607
  128.750  190.164   70.537    0.509    0.274    8.206
  129.000  184.262   68.183    0.480    0.280    8.853
  129.250  179.365   68.866    0.473    0.292    8.872
  129.500  183.521   71.359    0.456    0.286    8.738
  129.750  188.681   75.059    0.452    0.262    9.080
  130.000  194.881   79.362    0.459    0.265    9.612
  130.250  197.025   83.082    0.476    0.266   10.964
  130.500  196.151   84.368    0.483    0.260   10.590
  130.750  194.272   85.694    0.476    0.245    9.679
  131.000  198.427   85.734    0.469    0.243    8.680
  131.250  194.536   87.624    0.459    0.215    7.651
  131.500  188.601   91.324    0.445    0.200    7.382
  131.750  186.722   96.874    0.445    0.202    7.000
  132.000  197.983   99.347    0.472    0.227    6.761
  132.250  198.115   98.843    0.479    0.236    6.656
  132.500  198.214   97.715    0.477    0.234    6.794
  132.750  197.407   97.794    0.470    0.233    6.809
  133.000  197.473   96.667    0.474    0.238    6.950
  133.250  196.666   94.312    0.483    0.241    7.091
  133.500  196.732   89.584    0.476    0.246    7.106
  133.750  196.864   88.417    0.464    0.249    7.254
  134.000  196.996   87.309    0.460    0.241    7.408
  134.250  196.122   86.765    0.470    0.236    7.707
  134.500  196.255   86.261    0.474    0.242    7.859
  134.750  197.426   85.736    0.480    0.250    8.483
  135.000  198.530   84.589    0.484    0.255    9.146
  135.250  199.668   81.671    0.493    0.268   10.237
  135.500  194.772   80.523    0.496    0.283   11.249
  135.750  178.812   78.209    0.487    0.270   16.024
  136.000  171.871   74.648    0.465    0.283   16.041
  136.250  169.019   67.486    0.454    0.325   16.688
  136.500  170.190   62.717    0.445    0.347   17.352
  136.750  170.289   58.573    0.441    0.351   17.380
  137.000  172.466   62.292    0.451    0.349   16.189
  137.250  172.598   66.012    0.456    0.343   15.351
  137.500  172.697   68.486    0.455    0.323   14.549
  137.750  172.862   74.619    0.477    0.314   13.537
  138.000  172.961   78.903    0.466    0.319   11.707
  138.250  173.093   82.623    0.464    0.300   10.313
  138.500  171.247   81.495    0.490    0.263    8.596
  138.750  170.341   77.370    0.491    0.270    7.998
  139.000  169.467   75.016    0.480    0.336    7.593
  139.250  168.593   73.888    0.457    0.346    7.605
  139.500  172.749   75.778    0.449    0.316    7.478
  139.750  182.938   80.704    0.429    0.268    7.494
  140.000  195.173   85.008    0.468    0.249    7.510
  140.250  188.297   88.085    0.462    0.219    7.531
  140.500  190.408   91.824    0.461    0.239    7.547
  140.750  199.592   92.467    0.454    0.244    7.704
  141.000  202.808   93.793    0.446    0.240    7.716
  141.250  201.868   93.873    0.444    0.240    7.737
  141.500  202.066   93.348    0.450    0.248    7.749
  141.750  202.165   91.597    0.455    0.256    7.749
  142.000  203.303   90.470    0.459    0.263    9.894
  142.250  204.474   88.135    0.453    0.277   11.069
  142.500  206.552   86.385    0.450    0.276   12.633
  142.750  215.769   83.447    0.454    0.279   13.628
  143.000  207.822   81.112    0.461    0.294   14.441
  143.250  193.874   77.591    0.474    0.320   15.579
  143.500  183.948   74.049    0.481    0.331   15.604
  143.750  176.001   73.525    0.460    0.323   15.361
  144.000  170.099   75.415    0.453    0.320   15.105
  144.250  177.305   78.511    0.454    0.308   14.589
  144.500  181.460   77.384    0.462    0.299   14.885
  144.750  184.642   73.239    0.467    0.293   15.485
  145.000  182.763   73.318    0.475    0.279   15.798
  145.250  179.878   73.417    0.468    0.270   15.798
  145.500  180.983   72.250    0.446    0.263   14.486
  145.750  190.200   68.105    0.443    0.295   13.969
  146.000  184.264   64.564    0.446    0.317   13.999
  146.250  174.339   62.229    0.454    0.332   13.788
  146.500  171.487   64.742    0.454    0.345   13.551
  146.750  170.646   67.839    0.444    0.345   12.399
  147.000  170.746   70.915    0.445    0.322   11.744
  147.250  172.889   75.219    0.465    0.299   10.157
  147.500  173.994   78.959    0.482    0.300    7.446
  147.750  178.149   77.831    0.487    0.307    7.184
  148.000  177.276   79.117    0.474    0.314    6.816
  148.250  170.368   82.214    0.466    0.321    6.706
  148.500  172.511   85.914    0.465    0.314    6.721
  148.750  178.711   89.594    0.475    0.271    6.992
  149.000  185.850   92.710    0.487    0.236    7.133
  149.250  195.067   93.996    0.483    0.228    7.559
  149.500  196.238   95.302    0.476    0.236    7.855
  149.750  195.365   96.589    0.469    0.243    8.478
  150.000  195.464   98.459    0.474    0.241    8.645
  150.250  194.623   99.765    0.506    0.238    8.989
  150.500  193.717   95.600    0.519    0.227    9.347
  150.750  196.866   90.248    0.506    0.233    9.372
  151.000  203.066   87.290    0.549    0.244    9.392
  151.250  183.083   82.542    0.523    0.265    9.235
  151.500  177.148   77.210    0.499    0.283    8.758
  151.750  176.241   71.839    0.478    0.281    8.004
  152.000  181.501   73.728    0.468    0.315    7.586
  152.250  181.600   78.052    0.461    0.323    6.933
  152.500  180.694   78.111    0.461    0.325    6.455
  152.750  177.809   77.003    0.469    0.296    5.689
  153.000  182.969   74.689    0.500    0.290    5.105
  153.250  181.090   73.521    0.526    0.264    4.494
  153.500  170.159   69.980    0.527    0.258    4.339
  153.750  169.286   63.441    0.505    0.311    4.348
  154.000  169.484   62.294    0.502    0.324    4.872
  154.250  169.550   61.186    0.505    0.321    4.791
  154.500  168.709   60.058    0.502    0.332    4.630
  154.750  167.803   63.758    0.476    0.341    4.637
  155.000  169.979   68.645    0.465    0.341    4.650
  155.250  174.135   74.759    0.473    0.330    4.570
  155.500  178.257   79.686    0.497    0.310    4.665
  155.750  182.412   81.576    0.500    0.308    4.675
  156.000  184.589   84.672    0.489    0.303    4.777
  156.250  184.721   87.769    0.497    0.294    4.785
  156.500  184.820   91.469    0.519    0.279    4.792
  156.750  185.991   95.189    0.532    0.267    4.892
  157.000  187.096   92.251    0.528    0.252    4.903
  157.250  189.306   89.293    0.522    0.270    4.916
  157.500  189.438   88.789    0.534    0.265    4.926
  157.750  188.564   87.058    0.513    0.268    4.849
  158.000  186.718   81.082    0.518    0.280    4.766
  158.250  186.817   81.182    0.501    0.303    4.604
  158.500  185.910   83.071    0.507    0.303    4.365
  158.750  187.114   83.754    0.520    0.299    3.990
  159.000  188.186   81.420    0.565    0.298    3.783
  159.250  190.330   74.841    0.565    0.300    4.009
