~VERSION INFORMATION
 VERS.                 2.0:   CWLS LOG ASCII STANDARD -VERSION 2.0
 WRAP.                  NO:   ONE LINE PER DEPTH STEP
~WELL INFORMATION BLOCK
#MNEM.UNIT           DATA                    DESCRIPTION OF MNEMONIC
#---------    -------------------            -------------------------------
# Generated from Intellog Unique Number	CX_WELLS/WELL/2909
WELL.         GULF                           : Well_name    - WELL
LOC .         AA/06-08-082-09W4/0            : Location     - LOCATION
UWI .         AA/06-08-082-09W400            : Uwi          - UNIQUE WELL ID
ENTR.         T                              : Entered      - ENTERED BY
SRVC.         SCHLUMBERGER                   : Scn          - SERVICE COMPANY
STRT.F        900                            : top_depth    - START DEPTH
STOP.F        1599.64                        : bot_depth    - STOP DEPTH
STEP.F        0.82                           : increment    - STEP LENGTH
 NULL. -999.2500:NULL Value
~CURVE INFORMATION BLOCK
#MNEM UNIT       ERCB CURVE CODE    CURVE DESCRIPTION
#-----------   ------------------   ----------------------------------
DEPT.F        00 001 00 00         : DEPTH        - DEPTH
GR  .API      00 310 00 00         : GR           - GAMMA RAY
NPHI.V/V      00 330 00 00         : PHIN         - NEUTRON POROSITY (SANDSTONE)
DPHI.V/V      00 890 00 00         : PHID         - DENSITY POROSITY (SANDSTONE)
ILD .OHMM     00 120 00 00         : RESD         - DEEP RESISTIVITY (OTHER)
~PARAMETER INFORMATION
#MNEM.UNIT           DATA             DESCRIPTION OF MNEMONIC
#---------         -----------     ------------------------------
GL  .F        2322                 : gl           - GROUND LEVEL ELEVATION
EREF.F        2335                 : kb           - ELEVATION OF DEPTH REFERENCE
DATM.F        2335                 : datum        - DATUM ELEVATION
TDD .F        1625                 : tdd          - TOTAL DEPTH DRILLER
RUN .         ONE                  : Run          - RUN NUMBER
ENG .         BILL                 : Engineer     - RECORDING ENGINEER
WIT .         JIM                  : Witness      - WITNESSED BY
MUD .         GEL                  : Mud_type     - MUD TYPE
MATR.         SANDSTONE            : Logunit      - NEUTRON MATRIX
TMAX.F        73                   : BHT          - MAXIMUM RECORDED TEMPERATURE
BHTD.F        1625                 : BHTDEP       - MAXIMUM RECORDED TEMPERATURE
MATR.         1                    : LOGUNIT      - NEUTRON MATRIX
RMT .F        68                   : MDTP         - TEMPERATURE OF MUD
NEUT.         1                    : NEUTRON      - NEUTRON TYPE
RESI.         8.52                 : RESIST       - RESISTIVITY TYPE
RMC .OHMM     7.76                 : RMC          - RESISTIVITY OF MUD CAKE
RMF .OHMM     7.76                 : RMF          - RESISTIVITY OF MUD FILTRATE
SUFT.F        37.4                 : SUFT         - SURFACE TEMPERATURE
~A  DEPTH       GR     PHIN     PHID     RESD
# ...
 1328.150   84.846    0.503    0.277    6.301
 1328.970   85.473    0.510    0.276    5.649
 1329.790   85.486    0.517    0.273    5.350
 1330.610   84.886    0.527    0.272    4.796
 1331.430   83.053    0.521    0.271    4.997
 1332.250   81.218    0.494    0.268    5.406
 1333.070   79.385    0.491    0.266    6.074
 1333.890   76.941    0.486    0.265    6.824
 1334.710   75.114    0.484    0.261    7.975
 1335.530   75.120    0.483    0.261    8.621
 1336.350   73.903    0.482    0.260    8.981
 1337.170   72.685    0.478    0.259    9.372
 1337.990   70.853    0.475    0.260    9.756
 1338.810   69.635    0.471    0.268   10.555
 1339.630   68.420    0.469    0.278   11.205
 1340.450   67.209    0.463    0.227   12.850
 1341.270   67.218    0.458    0.200   14.713
 1342.090   69.076    0.453    0.209   15.930
 1342.910   72.160    0.428    0.253   14.269
 1343.730   77.096    0.405    0.225   13.263
 1344.550   80.798    0.405    0.181   12.097
 1345.370   84.501    0.451    0.179   10.055
 1346.190   86.973    0.473    0.224    9.171
 1347.010   87.604    0.484    0.237    8.068
 1347.830   87.001    0.490    0.234    7.648
 1348.650   86.398    0.491    0.230    7.684
 1349.480   85.799    0.492    0.227    7.697
 1350.300   85.808    0.492    0.226    7.727
 1351.120   86.439    0.491    0.224    7.746
 1351.940   87.066    0.491    0.221    7.770
 1352.760   87.691    0.491    0.220    7.656
 1353.580   88.933    0.491    0.220    7.536
 1354.400   89.561    0.488    0.220    7.413
 1355.220   89.579    0.478    0.220    7.298
 1356.040   89.588    0.471    0.220    7.184
 1356.860   89.604    0.471    0.220    6.956
 1357.680   88.998    0.472    0.220    6.967
 1358.500   88.402    0.473    0.221    6.859
 1359.320   87.796    0.477    0.225    6.757
 1360.140   87.194    0.480    0.232    6.406
 1360.960   85.976    0.489    0.238    5.954
 1361.780   84.143    0.504    0.245    5.333
 1362.600   82.311    0.522    0.289    4.600
 1363.420   81.093    0.551    0.287    3.964
 1364.240   79.264    0.553    0.257    3.420
 1365.060   78.658    0.528    0.245    3.372
 1365.880   77.447    0.521    0.241    3.577
 1366.700   77.456    0.512    0.242    3.870
 1367.520   77.468    0.491    0.238    4.186
 1368.340   78.099    0.467    0.228    4.889
 1369.160   79.959    0.467    0.220    5.390
 1369.980   81.199    0.462    0.209    6.541
 1370.800   83.056    0.436    0.187    6.944
 1371.620   84.299    0.432    0.180    6.961
 1372.440   85.541    0.479    0.204    6.724
 1373.260   86.168    0.489    0.207    6.255
 1374.080   86.796    0.509    0.215    5.710
 1374.900   86.196    0.516    0.222    5.114
 1375.720   85.597    0.537    0.228    4.495
 1376.540   84.994    0.545    0.236    4.261
 1377.360   84.395    0.551    0.241    3.967
 1378.180   84.401    0.551    0.246    3.908
 1379.000   83.805    0.530    0.250    3.841
 1379.820   83.811    0.529    0.256    3.782
 1380.640   84.445    0.525    0.267    3.723
 1381.460   85.069    0.520    0.276    3.741
 1382.280   86.929    0.517    0.278    3.752
 1383.100   88.787    0.513    0.283    3.839
 1383.920   90.644    0.516    0.286    3.848
 1384.740   90.657    0.526    0.280    3.858
 1385.560   90.057    0.538    0.268    3.870
 1386.380   88.225    0.532    0.254    3.813
 1387.200   87.007    0.504    0.247    3.904
 1388.020   86.404    0.499    0.238    3.913
 1388.850   88.262    0.499    0.232    4.074
 1389.670   90.119    0.495    0.225    4.244
 1390.490   90.747    0.491    0.223    4.599
 1391.310   90.144    0.487    0.218    4.791
 1392.130   87.081    0.489    0.212    4.810
 1392.950   85.864    0.493    0.207    4.914
 1393.770   85.882    0.497    0.198    5.023
 1394.590   86.507    0.503    0.194    5.139
 1395.410   87.746    0.499    0.186    5.250
 1396.230   88.989    0.500    0.194    5.271
 1397.050   92.079    0.501    0.216    5.292
 1397.870   94.552    0.495    0.224    5.300
 1398.690   97.027    0.491    0.232    5.427
 1399.510   98.270    0.489    0.239    5.440
 1400.330   95.819    0.484    0.248    5.886
 1401.150   90.911    0.477    0.263    6.494
 1401.970   84.773    0.467    0.284    7.296
 1402.790   78.024    0.456    0.298    8.198
 1403.610   72.501    0.453    0.299    9.755
 1404.430   73.132    0.448    0.294   10.969
 1405.250   73.759    0.443    0.271   11.636
 1406.070   74.383    0.438    0.265   12.373
 1406.890   76.247    0.432    0.256   12.639
 1407.710   76.257    0.430    0.258   13.429
 1408.530   76.884    0.424    0.255   13.718
 1409.350   77.511    0.419    0.226   15.148
 1410.170   81.217    0.415    0.200   16.082
 1410.990   83.071    0.431    0.198   16.146
 1411.810   86.159    0.439    0.220   14.995
 1412.630   91.709    0.443    0.229   12.692
 1413.450   94.797    0.448    0.224   11.369
 1414.270   96.654    0.454    0.222    9.993
 1415.090   97.897    0.455    0.220    9.303
 1415.910   96.679    0.455    0.217    9.684
 1416.730   93.620    0.452    0.217   10.089
 1417.550   89.942    0.449    0.217   10.711
 1418.370   84.419    0.442    0.219   12.044
 1419.190   77.052    0.443    0.245   13.278
 1420.010   70.299    0.443    0.248   15.801
 1420.830   64.776    0.433    0.267   18.091
 1421.650   57.408    0.399    0.271   21.528
 1422.470   53.119    0.385    0.264   25.617
 1423.290   56.825    0.380    0.248   28.243
 1424.110   58.061    0.373    0.235   29.424
 1424.930   63.611    0.367    0.222   28.966
 1425.750   68.544    0.365    0.212   26.461
 1426.570   73.480    0.367    0.204   24.614
 1427.400   74.725    0.374    0.219   22.897
 1428.220   75.349    0.385    0.231   21.316
 1429.040   74.750    0.394    0.241   20.967
 1429.860   74.144    0.399    0.246   20.624
 1430.680   71.085    0.404    0.253   21.520
 1431.500   67.407    0.406    0.256   22.847
 1432.320   64.341    0.414    0.262   23.783
 1433.140   61.894    0.421    0.284   26.221
 1433.960   57.601    0.428    0.291   31.202
 1434.780   54.538    0.433    0.296   35.057
 1435.600   51.482    0.434    0.297   41.717
 1436.420   51.494    0.433    0.295   43.495
 1437.240   52.122    0.430    0.284   38.929
 1438.060   55.821    0.425    0.268   33.604
 1438.880   61.984    0.425    0.243   30.077
 1439.700   66.301    0.439    0.242   28.000
 1440.520   64.472    0.452    0.281   29.170
 1441.340   58.334    0.461    0.307   30.969
 1442.160   58.965    0.466    0.311   32.904
 1442.980   62.667    0.465    0.311   35.627
 1443.800   64.521    0.459    0.310   37.764
 1444.620   60.229    0.444    0.308   41.636
 1445.440   54.706    0.419    0.309   47.709
 1446.260   50.416    0.411    0.311   57.807
 1447.080   48.584    0.407    0.314   77.041
 1447.900   49.829    0.413    0.318  112.839
 1448.720   50.454    0.419    0.321  122.080
 1449.540   52.926    0.428    0.322  101.477
 1450.360   56.014    0.430    0.318   87.458
 1451.180   62.182    0.432    0.315   61.239
 1452.000   65.885    0.432    0.305   48.978
 1452.820   68.972    0.433    0.298   40.680
 1453.640   71.442    0.433    0.295   35.088
 1454.460   74.532    0.429    0.294   31.430
 1455.280   73.933    0.425    0.291   29.236
 1456.100   72.715    0.423    0.285   27.714
 1456.920   72.109    0.421    0.277   26.772
 1457.740   72.122    0.425    0.271   25.399
 1458.560   73.370    0.427    0.260   24.057
 1459.380   73.377    0.420    0.253   20.750
 1460.200   74.004    0.409    0.244   18.572
 1461.020   76.480    0.401    0.221   16.324
 1461.840   78.952    0.403    0.216   13.817
 1462.660   81.425    0.407    0.203   12.386
 1463.480   85.127    0.410    0.192   11.522
 1464.300   88.833    0.419    0.188   10.922
 1465.120   85.767    0.421    0.200   10.966
 1465.940   82.095    0.422    0.228   11.201
 1466.770   83.956    0.423    0.235   11.451
 1467.590   85.192    0.428    0.243   11.725
 1468.410   88.280    0.435    0.235   11.744
 1469.230   91.367    0.446    0.225   11.150
 1470.050   95.685    0.451    0.222   10.763
