~VERSION INFORMATION
 VERS.                 2.0:   CWLS LOG ASCII STANDARD -VERSION 2.0
 WRAP.                  NO:   ONE LINE PER DEPTH STEP
~WELL INFORMATION BLOCK
#MNEM.UNIT           DATA                    DESCRIPTION OF MNEMONIC
#---------    -------------------            -------------------------------
# Generated from Intellog Unique Number	CN_94_101/WELL/4984
WELL.         06-29-101-14W4                 : Well_name    - WELL
LOC .         AA/06-29-101-14W4/0            : Location     - LOCATION
UWI .         AA/06-29-101-14W400            : Uwi          - UNIQUE WELL ID
ENTR.         TIM                            : Entered      - ENTERED BY
SRVC.         SCHLUMBERGER                   : Scn          - SERVICE COMPANY
DATE.         08/11/92                       : Date         - LOG DATE
STRT.M        350                            : top_depth    - START DEPTH
STOP.M        540                            : bot_depth    - STOP DEPTH
STEP.M        0.25                           : increment    - STEP LENGTH
NULL. -999.2500:NULL Value
~CURVE INFORMATION BLOCK
#MNEM UNIT       ERCB CURVE CODE    CURVE DESCRIPTION
#-----------   ------------------   ----------------------------------
DEPT.M        00 001 00 00         : DEPTH        - DEPTH
GR  .API      00 310 00 00         : GR           - GAMMA RAY
ILD .OHMM     00 120 00 00         : RESD         - DEEP RESISTIVITY (DIL)
NPHI.V/V      00 330 00 00         : PHIN         - NEUTRON POROSITY (SANDSTONE)
DPHI.V/V      00 890 00 00         : PHID         - DENSITY POROSITY (SANDSTONE)
~PARAMETER INFORMATION
#MNEM.UNIT           DATA             DESCRIPTION OF MNEMONIC
#---------         -----------     ------------------------------
GL  .M        774.8                : gl           - GROUND LEVEL ELEVATION
EREF.M        778                  : kb           - ELEVATION OF DEPTH REFERENCE
DATM.M        778                  : datum        - DATUM ELEVATION
TDD .M        545                  : tdd          - TOTAL DEPTH DRILLER
RUN .         ONE                  : Run          - RUN NUMBER
ENG .         JO                   : Engineer     - RECORDING ENGINEER
WIT .         TIM                  : Witness      - WITNESSED BY
MUD .         GEL                  : Mud_type     - MUD TYPE
MATR.         SANDSTONE            : Logunit      - NEUTRON MATRIX
TMAX.C        17                   : BHT          - MAXIMUM RECORDED TEMPERATURE
BHTD.M        545                  : BHTDEP       - MAXIMUM RECORDED TEMPERATURE
RMT .C        10                   : MDTP         - TEMPERATURE OF MUD
MUDD.KG/M     1130                 : MWT          - MUD DENSITY
NEUT.         1                    : NEUTRON      - NEUTRON TYPE
RESI.         0                    : RESIST       - RESISTIVITY TYPE
RM  .OHMM     0.8                  : RM           - RESISTIVITY OF MUD
RMC .OHMM     0.8                  : RMC          - RESISTIVITY OF MUD CAKE
RMF .OHMM     0.8                  : RMF          - RESISTIVITY OF MUD FILTRATE
SUFT.C        4                    : SUFT         - SURFACE TEMPERATURE
~A  DEPTH       GR     RESD     PHIN     PHID
# ...
  393.500  109.124    3.713    0.572    0.244
  393.750  108.505    3.933    0.565    0.237
  394.000  107.268    4.087    0.557    0.247
  394.250  106.650    4.247    0.557    0.259
  394.500  106.033    4.246    0.554    0.275
  394.750  103.549    4.165    0.542    0.308
  395.000  100.442    3.930    0.518    0.326
  395.250   99.203    3.781    0.523    0.263
  395.500  103.563    3.569    0.550    0.244
  395.750  104.190    3.500    0.554    0.245
  396.000  103.574    3.367    0.557    0.258
  396.250  103.578    3.367    0.560    0.261
  396.500  102.963    3.432    0.565    0.264
  396.750  102.965    3.706    0.574    0.264
  397.000  102.970    3.926    0.580    0.265
  397.250  101.731    4.159    0.548    0.262
  397.500   99.249    4.158    0.537    0.260
  397.750   97.386    4.078    0.528    0.258
  398.000   97.391    4.000    0.539    0.255
  398.250   99.262    3.923    0.563    0.262
  398.500  101.756    3.847    0.559    0.270
  398.750  105.495    3.774    0.552    0.272
  399.000  105.500    3.561    0.540    0.269
  399.250  104.883    3.493    0.537    0.266
  399.500  104.265    3.492    0.548    0.265
  399.750  103.026    3.560    0.559    0.265
  400.000  101.165    3.771    0.557    0.262
  400.250   99.303    3.918    0.529    0.265
  400.500   99.311    4.151    0.518    0.274
  400.750   99.936    4.231    0.522    0.272
  401.000   99.941    4.230    0.537    0.262
  401.250  101.189    4.070    0.524    0.266
  401.500  104.305    3.992    0.513    0.266
  401.750  106.176    3.767    0.511    0.262
  402.000  106.181    3.694    0.535    0.260
  402.250  105.567    3.624    0.540    0.251
  402.500  104.326    3.623    0.547    0.241
  402.750  102.465    3.553    0.533    0.223
  403.000  101.847    3.553    0.524    0.204
  403.250  104.964    3.418    0.519    0.196
  403.500  106.834    3.353    0.505    0.249
  403.750  109.950    3.288    0.509    0.266
  404.000  112.442    3.288    0.513    0.266
  404.250  112.447    3.287    0.524    0.272
  404.500  110.587    3.287    0.532    0.278
  404.750  109.348    3.286    0.538    0.272
  405.000  110.597    3.286    0.543    0.260
  405.250  111.223    3.285    0.527    0.260
  405.500  111.850    3.348    0.521    0.262
  405.750  111.857    3.413    0.537    0.266
  406.000  111.862    3.615    0.563    0.280
  406.250  111.866    3.757    0.574    0.297
  406.500  111.871    3.904    0.567    0.278
  406.750  111.254    3.979    0.545    0.286
  407.000  106.904    3.903    0.519    0.288
  407.250  102.554    3.755    0.517    0.276
  407.500  104.426    3.682    0.529    0.277
  407.750  106.918    3.682    0.537    0.284
  408.000  108.169    3.682    0.530    0.293
  408.250  106.307    3.681    0.518    0.291
  408.500  103.825    3.825    0.506    0.278
  408.750  102.583    3.975    0.494    0.277
  409.000  103.834    3.974    0.487    0.274
  409.250  105.082    3.823    0.491    0.261
  409.500  108.821    3.750    0.502    0.241
  409.750  110.070    3.678    0.515    0.220
  410.000  111.318    3.749    0.538    0.198
  410.250  113.192    3.821    0.528    0.192
  410.500  113.818    3.895    0.520    0.213
  410.750  114.445    3.894    0.533    0.213
  411.000  114.448    3.675    0.543    0.219
  411.250  115.699    3.468    0.548    0.227
  411.500  116.949    3.273    0.548    0.230
  411.750  117.575    3.089    0.530    0.232
  412.000  118.204    3.029    0.510    0.234
  412.250  118.208    3.029    0.510    0.236
  412.500  116.969    2.971    0.545    0.241
  412.750  115.729    2.858    0.562    0.250
  413.000  113.867    2.803    0.570    0.260
  413.250  112.006    2.697    0.580    0.269
  413.500  110.769    2.594    0.593    0.282
  413.750  110.773    2.594    0.599    0.295
  414.000  110.777    2.695    0.587    0.308
  414.250  110.781    2.748    0.562    0.315
  414.500  110.787    3.025    0.562    0.314
  414.750  108.926    3.205    0.556    0.305
  415.000  107.064    3.528    0.546    0.303
  415.250  104.581    3.884    0.529    0.303
  415.500  100.230    4.036    0.510    0.304
  415.750   95.880    4.194    0.500    0.306
  416.000   90.287    4.443    0.494    0.303
  416.250   87.803    4.617    0.491    0.300
  416.500   87.185    4.890    0.484    0.299
  416.750   87.191    5.082    0.478    0.297
  417.000   88.439    5.488    0.470    0.289
  417.250   87.201    5.702    0.461    0.304
  417.500   84.094    5.926    0.447    0.311
  417.750   79.122    6.040    0.437    0.298
  418.000   76.017    6.157    0.445    0.301
  418.250   77.887    6.038    0.458    0.314
  418.500   82.871    6.037    0.465    0.284
  418.750   87.851    5.697    0.472    0.278
  419.000   92.212    5.075    0.487    0.261
  419.250   92.840    4.608    0.479    0.291
  419.500   94.090    4.184    0.473    0.314
  419.750   94.095    4.104    0.476    0.316
  420.000   93.478    4.104    0.478    0.310
  420.250   91.616    4.264    0.481    0.324
  420.500   88.511    4.605    0.482    0.331
  420.750   86.026    4.878    0.476    0.336
  421.000   88.519    4.972    0.464    0.337
  421.250   95.368    5.167    0.472    0.306
  421.500  102.838    5.369    0.483    0.277
  421.750  107.820    5.368    0.492    0.273
  422.000  105.337    5.265    0.497    0.278
  422.250  100.365    5.164    0.493    0.282
  422.500   89.794    5.065    0.488    0.285
  422.750   87.932    5.162    0.483    0.293
  423.000   84.826    5.794    0.478    0.302
  423.250   81.099    6.629    0.467    0.307
  423.500   77.371    7.585    0.450    0.278
  423.750   74.887    7.882    0.433    0.252
  424.000   69.292    7.880    0.412    0.247
  424.250   66.810    7.582    0.380    0.227
  424.500   69.302    6.753    0.435    0.206
  424.750   75.530    5.359    0.452    0.346
  425.000   78.025    4.593    0.459    0.356
  425.250   79.271    3.936    0.472    0.352
  425.500   86.744    3.575    0.483    0.349
  425.750   88.616    3.123    0.496    0.347
  426.000   89.865    2.947    0.516    0.347
  426.250   91.114    2.836    0.529    0.348
  426.500   91.740    2.835    0.542    0.349
  426.750   91.745    3.003    0.547    0.353
  427.000   90.507    3.371    0.545    0.357
  427.250   89.890    3.711    0.538    0.360
  427.500   89.895    4.329    0.522    0.369
  427.750   89.900    4.585    0.516    0.390
  428.000   90.527    4.327    0.512    0.405
  428.250   91.154    4.244    0.510    0.330
  428.500   92.402    4.005    0.506    0.312
  428.750   94.276    3.853    0.504    0.297
  429.000   95.523    3.707    0.501    0.291
  429.250   98.016    3.636    0.527    0.291
  429.500  101.754    3.635    0.556    0.291
  429.750  104.869    3.635    0.569    0.291
  430.000  106.742    3.705    0.567    0.290
  430.250  105.502    3.850    0.561    0.287
  430.500  103.019    3.924    0.553    0.285
  430.750  100.535    4.238    0.551    0.291
  431.000   98.052    4.489    0.546    0.316
  431.250   94.946    4.488    0.521    0.349
  431.500   91.839    4.402    0.494    0.321
  431.750   88.111    4.318    0.500    0.321
  432.000   89.363    4.317    0.505    0.320
  432.250   90.613    4.400    0.506    0.312
  432.500   89.994    4.485    0.504    0.306
  432.750   87.510    4.751    0.493    0.303
  433.000   85.649    4.843    0.484    0.306
  433.250   84.410    5.131    0.481    0.298
  433.500   83.171    5.032    0.478    0.281
  433.750   81.311    4.748    0.476    0.306
  434.000   80.069    4.657    0.475    0.326
  434.250   80.074    4.568    0.474    0.318
  434.500   80.702    4.480    0.470    0.310
  434.750   80.706    4.310    0.483    0.296
  435.000   81.957    4.227    0.512    0.313
  435.250   81.962    4.067    0.538    0.333
  435.500   80.724    3.838    0.558    0.347
  435.750   79.483    3.838    0.568    0.353
  436.000   78.865    4.065    0.542    0.356
  436.250   77.005    4.224    0.532    0.366
  436.500   76.386    4.651    0.529    0.369
  436.750   74.524    4.833    0.523    0.348
