~VERSION INFORMATION
 VERS.                 2.0:   CWLS LOG ASCII STANDARD -VERSION 2.0
 WRAP.                  NO:   ONE LINE PER DEPTH STEP
~WELL INFORMATION BLOCK
#MNEM.UNIT           DATA                    DESCRIPTION OF MNEMONIC
#---------    -------------------            -------------------------------
# Generated from Intellog Unique Number	CN_94_101/WELL/3204
NULL.         -999.25                        : NULL_VALUE
WELL.         SHELL ELLS OV                  : Well_name    - WELL              
LOC .         02-23-095-15W4                 : Location     - LOCATION          
UWI .         AA/02-23-095-15W4/0            : Uwi          - UNIQUE WELL ID    
ENTR.         JOETTE                         : Entered      - ENTERED BY        
SRVC.         SCHLUMBERGER                   : Scn          - SERVICE COMPANY   
DATE.         14 MAR 73                      : Date         - LOG DATE          
STRT.F        400                            : top_depth    - START DEPTH       
STOP.F        970.046                        : bot_depth    - STOP DEPTH        
STEP.F        0.82                           : increment    - STEP LENGTH       
~CURVE INFORMATION BLOCK
#MNEM UNIT       ERCB CURVE CODE    CURVE DESCRIPTION
#-----------   ------------------   ----------------------------------
DEPT.F        00 001 00 00         : DEPTH        - DEPTH                       
GR  .API      00 310 00 00         : GR           - GAMMA RAY                   
DPHI.V/V      00 890 00 00         : PHID         - DENSITY POROSITY (SANDSTONE)
ILD .OHMM     00 120 00 00         : RESD         - DEEP RESISTIVITY (DIL)      
~PARAMETER INFORMATION       
#MNEM.UNIT           DATA             DESCRIPTION OF MNEMONIC
#---------         -----------     ------------------------------
GL  .M        550.804              : gl           - GROUND LEVEL ELEVATION      
EREF.M        553.913              : kb           - ELEVATION OF DEPTH REFERENCE
DATM.M        553.913              : datum        - DATUM ELEVATION             
TDD .M        302.362              : tdd          - TOTAL DEPTH DRILLER         
RUN .         ONE                  : Run          - RUN NUMBER                  
ENG .         JO                   : Engineer     - RECORDING ENGINEER          
WIT .         TIM                  : Witness      - WITNESSED BY                
MUD .         GEL                  : Mud_type     - MUD TYPE                    
MATR.         SANDSTONE            : Logunit      - NEUTRON MATRIX              
TMAX.F        55                   : BHT          - MAXIMUM RECORDED TEMPERATURE
BHTD.F        992                  : BHTDEP       - MAXIMUM RECORDED TEMPERATURE
RMT .F        55                   : MDTP         - TEMPERATURE OF MUD          
MUDD.LB/G     9.2                  : MWT          - MUD DENSITY                 
NEUT.         1                    : NEUTRON      - NEUTRON TYPE                
RESI.         0                    : RESIST       - RESISTIVITY TYPE            
RM  .OHMM     1.21                 : RM           - RESISTIVITY OF MUD          
RMC .OHMM     1.21                 : RMC          - RESISTIVITY OF MUD CAKE     
RMF .OHMM     1.21                 : RMF          - RESISTIVITY OF MUD FILTRATE 
SUFT.F        39.2                 : SUFT         - SURFACE TEMPERATURE         
~A  DEPTH       GR     PHID     RESD
  400.000   78.454    0.301    5.403
  400.820   74.105    0.309    4.932
  401.640   67.772    0.302    5.027
  402.461   65.799    0.302    5.615
  403.281   64.617    0.302    7.130
  404.101   60.662    0.303   11.286
  404.921   56.708    0.303   12.838
  405.741   64.639    0.305   10.309
  406.562   65.441    0.320    7.693
  407.382   62.278    0.307    6.771
  408.202   59.116    0.315    7.845
  409.022   55.953    0.323   10.528
  409.843   63.093    0.321   12.198
  410.663   80.141    0.309    8.155
  411.483   83.317    0.293    5.452
  412.303   88.475    0.286    4.977
  413.123   92.444    0.281    5.262
  413.944   93.642    0.275    5.364
  414.764   90.876    0.275    5.269
  415.584   86.921    0.280    5.370
  416.404   84.155    0.279    5.998
  417.224   85.747    0.270    6.227
  418.045   80.999    0.269    6.347
  418.865   77.046    0.284    6.960
  419.685   78.639    0.303    5.589
  420.505   79.440    0.307    4.407
  421.325   79.448    0.308    4.922
  422.146   79.059    0.305    5.204
  422.966   80.255    0.300    4.840
  423.786   78.279    0.296    4.583
  424.606   67.986    0.289    4.421
  425.427   59.673    0.271    7.257
  426.247   49.378    0.242   23.478
  427.067   41.461    0.267   34.530
  427.887   35.923    0.319   33.924
  428.707   36.327    0.353   32.139
  429.528   35.144    0.349   32.148
  430.348   31.189    0.364   32.174
  431.168   31.592    0.382   32.199
  431.988   35.565    0.394   32.214
  432.808   36.761    0.395   32.234
  433.629   36.373    0.391   31.683
  434.449   34.793    0.392   31.698
  435.269   34.404    0.394   31.137
  436.089   36.792    0.387   31.156
  436.909   36.007    0.387   31.171
  437.730   35.618    0.386   31.190
  438.550   36.020    0.380   31.224
  439.370   37.218    0.387   31.234
  440.190   38.020    0.392   31.259
  441.010   38.423    0.393   31.857
  441.831   38.034    0.393   31.882
  442.651   36.853    0.388   32.497
  443.471   35.273    0.385   32.507
  444.291   30.526    0.386   33.135
  445.112   28.552    0.391   33.160
  445.932   30.542    0.388   33.176
  446.752   32.929    0.378   33.207
  447.572   34.917    0.376   33.223
  448.392   35.319    0.383   33.864
  449.213   34.930    0.385   33.874
  450.033   34.545    0.383   34.533
  450.853   35.345    0.370   33.917
  451.673   35.354    0.375   33.327
  452.493   35.359    0.381   32.147
  453.314   36.953    0.386   31.009
  454.134   37.749    0.388   30.470
  454.954   38.157    0.381   30.489
  455.774   35.785    0.376   30.503
  456.594   31.830    0.377   30.532
  457.415   28.273    0.378   30.551
  458.235   26.297    0.374   31.135
  459.055   25.116    0.364   31.150
  459.875   26.312    0.367   31.169
  460.696   27.906    0.377   31.781
  461.516   30.292    0.383   31.791
  462.336   31.884    0.384   32.404
  463.156   33.081    0.383   32.430
  463.976   33.090    0.382   32.455
  464.797   32.306    0.375   32.470
  465.617   31.518    0.359   32.486
  466.437   30.336    0.359   32.511
  467.257   31.532    0.341   32.531
  468.077   35.502    0.380   31.380
  468.898   39.473    0.386   29.179
  469.718   42.256    0.377   27.133
  470.538   43.846    0.370   26.173
  471.358   47.816    0.355   27.670
  472.178   54.955    0.356   26.205
  472.999   60.115    0.251   15.694
  473.819   52.990    0.197    7.825
  474.639   49.035    0.211   11.936
  475.459   45.875    0.294   21.087
  476.280   42.711    0.339   29.349
  477.100   41.531    0.371   25.830
  477.920   41.140    0.378   25.385
  478.740   43.923    0.379   25.401
  479.560   47.892    0.375   25.887
  480.381   53.051    0.369   26.382
  481.201   59.001    0.356   26.399
  482.021   65.746    0.343   23.660
  482.841   69.716    0.323   13.660
  483.661   71.704    0.294    8.643
  484.482   66.957    0.281    7.334
  485.302   61.417    0.261    8.497
  486.122   67.370    0.238   10.597
  486.942   74.905    0.303   10.998
  487.762   80.065    0.311    9.162
  488.583   81.259    0.298    5.904
  489.403   85.625    0.275    5.197
  490.223   95.540    0.275    4.658
  491.043   98.717    0.276    4.576
  491.864   96.743    0.264    4.751
  492.684   94.769    0.269    4.842
  493.504   94.380    0.269    5.119
  494.324   91.220    0.259    5.412
  495.144   93.604    0.250    5.516
  495.965   95.593    0.253    5.129
  496.785   92.828    0.268    4.770
  497.605   90.853    0.271    4.861
  498.425   91.256    0.276    5.234
  499.245   96.420    0.282    5.239
  500.066   97.612    0.269    5.241
  500.886   98.812    0.248    5.057
  501.706   98.816    0.247    4.877
  502.526   96.051    0.253    4.620
  503.346   93.679    0.263    4.538
  504.167   90.519    0.260    4.541
  504.987   88.150    0.272    4.546
  505.807   91.722    0.282    4.547
  506.627   95.297    0.284    4.634
  507.448   92.529    0.273    4.638
  508.268   93.331    0.265    4.473
  509.088   97.698    0.271    4.643
  509.908   94.138    0.283    4.480
  510.728   92.164    0.291    4.243
  511.549   89.397    0.292    4.403
  512.369   87.820    0.282    4.741
  513.189   90.999    0.274    4.922
  514.009   88.631    0.280    4.926
  514.829   87.051    0.274    4.839
  515.650   86.268    0.271    4.931
  516.470   86.273    0.275    5.213
  517.290   83.507    0.273    5.411
  518.110   86.688    0.272    5.516
  518.930   83.920    0.277    5.520
  519.751   80.363    0.285    5.325
  520.571   80.370    0.291    5.136
  521.391   81.568    0.296    5.430
  522.211   82.760    0.302    5.955
  523.031   86.732    0.310    6.296
  523.852   86.741    0.319    5.643
  524.672   89.520    0.329    4.701
  525.492   93.095    0.340    3.989
  526.312   93.102    0.344    3.510
  527.133   93.110    0.344    3.325
  527.953   92.721    0.333    3.328
  528.773   91.540    0.324    3.391
  529.593   87.188    0.321    3.456
  530.413   87.592    0.320    3.587
  531.234   88.392    0.315    3.793
  532.054   85.229    0.303    4.010
  532.874   82.863    0.298    4.318
  533.694   84.453    0.305    4.482
  534.514   87.234    0.293    4.484
  535.335   91.600    0.276    4.170
  536.155   93.192    0.283    3.949
  536.975   91.220    0.293    3.741
  537.795   89.248    0.299    3.744
  538.615   90.838    0.305    3.885
  539.436   93.619    0.301    4.108
  540.256   89.664    0.293    4.264
  541.076   85.315    0.289    4.593
  541.896   84.134    0.293    4.854
  542.717   83.746    0.285    5.040
  543.537   82.961    0.282    5.136
  544.357   79.797    0.279    4.864
  545.177   70.691    0.273    4.522
  545.997   65.944    0.259    4.285
  546.818   61.593    0.241    5.244
  547.638   65.168    0.248    7.712
  548.458   70.326    0.265   10.736
  549.278   75.088    0.280    9.984
  550.098   76.680    0.270    9.113
  550.919   77.876    0.266    8.022
  551.739   81.451    0.273    7.323
  552.559   78.289    0.274    6.213
  553.379   70.768    0.273    5.570
  554.199   68.796    0.269    5.998
  555.020   67.217    0.244    6.950
  555.840   64.056    0.245    7.762
  556.660   64.460    0.239    8.670
  557.480   56.146    0.187    9.865
  558.301   49.418    0.133   10.242
  559.121   55.368    0.178   10.828
  559.941   58.149    0.248   11.657
  560.761   56.968    0.243   16.527
  561.581   52.220    0.134   23.002
  562.402   47.473    0.061   24.318
  563.222   41.935    0.044   16.257
  564.042   43.131    0.076   12.356
  564.862   47.101    0.109   63.213
  565.682   52.259    0.160  141.728
  566.503   57.024    0.233   65.656
  567.323   58.219    0.274   20.700
  568.143   62.188    0.283   12.626
  568.963   67.346    0.289   11.743
  569.783   70.525    0.294   13.856
  570.604   72.910    0.289   13.614
  571.424   78.861    0.291    8.615
  572.244   74.511    0.288    6.429
  573.064   76.498    0.283    6.089
  573.885   79.279    0.281    6.438
  574.705   82.060    0.274    6.210
  575.525   86.033    0.269    6.329
  576.345   84.453    0.278    6.451
  577.165   80.895    0.271    6.338
