~VERSION INFORMATION
 VERS.                 2.0:   CWLS LOG ASCII STANDARD -VERSION 2.0
 WRAP.                  NO:   ONE LINE PER DEPTH STEP
~WELL INFORMATION BLOCK
#MNEM.UNIT           DATA                    DESCRIPTION OF MNEMONIC
#---------    -------------------            -------------------------------
# Generated from Intellog Unique Number	CW_79_81/WELL/2445
WELL.         04-30-081-19W4                 : Well_name    - WELL
LOC .         AA/04-30-081-19W4/0            : Location     - LOCATION
UWI .         AA/04-30-081-19W400            : Uwi          - UNIQUE WELL ID
ENTR.         MAX                            : Entered      - ENTERED BY
SRVC.         COMPUTALOG                     : Scn          - SERVICE COMPANY
STRT.M        185                            : top_depth    - START DEPTH
STOP.M        374.75                         : bot_depth    - STOP DEPTH
STEP.M        0.25                           : increment    - STEP LENGTH
 NULL. -999.2500:NULL Value
~CURVE INFORMATION BLOCK
#MNEM UNIT       ERCB CURVE CODE    CURVE DESCRIPTION
#-----------   ------------------   ----------------------------------
DEPT.M        00 001 00 00         : DEPTH        - DEPTH
ILD .OHMM     00 120 00 00         : RESD         - DEEP RESISTIVITY (DIL)
NPHI.V/V      00 330 00 00         : PHIN         - NEUTRON POROSITY (SANDSTONE)
DPHI.V/V      00 890 00 00         : PHID         - DENSITY POROSITY (SANDSTONE)
GR  .API      00 310 00 00         : GR           - GAMMA RAY
CALI.MM       00 280 01 00         : CAL          - CALIPER
~PARAMETER INFORMATION
#MNEM.UNIT           DATA             DESCRIPTION OF MNEMONIC
#---------         -----------     ------------------------------
GL  .M        585                  : gl           - GROUND LEVEL ELEVATION
EREF.M        588.2                : kb           - ELEVATION OF DEPTH REFERENCE
DATM.M        585                  : datum        - DATUM ELEVATION
TDD .M        376                  : tdd          - TOTAL DEPTH DRILLER
RUN .         ONE                  : Run          - RUN NUMBER
ENG .         BILL                 : Engineer     - RECORDING ENGINEER
WIT .         JIM                  : Witness      - WITNESSED BY
MUD .         GEL                  : Mud_type     - MUD TYPE
MATR.         SANDSTONE            : Logunit      - NEUTRON MATRIX
TMAX.C        18                   : BHT          - MAXIMUM RECORDED TEMPERATURE
BHTD.M        376                  : BHTDEP       - MAXIMUM RECORDED TEMPERATURE
MATR.         1                    : LOGUNIT      - NEUTRON MATRIX
RMT .C        20                   : MDTP         - TEMPERATURE OF MUD
NEUT.         1                    : NEUTRON      - NEUTRON TYPE
RESI.         0                    : RESIST       - RESISTIVITY TYPE
RMC .OHMM     7                    : RMC          - RESISTIVITY OF MUD CAKE
RMF .OHMM     9                    : RMF          - RESISTIVITY OF MUD FILTRATE
SUFT.C        -15                  : SUFT         - SURFACE TEMPERATURE
~A  DEPTH     RESD     PHIN     PHID       GR      CAL
# ...
  221.500   19.552    0.414    0.288   57.395  251.687
  221.750   19.550    0.395    0.292   58.255  251.502
  222.000   19.476    0.376    0.299   58.508  251.417
  222.250   19.100    0.379    0.303   58.137  251.203
  222.500   18.662    0.410    0.301   58.653  252.066
  222.750   18.662    0.392    0.300   59.392  251.678
  223.000   18.764    0.382    0.301   60.313  249.777
  223.250   18.970    0.384    0.300   61.172  247.571
  223.500   19.251    0.394    0.297   61.606  245.868
  223.750   19.535    0.398    0.297   61.082  245.165
  224.000   19.534    0.401    0.300   60.841  245.603
  224.250   19.388    0.403    0.290   62.065  247.645
  224.500   18.925    0.389    0.280   61.469  249.381
  224.750   18.165    0.381    0.274   60.873  250.613
  225.000   16.909    0.391    0.273   61.066  251.338
  225.250   14.509    0.418    0.281   61.959  251.928
  225.500   12.659    0.437    0.283   62.728  252.789
  225.750   11.662    0.396    0.293   62.495  252.406
  226.000   11.122    0.395    0.295   61.171  252.320
  226.250   10.840    0.420    0.297   61.545  251.931
  226.500   10.798    0.443    0.301   63.861  251.141
  226.750   11.255    0.415    0.302   66.271  250.270
  227.000   11.972    0.391    0.297   68.555  249.868
  227.250   12.785    0.396    0.301   68.564  250.290
  227.500   13.511    0.391    0.302   67.847  250.408
  227.750   14.074    0.390    0.300   68.344  250.426
  228.000   14.363    0.396    0.294   69.992  250.445
  228.250   14.234    0.404    0.287   70.022  250.467
  228.500   14.124    0.414    0.286   66.496  250.484
  228.750   14.019    0.442    0.288   65.296  250.500
  229.000   13.992    0.469    0.291   64.458  250.216
  229.250   13.991    0.443    0.296   63.377  249.425
  229.500   14.015    0.385    0.300   62.174  248.431
  229.750   14.225    0.396    0.299   61.500  248.053
  230.000   14.782    0.409    0.287   60.499  248.066
  230.250   15.222    0.431    0.287   60.754  248.893
  230.500   15.675    0.414    0.297   60.825  248.508
  230.750   16.201    0.393    0.309   61.078  247.514
  231.000   16.869    0.384    0.318   61.695  246.216
  231.250   17.953    0.393    0.320   62.828  244.705
  231.500   18.949    0.400    0.319   63.596  245.145
  231.750   19.655    0.382    0.310   60.940  245.973
  232.000   20.723    0.370    0.302   59.921  245.888
  232.250   21.747    0.371    0.297   58.960  245.905
  232.500   22.361    0.385    0.296   58.181  246.429
  232.750   22.148    0.410    0.301   59.356  247.340
  233.000   21.154    0.403    0.308   59.115  247.780
  233.250   19.635    0.381    0.310   60.826  246.586
  233.500   18.862    0.377    0.316   61.078  245.695
  233.750   18.656    0.388    0.319   60.724  245.916
  234.000   19.062    0.404    0.318   60.553  246.943
  234.250   20.593    0.399    0.318   61.395  247.369
  234.500   21.735    0.394    0.320   61.913  247.388
  234.750   23.043    0.399    0.320   59.495  247.408
  235.000   24.044    0.404    0.322   57.626  247.121
  235.250   24.855    0.414    0.328   57.515  246.732
  235.500   25.506    0.433    0.331   58.374  246.345
  235.750   25.883    0.451    0.324   57.417  245.964
  236.000   25.881    0.407    0.319   57.429  245.981
  236.250   25.688    0.406    0.325   60.350  245.595
  236.500   24.513    0.430    0.327   61.817  245.510
  236.750   23.638    0.462    0.328   62.312  245.527
  237.000   23.290    0.479    0.328   62.322  245.545
  237.250   22.912    0.450    0.329   62.337  245.565
  237.500   22.735    0.439    0.330   62.348  245.584
  237.750   22.399    0.430    0.327   62.114  245.602
  238.000   22.316    0.447    0.333   61.153  245.620
  238.250   22.314    0.455    0.338   60.315  245.840
  238.500   22.312    0.442    0.339   60.629  246.465
  238.750   22.241    0.432    0.333   63.260  247.866
  239.000   21.900    0.489    0.328   63.018  248.729
  239.250   21.418    0.502    0.329   63.029  248.747
  239.500   20.480    0.471    0.332   62.494  248.763
  239.750   19.448    0.441    0.349   61.899  248.578
  240.000   18.216    0.437    0.376   60.454  247.890
  240.250   16.295    0.485    0.433   55.088  246.126
  240.500   15.563    0.600    0.600   50.046  245.301
  240.750   15.108    0.600    0.582   44.237  245.317
  241.000   14.832    0.547    0.453   44.792  246.245
  241.250   14.504    0.447    0.329   47.228  247.072
  241.500   14.135    0.350    0.270   48.756  247.392
  241.750   13.906    0.369    0.283   48.183  247.331
  242.000   13.798    0.418    0.297   47.689  246.925
  242.250   13.899    0.414    0.311   47.212  246.135
  242.500   14.001    0.418    0.313   47.466  245.343
  242.750   14.103    0.427    0.317   47.962  244.351
  243.000   14.206    0.437    0.326   48.761  243.258
  243.250   14.332    0.437    0.336   50.422  242.470
  243.500   14.441    0.429    0.333   50.178  242.490
  243.750   14.440    0.422    0.329   48.733  242.913
  244.000   14.439    0.412    0.327   48.563  243.334
  244.250   14.490    0.396    0.334   49.059  243.956
  244.500   14.570    0.391    0.343   49.312  244.782
  244.750   14.568    0.436    0.340   47.758  245.780
  245.000   14.567    0.457    0.333   46.001  246.639
  245.250   14.673    0.449    0.337   46.739  247.872
  245.500   14.780    0.464    0.342   47.294  248.194
  245.750   14.943    0.460    0.341   47.668  248.213
  246.000   15.164    0.439    0.334   48.347  248.130
  246.250   15.435    0.446    0.329   50.555  247.660
  246.500   15.673    0.441    0.331   51.827  247.256
  246.750   15.787    0.411    0.325   51.353  248.082
  247.000   15.903    0.393    0.321   50.878  248.606
  247.250   15.960    0.390    0.323   51.252  248.624
  247.500   16.018    0.402    0.329   52.172  248.136
  247.750   16.254    0.420    0.335   51.933  247.348
  248.000   16.253    0.401    0.338   50.681  247.369
  248.250   16.372    0.403    0.329   50.693  247.787
  248.500   16.400    0.403    0.324   50.884  247.907
  248.750   16.399    0.403    0.324   51.379  247.925
  249.000   16.397    0.406    0.328   52.178  248.043
  249.250   16.396    0.412    0.336   53.413  248.471
  249.500   16.394    0.434    0.335   54.690  248.488
  249.750   16.152    0.423    0.334   53.971  248.909
  250.000   16.003    0.412    0.335   53.253  249.330
  250.250   15.884    0.421    0.337   52.900  249.753
  250.500   15.766    0.449    0.338   53.396  250.377
  250.750   15.625    0.470    0.331   55.047  251.612
  251.000   15.504    0.457    0.323   53.541  251.631
  251.250   15.502    0.450    0.319   53.795  251.651
  251.500   15.587    0.426    0.320   52.774  251.968
  251.750   15.816    0.402    0.320   51.572  252.186
  252.000   16.139    0.390    0.318   50.855  252.305
  252.250   16.378    0.388    0.311   50.866  252.733
  252.500   16.376    0.389    0.308   50.878  252.752
  252.750   16.254    0.442    0.320   51.132  252.767
  253.000   16.044    0.473    0.329   53.023  252.178
  253.250   15.808    0.486    0.331   54.246  251.589
  253.500   15.575    0.480    0.328   54.074  251.304
  253.750   15.322    0.448    0.333   53.562  251.326
  254.000   15.204    0.446    0.348   54.584  251.343
  254.250   14.980    0.489    0.346   53.381  251.364
  254.500   14.924    0.478    0.339   52.906  251.685
  254.750   14.867    0.453    0.332   52.917  251.904
  255.000   14.702    0.436    0.330   53.231  251.920
  255.250   14.290    0.428    0.332   53.831  251.940
  255.500   13.858    0.404    0.325   54.347  251.959
  255.750   13.856    0.406    0.323   54.114  251.169
  256.000   14.009    0.417    0.324   53.882  250.681
  256.250   14.319    0.433    0.327   53.408  250.294
  256.500   14.694    0.448    0.334   52.632  250.008
  256.750   14.934    0.460    0.341   51.219  250.029
  257.000   15.048    0.479    0.341   48.954  250.046
  257.250   15.046    0.451    0.340   49.936  250.875
  257.500   15.045    0.439    0.338   50.371  251.095
  257.750   15.044    0.429    0.339   50.017  250.910
