~VERSION INFORMATION
 VERS.                 2.0:   CWLS LOG ASCII STANDARD -VERSION 2.0
 WRAP.                  NO:   ONE LINE PER DEPTH STEP
~WELL INFORMATION BLOCK
#MNEM.UNIT           DATA                    DESCRIPTION OF MNEMONIC
#---------    -------------------            -------------------------------
# Generated from Intellog Unique Number	CN_91_93/WELL/2675
WELL.         07-02-091-17W4                 : Well_name    - WELL
LOC .         AA/07-02-091-17W4/0            : Location     - LOCATION
UWI .         AA/07-02-091-17W400            : Uwi          - UNIQUE WELL ID
ENTR.         JOETTE                         : Entered      - ENTERED BY
SRVC.         SCHLUMBERGER                   : Scn          - SERVICE COMPANY
DATE.         02/11/92                       : Date         - LOG DATE
STRT.M        75                             : top_depth    - START DEPTH
STOP.M        240                            : bot_depth    - STOP DEPTH
STEP.M        0.25                           : increment    - STEP LENGTH
 NULL. -999.2500:NULL Value
~CURVE INFORMATION BLOCK
#MNEM UNIT       ERCB CURVE CODE    CURVE DESCRIPTION
#-----------   ------------------   ----------------------------------
DEPT.M        00 001 00 00         : DEPTH        - DEPTH
GR  .API      00 310 00 00         : GR           - GAMMA RAY
CALI.MM       00 280 01 00         : CAL          - CALIPER
NPHI.V/V      00 330 00 00         : PHIN         - NEUTRON POROSITY (SANDSTONE)
DPHI.V/V      00 890 00 00         : PHID         - DENSITY POROSITY (SANDSTONE)
ILD .OHMM     00 120 00 00         : RESD         - DEEP RESISTIVITY (DIL)
~PARAMETER INFORMATION
#MNEM.UNIT           DATA             DESCRIPTION OF MNEMONIC
#---------         -----------     ------------------------------
GL  .M        501                  : gl           - GROUND LEVEL ELEVATION
EREF.M        504.29               : kb           - ELEVATION OF DEPTH REFERENCE
DATM.M        504.29               : datum        - DATUM ELEVATION
TDD .M        241                  : tdd          - TOTAL DEPTH DRILLER
RUN .         ONE                  : Run          - RUN NUMBER
ENG .         JO                   : Engineer     - RECORDING ENGINEER
WIT .         TIM                  : Witness      - WITNESSED BY
MUD .         GEL                  : Mud_type     - MUD TYPE
MATR.         SANDSTONE            : Logunit      - NEUTRON MATRIX
TMAX.C        1.66667              : BHT          - MAXIMUM RECORDED TEMPERATURE
BHTD.M        241                  : BHTDEP       - MAXIMUM RECORDED TEMPERATURE
RMT .C        18                   : MDTP         - TEMPERATURE OF MUD
MUDD.KG/M     1000                 : MWT          - MUD DENSITY
NEUT.         1                    : NEUTRON      - NEUTRON TYPE
RESI.         0                    : RESIST       - RESISTIVITY TYPE
RM  .OHMM     7.3                  : RM           - RESISTIVITY OF MUD
RMC .OHMM     7.3                  : RMC          - RESISTIVITY OF MUD CAKE
RMF .OHMM     7.3                  : RMF          - RESISTIVITY OF MUD FILTRATE
SUFT.C        4                    : SUFT         - SURFACE TEMPERATURE
~A  DEPTH       GR      CAL     PHIN     PHID     RESD
# ...
  111.500   77.495  193.113    0.441    0.280   20.598
  111.750   77.204  193.113    0.448    0.277   20.598
  112.000   76.309  193.157    0.442    0.243   21.532
  112.250   73.901  192.160    0.438    0.219   23.382
  112.500   71.793  191.174    0.440    0.217   24.472
  112.750   69.385  189.181    0.435    0.234   25.373
  113.000   67.882  188.187    0.409    0.216   25.352
  113.250   65.775  186.194    0.375    0.198   23.751
  113.500   63.063  185.705    0.382    0.192   22.250
  113.750   61.260  185.728    0.432    0.220   21.426
  114.000   70.051  185.728    0.444    0.254   21.209
  114.250   71.579  186.278    0.444    0.248   21.209
  114.500   71.289  187.302    0.449    0.221   21.181
  114.750   69.787  187.845    0.429    0.234   22.160
  115.000   67.378  188.357    0.426    0.236   22.980
  115.250   66.177  188.357    0.442    0.252   23.826
  115.500   65.585  188.400    0.451    0.255   24.476
  115.750   66.206  188.415    0.425    0.265   23.788
  116.000   73.480  187.931    0.362    0.230   22.493
  116.250   75.611  187.452    0.356    0.205   20.119
  116.500   81.981  187.972    0.403    0.231   17.998
  116.750   82.903  190.517    0.466    0.257   16.705
  117.000   83.824  194.069    0.505    0.300   15.506
  117.250   82.624  197.114    0.523    0.298   14.525
  117.500   82.335  200.162    0.450    0.335   13.732
  117.750   84.162  202.205    0.467    0.239   12.626
  118.000   91.440  218.371    0.492    0.226   11.507
  118.250  100.538  210.821    0.520    0.223    9.651
  118.500  101.758  206.300    0.541    0.224    7.112
  118.750  101.467  204.807    0.557    0.176    5.439
  119.000   99.362  204.322    0.564    0.142    4.604
  119.250  105.427  204.322    0.521    0.165    4.156
  119.500  114.220  203.364    0.535    0.227    3.822
  119.750  113.023  202.370    0.525    0.267    4.074
  120.000  106.676  202.895    0.543    0.270    4.423
  120.250  101.542  204.426    0.567    0.236    4.714
  120.500   98.527  205.963    0.606    0.249    5.025
  120.750   96.723  208.503    0.536    0.247    6.323
  121.000   95.526  214.079    0.496    0.248    8.031
  121.250   94.327  210.565    0.491    0.278    8.801
  121.500   92.526  209.074    0.517    0.262    8.876
  121.750   90.417  210.605    0.517    0.260    8.013
  122.000   89.219  214.667    0.533    0.262    7.576
  122.250   89.532  216.198    0.537    0.274   11.570
  122.500   86.820  216.216    0.513    0.259   14.034
  122.750   74.726  215.230    0.480    0.258   16.710
  123.000   67.772  207.177    0.434    0.223   19.174
  123.250   64.152  196.098    0.437    0.208   20.816
  123.500   64.166  193.093    0.404    0.224   21.780
  123.750   70.232  192.609    0.397    0.232   22.173
  124.000   70.232  192.127    0.402    0.237   20.389
  124.250   76.314  191.136    0.368    0.203   16.329
  124.500   79.653  191.154    0.335    0.164   13.321
  124.750   85.114  191.177    0.335    0.141   10.866
  125.000   89.669  193.218    0.362    0.167    9.028
  125.250   92.407  202.822    0.386    0.226    8.303
  125.500   93.933  207.890    0.421    0.270    9.616
  125.750   93.944  205.889    0.512    0.229   11.769
  126.000   91.837  200.362    0.526    0.228   13.884
  126.250   78.529  197.363    0.535    0.267   14.664
  126.500   67.643  195.865    0.490    0.278   15.777
  126.750   65.536  195.885    0.507    0.281   16.660
  127.000   66.156  196.407    0.499    0.284   16.045
  127.250   68.287  195.925    0.495    0.274   14.485
  127.500   76.474  194.937    0.450    0.235   12.037
  127.750   87.383  193.945    0.443    0.156    9.910
  128.000   90.422  194.977    0.457    0.191    8.235
  128.250   94.371  208.118    0.472    0.230    8.073
  128.500   94.383  205.111    0.488    0.206    7.637
  128.750   93.186  203.111    0.491    0.201    7.088
  129.000   96.527  205.152    0.487    0.209    7.018
  129.250  100.173  214.254    0.500    0.246    7.343
  129.500  100.488  214.274    0.513    0.254    7.827
  129.750   97.474  208.242    0.501    0.264    8.189
  130.000   95.368  203.724    0.513    0.251    8.035
  130.250  101.737  202.730    0.553    0.240    7.526
  130.500  102.050  201.242    0.578    0.254    7.248
  130.750   99.339  200.758    0.575    0.255    7.243
  131.000   97.231  200.276    0.541    0.243    9.031
  131.250   95.126  200.291    0.495    0.266   10.362
  131.500   93.927  200.816    0.474    0.276   10.165
  131.750   93.636  201.846    0.466    0.288    9.349
  132.000   94.859  202.875    0.476    0.288    7.350
  132.250  100.321  201.889    0.480    0.206    5.831
  132.500  105.782  200.393    0.517    0.161    5.265
  132.750  110.642  208.488    0.550    0.156    4.978
  133.000  112.468  202.457    0.601    0.175    4.838
  133.250  114.902  198.441    0.616    0.153    4.791
  133.500  120.366  198.963    0.569    0.181    4.743
  133.750  120.678  200.497    0.546    0.196    4.652
  134.000  120.678  201.529    0.555    0.200    4.606
  134.250  121.011  200.540    0.567    0.206    4.606
  134.500  120.112  199.551    0.570    0.204    4.557
  134.750  111.041  197.556    0.526    0.203    4.596
  135.000   97.430  197.072    0.510    0.198    6.000
  135.250   88.361  199.108    0.512    0.223    6.515
  135.500   79.897  204.178    0.495    0.246    9.590
  135.750   70.526  202.680    0.478    0.280   11.631
  136.000   72.052  191.603    0.449    0.316   14.369
  136.250   74.182  187.589    0.411    0.276   15.036
  136.500   77.524  187.610    0.389    0.225   15.878
  136.750   79.658  187.610    0.395    0.195   16.465
  137.000   79.672  188.669    0.409    0.222   16.758
  137.250   79.078  190.193    0.424    0.276   16.287
  137.500   78.181  191.220    0.401    0.274   15.832
  137.750   76.982  191.760    0.400    0.273   15.674
  138.000   76.085  192.272    0.414    0.276   16.861
  138.250   75.493  192.298    0.417    0.263   17.483
  138.500   74.597  192.313    0.404    0.244   18.295
  138.750   72.794  191.831    0.401    0.229   18.621
  139.000   70.082  192.356    0.395    0.170   19.128
  139.250   77.662  193.892    0.395    0.139   19.280
  139.500   84.033  195.928    0.421    0.146   19.276
  139.750   87.979  198.978    0.430    0.164   18.223
  140.000   94.954  202.533    0.425    0.250   16.914
  140.250   97.691  206.584    0.437    0.234   14.184
  140.500   98.311  215.182    0.450    0.223   13.166
  140.750   97.715  225.295    0.462    0.219   12.449
  141.000   95.911  242.470    0.469    0.245   11.987
  141.250   93.805  253.590    0.458    0.256   12.201
  141.500   93.819  217.284    0.464    0.210   12.201
  141.750   93.830  205.195    0.471    0.169   12.521
  142.000   92.328  196.638    0.410    0.108   13.105
  142.250   93.249  199.686    0.409    0.121   13.341
  142.500  100.528  198.200    0.442    0.141   13.447
  142.750  100.543  200.233    0.454    0.190   13.694
  143.000   99.645  201.767    0.457    0.221   14.067
  143.250   96.630  201.283    0.454    0.241   14.067
  143.500   93.614  205.847    0.442    0.208   14.048
  143.750   90.903  207.885    0.426    0.221   14.036
  144.000   89.097  205.887    0.418    0.222   13.889
  144.250   87.295  195.312    0.423    0.212   13.882
  144.500   87.004  185.242    0.431    0.231   13.873
  144.750   88.227  185.262    0.411    0.180   13.873
  145.000   88.845  191.841    0.408    0.205   13.982
  145.250   89.160  188.837    0.422    0.220   13.982
  145.500   89.476  188.855    0.434    0.221   14.751
  145.750   91.607  193.923    0.440    0.220   15.299
  146.000   94.041  194.952    0.403    0.160   15.287
  146.250   94.962  194.973    0.443    0.185   15.267
  146.500   94.974  197.518    0.455    0.269   15.124
  146.750   94.078  197.031    0.449    0.291   14.698
  147.000   91.972  193.520    0.452    0.307   14.698
  147.250   90.472  202.117    0.456    0.300   14.542
  147.500   93.206  195.581    0.444    0.234   14.267
  147.750   93.522  186.015    0.440    0.242   14.267
