~VERSION INFORMATION
 VERS.                 2.0:   CWLS LOG ASCII STANDARD -VERSION 2.0
 WRAP.                  NO:   ONE LINE PER DEPTH STEP
~WELL INFORMATION BLOCK
#MNEM.UNIT           DATA                    DESCRIPTION OF MNEMONIC
#---------    -------------------            -------------------------------
# Generated from Intellog Unique Number	CN_94_101/WELL/3661
WELL.         08-18-096-16W4                 : Well_name    - WELL
LOC .         AA/08-18-096-16W4/0            : Location     - LOCATION
UWI .         AA/08-18-096-16W400            : Uwi          - UNIQUE WELL ID
ENTR.         J                              : Entered      - ENTERED BY
SRVC.         SCHLUMBERGER                   : Scn          - SERVICE COMPANY
DATE.         08/05/92                       : Date         - LOG DATE
STRT.M        200                            : top_depth    - START DEPTH
STOP.M        395                            : bot_depth    - STOP DEPTH
STEP.M        0.25                           : increment    - STEP LENGTH
 NULL. -999.2500:NULL Value
~CURVE INFORMATION BLOCK
#MNEM UNIT       ERCB CURVE CODE    CURVE DESCRIPTION
#-----------   ------------------   ----------------------------------
DEPT.M        00 001 00 00         : DEPTH        - DEPTH
GR  .API      00 310 00 00         : GR           - GAMMA RAY
NPHI.V/V      00 330 00 00         : PHIN         - NEUTRON POROSITY (SANDSTONE)
DPHI.V/V      00 890 00 00         : PHID         - DENSITY POROSITY (SANDSTONE)
ILD .OHMM     00 120 00 00         : RESD         - DEEP RESISTIVITY (DIL)
~PARAMETER INFORMATION
#MNEM.UNIT           DATA             DESCRIPTION OF MNEMONIC
#---------         -----------     ------------------------------
GL  .M        647.9                : gl           - GROUND LEVEL ELEVATION
EREF.M        651.5                : kb           - ELEVATION OF DEPTH REFERENCE
DATM.M        651.5                : datum        - DATUM ELEVATION
TDD .M        397                  : tdd          - TOTAL DEPTH DRILLER
RUN .         ONE                  : Run          - RUN NUMBER
ENG .         JO                   : Engineer     - RECORDING ENGINEER
WIT .         TIM                  : Witness      - WITNESSED BY
MUD .         GEL                  : Mud_type     - MUD TYPE
MATR.         SANDSTONE            : Logunit      - NEUTRON MATRIX
TMAX.C        27.8                 : BHT          - MAXIMUM RECORDED TEMPERATURE
BHTD.M        397                  : BHTDEP       - MAXIMUM RECORDED TEMPERATURE
RMT .C        10                   : MDTP         - TEMPERATURE OF MUD
MUDD.KG/M     1160                 : MWT          - MUD DENSITY
NEUT.         1                    : NEUTRON      - NEUTRON TYPE
RESI.         0                    : RESIST       - RESISTIVITY TYPE
RM  .OHMM     0.77                 : RM           - RESISTIVITY OF MUD
RMC .OHMM     0.77                 : RMC          - RESISTIVITY OF MUD CAKE
RMF .OHMM     0.78                 : RMF          - RESISTIVITY OF MUD FILTRATE
SUFT.C        4                    : SUFT         - SURFACE TEMPERATURE
~A  DEPTH       GR     PHIN     PHID     RESD
  200.000  126.818    0.594    0.197    4.531
  200.250  127.403    0.595    0.204    4.700
  200.500  127.980    0.589    0.209    4.787
  200.750  127.951    0.559    0.217    5.060
  201.000  126.102    0.545    0.223    5.250
  201.250  123.039    0.538    0.228    5.345
  201.500  119.976    0.533    0.231    5.046
  201.750  117.512    0.539    0.236    4.501
  202.000  120.517    0.573    0.238    4.170
  202.250  121.095    0.579    0.238    4.579
  202.500  120.451    0.572    0.236    5.222
  202.750  119.216    0.561    0.235    5.732
  203.000  117.973    0.537    0.237    5.836
  203.250  116.731    0.512    0.240    5.832
  203.500  114.275    0.502    0.247    5.505
  203.750  111.819    0.506    0.252    4.727
  204.000  112.396    0.510    0.250    4.463
  204.250  111.753    0.499    0.246    4.457
  204.500  110.518    0.485    0.241    4.371
  204.750  106.234    0.483    0.240    4.205
  205.000  107.426    0.492    0.241    4.044
  205.250  113.464    0.510    0.242    3.892
  205.500  115.862    0.527    0.237    3.816
  205.750  115.818    0.512    0.197    3.740
  206.000  115.182    0.483    0.153    3.807
  206.250  114.554    0.493    0.110    4.181
  206.500  114.524    0.521    0.130    4.592
  206.750  115.095    0.536    0.207    5.236
  207.000  115.080    0.538    0.241    5.859
  207.250  115.658    0.546    0.257    6.807
  207.500  116.228    0.549    0.269    7.199
  207.750  114.386    0.563    0.267    7.756
  208.000  105.248    0.571    0.265    8.047
  208.250  103.998    0.579    0.258    8.040
  208.500  105.190    0.573    0.255    8.030
  208.750  107.588    0.510    0.252    7.725
  209.000  105.738    0.483    0.249    7.293
  209.250  101.455    0.474    0.244    6.265
  209.500   98.399    0.476    0.235    4.895
  209.750   95.329    0.484    0.234    4.450
  210.000  103.802    0.486    0.249    4.795
  210.250  107.406    0.482    0.271    5.265
  210.500  105.556    0.469    0.286    5.461
  210.750  104.314    0.451    0.286    4.963
  211.000  102.464    0.476    0.263    4.777
  211.250  100.615    0.504    0.254    4.594
  211.500  102.413    0.514    0.259    4.857
  211.750  106.025    0.534    0.259    5.136
  212.000  112.063    0.529    0.259    5.431
  212.250  115.667    0.516    0.257    5.962
  212.500  116.245    0.512    0.253    6.305
  212.750  114.995    0.519    0.252    6.922
  213.000  113.153    0.527    0.252    7.320
  213.250  109.490    0.533    0.253    7.885
  213.500  104.600    0.542    0.255    7.880
  213.750   99.103    0.543    0.255    6.641
  214.000   99.073    0.523    0.257    5.289
  214.250  103.299    0.510    0.258    4.543
  214.500  109.323    0.499    0.260    4.052
  214.750  111.128    0.504    0.265    3.973
  215.000  112.313    0.511    0.270    3.893
  215.250  109.242    0.509    0.272    3.890
  215.500  107.400    0.504    0.276    3.888
  215.750  107.364    0.504    0.272    3.882
  216.000  107.942    0.511    0.251    3.879
  216.250  107.912    0.536    0.251    3.802
  216.500  107.891    0.544    0.254    3.800
  216.750  107.255    0.569    0.256    3.795
  217.000  107.832    0.606    0.260    3.792
  217.250  109.009    0.610    0.262    3.860
  217.500  108.366    0.601    0.263    3.930
  217.750  107.138    0.609    0.264    4.001
  218.000  106.495    0.614    0.263    4.074
  218.250  107.679    0.619    0.262    4.226
  218.500  110.084    0.600    0.258    4.385
  218.750  110.048    0.568    0.256    4.551
  219.000  109.419    0.548    0.257    5.091
  219.250  106.949    0.537    0.258    6.028
  219.500  105.107    0.527    0.258    6.876
  219.750  101.437    0.521    0.256    6.869
  220.000   98.981    0.515    0.253    6.244
  220.250   99.558    0.511    0.253    5.363
  220.500  103.170    0.505    0.245    4.695
  220.750  106.788    0.495    0.237    4.348
  221.000  108.579    0.480    0.235    4.686
  221.250  108.543    0.483    0.240    5.343
  221.500  104.267    0.515    0.244    6.327
  221.750   98.170    0.541    0.254    6.816
  222.000   89.040    0.548    0.270    6.558
  222.250   82.336    0.556    0.265    6.075
  222.500   81.086    0.559    0.254    5.628
  222.750   84.705    0.501    0.250    5.517
  223.000   91.343    0.467    0.247    5.615
  223.250   94.355    0.477    0.246    5.611
  223.500   96.752    0.483    0.263    5.607
  223.750   97.330    0.480    0.279    5.600
  224.000   97.908    0.485    0.274    5.286
  224.250   99.092    0.496    0.264    5.087
  224.500   99.662    0.501    0.268    4.801
  224.750   98.412    0.507    0.273    4.708
  225.000   97.184    0.513    0.270    4.527
  225.250   95.328    0.521    0.262    4.439
  225.500   94.699    0.530    0.250    4.435
  225.750   97.097    0.534    0.240    4.688
  226.000  101.315    0.526    0.232    4.958
  226.250  108.567    0.521    0.225    5.549
  226.500  111.564    0.550    0.233    6.327
  226.750  112.748    0.564    0.254    7.080
  227.000  107.266    0.592    0.279    7.920
  227.250   99.342    0.621    0.286    8.535
  227.500   82.930    0.634    0.293    7.757
  227.750   75.620    0.619    0.293    7.187
  228.000   87.726    0.590    0.298    6.533
  228.250  100.439    0.493    0.310    6.281
  228.500  106.477    0.413    0.314    6.276
  228.750  102.201    0.414    0.295    6.390
  229.000   99.138    0.458    0.282    7.018
  229.250   95.468    0.497    0.287    8.310
  229.500   90.578    0.534    0.285    8.956
  229.750   89.342    0.566    0.291    8.295
  230.000   90.519    0.577    0.299    7.397
  230.250   91.711    0.559    0.307    6.854
  230.500   94.716    0.540    0.317    6.349
  230.750   97.720    0.495    0.317    6.107
  231.000  101.332    0.459    0.317    6.219
  231.250  105.535    0.463    0.305    6.452
  231.500  106.734    0.480    0.292    7.218
  231.750  107.312    0.500    0.286    7.927
  232.000  107.282    0.524    0.284    8.381
  232.250  105.433    0.537    0.285    8.063
  232.500   99.936    0.556    0.285    8.207
  232.750   95.667    0.562    0.286    8.517
  233.000   96.222    0.556    0.285    9.347
  233.250   96.807    0.531    0.280    9.700
  233.500   96.778    0.448    0.266   10.258
  233.750   94.329    0.479    0.250   10.052
  234.000   89.446    0.497    0.260    9.859
  234.250   83.956    0.517    0.268   10.031
  234.500   79.673    0.461    0.275   10.026
  234.750   83.898    0.384    0.256   10.405
  235.000   88.116    0.329    0.150   10.792
  235.250   86.267    0.380    0.155   10.990
  235.500   83.204    0.459    0.213   11.403
  235.750   80.134    0.485    0.298   11.609
  236.000   80.105    0.494    0.347   11.814
  236.250   80.075    0.487    0.378   12.031
  236.500   78.219    0.481    0.373   11.576
  236.750   76.369    0.470    0.368   10.133
  237.000   75.741    0.461    0.362    8.224
  237.250   75.098    0.449    0.332    6.930
  237.500   78.095    0.448    0.302    5.732
  237.750   79.294    0.442    0.272    4.652
  238.000   83.519    0.414    0.123    4.473
  238.250  101.086    0.409    0.080    4.556
  238.500  101.663    0.441    0.147    4.727
  238.750  101.020    0.490    0.227    5.092
  239.000  100.392    0.498    0.249    5.384
  239.250   98.535    0.515    0.274    5.483
  239.500   95.479    0.518    0.288    5.478
  239.750   94.229    0.516    0.298    5.369
  240.000   98.455    0.517    0.313    5.265
  240.250  103.886    0.519    0.330    5.461
  240.500  107.498    0.516    0.325    5.774
  240.750  108.075    0.510    0.292    5.990
  241.000  105.005    0.512    0.278    6.099
  241.250  101.942    0.518    0.273    6.093
  241.500   98.273    0.530    0.271    5.975
  241.750   95.202    0.542    0.267    5.748
  242.000   97.600    0.568    0.272    5.530
  242.250   99.399    0.581    0.281    5.220
  242.500  104.223    0.551    0.291    5.117
  242.750  107.828    0.491    0.286    5.411
  243.000  110.225    0.489    0.261    5.205
  243.250  111.410    0.536    0.259    5.198
