~VERSION INFORMATION
 VERS.                 2.0:   CWLS LOG ASCII STANDARD -VERSION 2.0
 WRAP.                  NO:   ONE LINE PER DEPTH STEP
~WELL INFORMATION BLOCK
#MNEM.UNIT           DATA                    DESCRIPTION OF MNEMONIC
#---------    -------------------            -------------------------------
# Generated from Intellog Unique Number	CN_94_101/WELL/2816
WELL.         03-02-096-15W4                 : Well_name    - WELL
LOC .         AA/03-02-096-15W4/0            : Location     - LOCATION
UWI .         AA/03-02-096-15W400            : Uwi          - UNIQUE WELL ID
ENTR.         JOETTE                         : Entered      - ENTERED BY
SRVC.         SCHLUMBERGER                   : Scn          - SERVICE COMPANY
DATE.         07/07/92                       : Date         - LOG DATE
STRT.M        50                             : top_depth    - START DEPTH
STOP.M        330                            : bot_depth    - STOP DEPTH
STEP.M        0.25                           : increment    - STEP LENGTH
 NULL. -999.2500:NULL Value
~CURVE INFORMATION BLOCK
#MNEM UNIT       ERCB CURVE CODE    CURVE DESCRIPTION
#-----------   ------------------   ----------------------------------
DEPT.M        00 001 00 00         : DEPTH        - DEPTH
CALI.MM       00 280 01 00         : CAL          - CALIPER
GR  .API      00 310 00 00         : GR           - GAMMA RAY
NPHI.V/V      00 330 00 00         : PHIN         - NEUTRON POROSITY (SANDSTONE)
DPHI.V/V      00 890 00 00         : PHID         - DENSITY POROSITY (SANDSTONE)
ILD .OHMM     00 120 00 00         : RESD         - DEEP RESISTIVITY (DIL)
~PARAMETER INFORMATION
#MNEM.UNIT           DATA             DESCRIPTION OF MNEMONIC
#---------         -----------     ------------------------------
GL  .M        577.32               : gl           - GROUND LEVEL ELEVATION
EREF.M        580.67               : kb           - ELEVATION OF DEPTH REFERENCE
DATM.M        580.67               : datum        - DATUM ELEVATION
TDD .M        330                  : tdd          - TOTAL DEPTH DRILLER
RUN .         ONE                  : Run          - RUN NUMBER
ENG .         JO                   : Engineer     - RECORDING ENGINEER
WIT .         TIM                  : Witness      - WITNESSED BY
MUD .         GEL                  : Mud_type     - MUD TYPE
MATR.         SANDSTONE            : Logunit      - NEUTRON MATRIX
TMAX.C        19                   : BHT          - MAXIMUM RECORDED TEMPERATURE
BHTD.M        330                  : BHTDEP       - MAXIMUM RECORDED TEMPERATURE
RMT .C        13                   : MDTP         - TEMPERATURE OF MUD
MUDD.KG/M     1000                 : MWT          - MUD DENSITY
NEUT.         1                    : NEUTRON      - NEUTRON TYPE
RESI.         0                    : RESIST       - RESISTIVITY TYPE
RM  .OHMM     2.5                  : RM           - RESISTIVITY OF MUD
RMC .OHMM     2.5                  : RMC          - RESISTIVITY OF MUD CAKE
RMF .OHMM     2.5                  : RMF          - RESISTIVITY OF MUD FILTRATE
SUFT.C        4                    : SUFT         - SURFACE TEMPERATURE
~A  DEPTH      CAL       GR     PHIN     PHID     RESD
   50.000  200.563   83.998    0.550    0.364    4.196
   50.250  197.678   83.454    0.531    0.379    4.124
   50.500  194.760   84.137    0.542    0.365    3.915
   50.750  197.910   89.044    0.555    0.351    3.847
   51.000  199.047   90.370    0.549    0.356    3.716
   51.250  195.157   94.654    0.550    0.371    3.656
   51.500  196.295   98.373    0.541    0.357    3.664
   51.750  200.450   99.076    0.551    0.338    3.543
   52.000  200.582   99.116    0.543    0.352    3.547
   52.250  196.691   98.591    0.534    0.355    3.491
   52.500  192.800  101.085    0.541    0.329    3.499
   52.750  187.937  106.011    0.556    0.319    3.442
   53.000  189.075  104.884    0.577    0.311    3.448
   53.250  194.236  104.360    0.580    0.312    3.457
   53.500  198.358  105.646    0.585    0.319    3.529
   53.750  203.585  105.122    0.594    0.316    3.533
   54.000  204.690  100.977    0.589    0.300    3.540
   54.250  202.843   99.226    0.577    0.281    3.616
   54.500  199.958  104.776    0.573    0.297    3.624
   54.750  198.013  109.663    0.584    0.306    3.565
   55.000  196.167  112.779    0.590    0.316    3.444
   55.250  196.266  108.615    0.561    0.319    3.390
   55.500  194.453  107.507    0.552    0.319    3.332
   55.750  194.552  106.360    0.562    0.316    3.341
   56.000  193.645  105.855    0.572    0.322    3.408
   56.250  193.777  105.311    0.561    0.317    3.479
   56.500  193.975  102.997    0.567    0.313    3.551
   56.750  195.113  101.849    0.568    0.323    3.627
   57.000  196.218  100.118    0.557    0.320    3.704
   57.250  196.350   97.180    0.544    0.310    3.710
   57.500  197.488   94.846    0.534    0.299    3.716
   57.750  201.644   97.359    0.523    0.303    3.724
   58.000  203.820   99.832    0.515    0.304    3.732
   58.250  202.914  102.948    0.529    0.306    3.812
   58.500  199.023  105.441    0.554    0.303    3.820
   58.750  196.138  107.331    0.565    0.295    3.898
   59.000  196.270  107.430    0.543    0.297    3.981
   59.250  196.468  106.866    0.536    0.288    4.061
   59.500  196.534  106.965    0.547    0.279    4.146
   59.750  196.700  108.272    0.562    0.278    4.232
   60.000  197.870  107.728    0.558    0.289    4.320
   60.250  197.970  106.600    0.536    0.300    4.410
   60.500  199.074  108.509    0.536    0.295    4.501
   60.750  199.240  110.419    0.529    0.278    4.511
   61.000  200.378  110.459    0.521    0.289    4.521
   61.250  200.477  108.144    0.527    0.290    4.448
   61.500  199.603  108.827    0.538    0.287    4.376
   61.750  198.730  107.699    0.542    0.288    4.469
   62.000  201.879  101.121    0.553    0.274    4.736
   62.250  206.133   89.715    0.517    0.281    5.106
   62.500  207.205   76.498    0.444    0.290    5.611
   62.750  208.343   64.508    0.437    0.306    6.280
   63.000  214.510   65.795    0.433    0.326    6.648
   63.250  211.625   71.305    0.441    0.306    7.441
   63.500  208.740   75.609    0.439    0.279    8.329
   63.750  206.860   67.240    0.398    0.274   10.617
   64.000  207.026   60.661    0.395    0.283   11.447
   64.250  207.125   65.588    0.400    0.275   11.262
   64.500  203.267   70.495    0.414    0.254   10.293
   64.750  200.382   69.367    0.407    0.216    9.588
   65.000  200.481   65.846    0.404    0.250    9.603
   65.250  201.619   67.735    0.413    0.251    9.619
   65.500  202.757   70.228    0.443    0.253    9.645
   65.750  204.900   71.495    0.449    0.263    9.671
   66.000  206.038   73.404    0.476    0.256    9.681
   66.250  206.171   74.690    0.492    0.274    9.707
   66.500  206.336   74.790    0.510    0.291    9.733
   66.750  204.456   72.455    0.515    0.299    9.566
   67.000  200.566   70.081    0.496    0.337    9.076
   67.250  202.742   67.143    0.478    0.286    8.295
   67.500  203.847   67.222    0.470    0.286    7.722
   67.750  204.985   67.302    0.456    0.283    8.799
   68.000  200.089   63.157    0.343    0.314   18.778
   68.250  194.153   50.544    0.289    0.370   65.936
   68.500  188.251   30.689    0.248    0.371  166.088
   68.750  185.432   22.320    0.209    0.341  268.864
   69.000  181.475   21.193    0.158    0.342  264.666
   69.250  181.607   18.255    0.145    0.373  241.895
   69.500  181.739   12.923    0.137    0.391  229.381
   69.750  178.854   14.229    0.140    0.405  209.646
   70.000  177.008   14.872    0.151    0.415  188.010
   70.250  179.152   14.971    0.165    0.409  162.507
   70.500  178.278   14.467    0.158    0.397  135.528
   70.750  179.416   13.923    0.132    0.403  126.103
   71.000  182.566   12.815    0.142    0.404  117.397
   71.250  179.680   12.251    0.162    0.390  115.440
   71.500  179.813   13.577    0.184    0.374  115.688
   71.750  182.995   15.447    0.216    0.369  115.937
   72.000  185.073   17.317    0.220    0.381  116.249
   72.250  187.282   19.206    0.229    0.370  114.373
   72.500  189.393   19.286    0.223    0.338  106.419
   72.750  190.531   18.178    0.225    0.333   85.495
   73.000  192.675   19.464    0.281    0.354   60.342
   73.250  195.824   24.371    0.308    0.357   39.606
   73.500  199.979   31.088    0.360    0.283   35.500
   73.750  201.150   38.409    0.411    0.371   24.612
   74.000  199.271   45.750    0.411    0.341   21.273
   74.250  201.382   51.260    0.432    0.317   14.479
   74.500  207.581   58.620    0.479    0.314   12.069
   74.750  204.696   61.697    0.486    0.322    8.518
   75.000  202.817   63.587    0.441    0.335    7.790
   75.250  203.955   62.459    0.436    0.313    7.116
   75.500  205.060   59.521    0.444    0.306    7.399
   75.750  204.186   56.583    0.450    0.301    8.914
   76.000  202.340   53.042    0.415    0.309   10.358
   76.250  200.460   47.067    0.363    0.328   11.587
   76.500  198.581   40.528    0.362    0.315   12.732
   76.750  195.696   40.004    0.390    0.323   14.794
   77.000  191.772   38.253    0.412    0.300   17.180
   77.250  186.876   34.712    0.418    0.290   19.229
   77.500  186.002   29.944    0.408    0.281   22.367
   77.750  193.174   22.178    0.374    0.328   22.391
   78.000  200.380   25.314    0.344    0.347   21.627
   78.250  210.570   27.787    0.372    0.365   20.509
   78.500  217.742   29.677    0.402    0.367   19.448
   78.750  225.920   32.190    0.415    0.373   18.794
   79.000  230.075   34.080    0.412    0.370   18.481
   79.250  234.297   35.366    0.412    0.359   18.511
   79.500  226.317   36.652    0.422    0.350   18.551
   79.750  219.409   37.938    0.450    0.367   18.591
   80.000  228.659   39.205    0.469    0.359   18.621
   80.250  226.713   40.491    0.469    0.367   17.986
   80.500  224.834   41.777    0.445    0.362   17.055
   80.750  227.044   44.290    0.434    0.347   15.303
   81.000  222.081   48.613    0.482    0.375   12.763
   81.250  203.104   52.293    0.518    0.343   11.440
   81.500  199.213   57.220    0.529    0.315    9.361
   81.750  195.355   60.317    0.522    0.303    7.669
   82.000  200.483   56.755    0.518    0.273    8.113
   82.250  207.722   53.837    0.504    0.279    8.282
   82.500  205.776   56.934    0.497    0.344    7.295
   82.750  187.805   57.013    0.485    0.363    6.788
   83.000  199.000   46.814    0.493    0.352   10.208
   83.250  205.200   44.480    0.463    0.360   11.644
   83.500  203.321   45.182    0.438    0.359   11.880
   83.750  205.432   41.017    0.463    0.351   11.912
   84.000  210.592   36.269    0.458    0.353   12.159
   84.250  210.758   34.558    0.454    0.362   13.124
   84.500  207.873   34.014    0.446    0.356   13.383
   84.750  208.977   31.076    0.439    0.350   14.189
   85.000  215.177   27.535    0.417    0.361   14.469
   85.250  216.315   23.370    0.383    0.371   14.507
   85.500  212.424   22.242    0.379    0.351   15.084
   85.750  210.545   24.795    0.422    0.349   19.565
   86.000  208.666   26.645    0.446    0.379   21.910
   86.250  212.854   28.515    0.459    0.387   19.660
