~VERSION INFORMATION
 VERS.                 2.0:   CWLS LOG ASCII STANDARD -VERSION 2.0
 WRAP.                  NO:   ONE LINE PER DEPTH STEP
~WELL INFORMATION BLOCK
#MNEM.UNIT           DATA                    DESCRIPTION OF MNEMONIC
#---------    -------------------            -------------------------------
# Generated from Intellog Unique Number	CC_80_83/WELL/2303
NULL.         -999.25                        : NULL_VALUE
WELL.         ARCO ACI MCMURRAY OV           : Well_name    - WELL
LOC .         07-26-080-11W4                 : Location     - LOCATION          
UWI .         AA/07-26-080-11W400            : Uwi          - UNIQUE WELL ID    
ENTR.         DW                             : Entered      - ENTERED BY        
SRVC.         SCHLUMBERGER                   : Scn          - SERVICE COMPANY   
DATE.         19 JAN 76                      : Date         - LOG DATE
STRT.M        256.032                        : top_depth    - START DEPTH       
STOP.M        481.591                        : bot_depth    - STOP DEPTH        
STEP.M        0.305                          : increment    - STEP LENGTH       
~CURVE INFORMATION BLOCK
#MNEM UNIT       ERCB CURVE CODE    CURVE DESCRIPTION
#-----------   ------------------   ----------------------------------
DEPT.M        00 001 00 00         : DEPTH        - DEPTH                       
NPHI.V/V      00 330 00 00         : PHIN         - NEUTRON POROSITY (LIMESTONE)
GR  .API      00 310 00 00         : GR           - GAMMA RAY                   
RHOB.KG/M3    00 350 00 00         : DENS         - BULK DENSITY                
ILD .OHMM     00 120 00 00         : RESD         - DEEP RESISTIVITY (DIL)      
~PARAMETER INFORMATION       
#MNEM.UNIT           DATA             DESCRIPTION OF MNEMONIC
#---------         -----------     ------------------------------
GL  .M        685.678              : gl           - GROUND LEVEL ELEVATION      
EREF.M        688.726              : kb           - ELEVATION OF DEPTH REFERENCE
DATM.M        688.726              : datum        - DATUM ELEVATION             
TDD .M        481.584              : tdd          - TOTAL DEPTH DRILLER         
RUN .         ONE                  : Run          - RUN NUMBER                  
ENG .         BILL                 : Engineer     - RECORDING ENGINEER          
WIT .         JIM                  : Witness      - WITNESSED BY                
MUD .         GEL                  : Mud_type     - MUD TYPE                    
MATR.         LIMESTONE            : Logunit      - NEUTRON MATRIX              
TMAX.C        22.7778              : BHT          - MAXIMUM RECORDED TEMPERATURE
BHTD.M        481.584              : BHTDEP       - MAXIMUM RECORDED TEMPERATURE
MATR.         1                    : LOGUNIT      - NEUTRON MATRIX              
RMT .C        25                   : MDTP         - TEMPERATURE OF MUD          
NEUT.         1                    : NEUTRON      - NEUTRON TYPE                
RESI.         0                    : RESIST       - RESISTIVITY TYPE            
RMC .OHMM     0.25                 : RMC          - RESISTIVITY OF MUD CAKE     
RMF .OHMM     0.25                 : RMF          - RESISTIVITY OF MUD FILTRATE 
SUFT.C        15                   : SUFT         - SURFACE TEMPERATURE         
~A  DEPTH     PHIN       GR     DENS     RESD
# ...
  362.106    0.506   96.208 2188.310    3.788
  362.411    0.508   94.427 2210.350    3.788
  362.715    0.517   93.835 2244.430    4.003
  363.020    0.519   92.056 2242.340    4.078
  363.325    0.520   90.868 2246.280    4.077
  363.630    0.518   88.492 2252.240    4.076
  363.935    0.513   86.710 2238.080    3.926
  364.239    0.512   86.714 2225.940    3.854
  364.544    0.519   87.313 2221.860    3.712
  364.849    0.518   87.914 2243.870    3.643
  365.154    0.507   87.322 2253.860    3.642
  365.459    0.477   84.947 2261.810    3.710
  365.763    0.447   83.760 2257.730    3.779
  366.068    0.446   82.573 2209.420    4.382
  366.373    0.483   81.387 2183.220    4.898
  366.678    0.487   82.582 2219.310    5.373
  366.983    0.463   83.776 2257.430    4.987
  367.288    0.453   83.781 2255.310    3.990
  367.592    0.448   80.214 2253.250    3.253
  367.897    0.449   77.837 2241.110    3.192
  368.202    0.448   76.652 2265.170    3.914
  368.507    0.438   77.251 2311.300    5.170
  368.812    0.435   79.637 2291.130    6.108
  369.116    0.450   80.237 2218.710    6.456
  369.421    0.454   79.051 2166.370    6.824
  369.726    0.458   77.863 2208.500    7.081
  370.031    0.462   76.679 2236.570    7.212
  370.336    0.460   76.086 2240.480    7.483
  370.640    0.478   76.688 2224.350    7.481
  370.945    0.489   77.286 2218.230    7.342
  371.250    0.464   79.078 2260.370    6.815
  371.555    0.456   80.868 2248.240    6.210
  371.860    0.482   83.850 2143.660    5.554
  372.164    0.497   85.639 2119.460    4.786
  372.469    0.497   87.429 2248.010    4.698
  372.774    0.485   88.626 2282.080    4.610
  373.079    0.493   89.224 2275.990    4.609
  373.384    0.497   91.612 2269.850    4.695
  373.689    0.501   93.998 2267.800    5.055
  373.993    0.503   95.192 2277.770    5.245
  374.298    0.506   86.863 2283.720    5.244
  374.603    0.491   86.270 2215.310    5.147
  374.908    0.490   89.847 2223.270    4.777
  375.213    0.490   89.256 2289.520    4.434
  375.517    0.473   89.260 2309.540    4.516
  375.822    0.419   87.479 2309.460    4.954
  376.127    0.379   80.340 2287.270    5.854
  376.432    0.337   76.177 2228.910    6.665
  376.737    0.158   72.013 2186.630    8.021
  377.041    0.146   68.446 2166.460    9.478
  377.346    0.306   67.260 2192.520   10.397
  377.651    0.450   73.217 2397.440   10.788
  377.956    0.455   85.129 2664.660   10.588
  378.261    0.462   88.705 2608.320    8.472
  378.565    0.483   86.329 2244.460    7.864
  378.870    0.476   82.763 2268.460    7.299
  379.175    0.470   83.957 2278.450    7.163
  379.480    0.468   87.533 2278.390    7.161
  379.785    0.472   89.323 2177.830    7.294
  380.090    0.484   88.732 2185.770    7.159
  380.394    0.495   87.547 2187.710    7.025
  380.699    0.496   88.147 2199.700    6.643
  381.004    0.496   90.532 2229.780    6.167
  381.309    0.502   93.513 2225.670    5.619
  381.614    0.515   97.686 2257.730    5.515
  381.918    0.530   98.284 2263.700    4.932
  382.223    0.514   95.908 2275.680    3.946
  382.528    0.503   92.936 2285.650    3.100
  382.833    0.503   89.965 2263.470    2.772
  383.138    0.503   89.967 2233.260    2.671
  383.442    0.497   90.567 2239.220    2.771
  383.747    0.525   84.619 2243.140    3.040
  384.052    0.504   84.623 2243.060    3.592
  384.357    0.478   89.391 2257.060    4.089
  384.662    0.450   90.586 2267.030    5.108
  384.966    0.432   89.400 2266.960    5.399
  385.271    0.442   87.023 2244.780    5.603
  385.576    0.445   88.219 2212.540    5.922
  385.881    0.433   90.604 2186.350    6.145
  386.186    0.406   91.203 2202.330    6.495
  386.491    0.379   90.019 2212.320    6.865
  386.795    0.337   90.617 2196.160    7.257
  387.100    0.315   91.813 2194.080    7.960
  387.405    0.303   93.007 2222.130    8.732
  387.710    0.288   91.226 2284.370    9.759
  388.015    0.283   86.468 2314.420   10.906
  388.319    0.286   84.686 2338.470   11.528
  388.624    0.390   82.906 2378.600   11.106
  388.929    0.436   84.696 2573.470    9.571
  389.234    0.454   87.677 2390.500    7.802
  389.539    0.472   88.873 2203.510    6.724
  389.843    0.484   88.876 2149.170    6.014
  390.148    0.482   88.882 2124.970    5.480
  390.453    0.457   88.886 2167.080    5.378
  390.758    0.426   87.699 2183.070    5.477
  391.063    0.407   80.560 2185.040    6.008
  391.367    0.309   80.565 2158.820    6.351
  391.672    0.279   81.165 2168.800    7.098
  391.977    0.353   83.549 2369.710    8.543
  392.282    0.375   84.150 2403.800    8.542
  392.587    0.378   81.772 2263.040    8.540
  392.892    0.380   79.395 2234.790    8.074
  393.196    0.388   78.210 2244.790    7.925
  393.501    0.400   76.428 2230.610    7.493
  393.806    0.402   77.027 2216.500    7.354
  394.111    0.406   79.413 2208.390    7.352
  394.416    0.430   86.562 2214.340    7.629
  394.720    0.449   90.139 2228.320    7.770
  395.025    0.467   89.547 2234.280    7.768
  395.330    0.427   84.789 2214.110    7.345
  395.635    0.419   80.627 2107.520    7.209
  395.940    0.393   80.631 2109.450    7.075
  396.244    0.377   83.613 2252.050    7.340
  396.549    0.375   81.831 2260.030    7.617
  396.854    0.360   80.644 2263.970    8.050
  397.159    0.355   79.458 2253.850    8.353
  397.464    0.356   80.654 2273.840    8.509
  397.768    0.355   81.849 2277.810    8.506
  398.073    0.350   80.068 2269.690    8.349
  398.378    0.339   76.500 2245.480    8.042
  398.683    0.328   74.718 2205.210    7.892
  398.988    0.224   71.150 2179.030    7.891
  399.293    0.203   66.988 2164.880    8.341
  399.597    0.291   66.397 2186.910    9.321
  399.902    0.381   68.189 2434.040    9.853
  400.207    0.385   71.169 2452.050    9.317
  400.512    0.389   71.174 2313.290    8.488
  400.817    0.396   72.368 2307.190    8.178
  401.121    0.403   77.730 2270.940    7.451
  401.426    0.405   76.545 2234.680    7.313
  401.731    0.407   74.763 2208.470    7.177
  402.036    0.408   74.172 2194.300    7.175
  402.341    0.409   75.368 2194.260    7.173
  402.645    0.419   75.967 2248.450    7.040
  402.950    0.420   75.972 2220.220    6.909
  403.255    0.416   75.977 2254.310    6.413
  403.560    0.416   76.576 2266.280    6.064
  403.865    0.464   80.154 2260.170    5.629
  404.169    0.463   81.943 2238.010    4.762
  404.474    0.442   83.138 2211.800    4.850
  404.779    0.415   81.951 2175.550    5.420
  405.084    0.378   77.194 2141.310    6.286
  405.389    0.375   73.626 2099.010    6.645
  405.694    0.369   72.441 2086.890    7.155
  405.998    0.364   72.444 2161.170    7.289
  406.303    0.361   71.853 2193.230    7.153
  406.608    0.346   68.881 2211.260    7.560
  406.913    0.262   67.695 2247.370    9.445
  407.218    0.180   67.106 2446.270   10.954
  407.522    0.249   67.108 2657.220   11.157
  407.827    0.286   72.471 2657.130    9.795
  408.132    0.339   78.430 2345.530    8.442
  408.437    0.429   78.435 2269.100    7.691
  408.742    0.423   77.247 2202.680    7.274
  409.046    0.429   79.039 2214.670    6.751
  409.351    0.451   79.637 2248.770    6.626
  409.656    0.451   82.620 2262.760    6.875
  409.961    0.442   83.815 2250.610    7.133
  410.266    0.423   83.820 2278.660    7.401
  410.570    0.414   84.418 2300.710    7.537
  410.875    0.432   84.424 2372.990    7.536
  411.180    0.434   85.022 2421.140    7.396
  411.485    0.428   89.195 2402.980    7.258
  411.790    0.407   92.177 2296.390    7.257
  412.095    0.391   93.966 2161.650    7.256
  412.399    0.386   95.757 2274.120    7.390
  412.704    0.391   94.571 2332.330    7.252
  413.009    0.403   92.193 2344.300    6.986
  413.314    0.429   88.030 2344.240    6.730
  413.619    0.449   84.463 2340.120    6.132
  413.923    0.494   84.470 2332.010    5.588
  414.228    0.514   83.877 2321.880    4.727
  414.533    0.526   80.905 2309.750    3.853
  414.838    0.529   77.933 2279.530    3.141
