~VERSION INFORMATION
 VERS.                 2.0:   CWLS LOG ASCII STANDARD -VERSION 2.0
 WRAP.                  NO:   ONE LINE PER DEPTH STEP
~WELL INFORMATION BLOCK
#MNEM.UNIT           DATA                    DESCRIPTION OF MNEMONIC
#---------    -------------------            -------------------------------
# Generated from Intellog Unique Number	CN_94_101/WELL/3642
WELL.         08-25-096-13W4                 : Well_name    - WELL
LOC .         AA/08-25-096-13W4/0            : Location     - LOCATION
UWI .         AA/08-25-096-13W400            : Uwi          - UNIQUE WELL ID
ENTR.         J                              : Entered      - ENTERED BY
SRVC.         SCHLUMBERGER                   : Scn          - SERVICE COMPANY
DATE.         08/05/92                       : Date         - LOG DATE
STRT.F        50                             : top_depth    - START DEPTH
STOP.F        739.797                        : bot_depth    - STOP DEPTH
STEP.F        0.8202                         : increment    - STEP LENGTH
 NULL. -999.2500:NULL Value
~CURVE INFORMATION BLOCK
#MNEM UNIT       ERCB CURVE CODE    CURVE DESCRIPTION
#-----------   ------------------   ----------------------------------
DEPT.F        00 001 00 00         : DEPTH        - DEPTH
ILD .OHMM     00 120 00 00         : RESD         - DEEP RESISTIVITY (DIL)
GR  .API      00 310 00 00         : GR           - GAMMA RAY
DPHI.V/V      00 890 00 00         : PHID         - DENSITY POROSITY (SANDSTONE)
~PARAMETER INFORMATION
#MNEM.UNIT           DATA             DESCRIPTION OF MNEMONIC
#---------         -----------     ------------------------------
GL  .M        0                    : gl           - GROUND LEVEL ELEVATION
EREF.M        0                    : kb           - ELEVATION OF DEPTH REFERENCE
DATM.M        0                    : datum        - DATUM ELEVATION
TDD .M        229.972              : tdd          - TOTAL DEPTH DRILLER
RUN .         ONE                  : Run          - RUN NUMBER
ENG .         JO                   : Engineer     - RECORDING ENGINEER
WIT .         TIM                  : Witness      - WITNESSED BY
MUD .         GEL                  : Mud_type     - MUD TYPE
MATR.         SANDSTONE            : Logunit      - NEUTRON MATRIX
TMAX.F        0                    : BHT          - MAXIMUM RECORDED TEMPERATURE
BHTD.F        754.5                : BHTDEP       - MAXIMUM RECORDED TEMPERATURE
RMT .F        0                    : MDTP         - TEMPERATURE OF MUD
MUDD.LB/G     6.9                  : MWT          - MUD DENSITY
NEUT.         1                    : NEUTRON      - NEUTRON TYPE
RESI.         0                    : RESIST       - RESISTIVITY TYPE
RM  .OHMM     0                    : RM           - RESISTIVITY OF MUD
RMC .OHMM     0                    : RMC          - RESISTIVITY OF MUD CAKE
RMF .OHMM     0                    : RMF          - RESISTIVITY OF MUD FILTRATE
SUFT.F        39.2                 : SUFT         - SURFACE TEMPERATURE
~A  DEPTH     RESD       GR     PHID
# ...
  405.971    4.959   64.425    0.340
  406.791    3.238   66.893    0.329
  407.612    2.692   69.353    0.326
  408.432    2.456   71.004    0.335
  409.252    2.648   72.242    0.335
  410.072    2.856   67.820    0.327
  410.892    2.859   63.398    0.315
  411.713    2.862   58.166    0.280
  412.533    2.710   57.395    0.268
  413.353    2.815   59.046    0.272
  414.173    4.163   55.838    0.262
  414.993    7.276   52.639    0.256
  415.814    8.453   56.711    0.252
  416.634    8.784   73.754    0.211
  417.454   10.200   76.214    0.184
  418.274   12.760   79.905    0.226
  419.094   16.266   79.952    0.255
  419.915    6.551   79.967    0.298
  420.735    4.122   79.602    0.306
  421.555    3.363   79.617    0.296
  422.375    3.695   80.069    0.290
  423.196    4.059   81.719    0.272
  424.016    4.218   82.561    0.240
  424.836    4.222   79.750    0.248
  425.656    4.305   76.138    0.265
  426.476    4.474   75.359    0.260
  427.297    4.916   79.852    0.271
  428.117    4.740   85.146    0.243
  428.937    4.660   90.456    0.230
  429.757    5.116   90.082    0.252
  430.577    5.834   92.130    0.259
  431.398    5.629   92.574    0.268
  432.218    5.231   80.864    0.288
  433.038    4.599   80.491    0.259
  433.858    4.517   82.134    0.251
  434.678    4.522   83.792    0.248
  435.499    4.527   83.014    0.252
  436.319    4.451   77.782    0.241
  437.139    4.454   71.732    0.206
  437.959    4.458   64.897    0.217
  438.780    4.718   65.745    0.217
  439.600    5.904   66.166    0.166
  440.420    7.956   66.197    0.141
  441.240    8.420   62.585    0.196
  442.060    7.827   54.114    0.244
  442.881    7.548   55.360    0.276
  443.701    7.150   57.820    0.274
  444.521    7.025   58.677    0.293
  445.341    6.903   55.866    0.287
  446.161    6.296   43.347    0.282
  446.982    5.534   36.892    0.287
  447.802    5.339   49.077    0.294
  448.622    5.547   59.230    0.280
  449.442    6.564   62.508    0.278
  450.262    7.482   62.547    0.285
  451.083    9.018   59.332    0.279
  451.903   12.615   56.132    0.270
  452.723   14.927   61.823    0.286
  453.543   14.946   73.198    0.297
  454.364   14.415   80.120    0.262
  455.184   16.742   82.986    0.201
  456.004   16.760   87.470    0.195
  456.824   14.460   93.590    0.201
  457.644   12.948   90.374    0.224
  458.465   11.381   87.572    0.238
  459.285   10.977   85.579    0.246
  460.105   10.594   84.403    0.198
  460.925   10.602   83.228    0.187
  461.745   10.613   82.846    0.188
  462.566   10.624   83.282    0.197
  463.386   10.634   93.030    0.222
  464.206   10.455   92.267    0.229
  465.026   10.273   89.862    0.230
  465.846    9.911   86.257    0.225
  466.667    9.734   83.454    0.238
  467.487    9.216   83.081    0.252
  468.307    8.725   83.922    0.220
  469.127    8.261   91.645    0.210
  469.948    9.249   91.272    0.189
  470.768    9.088   91.303    0.203
  471.588    8.928   98.622    0.197
  472.408    8.613  101.503    0.203
  473.228    8.308   99.502    0.216
  474.049    8.165   95.484    0.229
  474.869    8.172   91.467    0.237
  475.689    8.180   88.259    0.227
  476.509    8.193   85.862    0.204
  477.329    8.197   87.123    0.196
  478.150    8.359   87.948    0.199
  478.970    8.529   88.392    0.200
  479.790    8.538   89.233    0.204
  480.610    8.707   91.694    0.193
  481.430    9.046   96.599    0.203
  482.251    8.725   97.027    0.211
  483.071    8.575   94.629    0.227
  483.891    8.909   91.834    0.236
  484.711    9.430   88.627    0.183
  485.531    9.980   85.816    0.198
  486.352    9.807   79.775    0.207
  487.172    9.285   81.830    0.214
  487.992    9.469   88.347    0.196
  488.812   10.021   89.204    0.196
  489.633   10.607   89.219    0.205
  490.453   10.042   89.258    0.198
  491.273    9.688   84.828    0.193
  492.093    9.698   81.216    0.209
  492.913    9.893   85.311    0.209
  493.734   10.089   85.342    0.203
  494.554   10.099   82.937    0.201
  495.374   10.299   79.729    0.205
  496.194   10.503   75.307    0.191
  497.014   11.540   73.314    0.198
  497.835   11.766   76.179    0.202
  498.655   11.784   79.870    0.194
  499.475   11.573   80.711    0.192
  500.295   10.755   80.329    0.195
  501.115   10.772   78.344    0.219
  501.936   11.615   78.780    0.229
  502.756   12.067   78.422    0.212
  503.576   12.306   77.231    0.239
  504.396   12.553   75.230    0.227
  505.217   12.798   72.832    0.219
  506.037   12.344   69.220    0.214
  506.857   12.825   67.235    0.216
  507.677   12.373   65.654    0.204
  508.497   12.614   65.265    0.206
  509.318   14.124   70.162    0.192
  510.138   13.626   68.169    0.204
  510.958   13.382   62.945    0.226
  511.778   13.396   60.952    0.228
  512.598   14.444   60.983    0.166
  513.419   15.296   58.983    0.140
  514.239   16.488   56.188    0.213
  515.059   21.408   52.567    0.276
  515.879   32.257   45.716    0.296
  516.699   28.884   44.938    0.280
  517.520   41.924   54.701    0.273
  518.340   32.356   55.129    0.278
  519.160   31.209   55.581    0.280
  519.980   31.851   55.597    0.279
  520.801   32.465   54.429    0.281
  521.621   34.361   54.460    0.283
  522.441   36.368   53.682    0.284
  523.261   35.745   51.681    0.287
  524.081   37.136   48.878    0.290
  524.902   40.042   45.678    0.297
  525.722   44.809   43.678    0.320
  526.542   51.084   40.875    0.328
  527.362   67.587   40.104    0.302
  528.182   82.995   43.779    0.287
  529.003   48.502   40.992    0.295
  529.823   52.284   40.198    0.307
  530.643   56.375   40.229    0.301
  531.463   51.414   38.236    0.297
  532.283   57.551   47.587    0.313
  533.104   68.094   56.128    0.321
  533.924   63.283   61.827    0.290
  534.744   50.690   62.271    0.281
  535.564   30.729   59.866    0.280
  536.385   25.552   51.395    0.281
  537.205   27.551   51.029    0.292
  538.025   28.097   59.967    0.288
  538.845   25.631   62.840    0.265
  539.665   21.308   63.276    0.260
  540.486   18.384   62.498    0.268
  541.306   18.758   62.117    0.275
  542.126   18.773   62.148    0.274
  542.946   19.139   60.568    0.266
  543.766   19.528   60.194    0.253
  544.587   18.840   66.298    0.225
  545.407   15.084   77.673    0.210
  546.227   11.013   75.275    0.196
  547.047   12.098   63.161    0.242
  547.867   13.788   59.548    0.263
  548.688   18.238   59.580    0.204
  549.508   22.401   62.040    0.172
  550.328   16.051   62.476    0.173
  551.148   15.776   64.944    0.217
  551.969   17.985   69.834    0.235
  552.789   18.341   59.339    0.252
  553.609   17.041   50.884    0.267
  554.429   18.379   49.280    0.290
  555.249   23.424   46.882    0.311
  556.070   40.949   42.864    0.322
  556.890   52.188   38.442    0.327
  557.710   65.287   34.425    0.339
  558.530   89.648   35.266    0.350
  559.350   91.423   38.941    0.310
  560.171   43.531   45.053    0.302
  560.991   41.986   46.307    0.307
  561.811   50.610   46.330    0.309
  562.631   59.881   43.932    0.304
  563.451   70.888   38.295    0.313
  564.272   68.373   33.468    0.324
  565.092   68.443   31.491    0.319
  565.912   71.089   30.697    0.326
  566.732   85.711   29.918    0.331
  567.552   85.800   28.743    0.315
  568.373   71.328   28.774    0.328
  569.193   82.841   34.069    0.316
  570.013  239.145   38.966    0.293
  570.833  132.147   39.013    0.302
  571.654   72.984   37.814    0.328
  572.474   54.260   35.416    0.335
  573.294   53.330   36.662    0.321
  574.114   67.967   42.369    0.311
  574.934   80.419   52.926    0.284
  575.755  140.587   61.063    0.276
  576.575   33.657   62.309    0.264
  577.395   18.251   58.704    0.301
  578.215   17.280   57.108    0.319
  579.035   24.619   53.495    0.330
  579.856   48.113   47.049    0.330
  580.676   61.318   44.651    0.303
  581.496   57.001   39.014    0.298
  582.316   40.832   47.555    0.292
  583.136   33.944   39.497    0.300
