~VERSION INFORMATION
 VERS.                 2.0:   CWLS LOG ASCII STANDARD -VERSION 2.0
 WRAP.                  NO:   ONE LINE PER DEPTH STEP
~WELL INFORMATION BLOCK
#MNEM.UNIT           DATA                    DESCRIPTION OF MNEMONIC
#---------    -------------------            -------------------------------
# Generated from Intellog Unique Number	CN_94_101/WELL/2824
WELL.         06-25-096-14W4                 : Well_name    - WELL
LOC .         AA/06-25-096-14W4/0            : Location     - LOCATION
UWI .         AA/06-25-096-14W400            : Uwi          - UNIQUE WELL ID
ENTR.         JOETTE                         : Entered      - ENTERED BY
SRVC.         SCHLUMBERGER                   : Scn          - SERVICE COMPANY
DATE.         07/07/92                       : Date         - LOG DATE
STRT.M        160                            : top_depth    - START DEPTH
STOP.M        280                            : bot_depth    - STOP DEPTH
STEP.M        0.25                           : increment    - STEP LENGTH
 NULL. -999.2500:NULL Value
~CURVE INFORMATION BLOCK
#MNEM UNIT       ERCB CURVE CODE    CURVE DESCRIPTION
#-----------   ------------------   ----------------------------------
DEPT.M        00 001 00 00         : DEPTH        - DEPTH
CALI.MM       00 280 01 00         : CAL          - CALIPER
GR  .API      00 310 00 00         : GR           - GAMMA RAY
NPHI.V/V      00 330 00 00         : PHIN         - NEUTRON POROSITY (SANDSTONE)
DPHI.V/V      00 890 00 00         : PHID         - DENSITY POROSITY (SANDSTONE)
ILD .OHMM     00 120 00 00         : RESD         - DEEP RESISTIVITY (DIL)
~PARAMETER INFORMATION
#MNEM.UNIT           DATA             DESCRIPTION OF MNEMONIC
#---------         -----------     ------------------------------
GL  .M        524.9                : gl           - GROUND LEVEL ELEVATION
EREF.M        527.9                : kb           - ELEVATION OF DEPTH REFERENCE
DATM.M        527.9                : datum        - DATUM ELEVATION
TDD .M        287                  : tdd          - TOTAL DEPTH DRILLER
RUN .         ONE                  : Run          - RUN NUMBER
ENG .         JO                   : Engineer     - RECORDING ENGINEER
WIT .         TIM                  : Witness      - WITNESSED BY
MUD .         GEL                  : Mud_type     - MUD TYPE
MATR.         SANDSTONE            : Logunit      - NEUTRON MATRIX
TMAX.C        30                   : BHT          - MAXIMUM RECORDED TEMPERATURE
BHTD.M        287                  : BHTDEP       - MAXIMUM RECORDED TEMPERATURE
RMT .C        10                   : MDTP         - TEMPERATURE OF MUD
MUDD.KG/M     1115                 : MWT          - MUD DENSITY
NEUT.         1                    : NEUTRON      - NEUTRON TYPE
RESI.         0                    : RESIST       - RESISTIVITY TYPE
RM  .OHMM     0.979                : RM           - RESISTIVITY OF MUD
RMC .OHMM     0.979                : RMC          - RESISTIVITY OF MUD CAKE
RMF .OHMM     0.979                : RMF          - RESISTIVITY OF MUD FILTRATE
SUFT.C        4                    : SUFT         - SURFACE TEMPERATURE
~A  DEPTH      CAL       GR     PHIN     PHID     RESD
# ...
  196.500  179.912   80.531    0.444    0.311    9.094
  196.750  180.147   89.336    0.475    0.281    9.297
  197.000  182.508   87.625    0.458    0.240    8.994
  197.250  183.705   89.001    0.496    0.231    8.086
  197.500  187.060   99.659    0.557    0.305    7.003
  197.750  192.441  106.612    0.544    0.294    5.536
  198.000  196.792  109.222    0.505    0.256    5.455
  198.250  201.211  111.833    0.481    0.217    5.686
  198.500  207.587  113.827    0.491    0.259    5.920
  198.750  214.030  114.625    0.484    0.256    5.942
  199.000  218.415  110.424    0.514    0.244    5.441
  199.250  222.766  110.565    0.509    0.241    5.071
  199.500  227.151  113.834    0.531    0.260    4.825
  199.750  229.478  115.807    0.537    0.249    4.837
  200.000  230.675  117.183    0.534    0.244    5.039
  200.250  230.910  117.324    0.515    0.252    4.612
  200.500  231.178  116.848    0.541    0.243    4.380
  200.750  230.418  115.794    0.533    0.236    4.167
  201.000  231.716  115.297    0.532    0.206    4.256
  201.250  232.913  117.311    0.532    0.240    4.518
  201.500  234.210  114.345    0.517    0.259    4.614
  201.750  236.504  113.251    0.502    0.277    4.809
  202.000  237.768  111.580    0.489    0.268    4.824
  202.250  239.099  111.083    0.560    0.279    4.674
  202.500  239.267  109.989    0.568    0.282    4.435
  202.750  237.444  111.385    0.536    0.278    4.293
  203.000  234.659  112.144    0.508    0.271    4.231
  203.250  233.798  109.815    0.529    0.262    4.246
  203.500  230.979  106.869    0.546    0.285    4.501
  203.750  228.160  105.755    0.548    0.291    4.781
  204.000  223.250  104.044    0.530    0.273    4.706
  204.250  219.335  102.353    0.538    0.304    4.555
  204.500  212.400  101.856    0.540    0.300    4.407
  204.750  209.548  101.400    0.562    0.304    4.184
  205.000  208.788  104.011    0.592    0.351    3.693
  205.250  215.164  106.024    0.608    0.331    2.713
  205.500  228.777  104.910    0.585    0.354    2.352
  205.750  235.220  104.474    0.585    0.300    2.635
  206.000  231.339  105.232    0.555    0.293    2.953
  206.250  219.191  107.823    0.549    0.293    2.913
  206.500  228.722  109.816    0.552    0.299    2.922
  206.750  222.782  103.186    0.575    0.296    3.044
  207.000  231.283  114.461    0.549    0.301    3.110
  207.250  233.577  115.219    0.532    0.264    3.191
  207.500  217.313  111.038    0.554    0.290    3.314
  207.750  214.494  106.837    0.551    0.327    3.648
  208.000  211.609  101.441    0.576    0.293    3.936
  208.250  213.935   97.240    0.539    0.268    4.105
  208.500  205.938   96.764    0.532    0.172    3.755
  208.750  195.916  101.247    0.545    0.249    3.079
  209.000  212.582  101.388    0.532    0.311    3.326
  209.250  212.885   95.992    0.518    0.312    5.386
  209.500  202.829   93.643    0.471    0.297    6.033
  209.750  203.098   95.019    0.463    0.289    7.418
  210.000  202.236   96.395    0.490    0.296    6.086
  210.250  201.442   92.872    0.467    0.278    5.778
  210.500  199.619   89.268    0.437    0.253    7.098
  210.750  189.564   82.617    0.470    0.264    8.568
  211.000  189.832   78.436    0.482    0.265    8.750
  211.250  190.101   79.235    0.479    0.273    8.796
  211.500  189.307   75.013    0.476    0.260    8.823
  211.750  188.479   71.450    0.458    0.218    8.851
  212.000  187.719   73.463    0.466    0.303    9.053
  212.250  186.891   77.309    0.491    0.301    9.086
  212.500  186.131   81.195    0.502    0.307    8.324
  212.750  186.332   81.316    0.505    0.340    7.082
  213.000  187.697   85.162    0.479    0.338    6.250
  213.250  193.010   93.987    0.494    0.352    5.826
  213.500  205.662   95.960    0.475    0.329    5.956
  213.750  205.863   97.336    0.510    0.339    5.956
  214.000  216.389  101.242    0.533    0.341    6.230
  214.250  219.745   97.638    0.501    0.347    6.487
  214.500  236.445  100.249    0.531    0.283    5.943
  214.750  223.302   97.941    0.509    0.149    5.539
  215.000  222.542  107.961    0.513    0.298    4.887
  215.250  225.898  113.041    0.540    0.290    4.084
  215.500  227.162  108.243    0.552    0.277    3.603
  215.750  227.430  109.659    0.565    0.276    3.426
  216.000  227.632  112.270    0.567    0.275    3.502
  216.250  227.833  109.921    0.556    0.270    3.924
  216.500  228.135  103.928    0.546    0.272    4.651
  216.750  226.279  100.344    0.516    0.283    5.308
  217.000  226.547   99.848    0.505    0.277    5.731
  217.250  215.429   98.156    0.508    0.270    5.967
  217.500  207.465   96.425    0.505    0.260    5.880
  217.750  200.497   91.009    0.491    0.243    5.794
  218.000  193.495   82.506    0.418    0.311    5.821
  218.250  188.618   89.439    0.449    0.291    5.948
  218.500  189.848   96.392    0.474    0.285    5.948
  218.750  197.321   94.701    0.496    0.300    5.992
  219.000  202.735   90.499    0.495    0.324    5.907
  219.250  203.999   90.681    0.482    0.304    5.821
  219.500  202.142   93.272    0.478    0.291    5.742
  219.750  210.643   97.137    0.472    0.283    5.757
  220.000  219.145   96.043    0.456    0.269    5.781
  220.250  222.433   90.010    0.475    0.294    5.805
  220.500  228.876   87.044    0.552    0.365    5.724
  220.750  235.319   88.440    0.556    0.449    5.742
  221.000  256.170   93.520    0.537    0.381    5.655
  221.250  261.516   99.218    0.513    0.306    5.474
  221.500  237.087  100.017    0.512    0.336    5.494
  221.750  236.293   95.816    0.509    0.389    5.514
  222.000  235.466  102.131    0.504    0.429    5.337
  222.250  236.730  111.574    0.501    0.322    4.975
  222.500  223.587  116.655    0.513    0.259    4.080
  222.750  215.623  116.796    0.507    0.245    3.475
  223.000  213.800  115.065    0.503    0.240    3.358
  223.250  210.914  114.608    0.495    0.200    3.251
  223.500  207.066  120.924    0.515    0.249    3.263
  223.750  200.064  125.407    0.536    0.239    3.275
  224.000  199.304  119.971    0.538    0.205    3.410
  224.250  199.539  113.938    0.521    0.235    3.410
  224.500  198.779  106.690    0.500    0.196    3.635
  224.750  196.922  100.636    0.425    0.170    4.069
  225.000  197.224  108.824    0.489    0.243    4.912
  225.250  205.692  105.280    0.458    0.236    5.603
  225.500  207.951  102.932    0.414    0.236    6.890
  225.750  209.283  103.093    0.398    0.241    8.009
  226.000  210.513  104.449    0.397    0.239    9.141
  226.250  210.748  105.824    0.407    0.238    9.184
  226.500  210.983  105.986    0.427    0.263    8.876
  226.750  212.281  104.274    0.461    0.256    8.440
  227.000  219.686   99.496    0.469    0.294    8.166
  227.250  232.337   98.382    0.453    0.296    8.046
  227.500  238.780   97.926    0.483    0.323    8.076
  227.750  247.248   99.281    0.453    0.250    8.101
  228.000  217.573   99.443    0.412    0.253    7.991
  228.250  191.119   95.879    0.407    0.250    8.021
  228.500  191.320  102.812    0.397    0.229    7.619
  228.750  191.556  107.315    0.426    0.243    7.367
  229.000  196.902  106.819    0.431    0.262    7.670
  229.250  194.050  100.188    0.413    0.244    8.139
  229.500  192.261  102.779    0.419    0.208    7.590
  229.750  192.496  102.343    0.414    0.263    6.343
  230.000  192.764  103.081    0.404    0.248    6.137
  230.250  192.999  105.712    0.421    0.256    6.748
  230.500  194.230  103.363    0.401    0.273    7.297
  230.750  199.678   98.585    0.415    0.255    6.935
  231.000  196.792   98.088    0.460    0.264    6.587
  231.250  207.318  100.082    0.469    0.256    6.491
  231.500  197.262  106.417    0.476    0.265    6.639
  231.750  210.942  101.001    0.471    0.260    7.167
  232.000  212.173   93.733    0.451    0.264    8.644
  232.250  204.175   92.001    0.311    0.135    9.009
  232.500  199.265   97.102    0.371    0.176    7.518
  232.750  204.645  107.142    0.472    0.258    3.894
