~VERSION INFORMATION
 VERS.                 2.0:   CWLS LOG ASCII STANDARD -VERSION 2.0
 WRAP.                  NO:   ONE LINE PER DEPTH STEP
~WELL INFORMATION BLOCK
#MNEM.UNIT           DATA                    DESCRIPTION OF MNEMONIC
#---------    -------------------            -------------------------------
# Generated from Intellog Unique Number	CX_WELLS/WELL/3682
WELL.         AMOCO C31 GREGOIRE             : Well_name    - WELL
LOC .         AA/06-24-085-08W4/0            : Location     - LOCATION
UWI .         AA/06-24-085-08W400            : Uwi          - UNIQUE WELL ID
ENTR.         T                              : Entered      - ENTERED BY
SRVC.         SCHLUMBERGER                   : Scn          - SERVICE COMPANY
DATE.         03/04/92                       : Date         - LOG DATE
STRT.F        200                            : top_depth    - START DEPTH
STOP.F        989.862                        : bot_depth    - STOP DEPTH
STEP.F        0.82                           : increment    - STEP LENGTH
 NULL. -999.2500:NULL Value
~CURVE INFORMATION BLOCK
#MNEM UNIT       ERCB CURVE CODE    CURVE DESCRIPTION
#-----------   ------------------   ----------------------------------
DEPT.F        00 001 00 00         : DEPTH        - DEPTH
GR  .API      00 310 00 00         : GR           - GAMMA RAY
NPHI.V/V      00 330 00 00         : PHIN         - NEUTRON POROSITY (SANDSTONE)
ILD .OHMM     00 120 00 00         : RESD         - DEEP RESISTIVITY (OTHER)
~PARAMETER INFORMATION
#MNEM.UNIT           DATA             DESCRIPTION OF MNEMONIC
#---------         -----------     ------------------------------
GL  .F        1738                 : gl           - GROUND LEVEL ELEVATION
EREF.F        1742                 : kb           - ELEVATION OF DEPTH REFERENCE
DATM.F        1742                 : datum        - DATUM ELEVATION
TDD .F        1008                 : tdd          - TOTAL DEPTH DRILLER
RUN .         ONE                  : Run          - RUN NUMBER
ENG .         JO                   : Engineer     - RECORDING ENGINEER
WIT .         TIM                  : Witness      - WITNESSED BY
MUD .         GEL                  : Mud_type     - MUD TYPE
MATR.         SANDSTONE            : Logunit      - NEUTRON MATRIX
TMAX.F        70                   : BHT          - MAXIMUM RECORDED TEMPERATURE
BHTD.F        1005                 : BHTDEP       - MAXIMUM RECORDED TEMPERATURE
RMT .F        60                   : MDTP         - TEMPERATURE OF MUD
MUDD.LB/G     1                    : MWT          - MUD DENSITY
NEUT.         1                    : NEUTRON      - NEUTRON TYPE
RESI.         4.27                 : RESIST       - RESISTIVITY TYPE
RM  .OHMM     4.27                 : RM           - RESISTIVITY OF MUD
RMC .OHMM     3.86                 : RMC          - RESISTIVITY OF MUD CAKE
RMF .OHMM     3                    : RMF          - RESISTIVITY OF MUD FILTRATE
SUFT.F        32.2                 : SUFT         - SURFACE TEMPERATURE
~A  DEPTH       GR     PHIN     RESD
# ...
  733.957  111.570    0.380    6.540
  734.777  113.448    0.391    5.515
  735.597  115.803    0.409    5.298
  736.417  118.616    0.417    5.293
  737.238  119.064    0.422    5.284
  738.058  118.541    0.424    5.067
  738.878  118.512    0.427    5.058
  739.698  118.465    0.428    5.052
  740.518  117.951    0.428    5.045
  741.339  116.474    0.426    5.031
  742.159  114.053    0.424    5.024
  742.979  112.109    0.418    5.013
  743.799  110.165    0.414    5.002
  744.619  109.660    0.408    4.995
  745.440  108.669    0.401    4.986
  746.260  104.799    0.398    5.180
  747.080  102.865    0.396    5.377
  747.900  106.631    0.396    5.567
  748.720  108.509    0.395    5.756
  749.541  110.378    0.391    5.955
  750.361  106.041    0.389    6.152
  751.181  103.611    0.384    6.750
  752.001  103.592    0.382    7.555
  752.822  102.591    0.379    8.158
  753.642  100.647    0.374    8.142
  754.462   97.264    0.370    8.135
  755.282   95.806    0.370    8.332
  756.102   94.815    0.371    8.729
  756.923   93.814    0.374    8.720
  757.743   90.917    0.370    7.896
  758.563   86.113    0.363    7.073
  759.383   82.262    0.354    7.064
  760.203   77.916    0.342    8.072
  761.024   79.308    0.327    9.285
  761.844   82.130    0.317   10.496
  762.664   85.438    0.321   10.892
  763.484   89.214    0.329   10.273
  764.304   92.513    0.334   10.263
  765.125   94.381    0.344   11.678
  765.945   96.241    0.346   12.683
  766.765   98.110    0.347   11.858
  767.585   97.119    0.350   11.038
  768.406   94.698    0.354   10.216
  769.226   93.230    0.359   10.207
  770.046   93.202    0.367   11.619
  770.866   95.538    0.366   12.019
  771.686   98.370    0.360   11.194
  772.507  104.052    0.356   10.577
  773.327  110.210    0.352   10.162
  774.147  115.892    0.352   10.354
  774.967  118.714    0.353   10.345
  775.787  120.583    0.355   10.338
  776.608  123.396    0.357   10.121
  777.428  126.704    0.357   10.114
  778.248  126.190    0.357    9.699
  779.068  118.516    0.357    9.690
  779.888  112.759    0.356   10.288
  780.709  103.179    0.353   11.296
  781.529   91.703    0.350   14.949
  782.349   88.328    0.348   16.770
  783.169   89.244    0.344   16.761
  783.990   93.001    0.341   16.548
  784.810  101.075    0.337   16.741
  785.630  101.991    0.332   16.524
  786.450  103.392    0.330   16.316
  787.270  105.728    0.325   15.900
  788.091  107.597    0.324   15.482
  788.911  108.989    0.324   15.475
  789.731  108.475    0.328   15.871
  790.551  103.194    0.332   15.864
  791.371   94.091    0.335   16.460
  792.192   89.287    0.337   18.692
  793.012   85.437    0.341   24.377
  793.832   80.623    0.343   30.061
  794.652   76.296    0.341   33.915
  795.472   73.866    0.342   36.346
  796.293   74.305    0.346   42.640
  797.113   76.650    0.353   46.494
  797.933   79.472    0.362   48.721
  798.753   82.294    0.363   49.932
  799.573   84.649    0.360   42.603
  800.394   85.079    0.356   34.663
  801.214   84.574    0.351   30.585
  802.034   84.527    0.349   29.559
  802.854   84.013    0.345   30.363
  803.675   82.068    0.343   29.742
  804.495   79.638    0.341   26.685
  805.315   77.208    0.340   26.066
  806.135   76.226    0.338   25.445
  806.955   74.759    0.338   26.455
  807.776   73.768    0.338   30.919
  808.596   73.721    0.339   35.993
  809.416   74.646    0.340   44.320
  810.236   77.449    0.347   47.971
  811.056   78.383    0.351   47.960
  811.877   80.252    0.361   47.748
  812.697   83.074    0.362   47.736
  813.517   86.373    0.362   47.122
  814.337   93.962    0.360   46.096
  815.157  102.513    0.362   41.408
  815.978  112.008    0.364   33.673
  816.798  115.774    0.370   18.006
  817.618  112.409    0.374   16.370
  818.438  101.876    0.375   14.730
  819.259   89.913    0.375   19.196
  820.079   86.062    0.374   23.053
  820.899   81.735    0.373   27.313
  821.719   78.361    0.370   28.118
  822.539   74.024    0.367   29.329
  823.360   70.641    0.367   33.384
  824.180   69.173    0.370   34.597
  825.000   68.173    0.371   41.501
  825.820   67.677    0.372   46.778
  826.640   67.153    0.375   49.819
  827.461   67.592    0.375   50.621
  828.281   69.938    0.376   50.614
  829.101   74.657    0.376   50.605
  829.921   76.535    0.376   51.206
  830.741   78.404    0.376   50.786
  831.562   82.180    0.376   49.966
  832.382   87.385    0.375   47.718
  833.202   92.114    0.373   44.052
  834.022   92.543    0.367   33.467
  834.843   93.945    0.362   28.983
  835.663   99.150    0.355   24.295
  836.483   99.112    0.348   23.272
  837.303   95.261    0.344   21.026
  838.123   90.457    0.338   17.967
  838.944   84.691    0.331   15.719
  839.764   81.784    0.321   16.320
  840.584   79.840    0.320   20.373
  841.404   80.765    0.320   20.979
  842.224   85.493    0.318   21.783
  843.045   89.269    0.317   21.977
  843.865   89.222    0.308   21.765
  844.685   87.268    0.295   20.938
  845.505   86.773    0.291   20.527
  846.325   84.810    0.300   19.494
  847.146   82.865    0.310   19.081
  847.966   81.398    0.319   18.462
  848.786   80.883    0.327   18.451
  849.606   82.276    0.333   19.257
  850.427   84.145    0.338   20.267
  851.247   85.546    0.343   20.866
  852.067   85.976    0.340   21.060
  852.887   84.508    0.338   21.458
  853.707   82.564    0.331   23.075
  854.528   81.573    0.331   29.979
  855.348   82.003    0.332   32.209
  856.168   82.442    0.333   27.318
  856.988   81.451    0.331   23.446
  857.808   78.067    0.330   20.590
  858.629   76.123    0.327   17.527
  859.449   73.702    0.323   18.130
  860.269   73.664    0.323   19.542
  861.089   76.010    0.324   20.552
  861.909   78.841    0.328   21.966
  862.730   89.290    0.336   23.380
  863.550   92.588    0.340   23.778
  864.370   98.270    0.341   18.889
  865.190  104.429    0.341   16.844
  866.010  108.690    0.341   14.800
  866.831  112.466    0.341   13.776
  867.651  118.148    0.340   12.547
  868.471  119.054    0.339   11.522
  869.291  118.044    0.339   10.290
  870.112  118.016    0.342    9.059
  870.932  118.464    0.344    8.847
  871.752  119.847    0.349    9.247
  872.572  121.239    0.353    9.441
  873.392  118.351    0.357    9.226
  874.213  103.042    0.360    9.012
  875.033  100.154    0.361    9.007
  875.853   91.051    0.355    8.994
  876.673   86.714    0.348    8.987
  877.493   86.210    0.347    8.978
  878.314   89.985    0.347    9.170
  879.134   95.667    0.352    9.771
  879.954  100.395    0.356    9.965
  880.774  107.507    0.356    9.348
  881.594  107.946    0.357    8.318
  882.415  108.376    0.360    7.699
  883.235  109.291    0.364    7.487
  884.055  111.151    0.364    7.480
  884.875  112.076    0.358    7.672
  885.696  113.001    0.356    7.864
  886.516  110.561    0.353    7.860
  887.336  109.589    0.349    7.851
  888.156  106.682    0.347    7.634
  888.976  103.766    0.343    7.622
  889.797   97.074    0.342    7.618
  890.617   96.550    0.341    7.609
  891.437   95.083    0.340    7.801
  892.257   92.166    0.336    7.995
  893.077   90.718    0.335    8.190
  893.898   87.820    0.333    8.180
  894.718   84.913    0.334    8.375
  895.538   82.493    0.337    8.973
  896.358   83.399    0.340    9.577
  897.178   84.800    0.343   10.787
  897.999   87.613    0.344   11.793
  898.819   88.538    0.342   11.784
  899.639   87.547    0.342   11.366
  900.459   86.547    0.342   11.158
  901.280   86.509    0.343   11.350
  902.100   85.995    0.345   12.355
  902.920   85.004    0.346   12.758
  903.740   84.480    0.344   12.950
  904.560   83.966    0.341   12.737
  905.381   83.928    0.339   13.130
  906.201   83.891    0.340   13.126
  907.021   83.862    0.345   13.112
  907.841   83.348    0.348   12.902
  908.661   81.852    0.350   12.690
  909.482   81.824    0.350   12.276
  910.302   82.263    0.350   11.246
  911.122   82.235    0.350   11.036
