~Version : LASO    vs 4.00
VERS.                2.00:   CWLS Log ASCII Standard -VERSION 2.0
WRAP.                  NO:
~Well Information Block
#MNEM.UNIT       Data                        Description of Mnemonic
#----.----      -------------------------- : -----------------------------
STRT.M            13.0000:
STOP.M           191.0000:
STEP.M             0.2000:
NULL.           -999.2500:
COMP.  MOBIL OIL OF CANADA          :COMPANY
WELL.  MOBIL CLARKE OV 4-1          :WELL
FLD.                                :FIELD
LOC.   04-01-091-08W4               :LOCATION
CTRY.  CANADA                       :COUNTRY
PROV.  ALBERTA                      :PROVINCE
SRVC.  SCHLUMBERGER                 :SERVICE COMPANY
DATE.  12-FEB-81                    :LOG DATE
UWI.   AA/04-01-091-08W400          :UNIQUE WELL ID
~Parameter Information Block
#MNEM.UNIT       Data                        Description of Mnemonic
#----.----      -------------------------- : -----------------------------
RUN .                   1                 : Run Number
GL  .M           444.1000                 : Ground Level Elevation
DREF.                  GD                 : Depth Reference
EREF.M           444.1000                 : Elevation of Depth Reference
TDL .M           191.5000                 : Total Depth Logger
TDD .M           192.0000                 : Total Depth Driller
CSGL.M            15.0000                 : Casing Bottom Logger
CSGD.M            15.0000                 : Casing Bottom Driller
CSGS.MM          179.0000                 : Casing Size
CSGW.KG/M          0.0000                 : Casing Weight
BHT .DEGC         12.0000                 : Bottom Hole Temperature
BS  .MM          158.0000                 : Bit Size
DFD .           1080.0000                 : Mud Weight (Density)
DFV .             85.0000                 : Mud Viscosity
DFPH.             12.6000                 : Mud pH
~Curve Information Block
#MNEM.UNIT        API CODE    Curve Description
#---------    ------------    -------------------------------------------
DEPT.M                    :   DEPTH
CALI.MM       42 280  1  1:   3 DENSITY CALIPER
DPHI.V/V                  :   DPHI
DT  .US/M     60 520  0  1:   2 SONIC INTERVAL TRANSIT TIME (COMPENSATED)
GR  .GAPI     42 310  1  1:   4 GAMMA RAY
ILD .OHMM      5 120 46  1:   7 DEEP INDUCTION
ILM .OHMM      5 120 44  1:   8 MEDIUM INDUCTION
NPHI.V/V      42 890  3  1:   5 NEUTRON POROSITY (SANDSTONE)
RHOB.K/M3     42 350  1  1:   6 BULK DENSITY
SFLU.OHMM      5 220  1  1:   9 FOCUSSED RESISTIVITY
SP  .MV        5  10  1  1:   10 SPONTANEOUS POTENTIAL
~A  Depth           CALI        DPHI          DT          GR         ILD         ILM        NPHI        RHOB        SFLU          SP
# ...
147.2000        157.3500      0.1541    416.6400     59.7150     18.0397    381.0921      0.4036   2404.8999     24.2008    -72.4950
147.4000        161.0750      0.1606    429.0400     55.6050     18.7167    402.7448      0.4084   2346.5000     62.4928    -70.7400
147.6000        161.0750      0.1828    433.8800     50.7000     18.7167    425.6277      0.4159   2342.5000   1037.1222    -70.9950
147.8000        156.1250      0.1925    421.4000     47.4900     18.8899    410.2324      0.3703   2314.8000    242.0081    -71.4900
148.0000        156.1250      0.1916    411.0400     54.1050     18.3751    417.8592      0.3370   2318.8000     26.5357    -69.4800
148.2000        156.1250      0.2035    408.6400     62.2050     17.2278    395.3939      0.3271   2346.5000     17.8579    -68.4750
148.4000        157.3500      0.1807    417.5600     71.8200     15.1297    406.4713      0.3619   2397.0000     22.8997    -72.9900
148.6000        157.3500      0.1712    430.7600     69.8250     15.1297    406.4713      0.3732   2346.5000     21.2731    -73.7400
148.8000        161.0750      0.1785    441.4000     67.4100     15.5536    406.4713      0.3806   2325.7000     18.6995    -75.2550
149.0000        158.6000      0.1927    453.1200     58.6050     17.3872    381.0921      0.3995   2341.5000     42.8381    -80.0100
149.2000        157.3500      0.1971    455.5200     50.8050     18.2066    388.1771      0.4147   2312.8000     92.0089    -81.2700
149.4000        157.3500      0.2166    449.9200     46.5900     18.8899    410.2324      0.4195   2260.3000    155.5356    -83.5200
149.6000        156.1250      0.2315    440.2000     45.0000     19.5988    402.7448      0.4057   2259.3000    224.8174    -86.5350
149.8000        156.1250      0.2339    411.0800     43.8900     21.0974    410.2324      0.3993   2263.3000     67.2713    -87.5400
150.0000        156.1250      0.2309    404.8000     41.6850     21.6885    395.3939      0.4003   2273.2000     51.0305    -90.7950
150.2000        156.1250      0.2283    404.4800     40.1850     21.6885    410.2324      0.3987   2291.0000     60.7897    -96.3150
150.4000        156.1250      0.2234    412.4400     35.0850     21.6885    410.2324      0.3859   2278.2000    275.3150   -103.0800
150.6000        154.8750      0.2271    411.9200     33.0750     22.5025    410.2324      0.3668   2262.3000    529.4561   -103.8300
150.8000        156.1250      0.2330    405.8400     33.8850     23.7810    402.7448      0.3497   2277.2000    672.7131   -104.3400
151.0000        153.6250      0.2288    399.2000     34.2750     26.5601    388.1771      0.3502   2297.0000    794.0172   -104.0850
151.2000        154.8750      0.2250    399.0400     34.3800     28.3289    406.4713      0.3557   2304.8999    591.3300   -103.3350
151.4000        154.8750      0.2190    400.2000     34.3800     29.1226    417.8592      0.3639   2269.3000    666.5457   -102.5850
151.6000        154.8750      0.2303    394.8400     34.0800     31.9323    417.8592      0.3647   2314.8000   1721.1943    -99.3150
151.8000        156.1250      0.2185    393.5200     33.5850     32.8269    391.7689      0.3646   2301.8999   2289.9705    -98.5650
152.0000        156.1250      0.2193    393.6400     33.3750     33.1306    417.8592      0.3649   2293.0000   2289.9705    -97.8150
152.2000        158.6000      0.2185    392.0800     33.1800     29.1226    458.1735      0.3625   2281.1001   2354.1270    -96.8100
152.4000        158.6000      0.2183    388.3600     33.9750     26.0753    402.7448      0.3662   2263.3000   2069.3308    -96.3150
152.6000        157.3500      0.2295    383.3200     35.8800     23.3469    402.7448      0.3746   2269.3000    260.5133    -96.0600
152.8000        158.6000      0.2281    382.7600     38.2800     20.7124    381.0921      0.3777   2273.2000     91.1654    -94.8000
153.0000        159.8250      0.2377    390.8800     48.9900     17.2278    417.8592      0.3590   2252.3999     25.5758    -86.5350
153.2000        156.1250      0.2092    403.5600     54.0000     15.5536    414.0282      0.3489   2297.0000     21.8691    -83.2800
153.4000        156.1250      0.1827    415.8000     57.4050     14.1850    406.4713      0.3536   2364.3000     22.4817    -81.5250
153.6000        157.3500      0.1641    436.5200     61.8150     12.5843    388.1771      0.3672   2366.3000     22.6898    -77.0100
153.8000        156.1250      0.1785    438.1200     66.2100     12.2414    399.0524      0.3633   2354.3999     20.5036    -73.9950
154.0000        157.3500      0.1724    432.8000     71.8200     12.1291    410.2324      0.3567   2350.3999     16.8978    -73.2450
154.2000        156.1250      0.1606    424.8400     77.0250     12.2414    402.7448      0.3748   2402.8999     12.8183    -75.7500
154.4000        157.3500      0.1638    422.7600     73.8150     12.4690    399.0524      0.3851   2400.8999     14.1850    -79.2600
154.6000        158.6000      0.1623    422.9600     67.1100     12.9369    381.0921      0.3958   2358.3999     19.9448    -84.0300
154.8000        159.8250      0.1781    435.0400     53.2050     14.5824    417.8592      0.3732   2351.3999     36.9683    -88.7850
155.0000        159.8250      0.1955    439.7200     50.2950     15.1297    410.2324      0.3581   2314.8000     38.0041    -87.0300
155.2000        157.3500      0.2110    441.2400     50.2950     15.1297    410.2324      0.3503   2289.1001     78.6738    -85.7850
155.4000        154.8750      0.2236    424.2800     54.7050     15.1297    410.2324      0.3614   2285.1001    107.6044    -83.7750
155.6000        158.6000      0.2219    414.6000     57.9000     15.5536    410.2324      0.3555   2296.0000     31.9029    -80.2650
155.8000        161.0750      0.2277    413.5600     61.1100     15.6975    437.5522      0.3528   2267.3000     20.1294    -76.5000
156.0000        162.3000      0.2191    418.0000     64.8150     15.8427    414.0282      0.3699   2304.8999     17.5319    -74.5050
156.2000        159.8250      0.2030    426.8800     65.1150     15.9893    410.2324      0.4238   2351.3999     24.8788    -74.5050
156.4000        162.3000      0.1936    427.4400     61.6050     16.1373    377.5982      0.4373   2315.8000     55.4409    -76.0050
156.6000        161.0750      0.2003    426.2000     57.8100     17.2278    388.1771      0.4322   2269.3000    103.7122    -76.7550
156.8000        161.0750      0.2124    422.3200     52.9950     20.7124    414.0282      0.4102   2278.2000     35.6312    -75.4950
157.0000        163.5500      0.2350    420.7600     55.9050     22.5025    410.2324      0.3954   2288.1001     31.3206    -75.2550
157.2000        161.0750      0.2302    420.4400     59.0100     24.0010    406.4713      0.4046   2297.0000     38.7106    -76.2600
157.4000        158.6000      0.2174    428.0000     50.5950     27.5569    410.2324      0.4353   2273.2000    156.9748    -80.2650
157.6000        159.8250      0.2301    426.5600     43.0950     29.6640    417.8592      0.4346   2220.7000    575.2146    -80.7600
157.8000        162.3000      0.2474    421.9600     37.2900     31.9323    410.2324      0.4287   2219.7000   2268.9758    -79.2600
158.0000        159.8250      0.2606    416.0000     39.0900     33.7466    410.2324      0.4052   2206.8999   2289.9705    -79.7700
158.2000        159.8250      0.2706    415.6400     41.3850     33.4372    377.5982      0.4110   2227.7000    963.4516    -80.5200
158.4000        159.8250      0.2629    417.7200     43.1850     33.1306    395.3939      0.4199   2231.6001    175.3194    -79.7700
158.6000        163.5500      0.2668    430.0000     50.4000     30.2155    406.4713      0.4234   2199.8999     50.0991    -75.0000
158.8000        158.6000      0.2575    435.4400     52.8000     26.8059    406.4713      0.4357   2236.6001     64.2436    -73.7400
159.0000        156.1250      0.2247    436.9200     54.3000     25.3647    406.4713      0.4472   2267.3000    112.6756    -73.5000
159.2000        158.6000      0.2112    435.4400     54.8100     23.7810    395.3939      0.4464   2268.3000    119.0776    -73.7400
