~VERSION INFORMATION
 VERS.                 2.0:   CWLS LOG ASCII STANDARD -VERSION 2.0
 WRAP.                  NO:   ONE LINE PER DEPTH STEP
~WELL INFORMATION BLOCK
#MNEM.UNIT           DATA                    DESCRIPTION OF MNEMONIC
#---------    -------------------            -------------------------------
# Generated from Intellog Unique Number	CX_WELLS/WELL/3923
WELL.         04-08-098-12W4                 : Well_name    - WELL
LOC .         AA/04-08-098-12W4/0            : Location     - LOCATION
UWI .         AA/04-08-098-12W400            : Uwi          - UNIQUE WELL ID
ENTR.         JOETTE                         : Entered      - ENTERED BY
SRVC.         SCHLUMBERGER                   : Scn          - SERVICE COMPANY
DATE.         08/28/92                       : Date         - LOG DATE
STRT.M        75                             : top_depth    - START DEPTH
STOP.M        270                            : bot_depth    - STOP DEPTH
STEP.M        0.25                           : increment    - STEP LENGTH
 NULL. -999.2500:NULL Value
~CURVE INFORMATION BLOCK
#MNEM UNIT       ERCB CURVE CODE    CURVE DESCRIPTION
#-----------   ------------------   ----------------------------------
DEPT.M        00 001 00 00         : DEPTH        - DEPTH
GR  .API      00 310 00 00         : GR           - GAMMA RAY
NPHI.V/V      00 330 00 00         : PHIN         - NEUTRON POROSITY (SANDSTONE)
DPHI.V/V      00 890 00 00         : PHID         - DENSITY POROSITY (SANDSTONE)
ILD .OHMM     00 120 00 00         : RESD         - DEEP RESISTIVITY (DIL)
~PARAMETER INFORMATION
#MNEM.UNIT           DATA             DESCRIPTION OF MNEMONIC
#---------         -----------     ------------------------------
GL  .M        513.25               : gl           - GROUND LEVEL ELEVATION
EREF.M        516.5                : kb           - ELEVATION OF DEPTH REFERENCE
DATM.M        516.5                : datum        - DATUM ELEVATION
TDD .M        275                  : tdd          - TOTAL DEPTH DRILLER
RUN .         ONE                  : Run          - RUN NUMBER
ENG .         JO                   : Engineer     - RECORDING ENGINEER
WIT .         TIM                  : Witness      - WITNESSED BY
MUD .         GEL                  : Mud_type     - MUD TYPE
MATR.         SANDSTONE            : Logunit      - NEUTRON MATRIX
TMAX.C        17                   : BHT          - MAXIMUM RECORDED TEMPERATURE
BHTD.M        275                  : BHTDEP       - MAXIMUM RECORDED TEMPERATURE
RMT .C        17                   : MDTP         - TEMPERATURE OF MUD
MUDD.KG/M     1080                 : MWT          - MUD DENSITY
NEUT.         1                    : NEUTRON      - NEUTRON TYPE
RESI.         0                    : RESIST       - RESISTIVITY TYPE
RM  .OHMM     4.35                 : RM           - RESISTIVITY OF MUD
RMC .OHMM     3.95                 : RMC          - RESISTIVITY OF MUD CAKE
RMF .OHMM     2.85                 : RMF          - RESISTIVITY OF MUD FILTRATE
SUFT.C        4                    : SUFT         - SURFACE TEMPERATURE
~A  DEPTH       GR     PHIN     PHID     RESD
   75.000   88.897    0.535    0.336   53.111
   75.250   97.079    0.536    0.335   45.699
   75.500   97.567    0.543    0.348   40.056
   75.750   96.141    0.548    0.360   32.557
   76.000   90.871    0.548    0.357   26.968
   76.250   90.405    0.542    0.358   21.508
   76.500   87.541    0.540    0.360   18.503
   76.750   86.595    0.533    0.354   17.168
   77.000   87.091    0.522    0.343   16.238
   77.250   86.145    0.512    0.329   16.255
   77.500   82.800    0.504    0.317   17.875
   77.750   81.370    0.505    0.313   24.676
   78.000   82.350    0.511    0.308   33.427
   78.250   83.322    0.517    0.311   47.935
   78.500   82.856    0.528    0.321   49.825
   78.750   80.957    0.538    0.346   47.115
   79.000   81.925    0.546    0.371   37.585
   79.250   82.425    0.548    0.378   25.766
   79.500   83.400    0.535    0.388   18.688
   79.750   82.455    0.465    0.398   16.696
   80.000   80.064    0.433    0.403   14.637
   80.250   76.716    0.318    0.405   26.340
   80.500   74.328    0.286    0.399   45.630
   80.750   71.941    0.270    0.394   88.584
   81.000   66.675    0.262    0.400  101.190
   81.250   63.330    0.264    0.406   97.534
   81.500   61.420    0.271    0.409   92.210
   81.750   58.072    0.283    0.410  132.205
   82.000   54.724    0.287    0.413  153.935
   82.250   54.258    0.288    0.423  163.059
   82.500   53.793    0.295    0.424  142.982
   82.750   51.409    0.308    0.423  127.718
   83.000   49.983    0.335    0.418  111.969
   83.250   49.514    0.341    0.412   94.518
   83.500   49.056    0.370    0.404   66.033
   83.750   50.028    0.381    0.397   57.891
   84.000   51.004    0.395    0.386   55.788
   84.250   52.460    0.408    0.359   62.558
   84.500   53.432    0.421    0.355   39.761
   84.750   54.408    0.430    0.348   34.858
   85.000   55.384    0.442    0.342   36.916
   85.250   55.883    0.461    0.333   33.612
   85.500   56.382    0.466    0.329   22.611
   85.750   56.877    0.458    0.330   22.630
   86.000   56.892    0.448    0.332   28.432
   86.250   54.982    0.408    0.328   20.235
   86.500   51.153    0.383    0.317   26.398
   86.750   46.364    0.324    0.258   30.744
   87.000   44.937    0.271    0.236   29.620
   87.250   48.315    0.274    0.222   26.469
   87.500   50.740    0.280    0.217   43.315
   87.750   51.708    0.293    0.274  204.560
   88.000   53.165    0.320    0.298  470.745
   88.250   56.543    0.393    0.305  348.085
   88.500   58.007    0.429    0.325  183.064
   88.750   55.135    0.478    0.331   45.181
   89.000   52.267    0.459    0.341   17.227
   89.250   51.802    0.455    0.348   10.744
   89.500   52.778    0.454    0.340   30.444
   89.750   53.277    0.451    0.327   18.278
   90.000   52.327    0.456    0.324   15.140
   90.250   50.428    0.465    0.322   26.233
   90.500   49.955    0.474    0.314   26.762
   90.750   53.333    0.482    0.305   24.361
   91.000   58.633    0.476    0.298   21.765
   91.250   66.338    0.478    0.294   23.944
   91.500   71.158    0.488    0.301   26.851
   91.750   76.458    0.496    0.295   18.062
   92.000   78.394    0.485    0.289   16.446
   92.250   78.413    0.485    0.281   16.770
   92.500   80.350    0.496    0.272   17.764
   92.750   83.728    0.508    0.260   14.998
   93.000   87.586    0.513    0.252   13.656
   93.250   87.121    0.510    0.253   13.928
   93.500   84.734    0.500    0.258   14.754
   93.750   82.827    0.497    0.263   15.629
   94.000   80.443    0.482    0.279   15.351
   94.250   79.494    0.474    0.287   13.977
   94.500   78.071    0.469    0.292   13.217
   94.750   76.164    0.470    0.297   16.596
   95.000   74.738    0.472    0.303   15.693
   95.250   75.233    0.479    0.304   17.265
   95.500   74.291    0.480    0.299   17.279
   95.750   73.818    0.480    0.295   15.732
   96.000   74.798    0.483    0.293   11.418
   96.250   77.215    0.485    0.294   13.804
   96.500   79.632    0.488    0.294   14.079
   96.750   82.533    0.493    0.288   14.914
   97.000   84.470    0.492    0.284   18.035
   97.250   82.079    0.484    0.283   15.814
   97.500   79.215    0.490    0.284   13.347
   97.750   77.793    0.493    0.289   13.113
   98.000   77.320    0.489    0.298   13.374
   98.250   77.338    0.498    0.298   13.638
   98.500   76.392    0.507    0.299   13.655
   98.750   74.489    0.503    0.304   13.661
   99.000   74.977    0.505    0.310   15.611
   99.250   73.551    0.507    0.305   14.762
   99.500   70.683    0.506    0.305   14.774
   99.750   67.816    0.499    0.308   13.709
  100.000   67.350    0.491    0.311   14.249
  100.250   67.369    0.491    0.311   21.222
  100.500   66.907    0.492    0.312   17.242
  100.750   65.957    0.497    0.324   12.046
  101.000   65.496    0.505    0.339   11.830
  101.250   65.991    0.508    0.340   19.367
  101.500   66.486    0.516    0.340   16.042
  101.750   67.946    0.522    0.340   20.924
  102.000   68.915    0.531    0.340   24.834
  102.250   70.852    0.533    0.339   16.705
  102.500   72.792    0.526    0.342   15.793
  102.750   74.248    0.518    0.340   14.110
  103.000   74.263    0.517    0.331   13.598
  103.250   75.239    0.521    0.326   16.135
  103.500   76.695    0.525    0.325   14.694
  103.750   79.116    0.531    0.320   13.376
  104.000   79.612    0.536    0.312   11.507
  104.250   79.623    0.541    0.308   10.883
  104.500   78.677    0.548    0.314   11.528
  104.750   76.774    0.557    0.331    9.915
  105.000   74.867    0.554    0.328    8.370
  105.250   73.437    0.548    0.336    8.700
  105.500   74.417    0.548    0.340   12.476
  105.750   76.830    0.549    0.366   12.970
  106.000   77.810    0.554    0.366   13.739
  106.250   78.785    0.558    0.362   12.992
  106.500   82.644    0.566    0.364   11.174
  106.750   89.385    0.560    0.364    9.082
  107.000   86.517    0.549    0.359   12.306
  107.250   83.650    0.533    0.336   11.204
  107.500   81.262    0.526    0.334   10.012
  107.750   78.395    0.519    0.331    9.286
  108.000   75.527    0.517    0.315    8.141
  108.250   73.144    0.516    0.308    7.137
  108.500   70.756    0.516    0.304    9.669
  108.750   71.248    0.517    0.297   14.400
  109.000   74.149    0.520    0.292   15.841
  109.250   77.043    0.528    0.287   17.101
  109.500   83.788    0.535    0.288   16.480
  109.750   81.881    0.531    0.296   15.005
  110.000   78.056    0.526    0.308   12.666
  110.250   76.146    0.521    0.315   11.316
  110.500   72.802    0.518    0.317   10.701
  110.750   70.891    0.509    0.321   17.186
  111.000   69.465    0.510    0.321   35.980
  111.250   71.885    0.514    0.325   56.716
  111.500   73.338    0.518    0.326   61.212
  111.750   74.794    0.517    0.325   62.446
  112.000   76.254    0.519    0.321   52.713
  112.250   77.714    0.517    0.318   38.239
  112.500   77.722    0.487    0.316   27.226
  112.750   76.296    0.463    0.315   17.975
  113.000   72.467    0.453    0.316   16.675
  113.250   67.677    0.447    0.317   15.476
  113.500   63.368    0.445    0.317   18.016
  113.750   61.950    0.445    0.318   27.867
  114.000   63.413    0.448    0.321   31.839
  114.250   63.901    0.454    0.322   43.954
  114.500   65.354    0.463    0.323   50.229
  114.750   67.782    0.464    0.322   72.016
  115.000   68.751    0.462    0.320   79.226
  115.250   69.723    0.458    0.319   90.519
  115.500   70.225    0.463    0.322   79.357
  115.750   69.753    0.465    0.325   52.383
  116.000   66.892    0.466    0.321   36.597
  116.250   66.419    0.466    0.319   33.950
  116.500   66.918    0.470    0.323   31.509
  116.750   67.891    0.476    0.324   38.102
  117.000   74.155    0.491    0.318   33.411
  117.250   87.142    0.508    0.306   28.736
  117.500   91.481    0.526    0.295   22.489
  117.750  102.066    0.545    0.281   17.271
  118.000  113.134    0.559    0.262   14.576
  118.250  119.399    0.563    0.257   11.847
