~VERSION INFORMATION
 VERS.                 2.0:   CWLS LOG ASCII STANDARD -VERSION 2.0
 WRAP.                  NO:   ONE LINE PER DEPTH STEP
~WELL INFORMATION BLOCK
#MNEM.UNIT           DATA                    DESCRIPTION OF MNEMONIC
#---------    -------------------            -------------------------------
# Generated from Intellog Unique Number	CN_91_93/WELL/3090
WELL.         01-05-092-12W4                 : Well_name    - WELL
LOC .         AA/01-05-092-12W4/0            : Location     - LOCATION
UWI .         AA/01-05-092-12W400            : Uwi          - UNIQUE WELL ID
ENTR.         JOETTE                         : Entered      - ENTERED BY
SRVC.         WESTERN ATLAS                  : Scn          - SERVICE COMPANY
DATE.         04/10/92                       : Date         - LOG DATE
STRT.M        45                             : top_depth    - START DEPTH
STOP.M        200                            : bot_depth    - STOP DEPTH
STEP.M        0.25                           : increment    - STEP LENGTH
 NULL. -999.2500:NULL Value
~CURVE INFORMATION BLOCK
#MNEM UNIT       ERCB CURVE CODE    CURVE DESCRIPTION
#-----------   ------------------   ----------------------------------
DEPT.M        00 001 00 00         : DEPTH        - DEPTH
CALI.MM       00 280 01 00         : CAL          - CALIPER
GR  .API      00 310 00 00         : GR           - GAMMA RAY
NPHI.V/V      00 330 00 00         : PHIN         - NEUTRON POROSITY (SANDSTONE)
DPHI.V/V      00 890 00 00         : PHID         - DENSITY POROSITY (SANDSTONE)
ILD .OHMM     00 120 00 00         : RESD         - DEEP RESISTIVITY (DIL)
~PARAMETER INFORMATION
#MNEM.UNIT           DATA             DESCRIPTION OF MNEMONIC
#---------         -----------     ------------------------------
GL  .M        390.2                : gl           - GROUND LEVEL ELEVATION
EREF.M        395.3                : kb           - ELEVATION OF DEPTH REFERENCE
DATM.M        395.3                : datum        - DATUM ELEVATION
TDD .M        203.3                : tdd          - TOTAL DEPTH DRILLER
RUN .         ONE                  : Run          - RUN NUMBER
ENG .         BILL                 : Engineer     - RECORDING ENGINEER
WIT .         JIM                  : Witness      - WITNESSED BY
MUD .         GEL                  : Mud_type     - MUD TYPE
MATR.         SANDSTONE            : Logunit      - NEUTRON MATRIX
TMAX.C        19                   : BHT          - MAXIMUM RECORDED TEMPERATURE
BHTD.M        203.3                : BHTDEP       - MAXIMUM RECORDED TEMPERATURE
RMT .C        20                   : MDTP         - TEMPERATURE OF MUD
MUDD.KG/M     1100                 : MWT          - MUD DENSITY
NEUT.         1                    : NEUTRON      - NEUTRON TYPE
RESI.         0                    : RESIST       - RESISTIVITY TYPE
RM  .OHMM     2.5                  : RM           - RESISTIVITY OF MUD
RMC .OHMM     2.5                  : RMC          - RESISTIVITY OF MUD CAKE
RMF .OHMM     2.5                  : RMF          - RESISTIVITY OF MUD FILTRATE
SUFT.C        4                    : SUFT         - SURFACE TEMPERATURE
~A  DEPTH      CAL       GR     PHIN     PHID     RESD
# ...
   81.500  255.417   44.664    0.564    0.486    2.510
   81.750  279.148   43.166    0.529    0.515    2.205
   82.000  247.407   48.630    0.495    0.555    2.729
   82.250  212.131   53.189    0.497    0.584    3.441
   82.500  185.433   54.112    0.472    0.368    4.067
   82.750  173.870   55.949    0.448    0.330    5.947
   83.000  176.414   55.059    0.434    0.293    7.094
   83.250  178.969   55.377    0.439    0.235    7.571
   83.500  182.532   57.513    0.443    0.238    7.230
   83.750  185.583   55.415    0.438    0.220    6.840
   84.000  193.681   55.437    0.449    0.205    6.122
   84.250  200.771   55.448    0.475    0.212    4.768
   84.500  205.843   57.281    0.508    0.393    4.112
   84.750  203.355   63.050    0.529    0.388    3.714
   85.000  184.725   63.975    0.497    0.418    3.613
   85.250  190.298   64.903    0.508    0.362    3.614
   85.500  192.348   66.734    0.511    0.322    3.682
   85.750  188.844   64.936    0.483    0.341    3.893
   86.000  186.860   66.166    0.469    0.309    4.155
   86.250  188.398   61.342    0.473    0.296    4.273
   86.500  190.956   65.291    0.449    0.280    4.314
   86.750  188.457   65.006    0.446    0.257    4.315
   87.000  190.511   61.090    0.448    0.252    4.276
   87.250  195.083   66.859    0.449    0.321    4.121
   87.500  196.618   67.480    0.437    0.335    4.009
   87.750  198.668   64.776    0.439    0.311    3.973
   88.000  198.693   69.032    0.414    0.293    4.400
   88.250  184.606   63.906    0.386    0.315    5.297
   88.500  187.661   66.647    0.354    0.281    6.741
   88.750  182.143   63.636    0.317    0.276    8.191
   89.000  178.643   54.879    0.310    0.317    9.072
   89.250  180.685   33.109    0.335    0.364   12.434
   89.500  175.171   31.916    0.376    0.378   19.402
   89.750  175.201   31.331    0.229    0.378   30.275
   90.000  171.192   29.533    0.234    0.371   31.717
   90.250  174.759   34.694    0.242    0.366   32.317
   90.500  175.797   35.620    0.240    0.364   31.438
   90.750  175.830   35.942    0.241    0.364   29.744
   91.000  176.356   38.078    0.252    0.357   27.883
   91.250  176.897   41.422    0.294    0.330   26.136
   91.500  177.427   49.004    0.356    0.280   15.998
   91.750  178.969   62.034    0.426    0.263   11.252
   92.000  180.508   71.735    0.429    0.335    9.095
   92.250  183.567   68.124    0.413    0.290    8.447
   92.500  189.140   65.418    0.430    0.316    7.701
   92.750  201.280   65.736    0.445    0.324    7.354
   93.000  193.236   63.333    0.463    0.311    7.288
   93.250  186.206   64.563    0.467    0.315    7.222
   93.500  187.748   67.604    0.473    0.304    7.157
   93.750  191.311   70.347    0.460    0.333    7.027
   94.000  193.354   69.154    0.446    0.378    7.028
   94.250  191.370   68.872    0.438    0.330    7.031
   94.500  189.886   67.376    0.439    0.306    6.966
   94.750  189.915   70.722    0.444    0.318    7.033
   95.000  192.971   70.435    0.447    0.390    7.166
   95.250  198.039   65.309    0.459    0.424    7.301
   95.500  209.671   65.327    0.453    0.401    7.792
   95.750  187.511   56.569    0.430    0.258    9.735
   96.000  173.921   40.853    0.407    0.212   13.975
   96.250  172.945   30.885    0.378    0.317   24.146
   96.500  166.415   23.639    0.361    0.323   42.502
   96.750  156.866   20.933    0.370    0.326   60.452
   97.000  158.917   23.983    0.375    0.315   87.591
   97.250  161.468   22.786    0.358    0.306   89.248
   97.500  162.001   22.806    0.360    0.303   69.509
   97.750  159.509   21.613    0.344    0.297   58.301
   98.000  158.022   19.208    0.353    0.301   44.989
   98.250  159.060   20.741    0.364    0.306   40.637
   98.500  160.609   14.402    0.356    0.307   36.708
   98.750  162.148   19.563    0.373    0.278   37.058
   99.000  165.707   23.515    0.368    0.271   39.549
   99.250  167.253   22.627    0.358    0.277   40.672
   99.500  166.775   25.063    0.363    0.278   39.200
   99.750  170.842   27.806    0.368    0.280   35.739
  100.000  170.371   26.313    0.378    0.286   31.108
  100.250  165.862   22.697    0.375    0.290   27.329
  100.500  161.345   20.899    0.380    0.299   24.009
  100.750  157.848   22.430    0.364    0.297   25.388
  101.000  158.882   17.608    0.369    0.298   26.597
  101.250  159.419   13.387    0.372    0.298   26.850
  101.500  158.941   16.431    0.354    0.295   23.155
  101.750  158.470   18.266    0.362    0.295   20.532
  102.000  158.495   16.466    0.357    0.295   19.069
  102.250  158.525   17.694    0.357    0.288   17.875
  102.500  157.041   20.135    0.369    0.289   15.704
  102.750  157.582   20.757    0.351    0.300   14.185
  103.000  160.641   19.565    0.359    0.293   12.932
  103.250  161.167   20.492    0.359    0.288   12.582
  103.500  159.183   20.207    0.354    0.290   12.701
  103.750  158.712   19.315    0.355    0.287   13.808
  104.000  159.750   19.030    0.333    0.302   17.411
  104.250  159.775   20.865    0.338    0.293   18.929
  104.500  162.326   22.396    0.350    0.306   20.965
  104.750  165.882   23.321    0.358    0.283   22.793
  105.000  163.390   26.365    0.341    0.269   24.101
  105.250  160.898   22.144    0.307    0.152   24.101
  105.500  166.979   24.279    0.330    0.224   24.791
  105.750  170.542   28.233    0.345    0.294   26.214
  106.000  170.571   27.345    0.380    0.307   25.977
  106.250  167.578   25.850    0.374    0.305   26.224
  106.500  169.124   26.168    0.363    0.300   26.475
  106.750  172.677   29.516    0.368    0.298   26.480
  107.000  173.210   29.229    0.371    0.301   26.241
  107.250  171.226   27.128    0.377    0.307   25.059
  107.500  176.799   30.781    0.386    0.303   23.273
  107.750  176.324   29.584    0.380    0.309   21.416
  108.000  171.318   27.183    0.370    0.312   18.989
  108.250  179.412   32.345    0.363    0.308   16.529
  108.500  178.945   30.551    0.356    0.305   15.351
  108.750  177.454   30.564    0.361    0.304   14.659
  109.000  152.772   35.423    0.349    0.282   13.999
  109.250  154.318   41.190    0.363    0.203   13.873
  109.500  155.356   47.864    0.368    0.167   14.004
  109.750  155.386   58.475    0.371    0.192   14.672
  110.000  154.911   63.334    0.380    0.200   14.272
  110.250  153.931   61.843    0.367    0.243   13.503
  110.500  153.456   56.712    0.368    0.261   13.014
  110.750  153.490   59.150    0.380    0.245   13.139
  111.000  153.512   62.799    0.383    0.238   13.765
  111.250  154.553   61.304    0.383    0.233   15.104
  111.500  155.109   56.177    0.379    0.235   16.884
  111.750  155.620   54.379    0.370    0.253   18.527
  112.000  155.654   48.650    0.378    0.252   21.294
  112.250  156.195   46.245    0.389    0.262   23.803
  112.500  157.225   38.698    0.378    0.283   26.362
  112.750  156.747   33.269    0.369    0.306   30.581
  113.000  152.745   32.077    0.369    0.297   32.638
  113.250  152.270   36.935    0.362    0.289   32.344
  113.500  154.313   45.730    0.374    0.274   28.414
  113.750  155.859   46.960    0.371    0.273   29.221
  114.000  158.406   43.042    0.368    0.258   29.228
  114.250  153.393   41.547    0.369    0.288   29.506
  114.500  145.861   50.339    0.376    0.276   30.628
  114.750  144.878   48.544    0.367    0.285   30.071
  115.000  154.997   47.954    0.359    0.294   25.695
  115.250  158.557   40.409    0.346    0.277   24.764
  115.500  158.593   43.753    0.358    0.270   25.468
  115.750  158.111   48.917    0.371    0.274   24.095
  116.000  157.132   46.816    0.358    0.285   22.587
  116.250  156.156   40.477    0.355    0.293   22.803
  116.500  156.182   37.167    0.373    0.283   21.976
  116.750  156.211   36.279    0.379    0.277   22.186
  117.000  156.745   36.901    0.371    0.298   23.899
  117.250  157.282   30.872    0.362    0.286   23.903
  117.500  157.308   32.095    0.382    0.274   26.473
  117.750  157.842   36.652    0.374    0.278   27.735
