~VERSION INFORMATION
 VERS.                 2.0:   CWLS LOG ASCII STANDARD -VERSION 2.0
 WRAP.                  NO:   ONE LINE PER DEPTH STEP
~WELL INFORMATION BLOCK
#MNEM.UNIT           DATA                    DESCRIPTION OF MNEMONIC
#---------    -------------------            -------------------------------
# Generated from Intellog Unique Number	CX_WELLS/WELL/3840
WELL.         COSENA                         : Well_name    - WELL
LOC .         AA/06-15-087-07W4/0            : Location     - LOCATION
UWI .         AA/06-15-087-07W400            : Uwi          - UNIQUE WELL ID
ENTR.         T                              : Entered      - ENTERED BY
SRVC.         SCHLUMBERGER                   : Scn          - SERVICE COMPANY
STRT.M        40                             : top_depth    - START DEPTH
STOP.M        195                            : bot_depth    - STOP DEPTH
STEP.M        0.25                           : increment    - STEP LENGTH
 NULL. -999.2500:NULL Value
~CURVE INFORMATION BLOCK
#MNEM UNIT       ERCB CURVE CODE    CURVE DESCRIPTION
#-----------   ------------------   ----------------------------------
DEPT.M        00 001 00 00         : DEPTH        - DEPTH
GR  .API      00 310 00 00         : GR           - GAMMA RAY
NPHI.V/V      00 330 00 00         : PHIN         - NEUTRON POROSITY (SANDSTONE)
DPHI.V/V      00 890 00 00         : PHID         - DENSITY POROSITY (SANDSTONE)
ILD .OHMM     00 120 00 00         : RESD         - DEEP RESISTIVITY (DIL)
~PARAMETER INFORMATION
#MNEM.UNIT           DATA             DESCRIPTION OF MNEMONIC
#---------         -----------     ------------------------------
GL  .M        440.9                : gl           - GROUND LEVEL ELEVATION
EREF.M        442.45               : kb           - ELEVATION OF DEPTH REFERENCE
DATM.M        442.45               : datum        - DATUM ELEVATION
TDD .M        209                  : tdd          - TOTAL DEPTH DRILLER
RUN .         ONE                  : Run          - RUN NUMBER
ENG .         BILL                 : Engineer     - RECORDING ENGINEER
WIT .         JIM                  : Witness      - WITNESSED BY
MUD .         GEL                  : Mud_type     - MUD TYPE
MATR.         SANDSTONE            : Logunit      - NEUTRON MATRIX
TMAX.C        15                   : BHT          - MAXIMUM RECORDED TEMPERATURE
BHTD.M        209                  : BHTDEP       - MAXIMUM RECORDED TEMPERATURE
MATR.         1                    : LOGUNIT      - NEUTRON MATRIX
RMT .C        25                   : MDTP         - TEMPERATURE OF MUD
NEUT.         1                    : NEUTRON      - NEUTRON TYPE
RESI.         9.8                  : RESIST       - RESISTIVITY TYPE
RMC .OHMM     9.8                  : RMC          - RESISTIVITY OF MUD CAKE
RMF .OHMM     9.8                  : RMF          - RESISTIVITY OF MUD FILTRATE
SUFT.C        4                    : SUFT         - SURFACE TEMPERATURE
~A  DEPTH       GR     PHIN     PHID     RESD
# ...
  170.500   41.575    0.366    0.320  102.018
  170.750   41.680    0.392    0.324  115.011
  171.000   42.607    0.398    0.320  113.909
  171.250   42.764    0.396    0.312  114.428
  171.500   43.533    0.387    0.307  119.334
  171.750   44.355    0.382    0.307  127.187
  172.000   45.229    0.389    0.312  135.351
  172.250   44.266    0.396    0.314  144.039
  172.500   43.198    0.402    0.314  159.614
  172.750   40.906    0.398    0.310  163.619
  173.000   37.493    0.399    0.308  161.317
  173.250   35.200    0.398    0.309  150.819
  173.500   35.410    0.390    0.307  148.471
  173.750   35.619    0.380    0.300  146.827
  174.000   37.053    0.377    0.292  147.496
  174.250   39.152    0.367    0.280  143.157
  174.500   40.586    0.361    0.277  138.526
  174.750   40.848    0.376    0.286  120.169
  175.000   41.005    0.384    0.316  109.765
  175.250   41.319    0.376    0.326   89.884
  175.500   41.476    0.362    0.298   77.737
  175.750   42.246    0.370    0.291   64.859
  176.000   43.120    0.375    0.297   65.353
  176.250   43.277    0.378    0.305   69.442
  176.500   44.711    0.382    0.316   73.900
  176.750   45.585    0.389    0.323   78.643
  177.000   45.794    0.398    0.324   87.147
  177.250   46.616    0.406    0.316   92.882
  177.500   48.050    0.406    0.322   93.305
  177.750   51.427    0.402    0.329   91.992
  178.000   51.636    0.400    0.347   87.764
  178.250   51.845    0.401    0.348   88.030
  178.500   51.442    0.403    0.347   93.823
  178.750   49.150    0.399    0.345  103.811
  179.000   43.847    0.398    0.333  104.284
  179.250   42.780    0.403    0.315   66.850
  179.500   40.592    0.404    0.312   46.115
  179.750   38.964    0.405    0.317   21.878
  180.000   38.456    0.407    0.319   16.548
  180.250   38.105    0.410    0.320   12.554
  180.500   38.927    0.410    0.317   12.630
  180.750   41.586    0.403    0.314   12.746
  181.000   44.298    0.389    0.304   12.823
  181.250   47.569    0.380    0.282   12.390
  181.500   57.630    0.377    0.253   11.784
  181.750   56.002    0.377    0.262   11.671
  182.000   48.862    0.375    0.272   11.707
  182.250   44.732    0.372    0.272   11.595
  182.500   41.215    0.363    0.268   11.414
  182.750   42.701    0.354    0.256   10.873
  183.000   44.800    0.345    0.251   10.537
  183.250   46.234    0.333    0.243   10.227
  183.500   48.998    0.328    0.237   10.068
  183.750   50.380    0.324    0.231    9.957
  184.000   52.427    0.316    0.232   10.017
  184.250   67.386    0.304    0.230   10.284
  184.500   84.900    0.299    0.224   10.315
  184.750   91.899    0.296    0.217   10.394
  185.000   87.821    0.303    0.211   10.457
  185.250   84.304    0.313    0.211   10.325
  185.500   81.451    0.321    0.221   10.196
  185.750   86.560    0.327    0.228   10.068
  186.000   96.112    0.317    0.230    9.941
  186.250   96.934    0.317    0.209   10.001
  186.500   97.144    0.326    0.202   10.268
  186.750   96.740    0.347    0.203   10.509
  187.000   96.338    0.355    0.202   11.010
  187.250   96.495    0.361    0.202   11.269
  187.500   92.417    0.366    0.208   11.338
  187.750   88.287    0.362    0.215   11.406
  188.000   81.760    0.345    0.218   11.693
  188.250   81.305    0.335    0.217   12.231
  188.500   84.016    0.327    0.213   12.557
  188.750   89.177    0.319    0.208   12.833
  189.000   93.061    0.313    0.193   13.444
  189.250   92.045    0.320    0.191   14.329
  189.500   86.743    0.331    0.165   14.943
  189.750   80.163    0.338    0.132   15.584
  190.000   71.134    0.334    0.113   17.269
  190.250   63.278    0.275    0.086   18.696
  190.500   51.799    0.247    0.062   23.145
  190.750   41.492    0.207   -0.003   28.164
  191.000   34.353    0.190   -0.002   31.751
  191.250   32.060    0.158   -0.001   35.078
  191.500   31.709    0.158   -0.001   38.093
  191.750   31.866    0.144   -0.001   37.614
  192.000   35.190    0.130   -0.001   37.141
  192.250   39.074    0.121   -0.002   36.618
  192.500   36.886    0.120   -0.002   36.212
  192.750   37.096    0.121   -0.003   35.703
  193.000   36.640    0.131   -0.002   34.600
  193.250   35.065    0.126    0.000   31.749
  193.500   34.609    0.121   -0.000   30.152
  193.750   34.206    0.118    0.003   28.679
  194.000   39.980    0.120    0.005   27.319
  194.250   59.331    0.126    0.010   26.395
  194.500   73.118    0.136    0.014   25.580
  194.750   77.615    0.149    0.028   25.258
  195.000   81.551    0.162    0.043   24.941
