~VERSION INFORMATION
 VERS.                 2.0:   CWLS LOG ASCII STANDARD -VERSION 2.0
 WRAP.                  NO:   ONE LINE PER DEPTH STEP
~WELL INFORMATION BLOCK
#MNEM.UNIT           DATA                    DESCRIPTION OF MNEMONIC
#---------    -------------------            -------------------------------
# Generated from Intellog Unique Number	CN_91_93/WELL/2920
WELL.         01-30-092-11W4                 : Well_name    - WELL
LOC .         AA/01-30-092-11W4/0            : Location     - LOCATION
UWI .         AA/01-30-092-11W400            : Uwi          - UNIQUE WELL ID
ENTR.         JOETTE                         : Entered      - ENTERED BY
SRVC.         SCHLUMBERGER                   : Scn          - SERVICE COMPANY
DATE.         03/31/92                       : Date         - LOG DATE
STRT.F        40                             : top_depth    - START DEPTH
STOP.F        309.029                        : bot_depth    - STOP DEPTH
STEP.F        0.8202                         : increment    - STEP LENGTH
 NULL. -999.2500:NULL Value
~CURVE INFORMATION BLOCK
#MNEM UNIT       ERCB CURVE CODE    CURVE DESCRIPTION
#-----------   ------------------   ----------------------------------
DEPT.F        00 001 00 00         : DEPTH        - DEPTH
CALI.IN       00 280 01 00         : CAL          - CALIPER
GR  .API      00 310 00 00         : GR           - GAMMA RAY
NPHI.V/V      00 330 00 00         : PHIN         - NEUTRON POROSITY (SANDSTONE)
DPHI.V/V      00 890 00 00         : PHID         - DENSITY POROSITY (SANDSTONE)
ILD .OHMM     00 120 00 00         : RESD         - DEEP RESISTIVITY (DIL)
~PARAMETER INFORMATION
#MNEM.UNIT           DATA             DESCRIPTION OF MNEMONIC
#---------         -----------     ------------------------------
GL  .M        357.226              : gl           - GROUND LEVEL ELEVATION
EREF.M        357.226              : kb           - ELEVATION OF DEPTH REFERENCE
DATM.M        357.226              : datum        - DATUM ELEVATION
TDD .M        101.803              : tdd          - TOTAL DEPTH DRILLER
RUN .         ONE                  : Run          - RUN NUMBER
ENG .         JO                   : Engineer     - RECORDING ENGINEER
WIT .         TIM                  : Witness      - WITNESSED BY
MUD .         GEL                  : Mud_type     - MUD TYPE
MATR.         SANDSTONE            : Logunit      - NEUTRON MATRIX
TMAX.F        60                   : BHT          - MAXIMUM RECORDED TEMPERATURE
BHTD.F        334                  : BHTDEP       - MAXIMUM RECORDED TEMPERATURE
RMT .F        66                   : MDTP         - TEMPERATURE OF MUD
MUDD.LB/G     1                    : MWT          - MUD DENSITY
NEUT.         1                    : NEUTRON      - NEUTRON TYPE
RESI.         0                    : RESIST       - RESISTIVITY TYPE
RM  .OHMM     8.1                  : RM           - RESISTIVITY OF MUD
RMC .OHMM     8.1                  : RMC          - RESISTIVITY OF MUD CAKE
RMF .OHMM     8.1                  : RMF          - RESISTIVITY OF MUD FILTRATE
SUFT.F        39.2                 : SUFT         - SURFACE TEMPERATURE
~A  DEPTH      CAL       GR     PHIN     PHID     RESD
# ...
  159.751    4.975  103.882    0.551    0.252    4.248
  160.571    4.833  100.544    0.550    0.275    4.284
  161.391    4.792   99.326    0.567    0.266    3.771
  162.211    4.853  103.868    0.546    0.259    3.769
  163.031    4.973  105.682    0.547    0.268    4.237
  163.852    5.054  105.677    0.538    0.262    4.234
  164.672    5.074  103.551    0.513    0.246    4.193
  165.492    4.932  105.365    0.504    0.234    4.191
  166.312    4.831  106.874    0.492    0.235    4.886
  167.133    4.810  106.871    0.518    0.231    5.747
  167.953    4.850  105.957    0.524    0.231    5.014
  168.773    4.911  105.043    0.505    0.243    4.296
  169.593    4.951  106.554    0.489    0.215    4.411
  170.413    4.950  109.277    0.479    0.227    6.052
  171.234    4.930  109.575    0.512    0.261    7.585
  172.054    4.909  111.390    0.506    0.273    5.182
  172.874    4.869  109.566    0.493    0.229    3.911
  173.694    4.767  105.621    0.490    0.199    4.642
  174.514    4.747   92.582    0.447    0.184    4.474
  175.335    4.746   77.119    0.392    0.140    8.582
  176.155    4.726   75.296    0.379    0.106   12.320
  176.975    4.766   73.472    0.408    0.181   23.417
  177.795    4.846   67.709    0.404    0.228   11.760
  178.615    4.745   63.460    0.403    0.239   11.131
  179.436    4.644   63.456    0.386    0.232   11.325
  180.256    4.482   70.422    0.385    0.240   11.950
  181.076    4.481   76.177    0.394    0.224   13.682
  181.896    4.562   87.084    0.385    0.204   10.327
  182.717    4.562   85.260    0.426    0.231   13.420
  183.537    4.541   75.253    0.445    0.234   10.037
  184.357    4.521   70.399    0.413    0.226    8.220
  185.177    4.541   65.241    0.379    0.251   10.209
  185.997    4.480   64.024    0.366    0.263   17.248
  186.818    4.318   65.837    0.359    0.250   18.196
  187.638    4.297   66.135    0.369    0.255   19.202
  188.458    4.438   65.829    0.378    0.250   19.717
  189.278    4.377   65.824    0.377    0.251   20.067
  190.098    4.296   64.909    0.392    0.251   19.516
  190.919    4.276   63.389    0.394    0.249   20.780
  191.739    4.296   65.203    0.391    0.259   22.529
  192.559    4.315   65.198    0.394    0.265   23.988
  193.379    4.335   68.528    0.400    0.273   23.974
  194.199    4.355   69.735    0.401    0.245   25.991
  195.020    4.395   68.215    0.392    0.244   23.303
  195.840    4.456   70.636    0.394    0.240   22.869
  196.660    4.476   71.540    0.388    0.251   23.699
  197.480    4.415   72.142    0.395    0.263   20.675
  198.301    4.253   75.168    0.402    0.262   19.928
  199.121    4.232   75.770    0.405    0.265   21.410
  199.941    4.313   75.765    0.401    0.228   21.985
  200.761    4.353   74.851    0.394    0.231   21.971
  201.581    4.352   75.755    0.404    0.234   20.985
  202.402    4.352   73.629    0.397    0.247   22.549
  203.222    4.332   72.109    0.385    0.243   22.738
  204.042    4.351   76.650    0.380    0.236   22.317
  204.862    4.392   79.373    0.375    0.240   21.510
  205.682    4.391   79.368    0.383    0.230   19.281
  206.503    4.391   76.636    0.379    0.236   17.603
  207.323    4.411   69.054    0.385    0.248   21.862
  208.143    4.410   64.200    0.385    0.280   57.044
  208.963    4.410   65.104    0.374    0.271   77.559
  209.783    4.410   66.008    0.387    0.264   55.948
  210.604    4.389   61.761    0.406    0.294   43.789
  211.424    4.389   56.300    0.391    0.298   69.443
  212.244    4.409   50.839    0.365    0.283  153.947
  213.064    4.429   53.866    0.364    0.288  177.836
  213.885    4.469   63.257    0.374    0.271  116.125
  214.705    4.489   69.313    0.378    0.271   68.640
  215.525    4.509   69.006    0.390    0.257   34.471
  216.345    4.508   70.214    0.364    0.247   45.202
  217.165    4.528   74.453    0.364    0.247   42.397
  217.986    4.508   77.782    0.375    0.254   47.230
  218.806    4.487   79.900    0.370    0.256   49.837
  219.626    4.467   84.744    0.360    0.238   44.276
  220.446    4.466   86.255    0.343    0.191   41.910
  221.266    4.466   91.403    0.374    0.215   33.702
  222.087    4.466   92.308    0.383    0.236   28.359
  222.907    4.425   80.178    0.391    0.240   20.090
  223.727    4.303   77.447    0.406    0.244   19.362
  224.547    4.384   69.864    0.401    0.253   21.377
  225.367    4.465   60.766    0.412    0.275   23.389
  226.188    4.404   49.547    0.407    0.293   24.679
  227.008    4.363   51.056    0.383    0.269   51.819
  227.828    4.363   50.143    0.367    0.245   38.063
  228.648    4.403   53.472    0.368    0.227   57.167
  229.469    4.423   58.318    0.379    0.220  100.160
  230.289    4.341   64.072    0.359    0.292  190.369
  231.109    4.280   67.098    0.376    0.260   29.464
  231.929    4.300   71.034    0.399    0.239   24.348
  232.749    4.340   77.698    0.384    0.238   23.464
  233.570    4.280   87.695    0.372    0.199   26.379
  234.390    4.340   78.294    0.379    0.218   25.198
  235.210    4.279   79.805    0.383    0.249   22.589
  236.030    4.178   84.347    0.382    0.266   24.939
  236.850    4.076   88.283    0.379    0.248   25.378
  237.671    4.035   88.278    0.387    0.235   19.506
  238.491    4.197   84.939    0.386    0.236   18.970
  239.311    4.196   80.994    0.389    0.263   18.785
  240.131    4.075   75.533    0.400    0.260   20.187
  240.951    4.176   73.407    0.394    0.287   24.619
  241.772    4.377   78.555    0.389    0.308   44.318
  242.592    4.276   84.612    0.398    0.296   46.343
  243.412    4.336   87.336    0.400    0.269   32.241
  244.232    4.437   87.028    0.382    0.252   24.558
  245.052    4.417   86.720    0.387    0.254   24.101
  245.873    4.396   91.868    0.375    0.261   30.202
  246.693    4.396   96.713    0.360    0.229   24.959
  247.513    4.395  103.680    0.333    0.184   16.151
  248.333    4.415  121.862    0.329    0.170   10.547
  249.154    4.455  126.707    0.342    0.161   10.350
  249.974    4.495  120.640    0.358    0.191   10.725
  250.794    4.515  118.816    0.351    0.180   10.915
  251.614    4.515  123.359    0.366    0.162   10.907
  252.434    4.474  122.444    0.378    0.169   10.608
  253.255    4.434  118.196    0.393    0.211   10.412
  254.075    4.453   99.096    0.403    0.236   10.789
  254.895    4.514   79.691    0.413    0.252   14.669
  255.715    4.574   79.990    0.412    0.256   21.058
  256.535    4.533   81.804    0.402    0.256   24.770
  257.356    4.432   87.558    0.381    0.255   25.899
  258.176    4.270   91.495    0.380    0.248   23.009
  258.996    4.149   86.943    0.391    0.258   19.358
  259.816    4.047   81.785    0.402    0.265   24.044
  260.636    4.188   84.205    0.415    0.254   38.130
  261.457    4.350   84.201    0.407    0.255   23.580
  262.277    4.329   82.074    0.416    0.258   26.271
  263.097    4.288   82.979    0.418    0.261   38.058
  263.917    4.369   86.005    0.398    0.255   25.078
  264.738    4.429   88.123    0.391    0.247   23.311
  265.558    4.429   89.936    0.385    0.238   21.087
  266.378    4.429   93.569    0.377    0.244   20.325
  267.198    4.428   97.201    0.379    0.240   18.722
  268.018    4.428   96.894    0.369    0.238   16.335
  268.839    4.428   97.495    0.363    0.231   16.473
  269.659    4.448   99.005    0.368    0.219   16.915
  270.479    4.387   99.910    0.358    0.209   15.028
  271.299    4.326  102.330    0.362    0.220   13.594
  272.119    4.265  101.113    0.376    0.209   12.751
  272.940    4.264   98.987    0.404    0.228   13.333
  273.760    4.284   94.435    0.385    0.255   13.569
  274.580    4.284   97.159    0.375    0.233   12.843
  275.400    4.284  100.185    0.377    0.234   14.701
  276.220    4.203  102.605    0.374    0.237   12.710
  277.041    4.344  100.782    0.402    0.241   14.160
  277.861    4.404  104.111    0.388    0.222   12.927
  278.681    4.282  102.894    0.385    0.211   12.571
