~VERSION INFORMATION
 VERS.                 2.0:   CWLS LOG ASCII STANDARD -VERSION 2.0
 WRAP.                  NO:   ONE LINE PER DEPTH STEP
~WELL INFORMATION BLOCK
#MNEM.UNIT           DATA                    DESCRIPTION OF MNEMONIC
#---------    -------------------            -------------------------------
# Generated from Intellog Unique Number	CC_80_83/WELL/2318
NULL.         -999.25                        : NULL_VALUE
WELL.         DOME DIVIDE OV                 : Well_name    - WELL              
LOC .         09-11-082-13W4                 : Location     - LOCATION          
UWI .         AA/09-11-082-13W400            : Uwi          - UNIQUE WELL ID    
ENTR.         RJA                            : Entered      - ENTERED BY        
SRVC.         COMPUTALOG                     : Scn          - SERVICE COMPANY   
DATE.         26 FEB 81                      : Date         - LOG DATE
STRT.M        190                            : top_depth    - START DEPTH       
STOP.M        459.992                        : bot_depth    - STOP DEPTH        
STEP.M        0.3                            : increment    - STEP LENGTH       
~CURVE INFORMATION BLOCK
#MNEM UNIT       ERCB CURVE CODE    CURVE DESCRIPTION
#-----------   ------------------   ----------------------------------
DEPT.M        00 001 00 00         : DEPTH        - DEPTH                       
DPHI.V/V      00 890 00 00         : PHID         - DENSITY POROSITY (LIMESTONE)
NPHI.V/V      00 330 00 00         : PHIN         - NEUTRON POROSITY (LIMESTONE)
GR  .API      00 310 00 00         : GR           - GAMMA RAY                   
ILD .OHMM     00 120 00 00         : RESD         - DEEP RESISTIVITY (DIL)      
~PARAMETER INFORMATION       
#MNEM.UNIT           DATA             DESCRIPTION OF MNEMONIC
#---------         -----------     ------------------------------
GL  .M        659                  : gl           - GROUND LEVEL ELEVATION      
EREF.M        663.5                : kb           - ELEVATION OF DEPTH REFERENCE
DATM.M        663.5                : datum        - DATUM ELEVATION             
TDD .M        465                  : tdd          - TOTAL DEPTH DRILLER         
RUN .         ONE                  : Run          - RUN NUMBER                  
ENG .         BILL                 : Engineer     - RECORDING ENGINEER          
WIT .         JIM                  : Witness      - WITNESSED BY                
MUD .         GEL                  : Mud_type     - MUD TYPE                    
MATR.         LIMESTONE            : Logunit      - NEUTRON MATRIX              
TMAX.C        24                   : BHT          - MAXIMUM RECORDED TEMPERATURE
BHTD.M        465                  : BHTDEP       - MAXIMUM RECORDED TEMPERATURE
MATR.         1                    : LOGUNIT      - NEUTRON MATRIX              
RMT .C        25                   : MDTP         - TEMPERATURE OF MUD          
NEUT.         1                    : NEUTRON      - NEUTRON TYPE                
RESI.         0                    : RESIST       - RESISTIVITY TYPE            
RMC .OHMM     0.25                 : RMC          - RESISTIVITY OF MUD CAKE     
RMF .OHMM     0.25                 : RMF          - RESISTIVITY OF MUD FILTRATE 
SUFT.C        15                   : SUFT         - SURFACE TEMPERATURE         
~A  DEPTH     PHID     PHIN       GR     RESD
# ...
  398.795    0.211    0.294   81.037   21.849
  399.095    0.182    0.302   90.595   19.052
  399.395    0.168    0.320   95.474   16.108
  399.695    0.165    0.334  104.402   14.823
  399.995    0.158    0.349  112.250   14.487
  400.295    0.149    0.383  111.994   15.568
  400.595    0.201    0.395  103.836   17.021
  400.895    0.220    0.365   96.369   18.568
  401.195    0.203    0.306   93.228   19.237
  401.495    0.179    0.289   95.919   18.164
  401.795    0.158    0.321  101.934   17.863
  402.095    0.152    0.356   96.974   19.946
  402.395    0.157    0.333   84.866   24.102
  402.695    0.240    0.309   80.471   30.789
  402.995    0.287    0.273   78.396   35.727
  403.295    0.306    0.282   80.460   37.078
  403.595    0.272    0.386   79.702   37.308
  403.895    0.236    0.385   75.872   42.130
  404.195    0.267    0.371   55.486   49.567
  404.495    0.286    0.378   45.008   73.407
  404.795    0.292    0.355   41.993   86.350
  405.095    0.299    0.374   43.742   88.925
  405.395    0.305    0.363   46.623   66.173
  405.695    0.297    0.356   51.384   46.121
  405.995    0.269    0.331   61.223   35.326
  406.295    0.234    0.306   67.301   33.174
  406.595    0.219    0.289   72.313   36.963
  406.895    0.260    0.280   55.125   48.226
  407.195    0.332    0.296   41.637   58.826
  407.495    0.333    0.308   44.830   62.729
  407.794    0.315    0.355   48.587   55.280
  408.094    0.289    0.372   49.272   45.029
  408.394    0.274    0.373   50.207   38.181
  408.694    0.280    0.362   56.096   34.308
  408.994    0.262    0.319   61.922   29.945
  409.294    0.229    0.329   69.443   26.742
  409.594    0.228    0.334   77.088   23.522
  409.894    0.243    0.318   84.481   20.694
  410.194    0.231    0.296   91.375   17.722
  410.494    0.208    0.270   99.145   15.200
  410.794    0.178    0.279  108.735   14.359
  411.094    0.157    0.312  117.572   15.547
  411.394    0.165    0.337  122.458   19.748
  411.694    0.195    0.326  122.578   24.652
  411.994    0.198    0.296  102.443   28.659
  412.294    0.168    0.292   89.143   28.400
  412.594    0.139    0.343   92.462   25.369
  412.894    0.169    0.363  100.420   22.530
  413.194    0.211    0.350  104.177   22.279
  413.494    0.238    0.378  106.367   23.441
  413.794    0.221    0.353  106.174   24.653
  414.094    0.216    0.335   98.078   24.205
  414.394    0.211    0.302   91.677   22.593
  414.694    0.178    0.280   85.777   21.886
  414.994    0.150    0.273   85.019   20.910
  415.294    0.158    0.292   86.204   20.403
  415.594    0.179    0.295   86.701   20.494
  415.894    0.183    0.288   86.445   21.062
  416.194    0.195    0.330   83.807   22.070
  416.494    0.211    0.330   73.078   21.786
  416.794    0.235    0.338   65.359   21.258
  417.094    0.212    0.338   74.697   21.403
  417.394    0.196    0.340   72.435   22.045
  417.694    0.229    0.302   57.003   23.275
  417.994    0.242    0.282   63.081   25.790
  418.294    0.222    0.285   75.429   29.752
  418.594    0.210    0.358   69.340   33.864
  418.894    0.225    0.351   60.681   35.836
  419.194    0.240    0.321   56.412   33.067
  419.494    0.255    0.304   60.858   30.702
  419.794    0.218    0.297   66.435   27.316
  420.094    0.190    0.331   75.460   24.250
  420.394    0.200    0.335   82.290   22.240
  420.694    0.204    0.318   78.773   21.976
  420.994    0.200    0.315   77.953   21.533
  421.294    0.195    0.306   91.806   22.004
  421.594    0.182    0.339   91.361   23.185
  421.894    0.197    0.346   78.876   24.531
  422.194    0.225    0.337   74.294   25.510
  422.494    0.216    0.319   79.180   26.079
  422.794    0.200    0.327   82.185   25.739
  423.094    0.208    0.360   85.754   24.549
  423.394    0.222    0.359   84.807   23.184
  423.694    0.201    0.348   91.322   22.936
  423.994    0.195    0.345   93.075   25.070
  424.294    0.203    0.360   89.307   31.227
  424.594    0.221    0.369   81.337   36.237
  424.894    0.239    0.361   76.441   41.885
  425.194    0.246    0.364   75.557   47.133
  425.494    0.264    0.380   72.981   51.332
  425.794    0.273    0.389   67.269   55.355
  426.094    0.283    0.378   63.501   57.131
  426.394    0.289    0.365   60.172   57.264
  426.694    0.293    0.359   58.411   55.573
  426.994    0.293    0.353   56.398   53.100
  427.294    0.290    0.343   56.456   49.196
  427.594    0.283    0.332   55.511   42.125
  427.894    0.266    0.326   53.185   33.912
  428.194    0.250    0.297   54.873   26.627
  428.494    0.224    0.295   69.103   23.157
  428.794    0.143    0.290   87.346   20.524
  429.094    0.141    0.312   90.915   18.874
  429.394    0.163    0.300   91.537   18.808
  429.694    0.175    0.316   89.525   19.107
  429.994    0.185    0.311   80.866   19.789
  430.294    0.205    0.317   75.780   20.974
  430.594    0.221    0.311   75.274   21.412
  430.894    0.214    0.329   77.149   22.386
  431.194    0.216    0.347   77.270   22.316
  431.494    0.225    0.395   75.697   23.569
  431.794    0.234    0.393   74.563   25.956
  432.094    0.239    0.354   74.432   26.382
  432.393    0.241    0.327   82.892   22.896
  432.693    0.207    0.327   93.171   20.255
  432.993    0.185    0.335  101.005   19.350
  433.293    0.171    0.376  102.505   19.932
  433.593    0.175    0.352   93.532   21.705
  433.893    0.203    0.345   85.249   22.964
  434.193    0.219    0.337   84.178   22.797
  434.493    0.226    0.332   86.806   21.535
  434.793    0.220    0.345   87.177   20.736
  435.093    0.213    0.369   92.063   20.006
  435.393    0.249    0.417   73.684   17.217
  435.693    0.264    0.388   71.108   16.460
  435.993    0.269    0.410   75.931   14.841
  436.293    0.284    0.370   65.202   13.645
  436.593    0.284    0.413   56.919   13.169
  436.893    0.269    0.385   56.286   13.771
  437.193    0.262    0.157   46.185   16.382
  437.493    0.253    0.117   34.203   20.969
  437.793    0.025    0.086   32.315   26.684
  438.093    0.000    0.071   35.070   31.021
  438.393    0.015    0.075   38.262   29.301
  438.693    0.023    0.084   40.639   19.351
  438.993    0.029    0.096   41.325   11.565
  439.293    0.094    0.128   36.928    7.741
  439.593    0.273    0.394   32.974    6.391
  439.893    0.302    0.406   31.651    5.536
  440.193    0.310    0.388   29.137    5.218
  440.493    0.318    0.382   27.062    5.014
  440.793    0.327    0.381   28.248    5.083
  441.093    0.327    0.384   31.191    5.164
  441.393    0.322    0.386   31.561    5.209
  441.693    0.323    0.378   31.870    5.336
  441.993    0.326    0.364   34.185    5.495
  442.293    0.315    0.362   37.566    5.595
  442.593    0.302    0.371   42.262    5.599
  442.893    0.298    0.357   45.081    5.495
  443.193    0.305    0.338   50.029    5.342
  443.493    0.314    0.343   49.898    5.203
  443.793    0.307    0.376   49.330    5.167
  444.093    0.298    0.392   49.888    5.310
  444.393    0.300    0.359   48.942    5.671
  444.693    0.308    0.327   47.871    6.104
  444.993    0.286    0.287   50.437    6.333
  445.293    0.217    0.274   64.416    6.390
  445.593    0.161    0.275  103.604    6.320
  445.893    0.084    0.320  112.253    6.310
  446.193    0.074    0.339  112.435    6.240
  446.493    0.079    0.344  112.367    6.243
  446.793    0.078    0.344  115.372    6.335
  447.093    0.075    0.349  116.747    6.436
  447.393    0.088    0.350  115.675    6.539
  447.693    0.093    0.369  114.227    6.837
  447.993    0.088    0.382  112.404    7.415
  448.293    0.076    0.370  107.945    7.643
  448.593    0.056    0.420  104.428    8.667
  448.893    0.058    0.305   98.215   11.706
  449.193    0.065    0.253   77.892   15.720
  449.493    0.057    0.196   55.938   20.831
  449.793    0.043    0.132   38.813   25.704
  450.093    0.032    0.114   33.854   18.018
  450.393    0.018    0.116   57.490   13.331
  450.693    0.058    0.214   84.199   12.187
