~VERSION INFORMATION
 VERS.                 2.0:   CWLS LOG ASCII STANDARD -VERSION 2.0
 WRAP.                  NO:   ONE LINE PER DEPTH STEP
~WELL INFORMATION BLOCK
#MNEM.UNIT           DATA                    DESCRIPTION OF MNEMONIC
#---------    -------------------            -------------------------------
# Generated from Intellog Unique Number	CN_94_101/WELL/2476
WELL.         05-05-094-09W4                 : Well_name    - WELL
LOC .         AA/05-05-094-09W4/0            : Location     - LOCATION
UWI .         AA/05-05-094-09W400            : Uwi          - UNIQUE WELL ID
ENTR.         JOETTE                         : Entered      - ENTERED BY
SRVC.         SCHLUMBERGER                   : Scn          - SERVICE COMPANY
DATE.         05/17/92                       : Date         - LOG DATE
STRT.M        12.5                           : top_depth    - START DEPTH
STOP.M        75                             : bot_depth    - STOP DEPTH
STEP.M        0.25                           : increment    - STEP LENGTH
 NULL. -999.2500:NULL Value
~CURVE INFORMATION BLOCK
#MNEM UNIT       ERCB CURVE CODE    CURVE DESCRIPTION
#-----------   ------------------   ----------------------------------
DEPT.M        00 001 00 00         : DEPTH        - DEPTH
GR  .API      00 310 00 00         : GR           - GAMMA RAY
NPHI.V/V      00 330 00 00         : PHIN         - NEUTRON POROSITY (SANDSTONE)
ILD .OHMM     00 120 00 00         : RESD         - DEEP RESISTIVITY (DIL)
~PARAMETER INFORMATION
#MNEM.UNIT           DATA             DESCRIPTION OF MNEMONIC
#---------         -----------     ------------------------------
GL  .M        324.5                : gl           - GROUND LEVEL ELEVATION
EREF.M        332.5                : kb           - ELEVATION OF DEPTH REFERENCE
DATM.M        332.5                : datum        - DATUM ELEVATION
TDD .M        80                   : tdd          - TOTAL DEPTH DRILLER
RUN .         ONE                  : Run          - RUN NUMBER
ENG .         JO                   : Engineer     - RECORDING ENGINEER
WIT .         TIM                  : Witness      - WITNESSED BY
MUD .         GEL                  : Mud_type     - MUD TYPE
MATR.         SANDSTONE            : Logunit      - NEUTRON MATRIX
TMAX.C        8                    : BHT          - MAXIMUM RECORDED TEMPERATURE
BHTD.M        80                   : BHTDEP       - MAXIMUM RECORDED TEMPERATURE
RMT .C        6                    : MDTP         - TEMPERATURE OF MUD
MUDD.KG/M     1110                 : MWT          - MUD DENSITY
NEUT.         1                    : NEUTRON      - NEUTRON TYPE
RESI.         0                    : RESIST       - RESISTIVITY TYPE
RM  .OHMM     8                    : RM           - RESISTIVITY OF MUD
RMC .OHMM     8                    : RMC          - RESISTIVITY OF MUD CAKE
RMF .OHMM     8                    : RMF          - RESISTIVITY OF MUD FILTRATE
SUFT.C        4                    : SUFT         - SURFACE TEMPERATURE
~A  DEPTH       GR     PHIN     RESD
   12.500   77.741    0.378   34.500
   12.750   73.247    0.392   26.558
   13.000   75.647    0.408   16.371
   13.250   71.153    0.430   19.647
   13.500   58.498    0.456   24.914
   13.750   55.871    0.478   33.396
   14.000   65.819    0.470   49.083
   14.250   81.380    0.447   42.231
   14.500   81.274    0.474   39.111
   14.750   90.568    0.469   47.797
   15.000   97.995    0.466   43.454
   15.250  116.063    0.455   24.412
   15.500  126.611    0.434   20.242
   15.750  131.531    0.426   33.240
   16.000   85.020    0.425   34.407
   16.250   52.310    0.420   70.586
   16.500   39.655    0.396   81.608
   16.750   30.774    0.409   79.860
   17.000   38.815    0.376   82.636
   17.250   48.123    0.375  279.369
   17.500   64.937    0.384  227.240
   17.750   71.098    0.395   98.583
   18.000   75.365    0.396   84.791
   18.250   78.405    0.404   96.235
   18.500   88.339    0.411   82.771
   18.750   88.846    0.403   60.258
   19.000   90.632    0.433  125.925
   19.250   67.323    0.445  140.302
   19.500   75.364    0.445  114.123
   19.750   81.525    0.437  105.691
   20.000   87.058    0.419   82.849
   20.250   89.472    0.431   63.798
   20.500   81.831    0.411   50.925
   20.750   86.098    0.417   40.679
   21.000   89.125    0.423   35.653
   21.250   79.630    0.407   26.440
   21.500   95.205    0.414   21.915
   21.750   89.445    0.428   21.854
   22.000   81.817    0.420   26.707
   22.250   90.484    0.395   28.676
   22.500   84.110    0.400   27.548
   22.750   85.884    0.414   48.745
   23.000   63.828    0.429   27.403
   23.250   66.228    0.413   31.102
   23.500   79.923    0.383   25.762
   23.750   96.111    0.421   23.000
   24.000   86.603    0.468   18.036
   24.250   80.856    0.491   16.703
   24.500   85.136    0.503   10.296
   24.750  114.499    0.505    7.926
   25.000  133.194    0.497    9.508
   25.250  110.525    0.495    9.482
   25.500  104.138    0.489    9.109
   25.750  123.473    0.483    8.911
   26.000  102.671    0.488    8.889
   26.250  125.139    0.483    9.198
   26.500  129.420    0.492   10.634
   26.750  125.552    0.495    9.149
   27.000  103.497    0.487    9.641
   27.250   98.363    0.453   10.351
   27.500   93.869    0.432   11.753
   27.750   90.642    0.462   16.963
   28.000   93.042    0.479   12.123
   28.250   83.521    0.435   11.223
   28.500   58.332    0.402   31.538
   28.750   35.036    0.381   58.987
   29.000   34.303    0.378  218.654
   29.250   36.076    0.365  153.456
   29.500   34.702    0.393   80.092
   29.750   34.596    0.390  134.025
   30.000   21.941    0.392  228.541
   30.250   24.354    0.386  514.256
   30.500   29.888    0.381  278.513
   30.750   27.901    0.398  520.735
   31.000   25.914    0.414  213.720
   31.250   29.555    0.405  472.097
   31.500   28.208    0.408  193.758
   31.750   21.834    0.384 1561.840
   32.000   17.953    0.371 1772.650
   32.250   26.007    0.386  288.564
   32.500   19.006    0.390  510.417
   32.750   15.739    0.384  338.894
   33.000   16.272    0.369  645.679
   33.250   24.953    0.363  470.056
   33.500   21.713    0.356  486.393
   33.750   26.606    0.337  395.774
   34.000   17.726    0.344  687.229
   34.250   18.245    0.326 1048.830
   34.500   21.272    0.333 1065.030
   34.750   16.138    0.330  968.268
   35.000   11.031    0.322  692.232
   35.250   17.805    0.347  702.924
   35.500   13.938    0.280  700.953
   35.750   11.337    0.286  625.596
   36.000   21.245    0.329 1028.050
   36.250   29.912    0.325 1103.850
   36.500   33.593    0.350  545.043
   36.750   19.058    0.360  114.937
   37.000   10.777    0.350  909.508
   37.250   14.457    0.374 1765.180
   37.500   14.964    0.369  400.804
   37.750   21.764    0.363  722.433
   38.000   21.031    0.353 1375.930
   38.250   16.537    0.352 1776.780
   38.500   22.697    0.375 2172.130
   38.750   18.203    0.398 1974.790
   39.000   19.350    0.408  432.122
   39.250   29.258    0.391 1460.880
   39.500   29.164    0.399  748.504
   39.750   22.790    0.393  525.131
   40.000   15.776    0.401 1226.140
   40.250   17.563    0.367  273.406
   40.500   19.963    0.344 1732.430
   40.750   12.322    0.358 1894.880
   41.000   13.455    0.358 1305.500
   41.250   23.403    0.371  950.408
   41.500   18.269    0.395 1397.830
   41.750   19.416    0.388  236.120
   42.000   19.935    0.407  165.656
   42.250   22.962    0.405  957.327
   42.500   28.509    0.435  113.811
   42.750   29.656    0.403   85.945
   43.000   23.895    0.363  555.141
   43.250   28.176    0.382  641.600
   43.500   29.949    0.385 1094.060
   43.750   34.243    0.377  726.408
   44.000   14.054    0.389  500.295
   44.250   15.827    0.396  557.614
   44.500   18.227    0.393  113.319
   44.750   17.494    0.370  189.626
   45.000   19.267    0.352  254.093
   45.250   15.414    0.343  322.446
   45.500   10.293    0.355  440.283
   45.750   12.053    0.340  400.142
   46.000   16.973    0.322  805.850
   46.250   18.733    0.345  535.048
   46.500   12.359    0.342  630.138
   46.750   15.373    0.349 1135.400
   47.000   15.293    0.338  530.373
   47.250   17.693    0.356  824.543
   47.500   23.227    0.347  286.436
   47.750   19.360    0.334  479.486
   48.000   12.345    0.349  495.978
   48.250    6.585    0.321 1137.260
   48.500   11.492    0.312 1243.020
   48.750   10.772    0.327 1933.140
   49.000   13.172    0.353 1756.890
   49.250   14.945    0.386 2107.740
   49.500   24.879    0.408  788.957
   49.750   23.506    0.395  317.873
   50.000   15.251    0.376 1074.260
   50.250   13.251    0.368 1387.700
   50.500   15.038    0.362  685.200
   50.750   15.558    0.359  578.543
   51.000   17.331    0.364  932.982
   51.250   17.211    0.367  544.072
   51.500   16.491    0.366  652.950
   51.750   19.504    0.378  891.570
   52.000   15.637    0.386  956.973
   52.250   18.037    0.385  447.183
   52.500   14.784    0.367  645.428
   52.750   17.837    0.346 1040.840
   53.000   15.850    0.340  911.931
   53.250   11.970    0.340 1905.730
   53.500   13.743    0.334 2084.420
   53.750   18.663    0.347 1634.510
   54.000   22.944    0.385  777.768
   54.250   30.344    0.394  337.417
   54.500   20.223    0.387  496.088
   54.750   23.863    0.409  215.216
   55.000   24.383    0.419  521.442
   55.250   24.903    0.426  974.938
   55.500   29.824    0.411  276.454
   55.750   32.224    0.426  180.128
   56.000   30.224    0.409  182.974
   56.250   32.637    0.384  533.351
   56.500   42.558    0.398  335.015
   56.750   37.437    0.380  826.847
   57.000   14.128    0.365 1150.080
   57.250   20.915    0.382  722.153
   57.500   22.062    0.371  986.062
   57.750   16.301    0.356  773.225
   58.000   21.849    0.358  563.107
   58.250   33.663    0.367  593.551
   58.500   49.224    0.398  432.107
   58.750   31.569    0.407  177.345
   59.000   33.329    0.356  124.465
   59.250   41.383    0.310   68.666
   59.500   59.452    0.388   49.989
   59.750   80.040    0.445   11.782
   60.000  124.458    0.508    8.420
   60.250  125.604    0.508   11.283
   60.500   83.467    0.461   11.901
   60.750   79.600    0.425   15.661
   61.000   53.157    0.422   56.989
   61.250   48.036    0.398   14.188
   61.500   54.210    0.367   12.431
   61.750   60.371    0.385   18.283
   62.000   61.517    0.372   16.317
   62.250   53.890    0.328   17.200
   62.500   73.225    0.314   18.812
   62.750   66.837    0.294   21.750
   63.000   55.450    0.296   22.506
   63.250   52.822    0.308   17.642
   63.500   45.822    0.316   17.927
   63.750   44.448    0.246   17.222
   64.000   30.567    0.148   31.041
   64.250   24.179    0.095   67.313
   64.500   25.966    0.125   37.123
   64.750   31.500    0.173   55.618
   65.000   45.181    0.208   29.581
   65.250   31.913    0.086   32.935
   65.500   19.872   -0.023   97.861
   65.750   16.631   -0.148   95.766
   66.000   12.751   -0.240  157.373
   66.250   10.164   -0.294  305.322
   66.500    6.923   -0.338  257.706
