~VERSION INFORMATION
 VERS.                 2.0:   CWLS LOG ASCII STANDARD -VERSION 2.0
 WRAP.                  NO:   ONE LINE PER DEPTH STEP
~WELL INFORMATION BLOCK
#MNEM.UNIT           DATA                    DESCRIPTION OF MNEMONIC
#---------    -------------------            -------------------------------
# Generated from Intellog Unique Number	CS_73_76/WELL/3227
WELL.         09-28-076-06W4                 : Well_name    - WELL
LOC .         AA/09-28-076-06W4/0            : Location     - LOCATION
UWI .         AA/09-28-076-06W4/0            : Uwi          - UNIQUE WELL ID
ENTR.         SP                             : Entered      - ENTERED BY
SRVC.         SCHLUMBERGER                   : Scn          - SERVICE COMPANY
STRT.M        145                            : top_depth    - START DEPTH
STOP.M        365                            : bot_depth    - STOP DEPTH
STEP.M        0.25                           : increment    - STEP LENGTH
 NULL. -999.2500:NULL Value
~CURVE INFORMATION BLOCK
#MNEM UNIT       ERCB CURVE CODE    CURVE DESCRIPTION
#-----------   ------------------   ----------------------------------
DEPT.M        00 001 00 00         : DEPTH        - DEPTH
ILD .OHMM     00 120 00 00         : RESD         - DEEP RESISTIVITY (DIL)
GR  .API      00 310 00 00         : GR           - GAMMA RAY
DPHI.V/V      00 890 00 00         : PHID         - DENSITY POROSITY (LIMESTONE)
NPHI.V/V      00 330 00 00         : PHIN         - NEUTRON POROSITY (LIMESTONE)
~PARAMETER INFORMATION
#MNEM.UNIT           DATA             DESCRIPTION OF MNEMONIC
#---------         -----------     ------------------------------
GL  .M        555.14               : gl           - GROUND LEVEL ELEVATION
EREF.M        558.14               : kb           - ELEVATION OF DEPTH REFERENCE
DATM.M        555.14               : datum        - DATUM ELEVATION
TDD .M        366                  : tdd          - TOTAL DEPTH DRILLER
RUN .         ONE                  : Run          - RUN NUMBER
ENG .         BILL                 : Engineer     - RECORDING ENGINEER
WIT .         JIM                  : Witness      - WITNESSED BY
MUD .         GEL                  : Mud_type     - MUD TYPE
MATR.         LIMESTONE            : Logunit      - NEUTRON MATRIX
TMAX.C        22                   : BHT          - MAXIMUM RECORDED TEMPERATURE
BHTD.M        366                  : BHTDEP       - MAXIMUM RECORDED TEMPERATURE
MATR.         1                    : LOGUNIT      - NEUTRON MATRIX
RMT .C        25                   : MDTP         - TEMPERATURE OF MUD
NEUT.         1                    : NEUTRON      - NEUTRON TYPE
RESI.         0                    : RESIST       - RESISTIVITY TYPE
RMC .OHMM     0.25                 : RMC          - RESISTIVITY OF MUD CAKE
RMF .OHMM     0.25                 : RMF          - RESISTIVITY OF MUD FILTRATE
SUFT.C        15                   : SUFT         - SURFACE TEMPERATURE
~A  DEPTH     RESD       GR     PHID     PHIN
# ...
  275.500    8.109   74.178    0.314    0.396
  275.750    8.109   73.559    0.313    0.387
  276.000    8.110   72.938    0.313    0.403
  276.250    8.110   68.011    0.313    0.392
  276.500    7.958   66.162    0.313    0.381
  276.750    7.958   64.927    0.314    0.365
  277.000    7.809   64.306    0.319    0.386
  277.250    7.809   68.600    0.323    0.391
  277.500    7.663   70.440    0.318    0.358
  277.750    7.240   72.279    0.311    0.340
  278.000    6.712   78.420    0.306    0.342
  278.250    5.992   86.406    0.296    0.344
  278.500    5.770   91.933    0.286    0.334
  278.750    5.662   91.310    0.269    0.326
  279.000    5.556   90.690    0.264    0.318
  279.250    5.662   90.070    0.268    0.324
  279.500    5.880   90.678    0.284    0.331
  279.750    5.880   90.057    0.303    0.329
  280.000    6.107   88.205    0.312    0.326
  280.250    6.224   91.273    0.297    0.337
  280.500    6.343   91.268    0.294    0.357
  280.750    6.465   90.031    0.308    0.389
  281.000    6.108   86.336    0.332    0.434
  281.250    5.994   84.485    0.332    0.447
  281.500    5.557   84.481    0.324    0.405
  281.750    5.453   86.317    0.279    0.411
  282.000    5.453   90.000    0.254    0.402
  282.250    5.453   95.526    0.227    0.410
  282.500    5.453   99.210    0.232    0.386
  282.750    5.453  102.891    0.234    0.343
  283.000    5.351  105.959    0.232    0.318
  283.250    5.351  109.027    0.230    0.309
  283.500    5.351  110.865    0.226    0.355
  283.750    5.351  107.168    0.222    0.380
  284.000    5.558  105.935    0.222    0.394
  284.250    5.664  102.853    0.231    0.388
  284.500    5.773  101.617    0.233    0.365
  284.750    5.665  102.225    0.241    0.351
  285.000    5.454  102.834    0.236    0.362
  285.250    5.252  102.829    0.233    0.349
  285.500    5.153  102.822    0.232    0.362
  285.750    5.252  102.202    0.230    0.353
  286.000    5.352   97.276    0.231    0.385
  286.250    5.455   94.811    0.241    0.380
  286.500    5.455   92.961    0.252    0.389
  286.750    5.455   89.881    0.264    0.351
  287.000    5.154   86.801    0.268    0.361
  287.250    4.963   91.711    0.263    0.362
  287.500    4.963   94.165    0.238    0.384
  287.750    4.963   88.012    0.216    0.338
  288.000    4.963   81.858    0.240    0.335
  288.250    4.963   84.311    0.267    0.330
  288.500    4.963   89.837    0.287    0.326
  288.750    4.779   99.052    0.245    0.361
  289.000    4.515  105.809    0.220    0.353
  289.250    4.031  102.728    0.239    0.373
  289.500    3.598  100.878    0.274    0.351
  289.750    3.093  103.944    0.279    0.361
  290.000    2.658  102.094    0.265    0.339
  290.250    2.328   98.400    0.268    0.377
  290.500    2.079   93.475    0.310    0.418
  290.750    2.001   90.395    0.329    0.483
  291.000    1.927   92.846    0.324    0.483
  291.250    1.927   95.301    0.307    0.520
  291.500    1.964   98.368    0.318    0.488
  291.750    2.002   97.746    0.323    0.423
  292.000    2.002   95.894    0.333    0.387
  292.250    2.002   95.275    0.330    0.455
  292.500    1.964   90.965    0.320    0.520
  292.750    1.927   94.032    0.312    0.577
  293.000    1.891   99.557    0.303    0.567
  293.250    1.964  102.627    0.296    0.542
  293.500    2.079  105.080    0.288    0.508
  293.750    2.243  103.229    0.280    0.483
  294.000    2.512   98.304    0.272    0.501
  294.250    2.979   95.225    0.251    0.449
  294.500    3.401   94.604    0.244    0.396
  294.750    3.600   97.670    0.241    0.378
  295.000    3.810  100.125    0.259    0.394
  295.250    4.110  103.192    0.265    0.408
  295.500    4.188  105.030    0.238    0.383
  295.750    4.350  101.334    0.208    0.375
  296.000    4.433   98.868    0.192    0.369
  296.250    4.433   98.249    0.209    0.343
  296.500    4.350   98.242    0.233    0.360
  296.750    3.739   98.850    0.250    0.374
  297.000    3.467   99.457    0.256    0.366
  297.250    3.402  100.682    0.250    0.361
  297.500    3.338  101.906    0.248    0.371
  297.750    3.276  101.284    0.237    0.374
  298.000    3.276  100.663    0.234    0.370
  298.250    3.276   99.427    0.235    0.412
  298.500    3.214  101.263    0.245    0.408
  298.750    3.154  101.874    0.243    0.372
  299.000    3.095  104.328    0.239    0.328
  299.250    2.980  111.696    0.232    0.398
  299.500    2.980  113.536    0.229    0.379
  299.750    2.980  113.529    0.240    0.358
  300.000    2.980  111.680    0.239    0.349
  300.250    2.980  107.985    0.244    0.364
  300.500    2.981  103.674    0.244    0.394
  300.750    2.981  103.053    0.248    0.412
  301.000    3.038  103.044    0.239    0.397
  301.250    3.096  103.041    0.233    0.407
  301.500    3.096  106.723    0.229    0.415
  301.750    3.155  111.021    0.247    0.416
  302.000    3.277  111.013    0.247    0.421
  302.250    3.602  110.394    0.243    0.417
  302.500    4.035  112.231    0.247    0.458
  302.750    4.607  104.233    0.263    0.428
  303.000    5.360   95.005    0.273    0.385
  303.250    6.856   87.622    0.284    0.291
  303.500    8.284   84.541    0.281    0.262
  303.750    9.458   88.222    0.274    0.279
  304.000   10.011   90.062    0.269    0.289
  304.250   10.397   88.825    0.280    0.279
  304.500   11.005   88.203    0.293    0.278
  304.750   11.648   88.198    0.302    0.274
  305.000   12.097   80.815    0.312    0.248
  305.250   12.804   76.506    0.314    0.232
  305.500   13.049   73.425    0.333    0.211
  305.750   13.049   70.346    0.368    0.210
  306.000   12.098   65.421    0.384    0.216
  306.250   10.800   58.653    0.356    0.264
  306.500   10.013   47.580    0.320    0.295
  306.750    9.109   38.967    0.299    0.316
  307.000    8.771   32.198    0.309    0.305
  307.250    8.445   43.872    0.308    0.299
  307.500    8.607   68.457    0.289    0.287
  307.750    8.771   86.279    0.253    0.275
  308.000    8.939   91.806    0.220    0.325
  308.250    9.110   86.881    0.199    0.352
  308.500    9.110   81.340    0.240    0.373
  308.750    9.110   78.877    0.246    0.362
  309.000    9.111   77.025    0.237    0.329
  309.250    9.285   80.707    0.239    0.304
  309.500    9.643   86.847    0.240    0.295
  309.750   10.015   88.688    0.235    0.292
  310.000   10.207   91.755    0.230    0.293
  310.250    9.644   99.738    0.224    0.295
  310.500    9.463  102.194    0.221    0.289
  310.750    8.941  105.877    0.215    0.282
  311.000    8.609  107.100    0.211    0.281
  311.250    8.448  112.011    0.210    0.288
  311.500    8.290  115.080    0.209    0.299
  311.750    8.290  111.999    0.205    0.308
  312.000    8.135  108.919    0.209    0.302
  312.250    7.982  107.068    0.214    0.312
  312.500    7.983  110.750    0.210    0.315
  312.750    7.833  115.048    0.205    0.310
  313.000    7.833  119.959    0.198    0.315
  313.250    7.687  121.183    0.192    0.308
  313.500    7.543  123.019    0.187    0.301
  313.750    7.263  121.786    0.184    0.324
  314.000    6.993  112.557    0.191    0.344
  314.250    6.733  108.247    0.193    0.347
  314.500    6.734  107.011    0.197    0.347
  314.750    6.607  113.153    0.194    0.355
  315.000    6.484  121.753    0.186    0.365
  315.250    6.484  116.828    0.175    0.349
  315.500    6.484  106.986    0.161    0.323
  315.750    6.484  105.750    0.151    0.320
  316.000    6.484  110.661    0.161    0.322
  316.250    6.484  114.345    0.166    0.319
  316.500    6.608  118.642    0.167    0.319
  316.750    6.609  119.248    0.167    0.361
  317.000    6.609  117.400    0.177    0.361
  317.250    6.735  108.786    0.179    0.340
  317.500    6.864  105.091    0.175    0.323
  317.750    6.864  106.929    0.174    0.375
  318.000    6.995  109.998    0.182    0.400
  318.250    7.129  106.302    0.191    0.418
  318.500    7.266   96.460    0.201    0.387
  318.750    7.405   88.461    0.211    0.359
