~VERSION INFORMATION
 VERS.                 2.0:   CWLS LOG ASCII STANDARD -VERSION 2.0
 WRAP.                  NO:   ONE LINE PER DEPTH STEP
~WELL INFORMATION BLOCK
#MNEM.UNIT           DATA                    DESCRIPTION OF MNEMONIC
#---------    -------------------            -------------------------------
# Generated from Intellog Unique Number	CN_94_101/WELL/3204
NULL.         -999.25                        : NULL_VALUE
WELL.         SHELL ELLS OV                  : Well_name    - WELL              
LOC .         02-23-095-15W4                 : Location     - LOCATION          
UWI .         AA/02-23-095-15W4/0            : Uwi          - UNIQUE WELL ID    
ENTR.         JOETTE                         : Entered      - ENTERED BY        
SRVC.         SCHLUMBERGER                   : Scn          - SERVICE COMPANY   
DATE.         14 MAR 73                      : Date         - LOG DATE          
STRT.F        400                            : top_depth    - START DEPTH       
STOP.F        970.046                        : bot_depth    - STOP DEPTH        
STEP.F        0.82                           : increment    - STEP LENGTH       
~CURVE INFORMATION BLOCK
#MNEM UNIT       ERCB CURVE CODE    CURVE DESCRIPTION
#-----------   ------------------   ----------------------------------
DEPT.F        00 001 00 00         : DEPTH        - DEPTH                       
GR  .API      00 310 00 00         : GR           - GAMMA RAY                   
DPHI.V/V      00 890 00 00         : PHID         - DENSITY POROSITY (SANDSTONE)
ILD .OHMM     00 120 00 00         : RESD         - DEEP RESISTIVITY (DIL)      
~PARAMETER INFORMATION       
#MNEM.UNIT           DATA             DESCRIPTION OF MNEMONIC
#---------         -----------     ------------------------------
GL  .M        550.804              : gl           - GROUND LEVEL ELEVATION      
EREF.M        553.913              : kb           - ELEVATION OF DEPTH REFERENCE
DATM.M        553.913              : datum        - DATUM ELEVATION             
TDD .M        302.362              : tdd          - TOTAL DEPTH DRILLER         
RUN .         ONE                  : Run          - RUN NUMBER                  
ENG .         JO                   : Engineer     - RECORDING ENGINEER          
WIT .         TIM                  : Witness      - WITNESSED BY                
MUD .         GEL                  : Mud_type     - MUD TYPE                    
MATR.         SANDSTONE            : Logunit      - NEUTRON MATRIX              
TMAX.F        55                   : BHT          - MAXIMUM RECORDED TEMPERATURE
BHTD.F        992                  : BHTDEP       - MAXIMUM RECORDED TEMPERATURE
RMT .F        55                   : MDTP         - TEMPERATURE OF MUD          
MUDD.LB/G     9.2                  : MWT          - MUD DENSITY                 
NEUT.         1                    : NEUTRON      - NEUTRON TYPE                
RESI.         0                    : RESIST       - RESISTIVITY TYPE            
RM  .OHMM     1.21                 : RM           - RESISTIVITY OF MUD          
RMC .OHMM     1.21                 : RMC          - RESISTIVITY OF MUD CAKE     
RMF .OHMM     1.21                 : RMF          - RESISTIVITY OF MUD FILTRATE 
SUFT.F        39.2                 : SUFT         - SURFACE TEMPERATURE         
~A  DEPTH       GR     PHID     RESD
# ...
  577.986   82.487    0.260    6.113
  578.806   85.268    0.253    6.463
  579.626   84.484    0.243    7.220
  580.446   78.550    0.229    7.632
  581.266   77.763    0.198    7.097
  582.087   84.903    0.185    6.132
  582.907   90.853    0.249    6.603
  583.727   95.221    0.275    6.607
  584.547   96.021    0.272    5.924
  585.367   94.839    0.276    5.119
  586.188   92.075    0.274    4.588
  587.008   93.667    0.274    4.677
  587.828   95.654    0.276    4.596
  588.648   96.853    0.274    4.514
  589.469   96.861    0.277    4.434
  590.289   95.677    0.282    4.277
  591.109   92.515    0.277    3.978
  591.929   81.428    0.267    4.055
  592.749   78.663    0.271    4.528
  593.570   77.480    0.262    5.152
  594.390   71.942    0.257    5.155
  595.210   72.346    0.265    5.551
  596.030   74.334    0.274    6.432
  596.850   75.928    0.283    7.186
  597.671   73.556    0.284    7.060
  598.491   69.602    0.284    6.565
  599.311   67.630    0.280    5.994
  600.131   70.810    0.278    6.574
  600.951   71.606    0.278    7.210
  601.772   72.408    0.279    8.052
  602.592   73.210    0.281    9.503
  603.412   73.609    0.285    8.364
  604.232   72.430    0.287    7.096
  605.052   67.683    0.292    6.132
  605.873   60.954    0.291    5.203
  606.693   59.377    0.276    5.400
  607.513   63.742    0.261    6.986
  608.333   68.504    0.305    9.373
  609.154   73.664    0.298   10.469
  609.974   77.238    0.287    9.214
  610.794   77.245    0.280    7.818
  611.614   77.254    0.266    6.757
  612.434   76.863    0.269    6.170
  613.255   76.874    0.282    5.737
  614.075   76.485    0.286    6.178
  614.895   77.680    0.283    6.295
  615.715   78.083    0.280    6.534
  616.535   75.713    0.276    6.304
  617.356   71.362    0.272    5.757
  618.176   68.599    0.269    5.551
  618.996   71.378    0.267    5.454
  619.816   74.159    0.269    5.766
  620.636   77.338    0.272    6.209
  621.457   75.362    0.271    6.687
  622.277   72.992    0.267    6.691
  623.097   71.022    0.264    7.205
  623.917   73.801    0.265    6.822
  624.738   76.978    0.277    6.117
  625.558   80.948    0.298    7.087
  626.378   85.314    0.279    8.365
  627.198   91.266    0.260    9.172
  628.018   94.840    0.230    7.926
  628.839   92.073    0.201    5.915
  629.659   87.326    0.179    4.579
  630.479   81.786    0.154    4.180
  631.299   76.642    0.157    4.502
  632.119   78.633    0.183    4.759
  632.940   88.149    0.254    6.386
  633.760   94.100    0.246    7.675
  634.580   95.296    0.246    5.835
  635.400   98.079    0.249    4.517
  636.220   96.501    0.246    3.976
  637.041   92.546    0.239    4.203
  637.861   87.403    0.245    4.443
  638.681   88.206    0.267    4.612
  639.501   89.795    0.258    4.368
  640.322   92.974    0.252    4.063
  641.142   95.358    0.253    3.991
  641.962   92.990    0.258    4.298
  642.782   91.016    0.262    4.713
  643.602   89.437    0.255    4.982
  644.423   90.633    0.243    5.365
  645.243   94.210    0.245    5.673
  646.063   96.989    0.256    6.108
  646.883   80.751    0.252    6.948
  647.703   75.211    0.242    8.507
  648.524   78.786    0.246   10.040
  649.344   79.190    0.251   10.810
  650.164   77.612    0.230   10.428
  650.984   73.657    0.206   11.024
  651.804   70.893    0.205   12.543
  652.625   73.276    0.228   13.261
  653.445   76.455    0.233   14.543
  654.265   78.837    0.228   11.894
  655.085   83.601    0.228    9.730
  655.906   85.590    0.231    9.213
  656.726   85.201    0.241    9.391
  657.546   84.021    0.248    9.748
  658.366   82.840    0.253    9.578
  659.186   80.470    0.259    9.412
  660.007   76.119    0.262    9.079
  660.827   73.749    0.266    8.919
  661.647   72.965    0.267    9.090
  662.467   73.765    0.268    8.770
  663.287   74.169    0.270    8.613
  664.108   70.608    0.273    8.779
  664.928   65.861    0.279    8.785
  665.748   67.851    0.268    8.953
  666.568   74.594    0.250    9.821
  667.388   77.773    0.253   10.191
  668.209   75.401    0.239    9.478
  669.029   73.823    0.212    9.141
  669.849   72.646    0.206    8.982
  670.669   71.861    0.237    8.991
  671.490   73.847    0.263    9.160
  672.310   77.024    0.269   10.231
  673.130   75.843    0.267   10.816
  673.950   77.435    0.264    9.697
  674.770   82.992    0.262    8.536
  675.591   84.584    0.262    8.234
  676.411   79.044    0.258    8.091
  677.231   77.468    0.255    8.093
  678.051   77.474    0.257    8.098
  678.871   76.296    0.261    8.407
  679.692   77.094    0.268    9.053
  680.512   73.535    0.275    9.397
  681.332   69.186    0.279    9.064
  682.152   72.361    0.273    9.070
  682.972   79.104    0.265    9.414
  683.793   82.285    0.259    9.956
  684.613   80.706    0.257    9.429
  685.433   77.939    0.257    8.766
  686.253   75.569    0.254    7.860
  687.073   72.010    0.240    7.581
  687.894   68.452    0.192    7.586
  688.714   72.423    0.158    8.319
  689.534   78.374    0.199   10.565
  690.354   85.513    0.262   15.536
  691.175   83.936    0.272   14.184
  691.995   81.962    0.269    9.659
  692.815   79.592    0.267    7.616
  693.635   78.016    0.270    3.867
  694.455   81.589    0.272    6.008
  695.276   86.353    0.290    7.630
  696.096   88.736    0.300    6.127
  696.916   88.745    0.295    4.921
  697.736   86.375    0.287    4.175
  698.556   85.194    0.285    2.949
  699.377   86.391    0.287    3.118
  700.197   84.416    0.287    3.419
  701.017   82.442    0.280    4.760
  701.837   80.072    0.273    5.415
  702.657   80.081    0.267    6.274
  703.478   79.296    0.255    7.541
  704.298   81.681    0.241    8.899
  705.118   86.839    0.238    9.761
  705.938   91.603    0.232    9.767
  706.759   88.836    0.223    8.441
  707.579   84.089    0.221    6.903
  708.399   79.342    0.214    7.035
  709.219   76.972    0.197    8.303
  710.039   78.962    0.219    9.105
  710.860   79.760    0.222   10.173
  711.680   83.335    0.214    9.633
  712.500   81.361    0.191    9.125
  713.320   78.991    0.181    8.965
  714.140   75.036    0.167    9.136
  714.961   71.478    0.134    9.837
  715.781   73.862    0.209   10.990
  716.601   77.834    0.229   12.732
  717.421   79.426    0.237   17.082
  718.241   78.642    0.239   22.098
  719.062   79.442    0.240   22.111
  719.882   80.240    0.240   10.627
  720.702   81.832    0.241    9.355
  721.522   83.823    0.245    9.710
  722.343   80.266    0.248   10.079
  723.163   78.292    0.242   10.084
  723.983   81.467    0.235   10.093
  724.803   85.833    0.234   10.098
  725.623   79.501    0.230   10.104
  726.444   75.548    0.223    9.929
  727.264   78.328    0.225    9.933
  728.084   79.921    0.241    9.944
  728.904   81.515    0.239   10.134
  729.724   83.105    0.239   10.138
  730.545   87.076    0.242   10.523
  731.365   90.650    0.230   10.726
  732.185   87.487    0.199   10.931
  733.005   79.570    0.193   10.544
  733.825   74.823    0.247   10.172
  734.646   74.436    0.257   10.559
  735.466   76.424    0.257   11.792
  736.286   79.205    0.254   13.417
  737.106   79.610    0.252   13.426
  737.927   78.429    0.253   12.259
  738.747   77.642    0.259   10.592
  739.567   73.689    0.282    9.324
  740.387   70.128    0.291    9.679
  741.207   68.158    0.290    9.863
  742.028   67.771    0.286   10.239
  742.848   66.982    0.280   10.244
  743.668   65.405    0.278   10.066
  744.488   65.412    0.271    9.533
  745.308   70.968    0.267    9.366
  746.129   74.147    0.256    9.203
  746.949   74.551    0.245    9.207
  747.769   76.141    0.200    9.213
  748.589   76.545    0.139    9.219
  749.409   74.967    0.079    9.225
  750.230   64.673    0.078    9.577
  751.050   58.738    0.139   10.312
  751.870   65.481    0.179   12.857
  752.690   73.413    0.209   32.178
  753.510   86.100    0.223   15.463
  754.331   88.882    0.232    7.570
  755.151   88.893    0.237    6.541
