~VERSION INFORMATION
 VERS.                 2.0:   CWLS LOG ASCII STANDARD -VERSION 2.0
 WRAP.                  NO:   ONE LINE PER DEPTH STEP
~WELL INFORMATION BLOCK
#MNEM.UNIT           DATA                    DESCRIPTION OF MNEMONIC
#---------    -------------------            -------------------------------
# Generated from Intellog Unique Number	CC_84_87/WELL/1171
NULL.         -999.25                        : NULL_VALUE
WELL.         ARCO ACI McMURRAY              : Well_name    - WELL              
LOC .         08-11-084-12W4                 : Location     - LOCATION          
UWI .         AA/08-11-084-12W400            : Uwi          - UNIQUE WELL ID    
ENTR.         RJA                            : Entered      - ENTERED BY        
SRVC.         SCHLUMBERGER                   : Scn          - SERVICE COMPANY   
DATE.         20 FEB 74                      : Date         - LOG DATE
STRT.M        91.44                          : top_depth    - START DEPTH       
STOP.M        321.259                        : bot_depth    - STOP DEPTH        
STEP.M        0.3048                         : increment    - STEP LENGTH       
~CURVE INFORMATION BLOCK
#MNEM UNIT       ERCB CURVE CODE    CURVE DESCRIPTION
#-----------   ------------------   ----------------------------------
DEPT.M        00 001 00 00         : DEPTH        - DEPTH                       
DPHI.V/V      00 890 00 00         : PHID         - DENSITY POROSITY (LIMESTONE)
GR  .API      00 310 00 00         : GR           - GAMMA RAY                   
NPHI.V/V      00 330 00 00         : PHIN         - NEUTRON POROSITY (LIMESTONE)
ILD .OHMM     00 120 00 00         : RESD         - DEEP RESISTIVITY (DIL)      
~PARAMETER INFORMATION       
#MNEM.UNIT           DATA             DESCRIPTION OF MNEMONIC
#---------         -----------     ------------------------------
GL  .M        567.69               : gl           - GROUND LEVEL ELEVATION      
EREF.M        569.366              : kb           - ELEVATION OF DEPTH REFERENCE
DATM.M        569.366              : datum        - DATUM ELEVATION             
TDD .M        321.564              : tdd          - TOTAL DEPTH DRILLER         
RUN .         ONE                  : Run          - RUN NUMBER                  
ENG .         BILL                 : Engineer     - RECORDING ENGINEER          
WIT .         JIM                  : Witness      - WITNESSED BY                
MUD .         GEL                  : Mud_type     - MUD TYPE                    
MATR.         LIMESTONE            : Logunit      - NEUTRON MATRIX              
TMAX.C        21.1111              : BHT          - MAXIMUM RECORDED TEMPERATURE
BHTD.M        321.564              : BHTDEP       - MAXIMUM RECORDED TEMPERATURE
MATR.         1                    : LOGUNIT      - NEUTRON MATRIX              
RMT .C        25                   : MDTP         - TEMPERATURE OF MUD          
NEUT.         0                    : NEUTRON      - NEUTRON TYPE                
RESI.         0                    : RESIST       - RESISTIVITY TYPE            
RMC .OHMM     0.25                 : RMC          - RESISTIVITY OF MUD CAKE     
RMF .OHMM     0.25                 : RMF          - RESISTIVITY OF MUD FILTRATE 
SUFT.C        4                    : SUFT         - SURFACE TEMPERATURE         
~A  DEPTH     PHID       GR     PHIN     RESD
# ...
  144.475    0.314  124.310    0.370   14.380
  144.780    0.313  123.771    0.353   16.001
  145.085    0.305  125.256    0.364   17.102
  145.390    0.310  126.741    0.356   16.824
  145.694    0.294  124.595    0.347   16.165
  145.999    0.293  119.292    0.323   15.359
  146.304    0.277  113.155    0.318   14.924
  146.609    0.277  107.555    0.331   14.236
  146.913    0.292  100.227    0.363   13.476
  147.218    0.298   91.173    0.393   14.219
  147.523    0.297   86.822    0.364   15.787
  147.828    0.284   88.188    0.357   17.524
  148.133    0.298   86.339    0.380   17.801
  148.437    0.316   80.322    0.385   17.613
  148.742    0.317   84.070    0.378   17.260
  149.047    0.304   89.188    0.351   17.042
  149.352    0.288   89.840    0.319   16.352
  149.657    0.266   96.327    0.297   14.521
  149.961    0.201  101.386    0.321   12.824
  150.266    0.201  106.623    0.340   11.261
  150.571    0.238  110.013    0.353   10.222
  150.876    0.247  113.821    0.352    9.626
  151.181    0.300  110.245    0.325    9.182
  151.485    0.258  105.597    0.340    8.726
  151.790    0.246  106.666    0.357    8.142
  152.095    0.228  116.666    0.355    7.623
  152.400    0.241  121.010    0.370    7.388
  152.705    0.265  126.605    0.379    7.393
  153.009    0.279  129.638    0.397    7.370
  153.314    0.252  146.606    0.395    7.016
  153.619    0.230  153.749    0.403    6.473
  153.924    0.246  149.517    0.393    6.142
  154.229    0.234  145.763    0.373    5.922
  154.533    0.247  141.889    0.387    6.247
  154.838    0.232  145.637    0.385    6.714
  155.143    0.254  144.324    0.379    8.663
  155.448    0.258  128.898    0.429   10.623
  155.753    0.304  122.761    0.443   12.695
  156.057    0.334  120.019    0.392   14.543
  156.362    0.288  118.587    0.367   15.516
  156.667    0.269  115.130    0.375   15.664
  156.972    0.260  113.578    0.375   14.749
  157.276    0.274  111.610    0.367   12.717
  157.581    0.285  117.501    0.352   10.985
  157.886    0.273  119.880    0.392   10.029
  158.191    0.258  119.222    0.381    9.690
  158.496    0.283  123.149    0.414   10.315
  158.800    0.305  124.218    0.387   11.495
  159.105    0.305  123.440    0.352   11.998
  159.410    0.300  127.665    0.363   12.378
  159.715    0.297  129.329    0.364   12.588
  160.020    0.307  121.823    0.369   12.642
  160.324    0.309  112.649    0.356   12.601
  160.629    0.284  112.289    0.359   12.582
  160.934    0.297  116.216    0.348   13.127
  161.239    0.299  110.854    0.363   15.482
  161.544    0.340   94.951    0.349   17.939
  161.848    0.358   76.191    0.294   20.440
  162.153    0.383   83.035    0.303   20.710
  162.458    0.347   90.475    0.346   17.688
  162.763    0.319   84.220    0.374   16.818
  163.068    0.328   74.868    0.398   16.123
  163.372    0.334   72.542    0.378   16.104
  163.677    0.344   66.048    0.363   15.989
  163.982    0.353   69.737    0.363   16.028
  164.287    0.338   75.093    0.377   16.174
  164.592    0.320   78.186    0.365   16.186
  164.896    0.286   75.027    0.368   16.071
  165.201    0.301   77.882    0.379   15.897
  165.506    0.297   76.450    0.374   15.703
  165.811    0.323   87.046    0.382   15.143
  166.116    0.320   95.439    0.368   14.183
  166.420    0.297   99.485    0.359   11.942
  166.725    0.266  111.748    0.380    9.293
  167.030    0.229  127.644    0.355    8.101
  167.335    0.224  131.868    0.345    7.505
  167.639    0.237  129.722    0.375    6.924
  167.944    0.225  134.780    0.392    6.825
  168.249    0.234  140.434    0.380    6.792
  168.554    0.229  136.679    0.367    6.818
  168.859    0.233  145.667    0.342    6.833
  169.163    0.226  149.237    0.350    6.900
  169.468    0.231  138.873    0.353    6.948
  169.773    0.215  140.716    0.359    6.977
  170.078    0.207  147.382    0.360    6.996
  170.383    0.222  145.115    0.391    7.011
  170.687    0.201  141.659    0.362    6.972
  170.992    0.190  138.857    0.363    6.963
  171.297    0.205  142.009    0.377    6.902
  171.602    0.207  143.971    0.372    6.765
  171.907    0.215  147.660    0.372    6.684
  172.211    0.237  148.431    0.387    6.539
  172.516    0.244  145.629    0.371    6.421
  172.821    0.231  144.077    0.366    6.305
  173.126    0.219  150.982    0.398    6.050
  173.431    0.191  151.932    0.410    5.856
  173.735    0.177  149.963    0.396    5.732
  174.040    0.194  151.627    0.400    5.578
  174.345    0.207  148.944    0.411    5.479
  174.650    0.223  143.046    0.404    5.351
  174.955    0.233  134.408    0.407    5.334
  175.259    0.240  136.192    0.401    5.181
  175.564    0.238  142.202    0.393    5.015
  175.869    0.258  143.331    0.430    4.907
  176.174    0.279  131.537    0.407    4.917
  176.479    0.333  121.351    0.433    5.065
  176.783    0.447  112.416    0.466    5.473
  177.088    0.483  113.485    0.418    6.179
  177.393    0.427  105.621    0.395    7.263
  177.698    0.281   94.125    0.411    8.506
  178.003    0.333  103.054    0.361   10.448
  178.307    0.316  101.741    0.344   12.194
  178.612    0.243   80.003    0.289   14.867
  178.917    0.186   70.412    0.140   18.062
  179.222    0.095   72.315    0.128   18.639
  179.526    0.204   82.017    0.198   16.767
  179.831    0.317   86.957    0.368   14.142
  180.136    0.343   87.966    0.409   12.282
  180.441    0.343   88.737    0.414   12.022
  180.746    0.352   83.731    0.402   12.203
  181.050    0.349   81.883    0.423   12.572
  181.355    0.345   82.177    0.393   12.828
  181.660    0.343   84.794    0.377   13.290
  181.965    0.351   87.351    0.385   13.054
  182.270    0.337   89.670    0.407   12.727
  182.574    0.330   91.096    0.375   12.524
  182.879    0.322   90.736    0.375   12.119
  183.184    0.330   91.507    0.392   11.308
  183.489    0.338   97.459    0.408   10.041
  183.794    0.325  107.816    0.434    9.065
  184.098    0.304  102.573    0.417    8.459
  184.403    0.304   93.101    0.437    8.617
  184.708    0.320   91.074    0.421    9.747
  185.013    0.337   92.381    0.426   10.474
  185.318    0.340   87.912    0.404   11.069
  185.622    0.330   84.574    0.406   11.611
  185.927    0.324   89.870    0.383   11.832
  186.232    0.308   85.044    0.371   11.990
  186.537    0.282   91.948    0.377   12.168
  186.842    0.290   86.823    0.385   12.241
  187.146    0.332   89.499    0.372   12.137
  187.451    0.346   90.926    0.375   12.030
  187.756    0.337   91.340    0.390   11.599
  188.061    0.324   83.297    0.401   11.184
  188.366    0.311   92.822    0.404   10.944
  188.670    0.309  102.881    0.396   10.987
  188.975    0.294  100.378    0.379   11.280
  189.280    0.308   96.683    0.384   11.788
  189.585    0.310   95.310    0.380   11.947
  189.889    0.281   87.506    0.372   11.231
  190.194    0.253   88.693    0.371   10.083
  190.499    0.257   95.360    0.380    8.970
  190.804    0.299  109.111    0.379    7.877
  191.109    0.289  116.850    0.394    7.487
  191.413    0.269  107.616    0.380    7.940
  191.718    0.282  103.386    0.380    8.753
  192.023    0.294  100.286    0.402    9.580
  192.328    0.313   92.363    0.389    9.170
  192.633    0.318   86.226    0.413    9.587
  192.937    0.320   83.067    0.396    9.209
  193.242    0.340   85.981    0.378    8.932
  193.547    0.314   95.863    0.384    8.379
  193.852    0.319  100.207    0.397    8.126
  194.157    0.319   98.596    0.401    7.497
  194.461    0.296   99.903    0.413    6.868
  194.766    0.308  103.413    0.415    6.156
  195.071    0.286  116.153    0.405    4.643
  195.376    0.289  114.839    0.414    3.960
  195.681    0.295  124.007    0.430    3.510
  195.985    0.281  133.710    0.470    3.221
  196.290    0.278  130.192    0.447    3.152
  196.595    0.266  130.189    0.504    3.308
  196.900    0.267  137.511    0.479    3.573
  197.205    0.284  129.886    0.433    3.789
