~VERSION INFORMATION
 VERS.                 2.0:   CWLS LOG ASCII STANDARD -VERSION 2.0
 WRAP.                  NO:   ONE LINE PER DEPTH STEP
~WELL INFORMATION BLOCK
#MNEM.UNIT           DATA                    DESCRIPTION OF MNEMONIC
#---------    -------------------            -------------------------------
# Generated from Intellog Unique Number	CW_76_78/WELL/2567
WELL.         06-06-078-25W4                 : Well_name    - WELL
LOC .         AA/06-06-078-25W4/0            : Location     - LOCATION
UWI .         AA/06-06-078-25W4/0            : Uwi          - UNIQUE WELL ID
ENTR.         MAX                            : Entered      - ENTERED BY
SRVC.         SCHLUMBERGER                   : Scn          - SERVICE COMPANY
STRT.M        350                            : top_depth    - START DEPTH
STOP.M        590                            : bot_depth    - STOP DEPTH
STEP.M        0.25                           : increment    - STEP LENGTH
 NULL. -999.2500:NULL Value
~CURVE INFORMATION BLOCK
#MNEM UNIT       ERCB CURVE CODE    CURVE DESCRIPTION
#-----------   ------------------   ----------------------------------
DEPT.M        00 001 00 00         : DEPTH        - DEPTH
ILD .OHMM     00 120 00 00         : RESD         - DEEP RESISTIVITY (DIL)
NPHI.V/V      00 330 00 00         : PHIN         - NEUTRON POROSITY (SANDSTONE)
DPHI.V/V      00 890 00 00         : PHID         - DENSITY POROSITY (SANDSTONE)
CALI.MM       00 280 01 00         : CAL          - CALIPER
GR  .API      00 310 00 00         : GR           - GAMMA RAY
~PARAMETER INFORMATION
#MNEM.UNIT           DATA             DESCRIPTION OF MNEMONIC
#---------         -----------     ------------------------------
GL  .M        645.28               : gl           - GROUND LEVEL ELEVATION
EREF.M        650.03               : kb           - ELEVATION OF DEPTH REFERENCE
DATM.M        645.28               : datum        - DATUM ELEVATION
TDD .M        594                  : tdd          - TOTAL DEPTH DRILLER
RUN .         ONE                  : Run          - RUN NUMBER
ENG .         BILL                 : Engineer     - RECORDING ENGINEER
WIT .         JIM                  : Witness      - WITNESSED BY
MUD .         GEL                  : Mud_type     - MUD TYPE
MATR.         SANDSTONE            : Logunit      - NEUTRON MATRIX
TMAX.C        34.4                 : BHT          - MAXIMUM RECORDED TEMPERATURE
BHTD.M        594                  : BHTDEP       - MAXIMUM RECORDED TEMPERATURE
RMT .C        18                   : MDTP         - TEMPERATURE OF MUD
MUDD.KG/M     8.5                  : MWT          - MUD DENSITY
NEUT.         1                    : NEUTRON      - NEUTRON TYPE
RESI.         0                    : RESIST       - RESISTIVITY TYPE
RM  .OHMM     6.56                 : RM           - RESISTIVITY OF MUD
RMC .OHMM     0.25                 : RMC          - RESISTIVITY OF MUD CAKE
RMF .OHMM     5.94                 : RMF          - RESISTIVITY OF MUD FILTRATE
SUFT.C        -20                  : SUFT         - SURFACE TEMPERATURE
~A  DEPTH     RESD     PHIN     PHID      CAL       GR
# ...
  532.500   14.890    0.361    0.180  212.793   66.251
  532.750   15.044    0.355    0.211  212.817   59.328
  533.000   19.177    0.359    0.281  211.838   51.198
  533.250   23.339    0.356    0.296  206.837   35.824
  533.500   27.615    0.350    0.282  204.859   29.205
  533.750   33.293    0.353    0.274  204.880   25.900
  534.000   43.647    0.356    0.259  204.914   23.804
  534.250   52.621    0.327    0.252  205.947   22.012
  534.500   61.123    0.328    0.259  206.973   21.423
  534.750   70.358    0.331    0.261  207.503   21.442
  535.000   75.164    0.334    0.265  207.530   22.365
  535.250   78.098    0.334    0.278  207.564   22.987
  535.500   79.631    0.335    0.277  207.584   22.999
  535.750   79.699    0.340    0.286  207.615   22.714
  536.000   80.531    0.345    0.289  207.645   22.730
  536.250   82.900    0.345    0.268  207.669   23.350
  536.500   86.920    0.351    0.275  207.707   23.064
  536.750   92.857    0.362    0.284  207.724   23.081
  537.000   96.481    0.371    0.288  207.751   22.795
  537.250   91.333    0.368    0.299  207.275   22.814
  537.500   74.506    0.359    0.288  206.300   23.132
  537.750   60.779    0.352    0.280  205.821   23.752
  538.000   55.960    0.356    0.275  204.343   23.466
  538.250   46.941    0.353    0.287  203.864   23.486
  538.500   44.437    0.354    0.287  203.388   24.104
  538.750   36.245    0.355    0.287  202.413   24.722
  539.000   34.951    0.358    0.271  201.934   24.740
  539.250   31.583    0.356    0.273  200.463   24.757
  539.500   24.596    0.348    0.272  199.980   24.773
  539.750   23.721    0.328    0.265  198.506   24.789
  540.000   22.453    0.335    0.266  198.526   24.803
  540.250   21.058    0.346    0.259  199.559   24.518
  540.500   20.123    0.350    0.264  203.609   25.140
  540.750   19.410    0.336    0.260  205.148   27.574
  541.000   19.244    0.339    0.262  204.669   28.192
  541.250   19.265    0.357    0.273  204.194   28.210
  541.500   19.284    0.361    0.273  204.221   28.222
  541.750   19.483    0.363    0.266  204.248   29.448
  542.000   19.681    0.360    0.257  204.278   30.369
  542.250   19.518    0.356    0.257  205.311   32.194
  542.500   19.358    0.353    0.237  205.342   35.531
  542.750   19.380    0.355    0.235  205.390   38.868
  543.000   19.577    0.355    0.234  204.894   40.393
  543.250   19.415    0.349    0.226  204.414   41.614
  543.500   18.899    0.334    0.227  203.436   43.743
  543.750   18.060    0.337    0.240  203.463   46.175
  544.000   17.580    0.347    0.244  203.494   47.999
  544.250   17.113    0.356    0.250  203.521   46.207
  544.500   16.351    0.367    0.270  203.548   42.299
  544.750   15.335    0.371    0.281  203.572   35.980
  545.000   12.510    0.360    0.301  203.602   30.263
  545.250   12.176    0.368    0.291  204.132   29.073
  545.500   11.003    0.372    0.288  205.165   29.994
  545.750   10.035    0.361    0.292  206.198   29.711
  546.000    8.902    0.354    0.287  206.229   29.425
  546.250    8.426    0.361    0.293  205.247   29.442
  546.500    7.978    0.366    0.292  203.766   30.061
  546.750    7.837    0.370    0.282  202.284   31.287
  547.000    7.846    0.368    0.269  202.315   32.809
  547.250    7.855    0.360    0.270  203.348   34.334
  547.500    7.855    0.361    0.272  204.880   35.559
  547.750    7.869    0.354    0.268  203.409   36.783
  548.000    7.876    0.359    0.263  202.926   38.913
  548.250    7.885    0.370    0.268  202.954   40.738
  548.500    7.893    0.378    0.266  202.481   42.263
  548.750    7.975    0.373    0.260  201.503   43.788
  549.000    8.131    0.369    0.261  201.533   45.616
  549.250    8.371    0.373    0.255  201.557   46.536
  549.500    8.371    0.375    0.247  202.087   48.061
  549.750    8.626    0.371    0.230  202.111   49.889
  550.000    9.299    0.356    0.212  203.144   52.016
  550.250    9.841    0.344    0.195  202.169   55.956
  550.500   10.813    0.337    0.177  202.702   56.276
  550.750   11.551    0.319    0.165  204.231   58.103
  551.000   12.689    0.306    0.130  207.276   63.249
  551.250   14.335    0.306    0.107  213.847   68.996
  551.500   14.891    0.321    0.134  215.885   74.745
  551.750   14.633    0.333    0.139  216.416   85.323
  552.000   13.724    0.348    0.136  216.443   88.357
  552.250   12.752    0.354    0.143  216.973   92.299
  552.500   12.073    0.361    0.141  217.499   94.426
  552.750   11.642    0.348    0.136  218.033   93.535
  553.000   11.124    0.342    0.138  219.569   89.930
  553.250   11.124    0.347    0.137  218.590   87.535
  553.500   10.840    0.342    0.136  217.112   87.551
  553.750   10.454    0.351    0.160  218.145   85.456
  554.000   10.467    0.369    0.143  214.149   77.927
  554.250   10.972    0.371    0.160  215.179   72.814
  554.500   13.477    0.348    0.187  219.232   58.649
  554.750   16.710    0.304    0.193  215.736   45.993
  555.000   18.354    0.304    0.155  210.738   42.393
  555.250   25.444    0.288    0.132  210.262   42.406
  555.500   33.044    0.276    0.116  210.789   44.840
  555.750   38.032    0.232    0.110  209.814   44.856
  556.000   34.688    0.244    0.085  211.346   46.381
  556.250   24.613    0.290    0.109  213.891   49.712
  556.500   19.163    0.352    0.135  209.895   58.780
  556.750   12.391    0.388    0.167  209.420   74.790
  557.000   10.012    0.376    0.182  214.476   83.859
  557.250   10.026    0.386    0.183  215.512   76.635
  557.500   10.809    0.382    0.201  214.537   64.278
  557.750   13.152    0.370    0.250  213.551   48.303
  558.000   23.003    0.353    0.266  206.538   37.458
  558.250   35.323    0.342    0.266  202.550   35.965
  558.500   45.029    0.334    0.261  202.074   36.587
  558.750   59.034    0.331    0.258  202.597   37.509
  559.000   63.663    0.345    0.258  203.633   38.732
  559.250   53.895    0.362    0.262  204.160   39.953
  559.500   35.831    0.371    0.276  205.196   42.987
  559.750   29.229    0.384    0.275  206.739   50.546
  560.000   24.745    0.372    0.244  206.756   58.411
  560.250   21.951    0.387    0.233  207.289   65.065
  560.500   17.412    0.433    0.245  209.335   70.211
  560.750   13.309    0.451    0.282  209.355   70.531
  561.000   12.026    0.448    0.284  211.397   69.942
  561.250   11.598    0.445    0.276  211.425   70.563
  561.500   10.580    0.447    0.273  212.454   72.084
  561.750    9.829    0.473    0.256  214.996   74.518
  562.000    9.220    0.500    0.271  217.541   76.948
  562.250    8.810    0.529    0.294  218.071   77.568
  562.500    8.186    0.539    0.367  216.586   79.395
  562.750    7.535    0.567    0.388  217.119   81.825
  563.000    7.067    0.574    0.381  218.152   82.141
  563.250    7.067    0.538    0.354  217.174   82.761
  563.500    6.760    0.528    0.270  214.190   87.906
  563.750    6.224    0.554    0.233  217.734   89.735
  564.000    6.113    0.557    0.282  220.276   89.753
  564.250    6.177    0.546    0.300  219.297   91.278
  564.500    6.478    0.525    0.285  214.802   91.596
  564.750    6.857    0.500    0.266  214.320   90.707
  565.000    6.929    0.472    0.192  215.859   89.215
  565.250    7.064    0.432    0.148  217.395   87.117
  565.500    7.546    0.397    0.192  216.419   75.970
  565.750    8.291    0.387    0.210  215.937   73.878
  566.000    8.614    0.404    0.193  216.980   76.304
  566.250    8.464    0.395    0.170  219.015   80.245
  566.500    8.088    0.384    0.128  219.039   81.770
  566.750    7.241    0.396    0.080  215.550   85.103
  567.000    7.113    0.394    0.140  214.568   89.346
  567.250    7.390    0.395    0.171  216.610   91.776
  567.500    8.118    0.398    0.189  218.645   89.680
  567.750    9.170    0.385    0.192  217.666   85.774
  568.000   10.074    0.387    0.180  216.185   79.152
  568.250   10.466    0.380    0.194  215.713   77.061
  568.500   10.097    0.394    0.208  216.742   77.375
  568.750   10.103    0.399    0.210  218.781   78.604
