~VERSION INFORMATION
 VERS.                 2.0:   CWLS LOG ASCII STANDARD -VERSION 2.0
 WRAP.                  NO:   ONE LINE PER DEPTH STEP
~WELL INFORMATION BLOCK
#MNEM.UNIT           DATA                    DESCRIPTION OF MNEMONIC
#---------    -------------------            -------------------------------
# Generated from Intellog Unique Number	CC_88_90/WELL/3138
WELL.         ESSO RESOURCES                 : Well_name    - WELL
LOC .         AA/06-11-090-10W4/0            : Location     - LOCATION
UWI .         AA/06-11-090-10W400            : Uwi          - UNIQUE WELL ID
ENTR.         JOETTE                         : Entered      - ENTERED BY
SRVC.         SCHLUMBERGER                   : Scn          - SERVICE COMPANY
DATE.         03/04/92                       : Date         - LOG DATE
STRT.M        30                             : top_depth    - START DEPTH
STOP.M        115                            : bot_depth    - STOP DEPTH
STEP.M        0.25                           : increment    - STEP LENGTH
 NULL. -999.2500:NULL Value
~CURVE INFORMATION BLOCK
#MNEM UNIT       ERCB CURVE CODE    CURVE DESCRIPTION
#-----------   ------------------   ----------------------------------
DEPT.M        00 001 00 00         : DEPTH        - DEPTH
GR  .API      00 310 00 00         : GR           - GAMMA RAY
CALI.MM       00 280 01 00         : CAL          - CALIPER
NPHI.V/V      00 330 00 00         : PHIN         - NEUTRON POROSITY (SANDSTONE)
DPHI.V/V      00 890 00 00         : PHID         - DENSITY POROSITY (SANDSTONE)
ILD .OHMM     00 120 00 00         : RESD         - DEEP RESISTIVITY (DIL)
~PARAMETER INFORMATION
#MNEM.UNIT           DATA             DESCRIPTION OF MNEMONIC
#---------         -----------     ------------------------------
GL  .M        358.2                : gl           - GROUND LEVEL ELEVATION
EREF.M        358.2                : kb           - ELEVATION OF DEPTH REFERENCE
DATM.M        358.2                : datum        - DATUM ELEVATION
TDD .M        128.12               : tdd          - TOTAL DEPTH DRILLER
RUN .         ONE                  : Run          - RUN NUMBER
ENG .         JO                   : Engineer     - RECORDING ENGINEER
WIT .         TIM                  : Witness      - WITNESSED BY
MUD .         GEL                  : Mud_type     - MUD TYPE
MATR.         SANDSTONE            : Logunit      - NEUTRON MATRIX
TMAX.C        8.8                  : BHT          - MAXIMUM RECORDED TEMPERATURE
BHTD.M        128.12               : BHTDEP       - MAXIMUM RECORDED TEMPERATURE
RMT .C        18                   : MDTP         - TEMPERATURE OF MUD
MUDD.KG/M     1.01                 : MWT          - MUD DENSITY
NEUT.         1                    : NEUTRON      - NEUTRON TYPE
RESI.         0                    : RESIST       - RESISTIVITY TYPE
RM  .OHMM     9.4                  : RM           - RESISTIVITY OF MUD
RMC .OHMM     9.4                  : RMC          - RESISTIVITY OF MUD CAKE
RMF .OHMM     9.4                  : RMF          - RESISTIVITY OF MUD FILTRATE
SUFT.C        4                    : SUFT         - SURFACE TEMPERATURE
~A  DEPTH       GR      CAL     PHIN     PHID     RESD
# ...
   66.500   74.823  221.235    0.470    0.277   32.297
   66.750   83.430  219.212    0.469    0.264   28.159
   67.000   88.350  217.190    0.451    0.264   21.852
   67.250   96.957  216.171    0.439    0.266   31.451
   67.500  116.012  216.153    0.463    0.261   27.403
   67.750  106.797  214.131    0.439    0.256   23.877
   68.000  117.862  213.112    0.449    0.256   20.380
   68.250  127.084  210.086    0.445    0.243   21.538
   68.500  120.327  208.059    0.421    0.241   21.495
   68.750  116.642  207.048    0.412    0.249   21.425
   69.000  120.948  202.010    0.404    0.253   22.210
   69.250  124.024  197.980    0.416    0.240   24.904
   69.500  128.329  194.953    0.409    0.245   43.505
   69.750  116.655  193.935    0.417    0.255   49.669
   70.000  110.512  196.932    0.425    0.247   36.351
   70.250   95.766  198.925    0.450    0.243   27.141
   70.500   90.239  198.911    0.401    0.259   28.683
   70.750   97.002  198.893    0.389    0.248   30.314
   71.000  102.536  197.878    0.421    0.246   34.608
   71.250  110.528  197.867    0.435    0.243   32.575
   71.500  106.844  198.852    0.420    0.236   28.936
   71.750  111.764  202.850    0.418    0.232   23.308
   72.000  106.850  200.831    0.413    0.229   34.246
   72.250  108.697  195.797    0.399    0.279   35.501
   72.500  105.627  194.771    0.413    0.266   20.610
   72.750   93.954  194.760    0.446    0.231   18.664
   73.000   93.957  196.753    0.446    0.223   24.391
   73.250  104.408  200.758    0.453    0.232   24.311
   73.500  102.567  201.748    0.464    0.230   28.886
   73.750  110.560  196.713    0.461    0.204   37.028
   74.000  116.708  192.683    0.448    0.195   24.120
   74.250  103.806  182.629    0.465    0.206   21.030
   74.500   81.685  188.638    0.479    0.227   17.973
   74.750   82.302  197.659    0.440    0.233   17.583
   75.000  101.972  200.656    0.416    0.246   20.061
   75.250  102.590  197.630    0.483    0.246   20.399
   75.500   88.457  198.619    0.427    0.234   20.755
   75.750   79.857  202.621    0.455    0.229   26.605
   76.000   83.548  204.614    0.480    0.182   20.252
   76.250   81.093  205.600    0.456    0.205   19.433
   76.500   77.408  205.581    0.468    0.209   19.012
   76.750   94.619  206.578    0.500    0.207   13.914
   77.000  107.528  208.564    0.448    0.192   14.148
   77.250  105.073  208.553    0.445    0.176   15.844
   77.500   96.472  210.547    0.434    0.170   14.628
   77.750  105.079  211.536    0.431    0.180   16.068
   78.000  108.770  206.498    0.421    0.184   16.656
   78.250   95.867  209.499    0.448    0.156   14.786
   78.500   91.568  215.508    0.450    0.150   14.189
   78.750   87.884  218.502    0.452    0.157   14.995
   79.000   89.116  218.487    0.458    0.171   16.167
   79.250   77.443  217.472    0.467    0.192   13.294
   79.500   80.519  215.450    0.449    0.194   14.031
   79.750  111.865  215.428    0.453    0.203   14.286
   80.000  114.941  215.417    0.472    0.215   13.446
   80.250  114.329  215.402    0.464    0.207   11.937
   80.500  111.260  215.388    0.453    0.182   13.111
   80.750   84.836  217.381    0.459    0.173   20.386
   81.000   81.767  219.375    0.471    0.134   20.729
   81.250   84.843  216.352    0.424    0.134   17.389
   81.500   89.148  210.310    0.436    0.146   15.151
   81.750  103.900  215.319    0.443    0.161   17.297
   82.000  130.330  221.328    0.467    0.177   21.749
   82.250  124.188  222.314    0.494    0.166   12.872
   82.500  111.899  221.295    0.437    0.169   14.425
   82.750  104.529  221.277    0.463    0.185   22.427
   83.000  105.146  221.266    0.418    0.201   21.521
   83.250   91.013  221.255    0.435    0.163   16.701
   83.500   85.486  220.233    0.438    0.155   17.994
   83.750   83.031  219.214    0.407    0.194   18.285
   84.000   82.420  224.219    0.419    0.194   15.942
   84.250   84.881  226.213    0.458    0.183   15.586
   84.500   82.425  223.183    0.467    0.176   19.992
   84.750   80.585  221.160    0.472    0.190   21.526
   85.000   91.650  220.145    0.463    0.182   18.058
   85.250  115.622  219.127    0.490    0.177   21.018
   85.500  122.385  218.101    0.428    0.197   22.645
   85.750  116.857  219.098    0.427    0.210   33.251
   86.000  121.162  220.083    0.404    0.219   35.802
   86.250  121.780  219.065    0.411    0.219   27.783
   86.500  121.783  218.046    0.431    0.191   20.347
   86.750  108.880  216.024    0.464    0.176   17.046
   87.000   92.905  217.013    0.487    0.182   19.853
   87.250   83.075  219.010    0.415    0.196   20.174
   87.500  100.286  210.960    0.433    0.207   19.371
   87.750  124.257  206.930    0.431    0.207   16.545
   88.000  124.875  205.911    0.441    0.204   14.416
   88.250  116.889  205.897    0.440    0.203   17.779
   88.500  111.361  205.882    0.437    0.196   19.542
   88.750   97.229  201.848    0.382    0.189   26.544
   89.000   84.940  198.821    0.401    0.143   22.252
   89.250   64.663  199.815    0.414    0.113   20.531
   89.500   41.313  201.804    0.413    0.141   22.567
   89.750   43.774  203.798    0.408    0.170   22.508
   90.000   40.705  204.783    0.419    0.201   22.005
   90.250   33.333  204.776    0.401    0.191   19.928
   90.500   35.179  203.757    0.435    0.178   18.047
   90.750   59.151  203.736    0.445    0.180   16.662
   91.000   99.101  203.725    0.458    0.201   16.618
   91.250  105.250  204.710    0.467    0.206   16.258
   91.500  108.326  204.700    0.485    0.206   16.853
   91.750   84.361  204.681    0.468    0.211   17.470
   92.000   68.385  204.674    0.451    0.206   16.765
   92.250   48.722  204.656    0.459    0.210   16.087
   92.500   46.267  203.637    0.449    0.214   18.724
   92.750   60.406  204.623    0.463    0.212   22.219
   93.000   65.940  204.616    0.417    0.200   19.359
   93.250   57.953  204.597    0.405    0.227   23.876
   93.500   45.050  203.579    0.436    0.204   27.809
   93.750   45.668  201.553    0.432    0.192   22.852
   94.000   51.203  200.542    0.421    0.178   21.084
   94.250   58.581  191.488    0.439    0.188   25.523
   94.500   58.584  182.437    0.454    0.219   23.114
   94.750   54.900  182.423    0.452    0.225   20.532
   95.000   57.975  184.412    0.476    0.237   23.425
   95.250   63.510  184.394    0.449    0.246   21.642
   95.500   61.669  184.387    0.461    0.263   49.570
   95.750   61.673  181.361    0.393    0.286  148.769
   96.000   55.530  175.322    0.381    0.329   65.870
   96.250   62.908  174.300    0.416    0.268   32.142
   96.500   75.817  176.297    0.435    0.253   58.358
   96.750   83.809  181.302    0.457    0.259   30.174
   97.000   83.198  182.281    0.474    0.254   26.786
   97.250   78.284  182.273    0.461    0.237   31.805
   97.500   67.840  181.258    0.424    0.241   23.731
   97.750   57.396  180.240    0.434    0.252   65.929
   98.000   47.566  178.210    0.466    0.256  112.969
   98.250   35.892  177.195    0.502    0.262  169.106
   98.500   32.823  175.176    0.456    0.267  268.054
   98.750   35.284  173.154    0.397    0.279  178.248
   99.000   38.360  168.116    0.400    0.306   73.058
   99.250   37.134  166.097    0.429    0.321  122.791
   99.500   40.210  171.091    0.407    0.301  145.706
   99.750   46.359  175.096    0.430    0.278   49.236
  100.000   38.987  177.093    0.389    0.267   37.477
  100.250   43.907  178.083    0.404    0.281   28.508
  100.500   48.826  174.052    0.432    0.279   25.324
  100.750   48.830  170.022    0.445    0.265   65.083
  101.000   46.989  166.992    0.439    0.289   68.827
  101.250   46.377  165.977    0.465    0.304  157.542
  101.500   46.381  164.958    0.406    0.315  280.575
  101.750   42.697  166.952    0.403    0.316   69.617
  102.000   48.231  171.953    0.417    0.263   21.776
  102.250   48.849  175.958    0.467    0.237   18.599
  102.500   36.560  183.972    0.439    0.219   19.656
  102.750   29.189  180.945    0.444    0.232   33.037
