~VERSION INFORMATION
 VERS.                 2.0:   CWLS LOG ASCII STANDARD -VERSION 2.0
 WRAP.                  NO:   ONE LINE PER DEPTH STEP
~WELL INFORMATION BLOCK
#MNEM.UNIT           DATA                    DESCRIPTION OF MNEMONIC
#---------    -------------------            -------------------------------
# Generated from Intellog Unique Number	CN_94_101/WELL/2816
WELL.         03-02-096-15W4                 : Well_name    - WELL
LOC .         AA/03-02-096-15W4/0            : Location     - LOCATION
UWI .         AA/03-02-096-15W400            : Uwi          - UNIQUE WELL ID
ENTR.         JOETTE                         : Entered      - ENTERED BY
SRVC.         SCHLUMBERGER                   : Scn          - SERVICE COMPANY
DATE.         07/07/92                       : Date         - LOG DATE
STRT.M        50                             : top_depth    - START DEPTH
STOP.M        330                            : bot_depth    - STOP DEPTH
STEP.M        0.25                           : increment    - STEP LENGTH
 NULL. -999.2500:NULL Value
~CURVE INFORMATION BLOCK
#MNEM UNIT       ERCB CURVE CODE    CURVE DESCRIPTION
#-----------   ------------------   ----------------------------------
DEPT.M        00 001 00 00         : DEPTH        - DEPTH
CALI.MM       00 280 01 00         : CAL          - CALIPER
GR  .API      00 310 00 00         : GR           - GAMMA RAY
NPHI.V/V      00 330 00 00         : PHIN         - NEUTRON POROSITY (SANDSTONE)
DPHI.V/V      00 890 00 00         : PHID         - DENSITY POROSITY (SANDSTONE)
ILD .OHMM     00 120 00 00         : RESD         - DEEP RESISTIVITY (DIL)
~PARAMETER INFORMATION
#MNEM.UNIT           DATA             DESCRIPTION OF MNEMONIC
#---------         -----------     ------------------------------
GL  .M        577.32               : gl           - GROUND LEVEL ELEVATION
EREF.M        580.67               : kb           - ELEVATION OF DEPTH REFERENCE
DATM.M        580.67               : datum        - DATUM ELEVATION
TDD .M        330                  : tdd          - TOTAL DEPTH DRILLER
RUN .         ONE                  : Run          - RUN NUMBER
ENG .         JO                   : Engineer     - RECORDING ENGINEER
WIT .         TIM                  : Witness      - WITNESSED BY
MUD .         GEL                  : Mud_type     - MUD TYPE
MATR.         SANDSTONE            : Logunit      - NEUTRON MATRIX
TMAX.C        19                   : BHT          - MAXIMUM RECORDED TEMPERATURE
BHTD.M        330                  : BHTDEP       - MAXIMUM RECORDED TEMPERATURE
RMT .C        13                   : MDTP         - TEMPERATURE OF MUD
MUDD.KG/M     1000                 : MWT          - MUD DENSITY
NEUT.         1                    : NEUTRON      - NEUTRON TYPE
RESI.         0                    : RESIST       - RESISTIVITY TYPE
RM  .OHMM     2.5                  : RM           - RESISTIVITY OF MUD
RMC .OHMM     2.5                  : RMC          - RESISTIVITY OF MUD CAKE
RMF .OHMM     2.5                  : RMF          - RESISTIVITY OF MUD FILTRATE
SUFT.C        4                    : SUFT         - SURFACE TEMPERATURE
~A  DEPTH      CAL       GR     PHIN     PHID     RESD
# ...
  159.500  192.474   70.093    0.562    0.308    4.918
  159.750  190.594   65.325    0.570    0.303    9.571
  160.000  182.680   53.938    0.539    0.307   13.865
  160.250  177.784   43.739    0.510    0.315   15.527
  160.500  171.882   40.218    0.485    0.331   14.184
  160.750  167.958   40.277    0.461    0.336    9.654
  161.000  168.090   43.394    0.438    0.342    8.192
  161.250  169.228   45.303    0.430    0.352    7.085
  161.500  170.399   47.173    0.436    0.346   10.654
  161.750  172.576   50.873    0.462    0.319   15.433
  162.000  173.713   54.593    0.474    0.310   17.274
  162.250  173.879   52.238    0.484    0.299   20.825
  162.500  172.939   46.283    0.446    0.264   24.646
  162.750  169.048   42.138    0.437    0.252   27.083
  163.000  167.202   39.181    0.461    0.357   29.232
  163.250  166.361   36.846    0.462    0.375   29.808
  163.500  166.427   36.945    0.451    0.371   29.888
  163.750  166.560   38.835    0.447    0.367   29.968
  164.000  165.719   38.311    0.448    0.365   30.017
  164.250  165.818   36.580    0.441    0.362   30.098
  164.500  165.950   35.452    0.437    0.369   30.130
  164.750  167.088   36.135    0.443    0.373   30.211
  165.000  167.254   38.025    0.462    0.374   29.707
  165.250  167.353   40.518    0.468    0.368   26.656
  165.500  167.485   43.050    0.468    0.353   23.905
  165.750  167.650   43.694    0.464    0.342   23.982
  166.000  167.782   44.396    0.459    0.312   25.386
  166.250  167.914   44.456    0.453    0.284   26.900
  166.500  168.047   43.971    0.444    0.248   27.955
  166.750  167.206   42.863    0.450    0.195   29.082
  167.000  167.272   42.300    0.449    0.266   29.114
  167.250  167.404   41.756    0.446    0.310   29.735
  167.500  167.537   40.025    0.445    0.353   29.783
  167.750  167.669   38.294    0.444    0.364   28.767
  168.000  167.834   36.562    0.447    0.364   17.857
  168.250  167.966   36.038    0.459    0.365   13.819
  168.500  168.098   37.325    0.469    0.363   11.733
  168.750  168.197   37.424    0.464    0.361   11.333
  169.000  168.330   36.296    0.456    0.364   11.357
  169.250  167.489   36.375    0.443    0.356   11.388
  169.500  167.621   38.245    0.438    0.351   11.847
  169.750  166.748   40.135    0.446    0.347   11.860
  170.000  166.913   42.628    0.446    0.352   11.468
  170.250  167.012   47.555    0.440    0.348   10.869
  170.500  168.183   52.462    0.437    0.337    9.218
  170.750  169.288   57.992    0.461    0.319    5.825
  171.000  172.437   58.071    0.473    0.296    5.040
  171.250  173.575   61.148    0.468    0.298    4.959
  171.500  169.684   69.092    0.473    0.321    4.970
  171.750  170.822   72.812    0.513    0.313    5.076
  172.000  179.034   61.406    0.527    0.299    5.179
  172.250  177.154   59.675    0.527    0.290    5.283
  172.500  175.242   57.320    0.523    0.301    5.396
  172.750  173.363   56.212    0.519    0.302    5.505
  173.000  179.595   59.309    0.513    0.313    5.623
  173.250  177.683   60.595    0.485    0.314    5.740
  173.500  171.781   55.224    0.503    0.293    5.755
  173.750  168.896   50.475    0.495    0.284    5.764
  174.000  169.028   49.367    0.481    0.341    5.774
  174.250  170.199   51.841    0.466    0.352    5.789
  174.500  171.270   60.388    0.461    0.359    5.802
  174.750  173.447   73.763    0.468    0.344    5.711
  175.000  175.591   78.670    0.496    0.323    5.616
  175.250  176.696   79.976    0.510    0.300    5.421
  175.500  177.834   80.055    0.485    0.278    5.138
  175.750  172.970   81.945    0.468    0.319    4.786
  176.000  176.120   85.042    0.473    0.335    4.620
  176.250  181.281   89.949    0.510    0.324    4.546
  176.500  186.441   94.252    0.537    0.307    4.236
  176.750  186.607   95.558    0.557    0.286    4.090
  177.000  185.700   94.430    0.567    0.270    3.952
  177.250  184.859   93.906    0.572    0.275    3.884
  177.500  183.986   96.380    0.565    0.274    3.824
  177.750  184.151  100.703    0.562    0.268    3.834
  178.000  185.223   99.555    0.574    0.275    3.840
  178.250  185.355  100.842    0.568    0.265    3.849
  178.500  185.520  102.791    0.564    0.258    3.855
  178.750  186.625  102.830    0.551    0.261    3.863
  179.000  186.625   99.269    0.545    0.255    3.871
  179.250  185.983   95.748    0.542    0.242    3.880
  179.500  189.099   95.224    0.523    0.238    3.960
  179.750  189.199   95.886    0.528    0.238    4.043
  180.000  187.352   95.966    0.541    0.251    4.054
  180.250  185.440   97.875    0.555    0.260    4.060
  180.500  184.533  100.368    0.565    0.257    4.067
  180.750  183.660   99.241    0.562    0.268    4.080
  181.000  183.825  100.547    0.596    0.282    4.086
  181.250  183.957  101.230    0.607    0.276    4.093
  181.500  187.106  100.686    0.595    0.269    4.029
  181.750  189.250   97.748    0.591    0.265    4.040
  182.000  191.394   91.773    0.584    0.258    4.044
  182.250  189.548   90.042    0.575    0.254    4.057
  182.500  185.591   91.328    0.567    0.272    4.062
  182.750  184.750   92.654    0.580    0.265    4.073
  183.000  184.882   92.713    0.570    0.256    4.081
  183.250  185.014   92.792    0.557    0.255    4.090
  183.500  185.213   92.872    0.541    0.271    4.099
  183.750  185.279   92.971    0.550    0.280    4.182
  184.000  185.411   91.843    0.561    0.283    4.269
  184.250  186.582   90.092    0.567    0.279    4.360
  184.500  186.681   88.401    0.561    0.264    4.287
  184.750  186.813   87.877    0.551    0.278    4.070
  185.000  185.940   87.916    0.557    0.282    3.857
  185.250  186.072   87.996    0.574    0.281    3.591
  185.500  186.237   89.302    0.577    0.282    3.465
  185.750  186.369   90.608    0.570    0.277    3.285
  186.000  184.457   91.874    0.551    0.274    3.115
  186.250  180.566   93.744    0.546    0.279    3.011
  186.500  182.743   93.843    0.538    0.285    2.961
  186.750  183.848   90.302    0.530    0.289    2.916
  187.000  186.024   86.741    0.566    0.288    2.919
  187.250  182.101   82.012    0.581    0.281    2.930
  187.500  173.181   82.695    0.548    0.245    2.935
  187.750  175.358   85.791    0.537    0.205    2.940
  188.000  180.519   87.078    0.564    0.307    3.175
  188.250  186.685   87.760    0.588    0.339    3.006
  188.500  189.802   87.216    0.609    0.364    2.959
  188.750  194.996   87.296    0.607    0.303    2.967
  189.000  197.139   89.789    0.585    0.320    2.971
  189.250  193.248   90.472    0.583    0.290    2.976
  189.500  189.325   86.930    0.595    0.288    2.983
  189.750  186.440   87.010    0.594    0.292    2.989
  190.000  186.638   90.729    0.595    0.290    2.994
  190.250  186.704   92.639    0.609    0.293    3.000
  190.500  186.836   91.511    0.592    0.278    3.063
  190.750  187.034   91.551    0.580    0.283    3.073
  191.000  187.167   91.027    0.578    0.288    3.133
  191.250  188.304   92.353    0.570    0.288    3.258
  191.500  187.398   92.452    0.563    0.289    3.718
  191.750  181.496   90.117    0.559    0.290    4.011
  192.000  180.589   88.950    0.551    0.293    4.405
  192.250  180.787   87.219    0.559    0.290    4.665
  192.500  182.931   85.488    0.569    0.281    4.188
  192.750  184.102   84.984    0.573    0.282    4.275
  193.000  185.174   85.023    0.565    0.275    4.783
  193.250  185.372   85.103    0.557    0.271    5.554
  193.500  184.465   85.182    0.563    0.255    5.883
  193.750  183.592   77.416    0.556    0.240    6.349
  194.000  179.668   72.084    0.529    0.220    6.602
  194.250  169.743   70.334    0.468    0.272    6.492
  194.500  171.919   72.223    0.475    0.324    6.159
  194.750  174.063   73.529    0.486    0.312    6.057
  195.000  178.218   74.796    0.495    0.287    5.642
  195.250  180.329   76.082    0.484    0.277    5.446
  195.500  183.478   78.595    0.499    0.276    5.562
  195.750  182.605   81.088    0.514    0.269    5.678
