~VERSION INFORMATION
 VERS.                 2.0:   CWLS LOG ASCII STANDARD -VERSION 2.0
 WRAP.                  NO:   ONE LINE PER DEPTH STEP
~WELL INFORMATION BLOCK
#MNEM.UNIT           DATA                    DESCRIPTION OF MNEMONIC
#---------    -------------------            -------------------------------
# Generated from Intellog Unique Number	CC_88_90/WELL/3143
WELL.         TRIAD OIL CO.                  : Well_name    - WELL
LOC .         AA/08-14-088-12W4/0            : Location     - LOCATION
UWI .         AA/08-14-088-12W400            : Uwi          - UNIQUE WELL ID
ENTR.         JOETTE                         : Entered      - ENTERED BY
SRVC.         SCHLUMBERGER                   : Scn          - SERVICE COMPANY
DATE.         03/06/92                       : Date         - LOG DATE
STRT.M        60.960                         : top_depth    - START DEPTH
STOP.M        161.960                        : bot_depth    - STOP DEPTH
STEP.M        0.25                           : increment    - STEP LENGTH
 NULL. -999.2500:NULL Value
~CURVE INFORMATION BLOCK
#MNEM UNIT       ERCB CURVE CODE    CURVE DESCRIPTION
#-----------   ------------------   ----------------------------------
DEPT.M        00 001 00 00         : DEPTH        - DEPTH
GR  .API      00 310 00 00         : GR           - GAMMA RAY
NPHI.V/V      00 330 00 00         : PHIN         - NEUTRON POROSITY (SANDSTONE)
ILD .OHMM     00 120 00 00         : RESD         - DEEP RESISTIVITY (DIL)
~PARAMETER INFORMATION
#MNEM.UNIT           DATA             DESCRIPTION OF MNEMONIC
#---------         -----------     ------------------------------
GL  .M        455.005              : gl           - GROUND LEVEL ELEVATION
EREF.M        456.743              : kb           - ELEVATION OF DEPTH REFERENCE
DATM.M        456.743              : datum        - DATUM ELEVATION
TDD .M        181.661              : tdd          - TOTAL DEPTH DRILLER
RUN .         ONE                  : Run          - RUN NUMBER
ENG .         JO                   : Engineer     - RECORDING ENGINEER
WIT .         TIM                  : Witness      - WITNESSED BY
MUD .         GEL                  : Mud_type     - MUD TYPE
MATR.         SANDSTONE            : Logunit      - NEUTRON MATRIX
TMAX.C        12.2222              : BHT          - MAXIMUM RECORDED TEMPERATURE
BHTD.M        181.661              : BHTDEP       - MAXIMUM RECORDED TEMPERATURE
RMT .C        17.7778              : MDTP         - TEMPERATURE OF MUD
MUDD.KG/M     1130                 : MWT          - MUD DENSITY
NEUT.         1                    : NEUTRON      - NEUTRON TYPE
RESI.         0                    : RESIST       - RESISTIVITY TYPE
RM  .OHMM     6.73                 : RM           - RESISTIVITY OF MUD
RMC .OHMM     6.73                 : RMC          - RESISTIVITY OF MUD CAKE
RMF .OHMM     6.73                 : RMF          - RESISTIVITY OF MUD FILTRATE
SUFT.C        4                    : SUFT         - SURFACE TEMPERATURE
~A  DEPTH       GR     PHIN     RESD
# ...
  115.210   84.881    0.387   16.301
  115.460   82.425    0.369   16.300
  115.710   80.585    0.351   16.694
  115.960   91.650    0.353   16.493
  116.210  115.622    0.370   15.101
  116.460  122.385    0.388   13.907
  116.710  116.857    0.402   12.712
  116.960  121.162    0.394   12.709
  117.210  121.780    0.393   12.311
  117.460  121.783    0.400   10.918
  117.710  108.880    0.404    9.923
  117.960   92.905    0.416    9.126
  118.210   83.075    0.425    9.918
  118.460  100.286    0.419   13.290
  118.710  124.257    0.400   15.471
  118.960  124.875    0.368   14.873
  119.210  116.889    0.358   13.878
  119.460  111.361    0.378   13.477
  119.710   97.229    0.396   13.475
  119.960   84.940    0.403   13.472
  120.210   64.663    0.413   12.477
  120.460   41.313    0.416   11.879
  120.710   43.774    0.393   13.266
  120.960   40.705    0.383   15.845
  121.210   33.333    0.368   18.025
  121.460   35.179    0.370   16.831
  121.710   59.151    0.378   15.638
  121.960   99.101    0.378   15.238
  122.210  105.250    0.387   15.832
  122.460  108.326    0.384   16.821
  122.710   84.361    0.371   17.017
  122.960   68.385    0.350   18.206
  123.210   48.722    0.346   19.196
  123.460   46.267    0.365   18.201
  123.710   60.406    0.374   17.006
  123.960   65.940    0.367   17.004
  124.210   57.953    0.347   17.001
  124.460   45.050    0.351   16.799
  124.710   45.668    0.369   15.805
  124.960   51.203    0.369   14.611
  125.210   58.581    0.371   13.815
  125.460   58.584    0.375   14.407
  125.710   54.900    0.374   15.596
  125.960   57.975    0.362   17.777
  126.210   63.510    0.350   18.171
  126.460   61.669    0.361   18.169
  126.710   61.673    0.359   19.357
  126.960   55.530    0.360   18.362
  127.210   62.908    0.371   17.962
  127.460   75.817    0.371   17.761
  127.710   83.809    0.353   17.361
  127.960   83.198    0.317   20.536
  128.210   78.284    0.276   56.865
  128.460   67.840    0.320   41.377
  128.710   57.396    0.334   22.314
  128.960   47.566    0.382   17.944
  129.210   35.892    0.381   16.552
  129.460   32.823    0.385   16.549
  129.710   35.284    0.378   16.943
  129.960   38.360    0.362   17.139
  130.210   37.134    0.365   16.739
  130.460   40.210    0.359   15.943
  130.710   46.359    0.359   16.535
  130.960   38.987    0.359   16.732
  131.210   43.907    0.358   16.728
  131.460   48.826    0.352   16.727
  131.710   48.830    0.352   17.121
  131.960   46.989    0.363   17.912
  132.210   46.377    0.365   17.710
  132.460   46.381    0.352   17.510
  132.710   42.697    0.344   15.522
  132.960   48.231    0.348   12.939
  133.210   48.849    0.371   10.951
  133.460   36.560    0.398    9.360
  133.710   29.189    0.412    8.562
  133.960   25.505    0.394    9.156
  134.210   21.820    0.398   10.543
  134.460   31.042    0.405   12.724
  134.710   48.867    0.380   14.508
  134.960   44.568    0.378   15.696
  135.210   42.728    0.373   16.091
  135.460   45.190    0.373   15.691
  135.710   47.651    0.379   15.291
  135.960   71.622    0.376   15.090
  136.210   87.604    0.365   16.279
  136.460   92.523    0.360   16.276
  136.710   94.370    0.361   17.068
  136.960   77.780    0.365   21.830
  137.210   71.638    0.355   22.820
  137.460   86.391    0.333   16.465
  137.710   96.841    0.327   10.704
  137.960   96.230    0.344    8.915
  138.210   95.618    0.374    7.721
  138.460   82.716    0.409    8.909
  138.710   72.272    0.443   10.694
  138.960   64.285    0.458   13.074
  139.210   64.903    0.441   13.667
  139.460   82.728    0.426   12.273
  139.710   82.117    0.391   13.463
  139.960   75.360    0.373   17.232
  140.210   75.363    0.374   19.413
  140.460   77.210    0.375   17.029
  140.710   71.068    0.373   16.232
  140.960   69.227    0.362   16.229
  141.210   66.772    0.361   13.447
  141.460   63.702    0.377   10.466
  141.710   46.498    0.390    9.668
  141.960   45.886    0.402    9.467
  142.210   55.722    0.418    9.466
  142.460   73.548    0.417    9.463
  142.710   83.999    0.416    9.659
  142.960   79.700    0.416   10.053
  143.210   66.797    0.405   10.447
  143.460   48.978    0.393   10.644
  143.710   71.105    0.394   10.840
  143.960   95.691    0.386   11.036
  144.210  123.964    0.381   11.032
  144.460  115.978    0.380   11.030
  144.710  115.981    0.374   11.027
  144.960  124.588    0.379   13.011
  145.210  120.904    0.380   13.405
  145.460   92.637    0.375   11.020
  145.710   76.047    0.386    9.626
  145.960   47.780    0.408   10.220
  146.210   63.762    0.424   13.196
  146.460  106.785    0.390   18.752
  146.710  104.330    0.370   20.734
  146.960  106.176    0.354   19.740
  147.210   93.888    0.348   18.545
  147.460   61.934    0.355   18.940
  147.710   44.115    0.352   32.239
  147.960   65.014    0.312   37.597
  148.210   74.235    0.246   54.272
  148.460   83.457    0.138   84.445
  148.710  113.573    0.124   84.642
  148.960   96.984    0.109   84.838
  149.210   55.196    0.107   82.451
  149.460   39.221    0.120   83.640
  149.710   52.744    0.130   85.028
  149.960   66.882    0.144   84.628
  150.210   77.948    0.163   85.023
  150.460   87.169    0.185   83.035
  150.710   83.485    0.189   77.672
  150.960   75.499    0.185   65.558
  151.210   73.044    0.192   61.585
  151.460   77.349    0.208   57.215
  151.710   74.894    0.211   57.212
  151.960   76.126    0.237   55.224
  152.210   67.525    0.280   59.590
  152.460   63.841    0.199   82.021
  152.710   65.688    0.139   68.319
  152.960   59.545    0.101   54.221
  153.210   54.632    0.126   36.351
  153.460   60.781    0.234   33.568
  153.710   63.242    0.242   30.587
  153.960   58.944    0.236   26.416
  154.210   62.020    0.245   24.229
  154.460   70.627    0.262   25.219
  154.710   73.703    0.291   31.570
  154.960   74.935    0.302   34.545
  155.210   74.324    0.279   38.712
  155.460   71.869    0.276   40.893
  155.710   63.883    0.265   41.088
  155.960   63.885    0.275   39.101
  156.210   66.347    0.298   34.333
  156.460   67.579    0.318   31.750
  156.710   76.187    0.327   29.960
  156.960   71.887    0.328   27.773
  157.210   69.432    0.329   25.190
  157.460   66.362    0.331   22.607
  157.710   66.980    0.334   20.817
  157.960   68.213    0.342   20.020
  158.210   65.757    0.357   20.614
  158.460   67.605    0.369   21.604
  158.710   76.212    0.356   21.601
  158.960   74.371    0.337   21.795
  159.210   70.072    0.316   21.794
  159.460   72.534    0.291   21.989
  159.710   71.308    0.314   22.185
  159.960   67.623    0.339   22.183
  160.210   65.168    0.339   22.181
  160.460   74.390    0.325   21.979
  160.710   71.935    0.321   22.175
  160.960   59.032    0.317   22.172
  161.210   39.369    0.306   22.169
  161.460   20.320    0.314   22.167
  161.710   21.553    0.325   22.363
  161.960   25.243    0.330   22.360
