~Version : LASO    vs 4.00
VERS.                2.00:   CWLS Log ASCII Standard -VERSION 2.0
WRAP.                  NO:
~Well Information Block
#MNEM.UNIT       Data                        Description of Mnemonic
#----.----      -------------------------- : -----------------------------
STRT.M            11.0000:
STOP.M           176.0000:
STEP.M             0.1000:
NULL.           -999.2500:
COMP.  MOBIL OIL CANADA LTD.  :COMPANY
WELL.  MOBIL CLARKE OV 5-32   :WELL
FLD.   CLARKE                 :FIELD
LOC.   05-32-089-08W4         :LOCATION
CTRY.  CANADA                 :COUNTRY
PROV.  ALBERTA                :PROVINCE
SRVC.  SCHLUMBERGER           :SERVICE COMPANY
DATE.  04-MAR-81              :LOG DATE
UWI.   AA/05-32-089-08W400    :UNIQUE WELL ID
~Parameter Information Block
#MNEM.UNIT       Data                        Description of Mnemonic
#----.----      -------------------------- : -----------------------------
RUN .                   1                 : Run Number
GL  .M           391.1000                 : Ground Level Elevation
DREF.                  KB                 : Depth Reference
EREF.M           394.5000                 : Elevation of Depth Reference
TDL .M           176.5000                 : Total Depth Logger
TDD .M           174.0000                 : Total Depth Driller
CSGL.M            16.0000                 : Casing Bottom Logger
CSGD.M            14.6000                 : Casing Bottom Driller
CSGS.MM          219.0000                 : Casing Size
CSGW.KG/M          0.0000                 : Casing Weight
BHT .DEGC         23.0000                 : Bottom Hole Temperature
BS  .MM          159.0000                 : Bit Size
DFD .           1110.0000                 : Mud Weight (Density)
DFV .             90.0000                 : Mud Viscosity
DFPH.             10.0000                 : Mud pH
RM  .OHMM          1.9600                 : Mud Resistivity
RMT .DEGC         20.0000                 : Mud Resistivity Temperature
~Curve Information Block
#MNEM.UNIT        API CODE    Curve Description
#---------    ------------    -------------------------------------------
DEPT.M                    :   DEPTH
CALI.MM       42 280  1  1:   3 DENSITY CALIPER
DPHI.V/V                  :   DPHI
DT  .US/M     60 520  0  1:   2 SONIC INTERVAL TRANSIT TIME (COMPENSATED)
GR  .GAPI     42 310  1  1:   4 GAMMA RAY
ILD .OHMM      5 120 46  1:   6 DEEP INDUCTION
ILM .OHMM      5 120 44  1:   7 MEDIUM INDUCTION
NPHI.V/V                  :   NPHI
RHOB.K/M3     42 350  1  1:   5 BULK DENSITY
SFLU.OHMM      5 220  1  1:   8 FOCUSSED RESISTIVITY
SP  .MV        5  10  1  1:   9 SPONTANEOUS POTENTIAL
~A  Depth           CALI        DPHI          DT          GR         ILD         ILM        NPHI        RHOB        SFLU          SP
# ...
157.4000        174.9250      0.2043    457.0000    135.2850      4.9640      5.1031      0.4439   2349.0000      7.6530    -86.2500
157.5000        174.9250      0.2112    477.4000    135.9600      4.9640      5.1031      0.4566   2349.0000      7.6530    -86.2500
157.6000        173.6500      0.2184    497.8000    136.0950      4.6540      4.4857      0.4718   2316.0000      6.1920    -83.0100
157.7000        173.6500      0.2275    500.1600    136.2300      4.6540      4.4857      0.4912   2316.0000      6.1920    -83.0100
157.8000        173.6500      0.2343    500.1600    136.3650      4.3634      3.9795      0.5147   2263.0000      3.8004    -77.5050
157.9000        173.6500      0.2395    500.1600    136.9050      4.3634      3.9795      0.5347   2263.0000      3.8004    -77.5050
158.0000        174.9250      0.2428    509.8800    137.8800      4.0163      3.6968      0.5521   2234.0000      2.6536    -72.5100
158.1000        174.9250      0.2461    518.8000    138.8550      4.0163      3.6968      0.5692   2234.0000      2.6536    -72.5100
158.2000        176.2000      0.2481    518.6400    139.6200      3.8711      3.5304      0.5875   2238.0000      2.9637    -72.7500
158.3000        176.2000      0.2500    517.2400    140.3700      3.8711      3.5304      0.5942   2238.0000      2.9637    -72.7500
158.4000        176.2000      0.2510    511.5200    140.2500      3.7656      3.4981      0.5909   2224.0000      3.1033    -73.0050
158.5000        176.2000      0.2488    507.5600    140.0400      3.7656      3.4981      0.5862   2224.0000      3.1033    -73.0050
158.6000        180.0250      0.2425    503.6000    139.8300      3.6968      3.5961      0.5807   2242.0000      3.7656    -73.0050
158.7000        180.0250      0.2254    485.6000    139.6500      3.6968      3.5961      0.5737   2242.0000      3.7656    -73.0050
158.8000        180.0250      0.2108    485.6000    141.0450      3.8004      3.5631      0.5666   2310.0000      3.8004    -72.0000
158.9000        180.0250      0.1987    485.6000    142.3200      3.8004      3.5631      0.5600   2310.0000      3.8004    -72.0000
159.0000        180.0250      0.2023    483.4800    142.9350      3.8711      3.5961      0.5447   2332.0000      3.6629    -71.5050
159.1000        180.0250      0.2060    480.4400    143.4150      3.8711      3.5961      0.5352   2332.0000      3.6629    -71.5050
159.2000        180.0250      0.2106    476.0800    141.7500      4.0163      3.6294      0.5288   2305.0000      3.4981    -71.7600
159.3000        180.0250      0.2056    470.4000    139.8900      4.0163      3.6294      0.5266   2305.0000      3.4981    -71.7600
159.4000        182.5750      0.1975    463.3200    138.0300      4.3634      3.9069      0.5229   2325.0000      2.5576    -72.2550
159.5000        182.5750      0.1704    454.0800    136.1250      4.3634      3.9069      0.5179   2325.0000      2.5576    -72.2550
159.6000        185.1250      0.1544    444.0000    138.0750      4.5691      4.2838      0.5101   2385.0000      2.7786    -73.2600
159.7000        185.1250      0.1430    432.6800    141.3150      4.5691      4.2838      0.5002   2385.0000      2.7786    -73.2600
159.8000        185.1250      0.1314    424.4400    144.5550      4.8287      4.6540      0.4863   2419.0000      4.0910    -74.5050
159.9000        185.1250      0.1181    422.3600    146.4750      4.8287      4.6540      0.4746   2419.0000      4.0910    -74.5050
160.0000        182.5750      0.0988    422.5600    148.1550      5.2946      5.1503      0.4591   2532.0000      7.1094    -75.0000
160.1000        182.5750      0.0896    428.2800    148.8600      5.2946      5.1503      0.4448   2532.0000      7.1094    -75.0000
160.2000        182.5750      0.0976    432.3200    149.2800      5.4933      5.3436      0.4325   2485.0000      6.7894    -75.0000
160.3000        182.5750      0.1257    435.9200    147.1800      5.4933      5.3436      0.4240   2485.0000      6.7894    -75.0000
160.4000        183.8750      0.1419    442.2400    145.6800      5.4933      5.4429      0.4121   2428.0000      6.4838    -75.0000
160.5000        183.8750      0.1585    457.6400    144.1800      5.4933      5.4429      0.4059   2428.0000      6.4838    -75.0000
160.6000        182.5750      0.1740    485.0000    141.1500      5.1031      4.8734      0.4495   2389.0000      6.7894    -76.2600
160.7000        182.5750      0.1851    492.6800    137.7300      5.1031      4.8734      0.4661   2389.0000      6.7894    -76.2600
160.8000        181.3000      0.2048    500.3600    134.2800      4.9185      4.4446      0.4929   2350.0000      5.7521    -76.2600
160.9000        181.3000      0.2172    500.1600    130.7550      4.9185      4.4446      0.5136   2350.0000      5.7521    -76.2600
161.0000        178.7500      0.2353    500.1600    127.2300      4.8287      4.2056      0.5348   2285.8999      4.2056    -76.0050
161.1000        178.7500      0.2542    500.1600    123.7800      4.8287      4.2056      0.5518   2285.8999      4.2056    -76.0050
161.2000        172.3750      0.2744    500.1600    121.2150      4.7844      4.3634      0.5771   2060.0000      3.1321    -75.5100
161.3000        172.3750      0.2971    500.1600    118.6500      4.7844      4.3634      0.5879   2060.0000      3.1321    -75.5100
161.4000        164.7500      0.3467    508.9600    118.8450      4.6971      4.6114      0.5819   1978.0000      3.4981    -75.0000
161.5000        164.7500      0.3829    507.0400    119.8050      4.6971      4.6114      0.5585   1978.0000      3.4981    -75.0000
161.6000        163.4500      0.3960    504.2800    122.0550      4.6540      4.6971      0.5384   1918.0000      4.2838    -75.5100
161.7000        163.4500      0.4106    501.5200    121.3800      4.6540      4.6971      0.5300   1918.0000      4.2838    -75.5100
161.8000        163.4500      0.4109    500.2800    120.4200      4.9185      4.5272      0.5217   2004.0000      5.2460    -78.5100
161.9000        163.4500      0.4022    499.2000    119.4000      4.9185      4.5272      0.5146   2004.0000      5.2460    -78.5100
162.0000        168.5500      0.3914    502.7200    117.8400      5.1031      4.5691      0.5083   2139.0000      4.5272    -80.5050
162.1000        168.5500      0.3611    503.7600    116.1750      5.1031      4.5691      0.4997   2139.0000      4.5272    -80.5050
162.2000        171.1250      0.3193    501.9200    114.3450      5.1979      4.7406      0.4901   2265.0000      4.2838    -81.7500
162.3000        171.1250      0.2712    473.8000    111.1200      5.1979      4.7406      0.4827   2265.0000      4.2838    -81.7500
162.4000        169.8250      0.1851    473.8000    106.5450      5.2946      4.8734      0.4772   2344.0000      4.5272    -82.0050
162.5000        169.8250      0.1773    469.8000     99.5250      5.2946      4.8734      0.4713   2344.0000      4.5272    -82.0050
162.6000        176.2000      0.1680    462.3600     95.8500      5.5441      5.1031      0.4653   2367.0000      4.1289    -81.5100
162.7000        176.2000      0.1617    451.8800     92.1750      5.5441      5.1031      0.4583   2367.0000      4.1289    -81.5100
162.8000        178.7500      0.1223    441.6400     89.1000      5.9133      5.4429      0.4507   2358.0000      4.0910    -81.2550
162.9000        178.7500      0.1078    429.8000     87.2400      5.9133      5.4429      0.4435   2358.0000      4.0910    -81.2550
163.0000        176.2000      0.0901    413.3600     89.0250      6.3071      6.0232      0.4371   2377.0000      4.4446    -80.5050
163.1000        176.2000      0.0698    396.9200     95.0850      6.3071      6.0232      0.4286   2377.0000      4.4446    -80.5050
163.2000        158.3750      0.0581    382.5200    100.1100      6.7894      7.1094      0.4142   2585.0000      9.5462    -78.5100
163.3000        158.3750      0.0639    377.0800    103.1400      6.7894      7.1094      0.3921   2585.0000      9.5462    -78.5100
163.4000        159.6250      0.0725    376.2000    104.0700      7.0442      7.1094      0.3808   2765.0000     15.8427    -78.5100
