~Version : LASO    vs 4.00
VERS.                2.00:   CWLS Log ASCII Standard -VERSION 2.0
WRAP.                  NO:
~Well Information Block
#MNEM.UNIT       Data                        Description of Mnemonic
#----.----      -------------------------- : -----------------------------
STRT.M            11.0000:
STOP.M           176.0000:
STEP.M             0.1000:
NULL.           -999.2500:
COMP.  MOBIL OIL CANADA LTD.  :COMPANY
WELL.  MOBIL CLARKE OV 5-32   :WELL
FLD.   CLARKE                 :FIELD
LOC.   05-32-089-08W4         :LOCATION
CTRY.  CANADA                 :COUNTRY
PROV.  ALBERTA                :PROVINCE
SRVC.  SCHLUMBERGER           :SERVICE COMPANY
DATE.  04-MAR-81              :LOG DATE
UWI.   AA/05-32-089-08W400    :UNIQUE WELL ID
~Parameter Information Block
#MNEM.UNIT       Data                        Description of Mnemonic
#----.----      -------------------------- : -----------------------------
RUN .                   1                 : Run Number
GL  .M           391.1000                 : Ground Level Elevation
DREF.                  KB                 : Depth Reference
EREF.M           394.5000                 : Elevation of Depth Reference
TDL .M           176.5000                 : Total Depth Logger
TDD .M           174.0000                 : Total Depth Driller
CSGL.M            16.0000                 : Casing Bottom Logger
CSGD.M            14.6000                 : Casing Bottom Driller
CSGS.MM          219.0000                 : Casing Size
CSGW.KG/M          0.0000                 : Casing Weight
BHT .DEGC         23.0000                 : Bottom Hole Temperature
BS  .MM          159.0000                 : Bit Size
DFD .           1110.0000                 : Mud Weight (Density)
DFV .             90.0000                 : Mud Viscosity
DFPH.             10.0000                 : Mud pH
RM  .OHMM          1.9600                 : Mud Resistivity
RMT .DEGC         20.0000                 : Mud Resistivity Temperature
~Curve Information Block
#MNEM.UNIT        API CODE    Curve Description
#---------    ------------    -------------------------------------------
DEPT.M                    :   DEPTH
CALI.MM       42 280  1  1:   3 DENSITY CALIPER
DPHI.V/V                  :   DPHI
DT  .US/M     60 520  0  1:   2 SONIC INTERVAL TRANSIT TIME (COMPENSATED)
GR  .GAPI     42 310  1  1:   4 GAMMA RAY
ILD .OHMM      5 120 46  1:   6 DEEP INDUCTION
ILM .OHMM      5 120 44  1:   7 MEDIUM INDUCTION
NPHI.V/V                  :   NPHI
RHOB.K/M3     42 350  1  1:   5 BULK DENSITY
SFLU.OHMM      5 220  1  1:   8 FOCUSSED RESISTIVITY
SP  .MV        5  10  1  1:   9 SPONTANEOUS POTENTIAL
~A  Depth           CALI        DPHI          DT          GR         ILD         ILM        NPHI        RHOB        SFLU          SP
# ...
120.8000        162.1750      0.2813    490.1200     73.7700     13.2993     11.3718      0.3973   2206.0000     12.3546   -105.5100
120.9000        162.1750      0.2921    497.3200     72.3300     13.2993     11.3718      0.4025   2206.0000     12.3546   -105.5100
121.0000        162.1750      0.3018    500.9600     71.0400     15.2697     14.1850      0.4059   2124.0000     13.7984   -107.0100
121.1000        162.1750      0.3085    500.9600     72.0750     15.2697     14.1850      0.4104   2124.0000     13.7984   -107.0100
121.2000        162.1750      0.3155    501.6800     73.0200     16.2866     16.2866      0.4135   2115.0000     21.2731   -110.5050
121.3000        162.1750      0.3187    504.9600     75.1200     16.2866     16.2866      0.4179   2115.0000     21.2731   -110.5050
121.4000        162.1750      0.3133    500.9600     78.9000     17.2119     17.5319      0.4229   2109.0000     34.3423   -113.7600
121.5000        162.1750      0.3065    500.3200     80.4600     17.2119     17.5319      0.4276   2109.0000     34.3423   -113.7600
121.6000        157.0750      0.2985    497.4800     80.5500     17.6942     17.8579      0.4296   2122.0000     46.5404   -111.0000
121.7000        157.0750      0.2919    488.8800     80.7900     17.6942     17.8579      0.4212   2122.0000     46.5404   -111.0000
121.8000        157.0750      0.2845    480.9200     81.1200     16.7429     16.8978      0.4138   2138.0000     39.4303   -106.7550
121.9000        157.0750      0.2536    475.2400     83.2200     16.7429     16.8978      0.4083   2138.0000     39.4303   -106.7550
122.0000        160.9000      0.2251    470.5200     84.2850     15.4110     15.2697      0.4041   2187.8999     29.9109   -102.0000
122.1000        160.9000      0.2116    465.5200     85.0500     15.4110     15.2697      0.4076   2187.8999     29.9109   -102.0000
122.2000        168.5500      0.2037    461.0000     83.1600     13.1774     11.6904      0.4122   2318.0000     14.9910    -94.0050
122.3000        168.5500      0.2025    459.8400     80.8050     13.1774     11.6904      0.4091   2318.0000     14.9910    -94.0050
122.4000        168.5500      0.2097    461.6000     75.7350     12.9369     10.7604      0.4066   2304.0000     10.9605    -91.7550
122.5000        168.5500      0.2221    467.2000     71.1450     12.9369     10.7604      0.4018   2304.0000     10.9605    -91.7550
122.6000        167.2750      0.2404    474.0800     66.8250     13.1774     10.6618      0.3992   2284.0000      9.0330    -91.0050
122.7000        167.2750      0.2595    478.3600     61.9500     13.1774     10.6618      0.3988   2284.0000      9.0330    -91.0050
122.8000        160.9000      0.2797    480.6800     58.1400     14.4487     13.7984      0.4034   2152.0000     11.4770    -97.0050
122.9000        160.9000      0.2945    480.0000     56.5050     14.4487     13.7984      0.4055   2152.0000     11.4770    -97.0050
123.0000        163.4500      0.3027    479.1200     55.4550     15.4110     16.7429      0.4024   2139.0000     19.4013   -100.5150
123.1000        163.4500      0.2991    475.6000     54.7500     15.4110     16.7429      0.3999   2139.0000     19.4013   -100.5150
123.2000        168.5500      0.2942    470.3200     58.8900     16.5894     20.1294      0.3998   2158.0000     48.2870   -102.7500
123.3000        168.5500      0.2825    464.7200     62.9400     16.5894     20.1294      0.4003   2158.0000     48.2870   -102.7500
123.4000        164.7500      0.2726    456.6800     66.6150     19.4013     21.8691      0.4007   2198.0000     93.7195   -103.2600
123.5000        164.7500      0.2725    452.8000     68.1000     19.4013     21.8691      0.3983   2198.0000     93.7195   -103.2600
123.6000        166.0000      0.2758    451.6400     69.3450     20.3156     21.2731      0.3961   2179.0000     37.6556   -100.7550
123.7000        166.0000      0.2738    450.4800     70.5750     20.3156     21.2731      0.3959   2179.0000     37.6556   -100.7550
123.8000        162.1750      0.2763    449.4000     71.7900     19.5808     20.5036      0.3950   2190.0000     23.3254   -100.7550
123.9000        162.1750      0.2761    448.4400     73.0050     19.5808     20.5036      0.3936   2190.0000     23.3254   -100.7550
124.0000        163.4500      0.2730    447.4000     75.2550     17.2119     18.6995      0.3934   2187.0000     20.8848   -102.5100
124.1000        163.4500      0.2598    448.1600     77.7750     17.2119     18.6995      0.3964   2187.0000     20.8848   -102.5100
124.2000        162.1750      0.2452    449.0000     80.4750     12.7008     13.9261      0.4033   2201.0000     23.3254   -105.5100
124.3000        162.1750      0.2341    451.3600     83.8800     12.7008     13.9261      0.4084   2201.0000     23.3254   -105.5100
124.4000        163.4500      0.2266    453.3200     87.2850     11.3718     11.6904      0.4122   2245.0000     21.0780   -106.0050
124.5000        163.4500      0.2219    446.0400     89.3550     11.3718     11.6904      0.4148   2245.0000     21.0780   -106.0050
124.6000        163.4500      0.2198    443.2400     91.0050     10.5640     10.1819      0.4149   2245.0000     14.5824   -104.2500
124.7000        163.4500      0.2229    441.1600     91.8450     10.5640     10.1819      0.4134   2245.0000     14.5824   -104.2500
124.8000        160.9000      0.2274    438.4000     89.9700      9.6345      8.9501      0.4116   2284.0000      8.3144    -99.0000
124.9000        160.9000      0.2320    438.5600     88.0050      9.6345      8.9501      0.4121   2284.0000      8.3144    -99.0000
125.0000        162.1750      0.2394    439.8800     85.8300      9.3720      8.7868      0.4166   2284.0000      9.1165    -99.7500
125.1000        162.1750      0.2450    449.6800     83.7450      9.3720      8.7868      0.4179   2284.0000      9.1165    -99.7500
125.2000        159.6250      0.2506    454.8800     83.9400      8.9501      8.7868      0.4206   2254.0000      9.9961   -101.0100
125.3000        159.6250      0.2441    458.1200     84.8250      8.9501      8.7868      0.4188   2254.0000      9.9961   -101.0100
125.4000        162.1750      0.2352    461.3600     87.2250      8.1626      8.7062      0.4169   2237.0000     17.0541   -102.0000
125.5000        162.1750      0.2267    462.8000     96.2850      8.1626      8.7062      0.4180   2237.0000     17.0541   -102.0000
125.6000        163.4500      0.2130    462.6000    100.6350      7.8674      7.9402      0.4155   2246.0000     26.0513   -103.5000
125.7000        163.4500      0.2040    462.3200    101.3100      7.8674      7.9402      0.4134   2246.0000     26.0513   -103.5000
125.8000        164.7500      0.1980    459.6800    101.7750      7.7238      7.1751      0.4113   2280.0000     17.6942   -104.0100
125.9000        164.7500      0.1961    456.4800    101.2950      7.7238      7.1751      0.4101   2280.0000     17.6942   -104.0100
126.0000        177.5000      0.1997    452.2000    100.9200      7.3085      6.6043      0.4064   2337.0000      4.4038    -96.5100
126.1000        177.5000      0.1993    447.7600    100.6350      7.3085      6.6043      0.4050   2337.0000      4.4038    -96.5100
126.2000        174.9250      0.1974    445.9200    103.3500      6.9156      6.6655      0.4056   2331.0000      4.5272    -92.7600
126.3000        174.9250      0.1979    444.4000    105.3000      6.9156      6.6655      0.4118   2331.0000      4.5272    -92.7600
126.4000        174.9250      0.1988    443.6400    106.7400      6.6043      6.4244      0.4153   2312.0000      7.0442    -91.7550
126.5000        174.9250      0.1965    446.4400    106.6800      6.6043      6.4244      0.4199   2312.0000      7.0442    -91.7550
126.6000        178.7500      0.1945    448.1600    106.6200      6.4244      5.7521      0.4286   2342.0000      5.8591    -92.0100
126.7000        178.7500      0.1942    449.0400    104.2950      6.4244      5.7521      0.4286   2342.0000      5.8591    -92.0100
126.8000        180.0250      0.1951    449.6400    101.9700      6.4838      5.8591      0.4245   2325.0000      4.1671    -90.7500
