~VERSION INFORMATION
 VERS.                 2.0:   CWLS LOG ASCII STANDARD -VERSION 2.0
 WRAP.                  NO:   ONE LINE PER DEPTH STEP
~WELL INFORMATION BLOCK
#MNEM.UNIT           DATA                    DESCRIPTION OF MNEMONIC
#---------    -------------------            -------------------------------
# Generated from Intellog Unique Number	CX_WELLS/WELL/3917
LOC .         AA/06-01-097-15W4/0            : Location     - LOCATION
UWI .         AA/06-01-097-15W400            : Uwi          - UNIQUE WELL ID
ENTR.         T                              : Entered      - ENTERED BY
SRVC.         SCHLUMBERGER                   : Scn          - SERVICE COMPANY
STRT.F        600                            : top_depth    - START DEPTH
STOP.F        1320.14                        : bot_depth    - STOP DEPTH
STEP.F        0.82                           : increment    - STEP LENGTH
 NULL. -999.2500:NULL Value
~CURVE INFORMATION BLOCK
#MNEM UNIT       ERCB CURVE CODE    CURVE DESCRIPTION
#-----------   ------------------   ----------------------------------
DEPT.F        00 001 00 00         : DEPTH        - DEPTH
GR  .API      00 310 00 00         : GR           - GAMMA RAY
NPHI.V/V      00 330 00 00         : PHIN         - NEUTRON POROSITY (SANDSTONE)
ILD .OHMM     00 120 00 00         : RESD         - DEEP RESISTIVITY (OTHER)
~PARAMETER INFORMATION
#MNEM.UNIT           DATA             DESCRIPTION OF MNEMONIC
#---------         -----------     ------------------------------
GL  .F        2145                 : gl           - GROUND LEVEL ELEVATION
EREF.F        2151.7               : kb           - ELEVATION OF DEPTH REFERENCE
DATM.F        2151.7               : datum        - DATUM ELEVATION
TDD .F        1321                 : tdd          - TOTAL DEPTH DRILLER
RUN .         ONE                  : Run          - RUN NUMBER
ENG .         BILL                 : Engineer     - RECORDING ENGINEER
WIT .         JIM                  : Witness      - WITNESSED BY
MUD .         GEL                  : Mud_type     - MUD TYPE
MATR.         SANDSTONE            : Logunit      - NEUTRON MATRIX
TMAX.F        68                   : BHT          - MAXIMUM RECORDED TEMPERATURE
BHTD.F        1321                 : BHTDEP       - MAXIMUM RECORDED TEMPERATURE
MATR.         1                    : LOGUNIT      - NEUTRON MATRIX
RMT .F        68                   : MDTP         - TEMPERATURE OF MUD
NEUT.         1                    : NEUTRON      - NEUTRON TYPE
RESI.         5.65                 : RESIST       - RESISTIVITY TYPE
RMC .OHMM     6.4                  : RMC          - RESISTIVITY OF MUD CAKE
RMF .OHMM     5.2                  : RMF          - RESISTIVITY OF MUD FILTRATE
SUFT.F        37.4                 : SUFT         - SURFACE TEMPERATURE
~A  DEPTH       GR     PHIN     RESD
# ...
  955.971   70.018    0.424   12.719
  956.791   72.130    0.425   14.854
  957.612   78.479    0.463   16.278
  958.432   81.433    0.480   15.563
  959.252   82.694    0.491   13.424
  960.072   82.680    0.489   10.572
  960.892   83.093    0.478    9.145
  961.713   84.354    0.472    8.431
  962.533   86.889    0.462    7.715
  963.353   91.540    0.457    7.001
  964.173   95.345    0.453    7.712
  964.993   97.880    0.457    7.711
  965.814   95.320    0.460    8.421
  966.634   92.343    0.463    9.844
  967.454   88.516    0.466    9.842
  968.274   88.502    0.469   10.553
  969.094   88.491    0.471   10.551
  969.915   84.664    0.470   10.549
  970.735   79.565    0.465    9.835
  971.555   74.466    0.461    9.833
  972.375   72.758    0.453    9.831
  973.196   76.139    0.449   10.541
  974.016   79.941    0.451   11.252
  974.836   83.746    0.476   11.963
  975.656   85.007    0.483   11.961
  976.476   85.836    0.490   11.247
  977.297   86.675    0.498   10.532
  978.117   87.518    0.502    9.817
  978.937   90.472    0.505    9.104
  979.757   94.277    0.501    8.389
  980.577   97.658    0.494    8.387
  981.398   97.647    0.472    8.385
  982.218   92.547    0.456    9.096
  983.038   84.056    0.430   16.932
  983.858   80.226    0.494   21.919
  984.678   90.815    0.514   12.653
  985.499   98.433    0.512    8.376
  986.319   97.996    0.510    7.661
  987.139   97.566    0.509    7.659
  987.959   96.280    0.511    8.369
  988.780   94.570    0.519    8.368
  989.600   94.141    0.513    9.079
  990.420   94.127    0.490    9.076
  991.240   94.116    0.480    9.075
  992.060   95.376    0.456    9.073
  992.881   97.483    0.440    8.358
  993.701   98.320    0.429    8.357
  994.521   96.188    0.420    9.067
  995.341   91.937    0.415    9.778
  996.161   85.990    0.410   10.489
  996.982   83.008    0.410   13.336
  997.802   82.994    0.427   14.761
  998.622   83.837    0.431   15.471
  999.442   85.516    0.435   15.470
 1000.260   86.350    0.440   15.468
 1001.080   86.769    0.445   14.040
 1001.900   87.605    0.443   12.613
 1002.720   88.442    0.441   11.899
 1003.540   88.431    0.435   11.897
 1004.360   87.567    0.431   11.895
 1005.180   85.862    0.428   11.893
 1006.000   82.459    0.429   11.891
 1006.820   79.904    0.425   11.889
 1007.640   79.890    0.424   11.887
 1008.460   80.721    0.421   12.598
 1009.280   81.137    0.418   13.309
 1010.100   81.547    0.418   14.732
 1010.930   81.115    0.418   15.443
 1011.750   81.106    0.417   15.441
 1012.570   80.668    0.417   16.151
 1013.390   80.654    0.416   15.437
 1014.210   79.371    0.416   15.435
 1015.030   77.667    0.416   14.008
 1015.850   77.232    0.416   14.006
 1016.670   78.066    0.416   14.005
 1017.490   78.903    0.415   15.428
 1018.310   78.889    0.414   16.139
 1019.130   78.451    0.418   16.137
 1019.950   78.443    0.425   16.135
 1020.770   78.432    0.431   15.421
 1021.590   79.692    0.445   12.568
 1022.410   81.380    0.449   13.278
 1023.230   85.601    0.445   14.701
 1024.050   86.867    0.439   15.413
 1024.870   88.128    0.437   16.123
 1025.690   85.570    0.433   16.121
 1026.510   82.167    0.437   16.119
 1027.330   83.007    0.438   16.118
 1028.150   86.388    0.436   16.116
 1028.970   92.310    0.432   15.401
 1029.790   94.843    0.447   14.687
 1030.610   92.287    0.452   13.973
 1031.430   87.188    0.436   11.832
 1032.250   82.937    0.426   11.118
 1033.070   79.955    0.414   11.829
 1033.890   76.976    0.400   13.252
 1034.710   73.997    0.383   16.101
 1035.530   72.711    0.407   19.662
 1036.350   77.367    0.451   26.785
 1037.170   85.412    0.470   28.209
 1037.990   87.520    0.465   12.530
 1038.810   88.773    0.459   10.390
 1039.630   88.344    0.450   10.389
 1040.450   84.940    0.447   12.524
 1041.270   81.958    0.471   12.523
 1042.090   81.950    0.495   12.521
 1042.910   84.904    0.500   11.094
 1043.730   88.282    0.509    9.666
 1044.550   89.119    0.503    8.952
 1045.370   88.684    0.482    8.950
 1046.190   86.977    0.472    8.948
 1047.010   84.846    0.459    8.946
 1047.830   82.715    0.438    9.658
 1048.650   81.429    0.433   10.368
 1049.480   82.266    0.430   11.079
 1050.300   83.951    0.421   11.789
 1051.120   86.486    0.432   13.924
 1051.940   89.864    0.453   15.348
 1052.760   91.973    0.459   16.059
 1053.580   92.386    0.437   16.058
 1054.400   89.407    0.424   12.492
 1055.220   86.425    0.423   11.066
 1056.040   84.718    0.427   11.776
 1056.860   84.283    0.430   14.625
 1057.680   85.114    0.432   15.335
 1058.500   85.954    0.433   15.333
 1059.320   87.215    0.437   15.331
 1060.140   88.049    0.438   15.330
 1060.960   88.043    0.440   16.040
 1061.780   88.032    0.441   16.038
 1062.600   85.898    0.437   15.324
 1063.420   82.916    0.436   15.322
 1064.240   84.601    0.438   17.458
 1065.060   85.865    0.436   18.881
 1065.880   87.120    0.428   18.879
 1066.700   87.115    0.424   18.164
 1067.520   86.677    0.421   17.450
 1068.340   85.394    0.420   17.449
 1069.160   84.534    0.425   17.446
 1069.980   84.523    0.431   18.157
 1070.800   86.632    0.433   18.155
 1071.620   87.890    0.427   18.153
 1072.440   88.303    0.425   18.152
 1073.260   88.716    0.421   17.437
 1074.080   89.553    0.421   16.723
 1074.900   89.963    0.425   16.721
 1075.720   90.803    0.435   16.006
 1076.540   92.487    0.440   16.005
 1077.360   94.167    0.442   16.002
 1078.180   95.004    0.436   16.001
 1079.000   93.297    0.433   15.999
 1079.820   90.744    0.428   15.997
 1080.640   87.341    0.428   16.707
 1081.460   81.815    0.425   18.843
 1082.280   79.684    0.423   20.266
 1083.100   80.097    0.417   20.265
 1083.920   81.358    0.413   19.551
 1084.740   82.619    0.417   17.411
 1085.560   82.183    0.419   15.984
 1086.380   80.476    0.410   15.269
 1087.200   77.918    0.403   15.268
 1088.020   74.515    0.410   15.265
 1088.850   73.651    0.412   15.264
 1089.670   74.069    0.406   15.974
 1090.490   75.330    0.401   15.972
 1091.310   76.588    0.395   16.683
 1092.130   75.305    0.363   17.393
 1092.950   72.750    0.330   18.105
 1093.770   71.891    0.309   22.378
 1094.590   70.608    0.319   43.753
 1095.410   70.172    0.338   37.338
 1096.230   67.612    0.308   23.085
 1097.050   65.481    0.299   33.059
 1097.870   65.893    0.326   48.021
 1098.690   68.426    0.378   57.283
 1099.510   71.386    0.410   38.041
 1100.330   76.039    0.430   13.812
 1101.150   81.540    0.441   10.247
 1101.970   87.889    0.447   11.670
 1102.790   92.112    0.452   11.668
 1103.610   91.680    0.453   11.667
 1104.430   90.397    0.447   11.664
 1105.250   88.687    0.443   11.662
 1106.070   86.553    0.439   11.661
 1106.890   85.696    0.450   11.658
 1107.710   83.987    0.447   11.658
 1108.530   83.130    0.441   11.655
 1109.350   82.271    0.440   13.079
 1110.170   85.228    0.454   15.927
 1110.990   91.153    0.470   13.787
 1111.810   92.411    0.473   11.648
 1112.630   91.128    0.477   10.220
 1113.450   90.269    0.478   10.219
 1114.270   90.682    0.479   10.217
 1115.090   91.516    0.481    9.502
 1115.910   92.353    0.483    9.501
 1116.730   92.344    0.483    9.499
 1117.550   92.749    0.479    8.784
 1118.370   92.743    0.470    8.783
 1119.190   91.884    0.459    8.068
 1120.010   90.177    0.446    8.066
 1120.830   87.195    0.433   10.202
 1121.650   87.178    0.438   11.625
 1122.470   88.445    0.442   12.336
 1123.290   90.554    0.438   11.621
 1124.110   93.508    0.442   11.619
 1124.930   95.193    0.443   11.617
 1125.750   95.608    0.444   11.616
 1126.570   95.171    0.434   12.326
 1127.400   91.343    0.419   12.324
 1128.220   84.548    0.393   12.323
 1129.040   81.569    0.400   13.746
 1129.860   83.254    0.425   19.444
 1130.680   86.211    0.435   15.880
 1131.500   90.440    0.446   13.740
 1132.320   94.242    0.450   10.887
 1133.140   94.225    0.446   10.886
