~VERSION INFORMATION
 VERS.                 2.0:   CWLS LOG ASCII STANDARD -VERSION 2.0
 WRAP.                  NO:   ONE LINE PER DEPTH STEP
~WELL INFORMATION BLOCK
#MNEM.UNIT           DATA                    DESCRIPTION OF MNEMONIC
#---------    -------------------            -------------------------------
# Generated from Intellog Unique Number	CX_WELLS/WELL/2807
WELL.         ARCO AC1                       : Well_name    - WELL
LOC .         AA/08-29-081-11W4/0            : Location     - LOCATION
UWI .         AA/08-29-081-11W400            : Uwi          - UNIQUE WELL ID
ENTR.         T                              : Entered      - ENTERED BY
SRVC.         SCHLUMBERGER                   : Scn          - SERVICE COMPANY
STRT.F        1350                           : top_depth    - START DEPTH
STOP.F        1669.88                        : bot_depth    - STOP DEPTH
STEP.F        0.82                           : increment    - STEP LENGTH
 NULL. -999.2500:NULL Value
~CURVE INFORMATION BLOCK
#MNEM UNIT       ERCB CURVE CODE    CURVE DESCRIPTION
#-----------   ------------------   ----------------------------------
DEPT.F        00 001 00 00         : DEPTH        - DEPTH
GR  .API      00 310 00 00         : GR           - GAMMA RAY
NPHI.V/V      00 330 00 00         : PHIN         - NEUTRON POROSITY (SANDSTONE)
ILD .OHMM     00 120 00 00         : RESD         - DEEP RESISTIVITY (OTHER)
~PARAMETER INFORMATION
#MNEM.UNIT           DATA             DESCRIPTION OF MNEMONIC
#---------         -----------     ------------------------------
GL  .F        2395                 : gl           - GROUND LEVEL ELEVATION
EREF.F        2405                 : kb           - ELEVATION OF DEPTH REFERENCE
DATM.F        2405                 : datum        - DATUM ELEVATION
TDD .F        1685                 : tdd          - TOTAL DEPTH DRILLER
RUN .         ONE                  : Run          - RUN NUMBER
ENG .         BILL                 : Engineer     - RECORDING ENGINEER
WIT .         JIM                  : Witness      - WITNESSED BY
MUD .         GEL                  : Mud_type     - MUD TYPE
MATR.         SANDSTONE            : Logunit      - NEUTRON MATRIX
TMAX.F        80                   : BHT          - MAXIMUM RECORDED TEMPERATURE
BHTD.F        1685                 : BHTDEP       - MAXIMUM RECORDED TEMPERATURE
MATR.         1                    : LOGUNIT      - NEUTRON MATRIX
RMT .F        80                   : MDTP         - TEMPERATURE OF MUD
NEUT.         1                    : NEUTRON      - NEUTRON TYPE
RESI.         10                   : RESIST       - RESISTIVITY TYPE
RMC .OHMM     2                    : RMC          - RESISTIVITY OF MUD CAKE
RMF .OHMM     3.9                  : RMF          - RESISTIVITY OF MUD FILTRATE
SUFT.F        39.2                 : SUFT         - SURFACE TEMPERATURE
~A  DEPTH       GR     PHIN     RESD
 1350.000   65.019    0.446    3.588
 1350.820   65.720    0.447    3.702
 1351.640   66.430    0.453    3.886
 1352.460   67.140    0.461    4.011
 1353.280   67.841    0.471    4.139
 1354.100   68.560    0.476    4.203
 1354.920   70.008    0.470    4.268
 1355.740   70.727    0.461    4.332
 1356.560   70.671    0.457    4.320
 1357.380   70.643    0.457    4.388
 1358.200   70.587    0.459    4.373
 1359.020   70.559    0.460    4.367
 1359.840   71.260    0.464    4.361
 1360.660   71.241    0.468    4.355
 1361.480   71.942    0.472    4.201
 1362.300   72.642    0.480    4.053
 1363.120   72.605    0.484    3.847
 1363.940   72.558    0.492    3.714
 1364.760   72.530    0.496    3.465
 1365.580   71.746    0.490    3.287
 1366.400   65.721    0.469    3.119
 1367.220   59.715    0.440    3.114
 1368.040   51.458    0.414    3.159
 1368.860   43.930    0.393    3.371
 1369.690   40.166    0.373    3.483
 1370.510   41.623    0.362    3.845
 1371.330   49.058    0.335    4.172
 1372.150   55.746    0.283    4.456
 1372.970   60.192    0.290    4.678
 1373.790   66.123    0.338    4.908
 1374.610   69.065    0.407    5.152
 1375.430   70.532    0.422    5.316
 1376.250   71.223    0.446    5.306
 1377.070   71.204    0.447    5.296
 1377.890   71.167    0.445    5.112
 1378.710   71.121    0.442    5.019
 1379.530   71.083    0.441    4.678
 1380.350   71.793    0.441    4.519
 1381.170   73.250    0.441    4.360
 1381.990   75.445    0.445    4.277
 1382.810   76.165    0.454    4.196
 1383.630   77.613    0.461    4.120
 1384.450   78.313    0.470    4.046
 1385.270   78.276    0.477    3.774
 1386.090   78.239    0.478    3.582
 1386.910   77.454    0.479    3.286
 1387.730   76.669    0.475    3.118
 1388.550   73.643    0.469    2.961
 1389.370   69.122    0.466    2.806
 1390.190   66.834    0.463    2.803
 1391.010   67.535    0.459    2.894
 1391.830   67.516    0.459    2.987
 1392.650   69.702    0.459    3.188
 1393.470   71.168    0.459    3.237
 1394.290   73.382    0.459    3.396
 1395.110   74.839    0.458    3.504
 1395.930   77.034    0.456    3.617
 1396.750   78.491    0.450    3.734
 1397.570   79.939    0.441    3.855
 1398.390   80.640    0.420    3.914
 1399.210   81.368    0.389    4.041
 1400.030   82.069    0.375    4.171
 1400.850   82.760    0.366    4.374
 1401.670   82.732    0.363    4.515
 1402.490   82.704    0.358    4.583
 1403.310   82.667    0.353    4.731
 1404.130   81.873    0.349    4.886
 1404.950   81.836    0.350    4.960
 1405.770   81.789    0.358    5.202
 1406.590   81.761    0.371    5.372
 1407.410   81.724    0.399    5.450
 1408.230   81.686    0.414    5.349
 1409.060   80.893    0.427    5.077
 1409.880   80.117    0.438    4.821
 1410.700   79.323    0.434    4.276
 1411.520   77.792    0.430    3.855
 1412.340   76.260    0.422    3.724
 1413.160   73.206    0.415    3.531
 1413.980   71.683    0.399    3.466
 1414.800   69.395    0.375    3.698
 1415.620   67.872    0.356    3.821
 1416.440   64.099    0.338    4.079
 1417.260   61.063    0.325    4.428
 1418.080   59.550    0.314    4.807
 1418.900   57.252    0.312    5.219
 1419.720   58.700    0.325    5.571
 1420.540   60.176    0.361    6.151
 1421.360   64.613    0.376    6.451
 1422.180   67.564    0.374    6.439
 1423.000   71.263    0.381    6.323
 1423.820   73.458    0.397    6.200
 1424.640   74.916    0.406    6.194
 1425.460   74.888    0.412    6.177
 1426.280   74.850    0.421    6.166
 1427.100   73.319    0.412    6.154
 1427.920   71.039    0.395    6.143
 1428.740   68.751    0.385    6.131
 1429.560   68.704    0.380    6.018
 1430.380   69.414    0.378    5.907
 1431.200   69.368    0.376    5.797
 1432.020   67.836    0.374    5.595
 1432.840   67.070    0.371    5.398
 1433.660   65.529    0.370    5.388
 1434.480   64.735    0.369    5.288
 1435.300   64.698    0.369    5.368
 1436.120   64.660    0.369    5.355
 1436.940   64.623    0.368    5.528
 1437.760   64.586    0.369    5.611
 1438.580   65.296    0.370    5.696
 1439.400   65.996    0.372    5.685
 1440.220   62.232    0.373    5.672
 1441.040   59.206    0.375    5.664
 1441.860   61.410    0.376    5.554
 1442.680   62.867    0.380    5.454
 1443.500   66.538    0.382    5.441
 1444.320   68.005    0.388    5.341
 1445.140   69.471    0.395    5.333
 1445.960   70.919    0.404    5.230
 1446.780   72.376    0.412    5.222
 1447.600   73.096    0.418    5.126
 1448.430   73.805    0.422    5.029
 1449.250   74.506    0.426    4.853
 1450.070   75.945    0.433    4.761
 1450.890   75.926    0.450    4.673
 1451.710   76.636    0.462    4.587
 1452.530   78.093    0.470    4.427
 1453.350   78.803    0.478    4.343
 1454.170   76.505    0.472    4.192
 1454.990   74.983    0.465    4.114
 1455.810   71.200    0.453    4.038
 1456.630   68.174    0.432    3.898
 1457.450   63.653    0.388    3.637
 1458.270   58.385    0.370    3.395
 1459.090   51.622    0.359    3.114
 1459.910   41.871    0.339    3.216
 1460.730   44.822    0.261    3.734
 1461.550   54.499    0.262    4.409
 1462.370   62.682    0.317    5.384
 1463.190   66.371    0.386    6.144
 1464.010   65.587    0.426    6.453
 1464.830   64.036    0.429    6.547
 1465.650   64.018    0.421    6.316
 1466.470   64.718    0.386    5.894
 1467.290   65.437    0.332    5.691
 1468.110   66.138    0.438    5.493
 1468.930   66.848    0.450    5.386
 1469.750   66.063    0.450    5.376
 1470.570   66.764    0.449    5.457
 1471.390   68.212    0.449    5.447
 1472.210   68.931    0.449    5.440
 1473.030   69.641    0.445    5.422
 1473.850   70.342    0.440    5.417
 1474.670   71.052    0.438    5.317
 1475.490   71.771    0.438    5.304
 1476.310   71.724    0.436    5.294
 1477.130   71.696    0.435    5.192
 1477.950   70.902    0.433    5.184
 1478.770   70.856    0.433    5.091
 1479.590   70.071    0.435    5.082
 1480.410   69.287    0.439    4.985
 1481.230   69.258    0.443    4.891
 1482.050   67.727    0.445    4.884
 1482.870   63.197    0.460    4.714
 1483.690   59.423    0.476    4.472
 1484.510   58.639    0.484    4.173
 1485.330   58.601    0.476    3.895
 1486.150   58.555    0.444    3.515
 1486.980   57.770    0.408    3.014
 1487.800   56.967    0.387    2.586
 1488.620   56.939    0.384    2.413
 1489.440   58.405    0.382    2.803
 1490.260   59.853    0.374    3.200
 1491.080   61.301    0.371    3.416
 1491.900   62.002    0.375    3.643
 1492.720   62.721    0.381    3.823
 1493.540   63.431    0.389    3.882
 1494.360   64.888    0.390    4.075
 1495.180   65.607    0.397    4.280
 1496.000   67.802    0.402    4.272
 1496.820   65.514    0.412    4.123
 1497.640   63.982    0.432    3.976
 1498.460   62.460    0.438    3.968
 1499.280   61.675    0.434    3.895
 1500.100   65.374    0.405    3.825
 1500.920   69.820    0.387    3.691
 1501.740   72.772    0.391    3.621
 1502.560   72.716    0.422    3.494
 1503.380   72.688    0.431    3.260
 1504.200   72.641    0.447    3.147
 1505.020   74.089    0.439    3.089
 1505.840   74.818    0.424    3.031
 1506.660   75.528    0.419    2.974
 1507.480   75.481    0.427    2.969
 1508.300   75.425    0.431    2.963
 1509.120   75.397    0.434    2.957
 1509.940   76.863    0.434    2.951
 1510.760   79.796    0.442    2.995
 1511.580   81.272    0.441    3.039
 1512.400   84.215    0.428    3.087
 1513.220   84.924    0.428    3.077
 1514.040   85.625    0.432    3.073
 1514.860   85.597    0.441    3.172
 1515.680   85.560    0.441    3.220
 1516.500   82.515    0.435    3.325
 1517.320   78.751    0.420    3.608
 1518.140   72.735    0.407    3.725
 1518.960   66.720    0.394    3.908
 1519.780   59.958    0.370    4.172
 1520.600   53.933    0.353    4.382
 1521.420   51.654    0.345    4.755
 1522.240   53.102    0.344    4.910
 1523.060   53.821    0.338    5.328
 1523.880   56.016    0.332    5.784
 1524.700   57.473    0.325    5.974
 1525.520   60.425    0.325    6.482
 1526.350   64.115    0.336    6.691
 1527.170   67.076    0.341    7.028
