~Version : LASO    vs 4.00
VERS.                2.00:   CWLS Log ASCII Standard -VERSION 2.0
WRAP.                  NO:
~Well Information Block
#MNEM.UNIT       Data                        Description of Mnemonic
#----.----      -------------------------- : -----------------------------
COMP.                                     : COMPANY
FLD .    WILDCAT                          : FIELD NAME
LOC .    02-32-090-08W4                   : WELL LOCATION
UWI .    AA/02-32-090-08W400              : UNIQUE WELL ID
STRT.M             0.0000:
STOP.M           201.3750:
STEP.M             0.1250:
NULL.           -999.2500:
COMP.  :COMPANY
WELL.  MOBIL CLARKE OV 2-32:WELL
FLD.   :FIELD
LOC.   :LOCATION
CTRY.  :COUNTRY
PROV.  ALBERTA:PROVINCE
SRVC.  DRESSER ATLAS:SERVICE COMPANY
DATE.  17-FEB-81:LOG DATE
UWI.   :UNIQUE WELL ID
~Parameter Information Block
#MNEM.UNIT       Data                        Description of Mnemonic
#----.----      -------------------------- : -----------------------------
RUN .                   1                 : Run Number
GL  .M           431.8000                 : Ground Level Elevation
DREF.                  KB                 : Depth Reference
EREF.M           431.8000                 : Elevation of Depth Reference
TDL .M           202.0000                 : Total Depth Logger
TDD .M           201.6000                 : Total Depth Driller
BHT .DEGC         20.0000                 : Bottom Hole Temperature
BS  .MM          159.0000                 : Bit Size
DFD .             10.3000                 : Mud Weight (Density)
DFV .             85.0000                 : Mud Viscosity
DFPH.             10.0000                 : Mud pH
RM  .OHMM          4.9000                 : Mud Resistivity
RMT .DEGC         20.0000                 : Mud Resistivity Temperature
RMF .OHMM          4.7000                 : Mud Filtrate Resistivity
RMFT.DEGC         10.0000                 : RMF Temperature
RMC .OHMM          9.5000                 : Mud Cake Resistivity
RMCT.DEGC         10.0000                 : RMC Temperature
~Curve Information Block
#MNEM.UNIT        API CODE    Curve Description
#---------    ------------    -------------------------------------------
DEPT.M                    :   DEPTH
CALI.MM       42 280  1  1:   3 DENSITY CALIPER
DPHI.V/V                  :   DPHI
DT  .US/M     60 520 42  1:   2 SONIC INTERVAL TRANSIT TIME (COMPENSATED)
GR  .GAPI     42 310  1  1:   4 GAMMA RAY
IL  .OHMM      5 120 45  1:   7 INDUCTION
NPHI.V/V      42 890  3  1:   5 NEUTRON POROSITY (SANDSTONE)
RHOB.K/M3     42 350  1  1:   6 BULK DENSITY
SFL .OHMM      5 220  6  1:   8 FOCUSSED RESISTIVITY
SP  .MV        5  10  1  1:   9 SPONTANEOUS POTENTIAL
~A  Depth           CALI        DPHI          DT          GR          IL        NPHI        RHOB         SFL          SP
# ...
167.5000        158.9750      0.3252    428.9600     46.2000     27.4250      0.3619   2113.8999    104.9000    -39.9000
167.6250        158.9750      0.3239    428.2000     50.6100     28.0400      0.3554   2098.6001     78.2500    -38.6600
167.7500        159.7250      0.3227    427.7200     51.4050     29.5100      0.3536   2101.1001     43.1700    -37.7900
167.8750        159.1750      0.3224    425.7600     48.8700     31.1700      0.3551   2103.5000     29.9350    -37.9100
168.0000        158.9500      0.3232    421.0800     50.3700     32.9500      0.3558   2108.8999     36.4900    -38.7800
168.1250        158.9500      0.3227    419.1200     52.0350     34.4800      0.3656   2114.5000     52.9000    -39.7800
168.2500        158.9250      0.3206    438.7600     55.3350     35.9550      0.3642   2118.5000    100.6000    -39.6600
168.3750        158.9250      0.3183    426.7200     53.0550     37.6700      0.3575   2120.0000    157.6000    -38.7800
168.5000        159.5250      0.3168    400.4800     47.7600     39.0200      0.3593   2118.3000    329.8000    -39.0300
168.6250        159.9000      0.3154    404.6400     43.3350     38.9000      0.3460   2116.6001    772.4999    -40.2800
168.7500        160.3750      0.3142    404.1600     41.4000     37.7350      0.3342   2113.8999   1254.9999    -41.9000
168.8750        160.5750      0.3124    407.6000     41.3100     35.7100      0.3331   2111.3000   1254.9999    -42.7700
169.0000        161.4250      0.3077    418.8800     40.7100     33.0700      0.3410   2125.1001    769.4999    -42.2700
169.1250        161.5000      0.3041    431.6400     39.5250     29.6950      0.3459   2131.3999    117.1500    -40.7800
169.2500        160.8750      0.2995    459.6000     42.7350     26.9350      0.3473   2159.8000     38.0850    -39.4100
169.3750        160.8500      0.2947    435.3200     50.1600     23.6850      0.3365   2181.1001     26.3200    -38.4100
169.5000        160.2000      0.2891    428.4400     57.9450     20.0650      0.3427   2189.3999     21.9650    -39.4100
169.6250        159.8250      0.2841    427.9600     64.6200     16.9950      0.3463   2195.8000     25.8300    -40.4000
169.7500        160.0250      0.2785    425.5200     69.3600     14.7250      0.3575   2202.2000     43.1050    -41.4000
169.8750        160.8250      0.2727    433.3600     73.4550     13.3150      0.3588   2193.0000     74.2500    -41.7700
170.0000        161.3250      0.2693    442.2000     73.4700     12.2100      0.3406   2189.3000     38.5100    -40.6500
170.1250        161.8000      0.2684    447.8400     71.3850     11.4750      0.3348   2191.7000     15.8400    -39.5300
170.2500        160.4750      0.2706    454.2000     73.5900     10.9250      0.3393   2199.3000     11.1850    -39.0300
170.3750        159.1000      0.2730    455.4400     79.6650     10.3700      0.3478   2194.2000     12.0400    -39.4100
170.5000        159.5000      0.2754    448.3200     89.2650      9.6950      0.3588   2174.5000     13.3900    -39.7800
170.6250        160.6500      0.2786    440.9600     87.0000      9.2050      0.3623   2163.0000     14.0000    -41.5200
170.7500        161.3250      0.2780    435.8000     81.4650      8.7150      0.3622   2164.0000     15.6550    -46.7600
170.8750        160.3000      0.2776    430.6400     71.7150      8.4100      0.3647   2182.8999     22.5200    -55.7200
171.0000        159.7500      0.2788    430.9200     62.5500      8.1000      0.3662   2187.8999     33.6100    -66.5600
171.1250        160.7250      0.2874    432.8800     54.0600      7.9150      0.3558   2189.6001     37.1000    -74.4100
171.2500        159.2500      0.2922    434.8400     47.8650      7.7950      0.3431   2168.8999     24.0500    -74.2800
171.3750        161.4250      0.2971    433.6000     43.0050      7.7950      0.3370   2131.1001     16.3300    -70.1700
171.5000        156.5250      0.3012    433.8400     41.8950      7.7350      0.3444   2126.1001     15.1650    -71.4200
171.6250        154.4500      0.3044    434.8400     43.1100      7.7950      0.3455   2129.3999     18.6600    -78.3900
171.7500        153.6000      0.3068    434.8400     40.8150      7.9150      0.3341   2131.2000     22.6400    -84.3700
171.8750        152.9000      0.3116    430.1600     33.9000      8.1000      0.3252   2121.1001     26.8100    -88.4800
172.0000        152.6750      0.3129    433.1200     30.8400      8.4100      0.3175   2116.0000     28.3400    -90.2300
172.1250        152.5000      0.3129    431.1600     28.6950      9.0200      0.3127   2114.1001     27.7250    -90.9700
172.2500        151.8250      0.3129    428.9600     26.5050      9.7600      0.3136   2117.2000     25.9500    -91.2200
172.3750        151.6500      0.3151    421.6000     26.1900     10.8600      0.3178   2122.1001     26.3200    -91.3500
172.5000        151.6250      0.3141    414.4800     26.5350     12.2100      0.3227   2123.5000     31.7100    -92.2200
172.6250        151.6250      0.3141    408.3200     28.3650     13.8050      0.3266   2115.0000     42.6800    -93.7100
172.7500        151.6250      0.3161    403.6800     27.0450     15.5250      0.3278   2108.2000     58.6500    -93.4600
172.8750        152.2000      0.3185    398.7600     26.3100     17.3650      0.3263   2104.6001     76.6000    -91.3500
173.0000        152.6000      0.3177    400.7200     27.2400     19.7600      0.3157   2104.8000    119.6000    -89.4800
173.1250        152.6000      0.3162    404.8800     28.4700     22.5800      0.3104   2106.0000    204.2000    -88.2300
173.2500        152.5750      0.3173    403.4400     30.2400     24.6650      0.3212   2106.8000    247.0500    -85.7400
173.3750        152.5750      0.3181    403.6800     30.3600     26.0750      0.3267   2107.8999    101.8500    -81.3800
173.5000        152.5750      0.3176    409.8000     29.3250     26.2600      0.3200   2112.7000     64.9999    -75.7800
173.6250        152.0000      0.3166    416.2000     28.5150     26.2000      0.3188   2117.5000    128.2000    -72.6600
173.7500        151.6250      0.3145    420.3600     28.0950     25.8950      0.3232   2121.3999    264.8500    -74.0300
173.8750        152.7500      0.3121    410.2800     27.5700     25.7100      0.3223   2124.6001    239.1000    -75.5300
174.0000        154.8000      0.3097    391.1600     28.2150     26.1400      0.3196   2130.0000     71.9500    -74.0300
174.1250        155.4000      0.3082    441.2000     30.6600     26.6300      0.3213   2134.8000     39.8600    -70.4200
174.2500        154.7250      0.3061    480.2400     32.7150     27.7350      0.3241   2136.8999     28.2150    -63.8200
174.3750        154.5000      0.3046    445.8800     35.2050     29.0200      0.3370   2134.2000     30.1150    -56.4700
174.5000        154.3750      0.3041    446.6000     37.1550     30.2500      0.3411   2129.8999     34.8950    -53.6100
174.6250        153.8500      0.3039    475.5600     38.3850     32.0300      0.3365   2120.0000    137.9999    -53.7300
174.7500        153.4750      0.3050    427.2400     37.7550     34.6650      0.3329   2110.8000    313.8500    -55.9700
174.8750        153.4750      0.3086    407.1200     36.5250     38.0400      0.3281   2105.7000    898.9999    -61.9500
175.0000        153.4500      0.3127    408.3200     31.4700     41.3550      0.3209   2103.3999   1254.9999    -66.8100
175.1250        154.0500      0.3135    406.6000     28.7850     44.7250      0.3137   2118.8999   1050.9999    -70.1700
175.2500        154.4500      0.3112    406.1200     26.7900     46.0150      0.3077   2125.3999    438.2500    -72.1700
175.3750        154.3750      0.3077    453.9600     25.5450     43.1950      0.3102   2131.7000    333.4500    -73.1600
175.5000        154.4250      0.3052    450.2800     24.8550     37.1200      0.3079   2133.3000    309.5500    -73.0400
175.6250        155.0750      0.3028    406.3600     25.4550     31.5350      0.3082   2147.2000    280.7500    -72.1700
175.7500        155.4000      0.3004    407.8400     24.6300     25.9550      0.3170   2152.6001    200.5000    -70.9200
