~VERSION INFORMATION
 VERS.                 2.0:   CWLS LOG ASCII STANDARD -VERSION 2.0
 WRAP.                  NO:   ONE LINE PER DEPTH STEP
~WELL INFORMATION BLOCK
#MNEM.UNIT           DATA                    DESCRIPTION OF MNEMONIC
#---------    -------------------            -------------------------------
# Generated from Intellog Unique Number	CN_94_101/WELL/3332
WELL.         08-01-095-09W4                 : Well_name    - WELL
LOC .         AA/08-01-095-09W4/0            : Location     - LOCATION
UWI .         AA/08-01-095-09W400            : Uwi          - UNIQUE WELL ID
ENTR.         T                              : Entered      - ENTERED BY
SRVC.         SCHLUMBERGER                   : Scn          - SERVICE COMPANY
DATE.         07/08/92                       : Date         - LOG DATE
STRT.M        15                             : top_depth    - START DEPTH
STOP.M        140                            : bot_depth    - STOP DEPTH
STEP.M        0.25                           : increment    - STEP LENGTH
 NULL. -999.2500:NULL Value
~CURVE INFORMATION BLOCK
#MNEM UNIT       ERCB CURVE CODE    CURVE DESCRIPTION
#-----------   ------------------   ----------------------------------
DEPT.M        00 001 00 00         : DEPTH        - DEPTH
GR  .API      00 310 00 00         : GR           - GAMMA RAY
NPHI.V/V      00 330 00 00         : PHIN         - NEUTRON POROSITY (SANDSTONE)
RHOB.KG/M3    00 350 00 00         : DENS         - BULK DENSITY
ILD .OHMM     00 120 00 00         : RESD         - DEEP RESISTIVITY (DIL)
~PARAMETER INFORMATION
#MNEM.UNIT           DATA             DESCRIPTION OF MNEMONIC
#---------         -----------     ------------------------------
GL  .M        325.7                : gl           - GROUND LEVEL ELEVATION
EREF.M        325.7                : kb           - ELEVATION OF DEPTH REFERENCE
DATM.M        325.7                : datum        - DATUM ELEVATION
TDD .M        147                  : tdd          - TOTAL DEPTH DRILLER
RUN .         ONE                  : Run          - RUN NUMBER
ENG .         JO                   : Engineer     - RECORDING ENGINEER
WIT .         TIM                  : Witness      - WITNESSED BY
MUD .         GEL                  : Mud_type     - MUD TYPE
MATR.         SANDSTONE            : Logunit      - NEUTRON MATRIX
TMAX.C        7                    : BHT          - MAXIMUM RECORDED TEMPERATURE
BHTD.M        147                  : BHTDEP       - MAXIMUM RECORDED TEMPERATURE
RMT .C        6                    : MDTP         - TEMPERATURE OF MUD
MUDD.KG/M     1060                 : MWT          - MUD DENSITY
NEUT.         1                    : NEUTRON      - NEUTRON TYPE
RESI.         0                    : RESIST       - RESISTIVITY TYPE
RM  .OHMM     9.8                  : RM           - RESISTIVITY OF MUD
RMC .OHMM     9.3                  : RMC          - RESISTIVITY OF MUD CAKE
RMF .OHMM     6.8                  : RMF          - RESISTIVITY OF MUD FILTRATE
SUFT.C        4                    : SUFT         - SURFACE TEMPERATURE
~A  DEPTH       GR     PHIN     DENS     RESD
# ...
  102.000   35.699    0.396 2084.410   17.510
  102.250   28.895    0.414 2076.530   17.549
  102.500   23.359    0.443 2058.600   17.572
  102.750   23.382    0.460 2036.680   17.611
  103.000   25.919    0.468 2046.850   17.643
  103.250   29.090    0.439 2077.200   17.675
  103.500   29.771    0.417 2075.350   18.035
  103.750   30.440    0.399 2069.520   18.403
  104.000   31.108    0.392 2063.610   18.787
  104.250   31.155    0.382 2061.790   18.787
  104.500   31.189    0.372 2065.970   21.468
  104.750   30.613    0.384 2072.160   19.231
  105.000   28.802    0.397 2074.330   19.265
  105.250   27.602    0.406 2070.470   19.317
  105.500   28.260    0.400 2066.610   19.343
  105.750   30.174    0.392 2062.710   19.377
  106.000   32.088    0.387 2058.840   19.412
  106.250   32.146    0.385 2071.140   19.447
  106.500   32.192    0.391 2081.350   19.490
  106.750   34.106    0.395 2087.540   19.516
  107.000   35.410    0.412 2085.690   19.551
  107.250   32.965    0.431 2075.760   19.595
  107.500   31.142    0.439 2061.880   19.630
  107.750   31.800    0.435 2060.030   20.031
  108.000   33.714    0.411 2068.230   20.076
  108.250   36.874    0.392 2074.420   20.476
  108.500   41.925    0.379 2074.540   20.503
  108.750   43.217    0.380 2074.780   20.549
  109.000   42.640    0.389 2076.950   20.595
  109.250   40.806    0.382 2073.090   20.641
  109.500   35.248    0.379 2071.190   20.660
  109.750   30.934    0.389 2069.340   20.715
  110.000   35.974    0.411 2073.520   20.743
  110.250   32.284    0.410 2083.810   20.771
  110.500   27.971    0.405 2087.910   20.808
  110.750   32.987    0.400 2104.190   21.242
  111.000   40.518    0.395 2108.450   21.685
  111.250   37.438    0.386 2108.530   22.118
  111.500   31.880    0.388 2104.670   22.580
  111.750   26.321    0.424 2092.760   23.040
  112.000   21.397    0.440 2076.880   23.082
  112.250   18.341    0.439 2064.940   21.870
  112.500   17.118    0.416 2053.030   20.353
  112.750   16.541    0.409 2051.260   18.265
  113.000   17.222    0.397 2055.360   17.644
  113.250   17.879    0.389 2065.650   17.668
  113.500   19.817    0.386 2067.740   17.699
  113.750   19.863    0.384 2069.910   17.747
  114.000   18.052    0.382 2064.080   18.093
  114.250   17.452    0.396 2054.180   18.133
  114.500   18.744    0.404 2050.280   18.182
  114.750   24.406    0.401 2040.390   18.206
  115.000   29.423    0.397 2042.560   18.230
  115.250   33.840    0.387 2068.930   18.255
  115.500   32.029    0.379 2069.090   18.296
  115.750   28.973    0.383 2069.210   18.320
  116.000   27.128    0.389 2063.370   18.026
  116.250   26.551    0.391 2059.470   18.067
  116.500   29.099    0.386 2051.630   17.769
  116.750   31.625    0.388 2043.780   17.800
  117.000   31.048    0.394 2039.840   17.515
  117.250   27.981    0.406 2035.980   17.530
  117.500   25.547    0.418 2038.230   17.241
  117.750   28.073    0.430 2040.320   16.957
  118.000   28.753    0.440 2040.560   16.677
  118.250   26.331    0.444 2042.690   16.417
  118.500   25.732    0.446 2042.840   16.139
  118.750   23.921    0.449 2043.000   15.880
  119.000   22.722    0.450 2041.190   15.908
  119.250   22.768    0.451 2039.300   16.535
  119.500   24.694    0.452 2037.490   17.831
  119.750   27.830    0.447 2035.600   19.228
  120.000   34.727    0.431 2045.810   21.513
  120.250   56.580    0.401 2076.120   23.199
  120.500   69.716    0.370 2114.510   23.251
  120.750   59.786    0.369 2142.820   20.855
  121.000   49.868    0.383 2120.860   19.055
  121.250   38.705    0.384 2084.830   18.063
  121.500   30.033    0.376 2070.920   17.765
  121.750   24.485    0.382 2087.160   17.805
  122.000   20.784    0.392 2101.430   17.821
  122.250   18.350    0.397 2093.510   17.860
  122.500   18.396    0.401 2081.690   17.566
  122.750   18.431    0.393 2079.750   17.605
  123.000   21.602    0.383 2083.930   17.637
  123.250   24.128    0.385 2096.230   17.660
  123.500   23.563    0.391 2092.370   18.029
  123.750   24.231    0.396 2088.470   18.061
  124.000   25.512    0.394 2080.630   18.093
  124.250   28.060    0.384 2082.790   18.126
  124.500   28.729    0.374 2086.930   18.150
  124.750   26.907    0.375 2097.180   18.183
  125.000   25.730    0.375 2103.330   18.231
  125.250   25.142    0.370 2109.560   18.603
  125.500   24.566    0.366 2117.760   18.628
  125.750   24.612    0.367 2121.940   19.017
  126.000   24.035    0.370 2116.070   19.396
  126.250   24.081    0.370 2118.280   19.440
  126.500   23.493    0.365 2122.460   19.475
  126.750   21.671    0.359 2122.620   19.509
  127.000   22.340    0.361 2118.750   19.544
  127.250   23.643    0.372 2118.910   19.579
  127.500   23.689    0.383 2123.050   19.614
  127.750   23.735    0.380 2131.250   19.291
  128.000   24.404    0.384 2135.430   18.973
  128.250   25.695    0.392 2117.500   18.668
  128.500   25.741    0.389 2099.640   18.360
  128.750   25.787    0.382 2091.720   18.049
  129.000   25.845    0.387 2079.850   17.776
  129.250   26.514    0.395 2071.930   17.791
  129.500   26.548    0.385 2070.080   17.823
  129.750   27.229    0.377 2072.250   17.855
  130.000   28.520    0.362 2080.530   17.887
  130.250   29.201    0.359 2084.670   17.600
  130.500   29.235    0.363 2092.870   17.631
  130.750   28.681    0.366 2089.010   17.671
  131.000   28.705    0.370 2079.070   17.687
  131.250   28.128    0.365 2079.270   18.064
  131.500   27.551    0.356 2085.460   18.104
  131.750   28.866    0.360 2091.650   18.465
  132.000   30.146    0.369 2093.820   18.842
  132.250   30.803    0.384 2098.040   18.876
  132.500   32.718    0.388 2102.220   18.918
  132.750   34.032    0.382 2102.380   18.935
  133.000   32.844    0.377 2100.480   18.969
  133.250   31.622    0.377 2090.630   19.011
  133.500   29.800    0.378 2080.740   18.706
  133.750   27.355    0.374 2072.890   18.748
  134.000   25.533    0.382 2072.970   18.773
  134.250   24.956    0.378 2079.160   18.798
  134.500   28.127    0.374 2089.370   18.849
  134.750   31.287    0.381 2101.630   18.874
  135.000   37.549    0.376 2107.820   18.563
  135.250   55.044    0.366 2158.280   17.924
  135.500   92.466    0.469 2176.490   16.369
  135.750  129.888    0.486 2241.020   11.346
  136.000  151.742    0.484 2313.590    8.623
  136.250  152.411    0.473 2319.780    8.799
  136.500  149.966    0.456 2344.060    9.488
  136.750  135.689    0.433 2390.500   11.014
  137.000  124.526    0.414 2442.920   13.517
  137.250  128.942    0.393 2489.360   15.990
  137.500  127.109    0.364 2519.670   16.619
  137.750  118.436    0.346 2560.080   16.047
  138.000  106.650    0.336 2598.430   13.614
  138.250  121.020    0.361 2479.940   11.555
  138.500  136.035    0.399 2433.860   12.010
  138.750  132.967    0.429 2393.820   12.715
  139.000  132.390    0.429 2373.830   13.468
  139.250  129.934    0.396 2388.100   14.258
  139.500  131.848    0.385 2442.540   14.819
  139.750  133.151    0.387 2474.940   15.122
  140.000  132.575    0.395 2461.030   15.156
