~VERSION INFORMATION
 VERS.                 2.0:   CWLS LOG ASCII STANDARD -VERSION 2.0
 WRAP.                  NO:   ONE LINE PER DEPTH STEP
~WELL INFORMATION BLOCK
#MNEM.UNIT           DATA                    DESCRIPTION OF MNEMONIC
#---------    -------------------            -------------------------------
# Generated from Intellog Unique Number	CN_94_101/WELL/4991
WELL.         08-15-099-12W4                 : Well_name    - WELL
LOC .         AA/08-15-099-12W4/0            : Location     - LOCATION
UWI .         AA/08-15-099-12W400            : Uwi          - UNIQUE WELL ID
ENTR.         TOP                            : Entered      - ENTERED BY
SRVC.         SCHLUMBERGER                   : Scn          - SERVICE COMPANY
DATE.         08/11/92                       : Date         - LOG DATE
STRT.M        121.92                         : top_depth    - START DEPTH
STOP.M        338.42                         : bot_depth    - STOP DEPTH
STEP.M        0.25                           : increment    - STEP LENGTH
 NULL. -999.2500:NULL Value
~CURVE INFORMATION BLOCK
#MNEM UNIT       ERCB CURVE CODE    CURVE DESCRIPTION
#-----------   ------------------   ----------------------------------
DEPT.M        00 001 00 00         : DEPTH        - DEPTH
GR  .API      00 310 00 00         : GR           - GAMMA RAY
ILD .OHMM     00 120 00 00         : RESD         - DEEP RESISTIVITY (DIL)
NPHI.V/V      00 330 00 00         : PHIN         - NEUTRON POROSITY (SANDSTONE)
~PARAMETER INFORMATION
#MNEM.UNIT           DATA             DESCRIPTION OF MNEMONIC
#---------         -----------     ------------------------------
GL  .M        566.014              : gl           - GROUND LEVEL ELEVATION
EREF.M        569.062              : kb           - ELEVATION OF DEPTH REFERENCE
DATM.M        569.062              : datum        - DATUM ELEVATION
TDD .M        342.595              : tdd          - TOTAL DEPTH DRILLER
RUN .         ONE                  : Run          - RUN NUMBER
ENG .         JO                   : Engineer     - RECORDING ENGINEER
WIT .         TIM                  : Witness      - WITNESSED BY
MUD .         GEL                  : Mud_type     - MUD TYPE
MATR.         SANDSTONE            : Logunit      - NEUTRON MATRIX
TMAX.C        23.8889              : BHT          - MAXIMUM RECORDED TEMPERATURE
BHTD.M        342.595              : BHTDEP       - MAXIMUM RECORDED TEMPERATURE
RMT .C        10                   : MDTP         - TEMPERATURE OF MUD
MUDD.KG/M     9200                 : MWT          - MUD DENSITY
NEUT.         1                    : NEUTRON      - NEUTRON TYPE
RESI.         0                    : RESIST       - RESISTIVITY TYPE
RM  .OHMM     6.8                  : RM           - RESISTIVITY OF MUD
RMC .OHMM     6.8                  : RMC          - RESISTIVITY OF MUD CAKE
RMF .OHMM     6.8                  : RMF          - RESISTIVITY OF MUD FILTRATE
SUFT.C        4                    : SUFT         - SURFACE TEMPERATURE
~A  DEPTH       GR     RESD     PHIN
# ...
  230.420   92.405    2.797    0.481
  230.670   89.484    2.799    0.486
  230.920   84.890    2.802    0.493
  231.170   82.398    2.854    0.479
  231.420   84.511    2.906    0.408
  231.670   89.570    3.009    0.390
  231.920   90.010    3.227    0.408
  232.170   91.294    3.343    0.401
  232.420   90.470    3.289    0.405
  232.670   88.812    3.180    0.469
  232.920   87.999    2.972    0.504
  233.170   89.283    2.685    0.514
  233.420   90.137    2.596    0.504
  233.670   90.996    2.511    0.503
  233.920   92.704    2.429    0.511
  234.170   93.134    2.431    0.509
  234.420   93.154    2.476    0.500
  234.670   93.180    2.521    0.506
  234.920   93.195    2.567    0.516
  235.170   93.220    2.569    0.536
  235.420   91.563    2.571    0.543
  235.670   89.905    2.575    0.555
  235.920   89.511    2.490    0.561
  236.170   89.531    2.368    0.542
  236.420   88.713    2.290    0.523
  236.670   86.631    2.332    0.485
  236.920   85.812    2.374    0.455
  237.170   87.510    2.460    0.431
  237.420   89.219    2.462    0.430
  237.670   89.239    2.422    0.465
  237.920   90.098    2.225    0.508
  238.170   90.538    1.942    0.568
  238.420   90.553    1.723    0.555
  238.670   89.735    1.478    0.540
  238.920   88.916    1.290    0.522
  239.170   90.624    1.248    0.515
  239.420   92.737    1.249    0.519
  239.670   95.274    1.316    0.532
  239.920   99.494    1.363    0.567
  240.170  102.036    1.412    0.581
  240.420  102.057    1.438    0.586
  240.670  101.233    1.415    0.586
  240.920   99.586    1.345    0.585
  241.170   98.757    1.215    0.582
  241.420   96.680    1.135    0.577
  241.670   96.700    1.156    0.545
  241.920  100.915    1.261    0.490
  242.170  105.974    1.375    0.475
  242.420  109.770    1.606    0.449
  242.670  111.048    1.844    0.421
  242.920   90.934    2.192    0.395
  243.170  101.022    2.517    0.349
  243.420  102.720    2.793    0.318
  243.670   98.546    3.047    0.420
  243.920   95.630    3.156    0.393
  244.170   95.241    3.160    0.325
  244.420   96.100    3.163    0.377
  244.670   96.959    3.167    0.397
  244.920   97.823    3.169    0.376
  245.170   98.253    3.173    0.497
  245.420   97.854    3.176    0.523
  245.670   96.621    3.233    0.537
  245.920   94.958    3.292    0.535
  246.170   96.667    3.411    0.521
  246.420   97.521    3.474    0.504
  246.670   96.702    3.476    0.484
  246.920   95.884    3.540    0.473
  247.170   94.236    3.543    0.454
  247.420   92.988    3.548    0.438
  247.670   92.169    3.550    0.419
  247.920   91.775    3.494    0.389
  248.170   92.215    3.497    0.367
  248.420   93.913    3.500    0.377
  248.670   96.036    3.444    0.416
  248.920   97.310    3.447    0.457
  249.170   99.013    3.393    0.476
  249.420   99.033    3.338    0.485
  249.670   98.634    3.284    0.496
  249.920   98.240    3.286    0.509
  250.170   98.255    3.234    0.521
  250.420   97.027    3.237    0.518
  250.670   96.199    3.240    0.510
  250.920   94.960    3.244    0.492
  251.170   93.303    3.247    0.436
  251.420   91.656    3.306    0.407
  251.670   91.246    3.309    0.401
  251.920   89.599    3.428    0.392
  252.170   88.775    3.552    0.397
  252.420   86.698    3.808    0.397
  252.670   84.212    4.153    0.394
  252.920   82.544    4.452    0.388
  253.170   79.633    5.027    0.379
  253.420   76.712    5.482    0.362
  253.670   76.313    5.877    0.286
  253.920   80.528    6.301    0.249
  254.170   88.943    5.992    0.217
  254.420   93.577    5.503    0.186
  254.670   97.373    4.885    0.284
  254.920   97.393    4.049    0.500
  255.170   97.424    3.719    0.511
  255.420   97.024    3.189    0.517
  255.670   96.625    2.832    0.522
  255.920   96.640    2.513    0.536
  256.170   94.154    2.389    0.549
  256.420   93.745    2.233    0.558
  256.670   95.023    2.159    0.558
  256.920  101.341    2.054    0.550
  257.170  104.717    1.986    0.545
  257.420  103.065    1.920    0.553
  257.670  102.665    1.765    0.564
  257.920  103.105    1.706    0.574
  258.170  103.545    1.489    0.581
  258.420  103.560    1.299    0.581
  258.670  101.493    1.278    0.575
  258.920   98.997    1.371    0.569
  259.170   96.915    1.469    0.558
  259.420   93.999    1.631    0.537
  259.670   92.761    1.718    0.524
  259.920   96.556    1.907    0.507
  260.170  100.771    2.009    0.511
  260.420  102.050    2.308    0.518
  260.670  103.339    2.474    0.512
  260.920  103.779    2.698    0.497
  261.170  103.379    2.843    0.483
  261.420  100.039    3.049    0.471
  261.670   92.928    3.157    0.461
  261.920   90.432    3.272    0.448
  262.170   92.974    3.333    0.323
  262.420   92.155    3.334    0.363
  262.670   90.912    3.337    0.414
  262.920   89.255    3.341    0.437
  263.170   86.763    3.177    0.457
  263.420   84.267    3.020    0.446
  263.670   83.034    2.872    0.354
  263.920   90.180    2.824    0.250
  264.170   99.848    2.732    0.243
  264.420  102.395    2.599    0.276
  264.670  102.830    2.512    0.324
  264.920  104.109    2.389    0.498
  265.170  105.398    2.310    0.506
  265.420  106.257    2.235    0.505
  265.670  106.686    2.162    0.497
  265.920  107.970    2.091    0.487
  266.170  108.410    2.057    0.473
  266.420  106.753    1.989    0.450
  266.670  104.256    1.924    0.355
  266.920  101.765    1.893    0.306
  267.170   99.683    1.831    0.359
  267.420   97.186    1.833    0.517
  267.670  100.562    1.834    0.522
  267.920  106.041    1.837    0.533
  268.170  105.232    1.807    0.551
  268.420  103.984    1.778    0.562
  268.670  102.331    1.749    0.563
  268.920  101.093    1.721    0.561
  269.170   98.592    1.609    0.552
  269.420   97.773    1.582    0.544
  269.670   98.213    1.557    0.527
  269.920  100.341    1.586    0.513
  270.170  102.039    1.700    0.505
  270.420  103.318    1.792    0.496
  270.670  104.177    1.989    0.482
  270.920  105.036    2.060    0.474
  271.170  104.637    2.171    0.474
  271.420  103.404    2.248    0.468
  271.670  103.005    2.370    0.452
  271.920  101.347    2.456    0.416
  272.170   98.851    2.457    0.423
  272.420   97.193    2.336    0.489
  272.670   95.531    2.038    0.511
  272.920   94.293    1.689    0.582
  273.170   91.801    1.449    0.601
  273.420   90.138    1.264    0.594
  273.670   89.739    1.066    0.582
  273.920   90.184    0.963    0.584
  274.170   89.785    0.915    0.594
  274.420   89.386    0.916    0.593
  274.670   84.373    0.982    0.588
  274.920   78.520    1.089    0.592
  275.170   78.121    1.188    0.573
  275.420   74.786    1.364    0.489
  275.670   77.742    1.567    0.419
  275.920   81.538    1.862    0.368
  276.170   83.241    2.102    0.483
  276.420   79.906    2.178    0.479
  276.670   76.151    2.108    0.453
  276.920   74.913    2.073    0.447
  277.170   79.547    2.004    0.476
  277.420   85.440    1.874    0.488
  277.670   97.211    1.811    0.491
  277.920   95.558    1.636    0.498
  278.170   93.476    1.555    0.530
  278.420   90.146    1.478    0.581
  278.670   90.166    1.382    0.588
  278.920   92.278    1.359    0.590
  279.170   96.493    1.338    0.583
  279.420   98.202    1.362    0.560
  279.670   97.803    1.388    0.556
  279.920   97.823    1.437    0.565
  280.170   97.843    1.489    0.584
  280.420   97.444    1.516    0.600
  280.670   98.298    1.466    0.599
  280.920   96.221    1.443    0.484
  281.170   89.530    1.601    0.440
  281.420   46.760    1.902    0.383
  281.670   45.951    2.421    0.346
  281.920   45.542    3.030    0.335
  282.170   44.733    3.924    0.328
  282.420   44.759    5.169    0.321
  282.670   44.769    6.926    0.305
  282.920   45.214    9.284    0.275
  283.170   45.654   10.126    0.220
  283.420   46.513    7.970    0.185
  283.670   46.538    5.959    0.179
  283.920   46.144    4.691    0.215
  284.170   45.735    4.023    0.366
  284.420   44.916    3.959    0.357
