~Version : LASO    vs 4.00
VERS.                2.00:   CWLS Log ASCII Standard -VERSION 2.0
WRAP.                  NO:
~Well Information Block
#MNEM.UNIT       Data                        Description of Mnemonic
#----.----      -------------------------- : -----------------------------
STRT.M            15.0000:
STOP.M           186.3750:
STEP.M             0.1250:
NULL.           -999.2500:
COMP.  MOBIL OIL OF CANADA                :COMPANY
WELL.  MOBIL CLARKE OV 2-19               :WELL
FLD.                                      :FIELD
LOC.   02-19-090-07W4                     :LOCATION
CTRY.  CANADA                             :COUNTRY
PROV.  ALBERTA                            :PROVINCE
SRVC.  DRESSER ATLAS                      :SERVICE COMPANY
DATE.  24-FEB-81                          :LOG DATE
UWI.   AA/02-19-090-07W400                :UNIQUE WELL ID
~Parameter Information Block
#MNEM.UNIT       Data                        Description of Mnemonic
#----.----      -------------------------- : -----------------------------
RUN .                   1                 : Run Number
GL  .M           444.6000                 : Ground Level Elevation
DREF.                  KB                 : Depth Reference
EREF.M           444.6000                 : Elevation of Depth Reference
TDL .M           186.3000                 : Total Depth Logger
TDD .M           185.0000                 : Total Depth Driller
CSGL.M            14.7000                 : Casing Bottom Logger
CSGD.M            14.7000                 : Casing Bottom Driller
CSGS.MM          219.0000                 : Casing Size
CSGW.KG/M          0.0000                 : Casing Weight
BHT .DEGC         20.0000                 : Bottom Hole Temperature
BS  .MM          159.0000                 : Bit Size
DFD .           9999.0000                 : Mud Weight (Density)
DFV .             90.0000                 : Mud Viscosity
RM  .OHMM          2.5000                 : Mud Resistivity
RMT .DEGC         20.0000                 : Mud Resistivity Temperature
~Curve Information Block
#MNEM.UNIT        API CODE    Curve Description
#---------    ------------    -------------------------------------------
DEPT.M                    :   DEPTH
CALI.MM       42 280  1  1:   3 DENSITY CALIPER
DPHI.V/V                  :   DPHI
DT  .US/M     60 520 32  1:   2 SONIC INTERVAL TRANSIT TIME (COMPENSATED)
GR  .GAPI     42 310  1  1:   4 GAMMA RAY
ILD .OHMM      5 120 45  1:   7 DEEP INDUCTION
NPHI.V/V      42 890  3  1:   5 NEUTRON POROSITY (SANDSTONE)
RHOB.K/M3     42 350  1  1:   6 BULK DENSITY
SN  .OHMM      5  40 16  1:   8 SHORT NORMAL
SP  .MV        5  10  1  1:   9 SPONTANEOUS POTENTIAL
~A  Depth           CALI        DPHI          DT          GR         ILD        NPHI        RHOB          SN          SP
# ...
40.1250         240.7000      0.3398    509.6800     48.2250     40.0500      0.3278   1795.8000     51.3500    -55.1400
40.2500         241.9000      0.3368    499.8000     47.8650     39.5350      0.3263   1853.1001     52.3000    -55.1700
40.3750         231.3500      0.3341    484.1600     47.3100     38.3050      0.3191   1951.9000     54.7000    -55.2150
40.5000         229.5500      0.3294    480.4800     46.8900     37.0800      0.3004   2093.3000     54.3000    -55.2450
40.6250         232.2500      0.3196    482.0000     47.4600     35.9200      0.2963   2097.6001     53.7500    -55.2750
40.7500         230.1500      0.3113    487.5600     47.9250     34.9500      0.2944   2107.3999     51.2500    -55.9050
40.8750         223.5250      0.2993    489.2000     48.3900     33.6600      0.2959   2129.8999     47.0850    -55.3350
41.0000         224.4250      0.2857    487.6800     50.6850     31.9800      0.3068   2148.8000     41.1700    -55.9350
41.1250         230.7500      0.2644    483.4800     53.2200     30.3000      0.3101   2198.2000     39.5850    -54.7500
41.2500         233.7750      0.2475    480.2000     55.8900     29.0750      0.3064   2236.6001     36.1100    -54.1650
41.3750         233.7750      0.2373    474.9600     58.5600     28.3650      0.3071   2259.8000     34.0350    -52.9800
41.5000         233.1500      0.2276    470.4400     61.2300     27.6550      0.3056   2279.8999     33.9750    -51.8850
41.6250         232.5500      0.2218    475.6400     62.0850     26.7500      0.3086   2295.8000     33.1850    -51.3150
41.7500         232.5500      0.2243    482.1600     62.9550     25.9750      0.3101   2292.7000     31.2300    -51.3450
41.8750         233.7750      0.2311    478.9200     64.0050     25.3300      0.3143   2276.8999     29.5850    -51.3750
42.0000         234.3750      0.2376    475.8400     62.9250     24.6200      0.3206   2264.1001     29.5250    -51.4050
42.1250         221.4250      0.2463    472.2800     61.5900     24.1050      0.3266   2248.8000     30.1350    -52.0500
42.2500         216.6000      0.2613    471.2400     60.2550     23.5850      0.3383   2224.3999     32.3900    -51.7500
42.3750         220.2250      0.2712    469.4400     58.4250     23.2650      0.3406   2219.6001     34.3400    -51.8100
42.5000         223.2250      0.2792    466.2400     58.9050     23.2000      0.3424   2206.2000     33.3050    -51.6750
42.6250         224.4250      0.2857    461.9200     59.6400     23.2000      0.3424   2206.8000     29.7700    -51.5700
42.7500         224.4250      0.2970    456.6800     60.3750     23.1350      0.3424   2206.2000     27.8200    -51.6000
42.8750         221.7250      0.3127    449.0000     61.2450     22.7450      0.3446   2171.3999     28.7300    -51.4200
43.0000         217.8000      0.2976    444.0800     62.5500     22.6200      0.3446   2145.8000     28.7300    -51.0600
43.1250         219.6250      0.2735    452.0400     61.6650     22.6200      0.3473   2117.1001     28.8550    -50.6250
43.2500         220.5250      0.2616    451.7200     60.3600     22.4250      0.3511   2149.3999     27.6350    -49.9800
43.3750         222.0250      0.2581    451.4400     59.4000     22.4900      0.3511   2189.1001     26.6000    -49.9650
43.5000         226.2250      0.2635    473.9200     62.3100     22.4900      0.3552   2236.0000     27.0850    -49.9950
43.6250         227.7500      0.2752    498.3200     61.1250     22.4250      0.3638   2229.8999     28.0600    -50.0250
43.7500         228.9500      0.2864    627.2400     59.9400     22.3600      0.3638   2221.3999     28.2450    -50.0550
43.8750         228.3500      0.2951    489.4000     59.6400     22.4250      0.3649   2204.8999     28.0000    -50.0850
44.0000         226.8500      0.2965    468.8400     61.5600     22.2300      0.3563   2183.6001     28.7300    -50.1150
44.1250         226.2250      0.2686    459.6800     62.7900     22.1650      0.3552   2162.2000     28.0600    -50.1450
44.2500         225.0250      0.2545    461.3200     61.5000     22.2300      0.3541   2155.5000     27.0250    -50.1900
44.3750         223.5250      0.2459    468.2400     60.6000     22.1650      0.3578   2188.5000     26.9050    -50.6250
44.5000         233.4750      0.2338    485.4400     59.9250     22.1000      0.3638   2250.7000     26.0500    -50.8500
44.6250         234.3750      0.2350    494.6400     59.3250     21.9100      0.3717   2284.8000     25.3800    -51.1650
44.7500         234.3750      0.2507    499.6800     58.7400     21.9100      0.3769   2283.6001     24.7100    -51.5100
44.8750         232.2500      0.3137    502.2000     58.2150     21.9700      0.3792   2276.3000     24.9500    -50.9400
45.0000         226.2250      0.3500    499.1200     57.6900     21.9100      0.3837   2259.8000     25.9900    -50.6100
45.1250         223.5250      0.3611    475.4800     57.2100     21.7800      0.3897   2235.3999     26.8400    -50.4150
45.2500         224.7250      0.3860    451.8400     60.1350     21.6500      0.3931   2189.1001     26.1100    -50.4450
45.3750         227.4500      0.4217    443.2800     62.4900     21.5200      0.3946   2147.6001     25.7450    -50.4750
45.5000         231.3500      0.4315    443.4000     65.1000     21.4550      0.4073   2073.8000     25.9900    -49.9650
45.6250         232.2500      0.3988    442.8800     65.0400     21.3900      0.4137   1975.7000     26.4150    -49.9350
45.7500         234.0750      0.3411    444.0800     64.9350     21.1950      0.4118   1889.1001     26.3550    -49.9650
45.8750         234.0750      0.2893    446.2800     64.8300     21.1350      0.4103   1907.4000     26.6000    -49.3950
46.0000         223.8250      0.2650    457.6000     64.7100     21.0700      0.3957   2024.4000     26.7200    -49.4250
46.1250         222.9250      0.2568    472.0800     64.4850     21.1950      0.3856   2199.3999     26.7200    -50.0100
46.2500         223.2250      0.2627    477.6400     64.2600     21.1950      0.3758   2245.8000     25.7450    -50.0100
46.3750         225.0250      0.2645    474.6000     64.0050     21.3250      0.3706   2212.2000     24.7100    -49.5300
46.5000         230.4500      0.2626    463.6400     64.2600     21.5200      0.3631   2197.6001     25.2550    -49.5600
46.6250         234.9750      0.2669    455.6400     64.5600     21.7150      0.3589   2223.8000     25.0150    -49.5900
46.7500         236.7750      0.3002    449.1600     64.9800     21.8450      0.3623   2216.5000     24.7100    -49.4250
46.8750         232.5500      0.3228    453.6400     64.9350     21.9700      0.3649   2176.3000     26.3550    -49.6500
47.0000         229.2500      0.3565    455.4800     64.8600     22.1650      0.3676   2131.2000     28.5500    -49.6800
47.1250         230.7500      0.3919    453.8800     64.7850     22.5550      0.3732   2121.3999     30.0750    -49.7250
47.2500         231.6500      0.4024    450.1200     64.5900     22.8750      0.3773   2100.1001     29.1600    -49.7550
47.3750         231.0500      0.4156    448.5600     64.2000     23.2000      0.3773   2052.5000     28.9150    -50.1750
47.5000         235.2750      0.4272    448.5200     64.0050     23.4550      0.3646   2004.3000     29.1000    -50.4150
47.6250         235.2750      0.4392    448.6000     64.2300     23.8450      0.3586   1965.9000     29.2800    -50.9850
47.7500         234.6750      0.4397    448.5600     64.3800     24.4250      0.3529   1907.4000     29.5250    -51.0900
47.8750         234.0750      0.4035    444.0000     64.5000     25.0050      0.3473   1973.8000     29.9500    -51.6900
48.0000         234.3750      0.3817    465.5600     64.2300     25.5250      0.3323   2188.5000     30.3200    -51.7500
48.1250         234.3750      0.2954    466.0800     63.9750     26.2350      0.3304   2277.5000     30.1950    -52.3800
48.2500         234.6750      0.2594    460.9200     63.5100     27.3950      0.3376   2301.3000     31.2300    -52.4550
48.3750         233.7750      0.2397    452.7200     61.9050     28.6850      0.3514   2318.3000     34.2800    -53.1150
