~VERSION INFORMATION
 VERS.                 2.0:   CWLS LOG ASCII STANDARD -VERSION 2.0
 WRAP.                  NO:   ONE LINE PER DEPTH STEP
~WELL INFORMATION BLOCK
#MNEM.UNIT           DATA                    DESCRIPTION OF MNEMONIC
#---------    -------------------            -------------------------------
# Generated from Intellog Unique Number	CN_94_101/WELL/3298
WELL.         06-01-095-08W4                 : Well_name    - WELL
LOC .         AA/06-01-095-08W4/0            : Location     - LOCATION
UWI .         AA/06-01-095-08W400            : Uwi          - UNIQUE WELL ID
ENTR.         JOETTE                         : Entered      - ENTERED BY
SRVC.         SCHLUMBERGER                   : Scn          - SERVICE COMPANY
DATE.         07/22/92                       : Date         - LOG DATE
STRT.M        20                             : top_depth    - START DEPTH
STOP.M        170                            : bot_depth    - STOP DEPTH
STEP.M        0.25                           : increment    - STEP LENGTH
 NULL. -999.2500:NULL Value
~CURVE INFORMATION BLOCK
#MNEM UNIT       ERCB CURVE CODE    CURVE DESCRIPTION
#-----------   ------------------   ----------------------------------
DEPT.M        00 001 00 00         : DEPTH        - DEPTH
GR  .API      00 310 00 00         : GR           - GAMMA RAY
ILD .OHMM     00 120 00 00         : RESD         - DEEP RESISTIVITY (DIL)
NPHI.V/V      00 330 00 00         : PHIN         - NEUTRON POROSITY (SANDSTONE)
RHOB.KG/M3    00 350 00 00         : DENS         - BULK DENSITY
~PARAMETER INFORMATION
#MNEM.UNIT           DATA             DESCRIPTION OF MNEMONIC
#---------         -----------     ------------------------------
GL  .M        401.7                : gl           - GROUND LEVEL ELEVATION
EREF.M        401.7                : kb           - ELEVATION OF DEPTH REFERENCE
DATM.M        401.7                : datum        - DATUM ELEVATION
TDD .M        174.5                : tdd          - TOTAL DEPTH DRILLER
RUN .         ONE                  : Run          - RUN NUMBER
ENG .         JO                   : Engineer     - RECORDING ENGINEER
WIT .         TIM                  : Witness      - WITNESSED BY
MUD .         GEL                  : Mud_type     - MUD TYPE
MATR.         SANDSTONE            : Logunit      - NEUTRON MATRIX
TMAX.C        8                    : BHT          - MAXIMUM RECORDED TEMPERATURE
BHTD.M        174.5                : BHTDEP       - MAXIMUM RECORDED TEMPERATURE
RMT .C        8                    : MDTP         - TEMPERATURE OF MUD
MUDD.KG/M     1090                 : MWT          - MUD DENSITY
NEUT.         1                    : NEUTRON      - NEUTRON TYPE
RESI.         0                    : RESIST       - RESISTIVITY TYPE
RM  .OHMM     7.5                  : RM           - RESISTIVITY OF MUD
RMC .OHMM     7.5                  : RMC          - RESISTIVITY OF MUD CAKE
RMF .OHMM     7.5                  : RMF          - RESISTIVITY OF MUD FILTRATE
SUFT.C        4                    : SUFT         - SURFACE TEMPERATURE
~A  DEPTH       GR     RESD     PHIN     DENS
   20.000   95.725    2.827    0.571 2026.500
   20.250   88.029    3.747    0.580 2069.390
   20.500   84.537    3.668    0.524 2102.180
   20.750   94.805    3.246    0.489 2161.220
   21.000   89.498    4.087    0.472 2202.090
   21.250   82.422    4.657    0.500 2127.640
   21.500   95.676    5.719    0.546 2081.480
   21.750  107.736    6.677    0.618 2053.480
   22.000  109.022    3.751    0.631 2031.650
   22.250  115.086    1.339    0.677 2027.890
   22.500  109.205    1.185    0.708 2056.640
   22.750  102.106    1.457    0.749 2063.080
   23.000  101.600    1.499    0.553 2063.550
   23.250  113.063    1.431    0.514 2090.180
   23.500  125.123    1.631    0.484 2119.030
   23.750  108.468    1.853    0.464 2125.370
   24.000  107.962    1.911    0.532 2162.200
   24.250  105.664    2.121    0.471 2223.260
   24.500  103.366    2.129    0.460 2160.930
   24.750  116.023    2.135    0.490 2149.100
   25.000  109.522    2.493    0.482 2175.920
   25.250  117.998    4.042    0.500 2162.070
   25.500  111.520    4.267    0.504 2144.270
   25.750  115.792    3.333    0.501 2136.570
   26.000  107.499    3.102    0.543 2126.760
   26.250  123.142    2.810    0.565 2169.740
   26.500  110.093    2.427    0.513 2151.840
   26.750  110.185    2.202    0.482 2148.180
   27.000  115.652    2.382    0.467 2148.560
   27.250  106.187    2.855    0.460 2161.060
   27.500   97.296    2.938    0.541 2193.850
   27.750   95.596    2.669    0.572 2180.090
   28.000  104.072    2.548    0.573 2164.310
   28.250  106.552    2.491    0.546 2158.630
   28.500  103.037    2.503    0.528 2144.770
   28.750   96.558    2.512    0.511 2110.720
   29.000   97.270    2.584    0.504 2101.000
   29.250   85.393    2.727    0.557 2087.250
   29.500   90.883    2.952    0.497 2075.410
   29.750   92.743    3.117    0.496 2106.180
   30.000   88.654    3.548    0.462 2088.480
   30.250   95.315    5.077    0.493 2096.930
   30.500   81.669    4.603    0.479 2115.390
   30.750   78.751    5.657    0.463 2127.980
   31.000   81.255    5.818    0.478 2116.240
   31.250   84.332    5.700    0.473 2120.570
   31.500   94.578    3.917    0.503 2145.280
   31.750   94.669    3.380    0.482 2149.880
   32.000  113.919    4.051    0.495 2150.070
   32.250  109.232    3.767    0.499 2160.550
   32.500   85.984    4.078    0.406 2173.240
   32.750   92.071    3.892    0.373 2181.600
   33.000   79.597    4.664    0.395 2206.210
   33.250   65.928    3.729    0.267 2241.020
   33.500   58.829    5.605    0.274 2318.330
   33.750   46.378    8.210    0.306 2314.670
   34.000   51.845   57.486    0.354 2248.310
   34.250   92.022   13.702    0.467 2195.990
   34.500   92.114    5.276    0.477 2153.860
   34.750   83.223    4.669    0.508 2134.040
   35.000   93.491    4.132    0.518 2110.090
   35.250   90.596    3.474    0.531 2100.370
   35.500   92.480    3.236    0.570 2121.040
   35.750   90.802    2.934    0.588 2093.050
   36.000   92.088    2.407    0.512 2115.740
   36.250   94.546    2.741    0.515 2104.000
   36.500   89.262    3.543    0.518 2084.080
   36.750   89.353    3.835    0.525 2086.480
   37.000   92.431    3.948    0.537 2117.350
   37.250   86.549    4.273    0.500 2119.740
   37.500   99.804    3.419    0.466 2109.930
   37.750   94.520    2.877    0.544 2096.080
   38.000   78.462    3.040    0.516 2112.800
   38.250   70.766    3.549    0.542 2125.300
   38.500   84.020    4.579    0.532 2125.680
   38.750   91.279    4.714    0.531 2127.980
   39.000  116.502    3.086    0.569 2138.460
   39.250  122.566    3.095    0.581 2130.940
   39.500  114.296    2.296    0.554 2125.080
   39.750  104.831    1.702    0.595 2107.280
   40.000  104.325    1.798    0.630 2105.640
   40.250  102.601    1.898    0.601 2108.030
   40.500  112.272    2.004    0.568 2114.570
   40.750  105.196    2.115    0.547 2118.980
   41.000   96.903    2.476    0.564 2113.300
   41.250   98.212    2.359    0.576 2103.490
   41.500   99.475    2.309    0.493 2095.790
   41.750  106.756    2.318    0.479 2094.150
   42.000  114.015    2.210    0.526 2092.510
   42.250  115.301    1.768    0.572 2107.020
   42.500  118.402    1.311    0.664 2121.540
   42.750  129.865    0.972    0.607 2099.700
   43.000  127.544    0.759    0.643 2081.810
   43.250  118.676    0.802    0.610 2080.170
   43.500  120.559    0.912    0.614 2116.990
   43.750  121.248    1.012    0.656 2149.780
   44.000  112.380    0.897    0.630 2164.300
   44.250  111.875    1.020    0.611 2138.520
   44.500  106.568    1.458    0.533 2136.870
   44.750  101.283    1.932    0.495 2143.410
   45.000   91.198    2.198    0.504 2141.670
   45.250  105.647    2.573    0.527 2150.130
   45.500  103.372    2.644    0.523 2158.580
   45.750  105.830    2.938    0.501 2150.790
   46.000  102.935    2.533    0.508 2155.210
   46.250  114.995    2.242    0.465 2177.900
   46.500  112.697    2.752    0.498 2180.390
   46.750  103.807    3.298    0.460 2229.330
   47.000   88.966    3.308    0.389 2249.910
   47.250  103.415    3.405    0.376 2310.970
   47.500  104.701    4.291    0.474 2311.350
   47.750   97.005   10.960    0.463 2192.290
   48.000   98.291    8.124    0.482 2168.520
   48.250  101.989    3.924    0.498 2168.810
   48.500  106.859    3.938    0.506 2153.120
   48.750  105.755    3.574    0.532 2137.160
   49.000  102.860    2.717    0.549 2113.300
   49.250   98.771    2.871    0.564 2131.850
   49.500   98.265    2.603    0.489 2178.780
   49.750  100.746    2.682    0.460 2181.270
   50.000  105.018    2.692    0.525 2167.420
   50.250   93.738    2.154    0.508 2171.840
   50.500   88.454    2.162    0.500 2170.190
   50.750  102.306    2.340    0.529 2170.670
   51.000  101.203    2.351    0.502 2187.300
   51.250  112.068    2.130    0.475 2177.480
   51.500  122.313    1.794    0.456 2161.610
   51.750  111.654    1.627    0.473 2178.150
   52.000  107.564    1.441    0.481 2208.910
   52.250  108.276    1.767    0.467 2207.370
   52.500  113.122    2.287    0.494 2195.530
   52.750  122.196    1.738    0.574 2167.540
   53.000  113.903    1.463    0.590 2141.670
   53.250  112.799    1.542    0.475 2136.080
   53.500  111.122    1.548    0.526 2126.170
   53.750  106.435    1.370    0.557 2108.470
   54.000  108.295    1.245    0.600 2084.420
   54.250  114.957    1.130    0.600 2088.930
   54.500  116.266    1.077    0.653 2115.570
   54.750  110.959    1.290    0.535 2166.720
   55.000  107.467    1.668    0.544 2156.810
   55.250  117.735    1.675    0.558 2132.950
   55.500  120.812    1.241    0.576 2198.060
   55.750  113.736    1.070    0.619 2269.310
   56.000  105.443    1.735    0.527 2247.380
   56.250  114.517    2.544    0.562 2166.880
   56.500  112.816    2.249    0.578 2145.040
   56.750  113.505    1.265    0.510 2159.460
   57.000  123.153    1.037    0.493 2174.070
   57.250  119.063    1.445    0.502 2156.180
   57.500  104.200    1.489    0.534 2154.540
   57.750  108.495    1.252    0.456 2179.340
   58.000  119.338    1.195    0.472 2187.700
   58.250  117.040    1.199    0.497 2192.120
   58.500  130.892    1.510    0.482 2190.570
   58.750  127.399    2.054    0.465 2182.870
   59.000  111.341    1.959    0.481 2167.000
   59.250  114.419    1.870    0.473 2169.400
   59.500  117.520    2.298    0.462 2163.720
   59.750  102.036    2.751    0.462 2103.320
   60.000   97.947    2.762    0.498 2045.130
   60.250  109.432    2.633    0.534 2059.550
   60.500  104.125    2.394    0.445 2104.450
   60.750   99.415    2.341    0.452 2139.260
   61.000   90.548    2.803    0.369 2344.100
   61.250  108.006    3.620    0.381 2253.400
   61.500  111.658    6.492    0.487 2102.020
   61.750  109.383    4.466    0.512 2078.070
   62.000  101.687    2.706    0.591 2037.960
   62.250   91.005    2.163    0.712 2054.500
   62.500   89.902    0.898    0.720 2067.090
   62.750  102.559    0.701    0.660 2073.530
   63.000   97.275    0.547    0.661 2077.950
   63.250   96.769    0.508    0.610 2078.420
