~Version : LASO    vs 4.00
VERS.                2.00:   CWLS Log ASCII Standard -VERSION 2.0
WRAP.                  NO:
~Well Information Block
#MNEM.UNIT       Data                        Description of Mnemonic
#----.----      -------------------------- : -----------------------------
STRT.M            13.0000:
STOP.M           191.0000:
STEP.M             0.2000:
NULL.           -999.2500:
COMP.  MOBIL OIL OF CANADA          :COMPANY
WELL.  MOBIL CLARKE OV 4-1          :WELL
FLD.                                :FIELD
LOC.   04-01-091-08W4               :LOCATION
CTRY.  CANADA                       :COUNTRY
PROV.  ALBERTA                      :PROVINCE
SRVC.  SCHLUMBERGER                 :SERVICE COMPANY
DATE.  12-FEB-81                    :LOG DATE
UWI.   AA/04-01-091-08W400          :UNIQUE WELL ID
~Parameter Information Block
#MNEM.UNIT       Data                        Description of Mnemonic
#----.----      -------------------------- : -----------------------------
RUN .                   1                 : Run Number
GL  .M           444.1000                 : Ground Level Elevation
DREF.                  GD                 : Depth Reference
EREF.M           444.1000                 : Elevation of Depth Reference
TDL .M           191.5000                 : Total Depth Logger
TDD .M           192.0000                 : Total Depth Driller
CSGL.M            15.0000                 : Casing Bottom Logger
CSGD.M            15.0000                 : Casing Bottom Driller
CSGS.MM          179.0000                 : Casing Size
CSGW.KG/M          0.0000                 : Casing Weight
BHT .DEGC         12.0000                 : Bottom Hole Temperature
BS  .MM          158.0000                 : Bit Size
DFD .           1080.0000                 : Mud Weight (Density)
DFV .             85.0000                 : Mud Viscosity
DFPH.             12.6000                 : Mud pH
~Curve Information Block
#MNEM.UNIT        API CODE    Curve Description
#---------    ------------    -------------------------------------------
DEPT.M                    :   DEPTH
CALI.MM       42 280  1  1:   3 DENSITY CALIPER
DPHI.V/V                  :   DPHI
DT  .US/M     60 520  0  1:   2 SONIC INTERVAL TRANSIT TIME (COMPENSATED)
GR  .GAPI     42 310  1  1:   4 GAMMA RAY
ILD .OHMM      5 120 46  1:   7 DEEP INDUCTION
ILM .OHMM      5 120 44  1:   8 MEDIUM INDUCTION
NPHI.V/V      42 890  3  1:   5 NEUTRON POROSITY (SANDSTONE)
RHOB.K/M3     42 350  1  1:   6 BULK DENSITY
SFLU.OHMM      5 220  1  1:   9 FOCUSSED RESISTIVITY
SP  .MV        5  10  1  1:   10 SPONTANEOUS POTENTIAL
~A  Depth           CALI        DPHI          DT          GR         ILD         ILM        NPHI        RHOB        SFLU          SP
# ...
171.6000        161.0750      0.2112    399.1600     52.6050     30.7773    414.0282      0.3639   2300.8999     98.1364    -63.2100
171.8000        159.8250      0.2005    401.0800     56.3100     29.6640    406.4713      0.3647   2318.8000     58.5909    -61.9650
172.0000        161.0750      0.1895    403.9200     60.0150     28.3289    391.7689      0.3670   2322.7000     44.4457    -61.9650
172.2000        161.0750      0.1834    406.7200     61.2150     23.7810    417.8592      0.3853   2362.3000     52.4602    -62.9700
172.4000        161.0750      0.1761    408.0000     60.4050     21.8892    406.4713      0.3915   2370.2000     76.5297    -62.7150
172.6000        162.3000      0.1818    407.8400     61.4100     20.7124    395.3939      0.3937   2352.3999    100.8858    -62.4600
172.8000        164.7750      0.1975    404.0000     65.3100     19.0647    381.0921      0.4012   2374.2000     32.1981    -59.7000
173.0000        163.5500      0.1941    409.4800     69.8250     18.2066    381.0921      0.3882   2326.7000     21.2731    -57.9450
173.2000        163.5500      0.1809    419.2400     73.4250     17.5481    410.2324      0.3853   2336.6001     20.3156    -57.9450
173.4000        162.3000      0.1684    434.8800     76.1250     16.2866    410.2324      0.4287   2403.8999     20.6933    -59.7000
173.6000        161.0750      0.1608    434.9600     78.4200     16.1373    406.4713      0.4336   2413.8000     23.1116    -59.4600
173.8000        161.0750      0.1514    432.6800     79.5300     16.1373    399.0524      0.4248   2421.7000     31.3206    -59.2050
174.0000        164.7750      0.1569    429.3200     75.8250     16.5894    417.8592      0.4102   2382.1001     37.3104    -61.2150
174.2000        163.5500      0.1706    431.7200     75.7200     17.0541    406.4713      0.4135   2370.2000     27.0290    -62.9700
174.4000        170.9750      0.1710    432.9600     76.3200     17.2278    402.7448      0.4118   2368.3000     23.9789    -62.7150
174.6000        158.6000      0.1731    438.0000     76.6200     19.0647    374.1364      0.4007   2370.2000     25.1090    -61.2150
174.8000        159.8250      0.1735    437.3600     74.8200     20.9040    391.7689      0.4094   2357.3999     25.1090    -60.2100
175.0000        161.0750      0.1736    432.1600     71.5200     22.7107    406.4713      0.4124   2344.5000     26.7812    -59.7000
175.2000        166.0250      0.1781    424.1200     67.7100     25.1322    406.4713      0.4077   2366.3000     33.1001    -60.9600
175.4000        168.5000      0.1785    406.3600     56.4000     30.4951    402.7448      0.4156   2374.2000    149.9098    -66.4800
175.6000        162.3000      0.1903    396.0800     48.0900     34.3740    410.2324      0.3680   2320.7000   1405.4969    -69.2400
175.8000        161.0750      0.1990    385.6800     47.4900     37.6903    421.7256      0.3310   2322.7000   2332.5442    -70.9950
176.0000        161.0750      0.1949    363.2800     48.9900     41.3266    421.7256      0.3129   2342.5000   2289.9705    -72.9900
176.2000        161.0750      0.1879    358.4800     51.6000     40.5723    402.7448      0.3176   2351.3999   2268.9758    -76.2600
176.4000        161.0750      0.1826    356.4800     54.0000     41.3266    417.8592      0.3261   2342.5000    596.8015    -78.5100
176.6000        158.6000      0.1775    367.6400     62.1150     42.0949    384.6183      0.3398   2384.1001    127.0077    -80.0100
176.8000        158.6000      0.1760    374.9200     60.6150     40.2004    410.2324      0.3530   2353.3999    173.7120    -83.0250
177.0000        161.0750      0.1751    379.0800     56.9100     37.0024    406.4713      0.3652   2336.6001    448.5697    -88.2900
177.2000        162.3000      0.1872    381.8400     52.9950     27.0539    410.2324      0.3448   2308.8999   2207.1401    -98.8200
177.4000        163.5500      0.1982    381.4800     51.6000     23.7810    399.0524      0.3397   2342.5000    474.0563   -100.0650
177.6000        163.5500      0.2040    384.4800     50.5050     21.6885    402.7448      0.3442   2382.1001    116.9042   -100.8300
177.8000        153.6250      0.1772    384.9600     51.1050     18.7167    421.7256      0.3613   2489.1001     31.6104    -97.0650
178.0000        154.8750      0.1545    367.7600     51.4950     17.7105    395.3939      0.3559   2601.8999     22.4817    -89.2950
178.2000        156.1250      0.0909    347.8800     52.3050     17.2278    402.7448      0.3394   2768.3000     19.4013    -80.2650
178.4000        156.1250      0.0683    327.2800     52.0950     17.7105    388.1771      0.3064   2770.2000     20.6933    -73.7400
178.6000        156.1250      0.0382    312.7200     48.3000     20.9040    417.8592      0.2570   2596.0000     36.2936    -66.4800
178.8000        154.8750      0.0402    305.0400     45.4950     22.2962    417.8592      0.2440   2602.8999     36.9683    -64.7250
179.0000        156.1250      0.0287    290.3600     41.9850     23.3469    402.7448      0.2274   2635.6001     39.0688    -63.4650
179.2000        156.1250      0.0199    275.7200     37.8900     24.9018    410.2324      0.2093   2685.1001     48.7338    -61.9650
179.4000        156.1250      0.0303    270.2400     36.4800     25.1322    406.4713      0.2062   2693.0000     52.4602    -61.9650
179.6000        156.1250      0.0285    264.0800     35.3850     25.1322    410.2324      0.2012   2673.2000     51.0305    -61.9650
179.8000        156.1250      0.0201    255.6800     34.0800     25.5994    402.7448      0.1910   2687.1001     49.1847    -62.9700
180.0000        156.1250      0.0085    254.8400     34.2750     26.3166    381.0921      0.1871   2686.1001     49.1847    -63.7200
180.2000        156.1250   -999.2500    255.3200     34.3800     26.8059    395.3939      0.1873   2691.0000     46.9710    -65.4750
180.4000        156.1250   -999.2500    256.8400     32.0850     27.5569    414.0282      0.1887   2728.7000     51.0305    -70.4850
180.6000        156.1250   -999.2500    257.0800     31.1850     28.0692    402.7448      0.1889   2710.8000     73.7615    -73.5000
180.8000        156.1250   -999.2500    256.8400     29.3700     28.5910    399.0524      0.1868   2716.8000    107.6044    -75.7500
181.0000        157.3500   -999.2500    246.9200     25.5750     29.1226    402.7448      0.1741   2702.8999     83.1438    -76.2600
181.2000        156.1250   -999.2500    241.7200     26.9700     29.1226    410.2324      0.1669   2699.0000     82.3815    -75.4950
181.4000        154.8750   -999.2500    239.4400     28.7700     29.6640    410.2324      0.1663   2706.8999     85.4732    -75.2550
181.6000        156.1250   -999.2500    240.2400     30.0750     29.3921    391.7689      0.1698   2712.8000     78.6738    -74.5050
181.8000        156.1250   -999.2500    240.2800     33.3750     28.0692    374.1364      0.1745   2686.1001     70.4417    -71.2350
182.0000        154.8750   -999.2500    238.7200     34.8900     26.8059    384.6183      0.1739   2728.7000     92.8603    -70.4850
182.2000        154.8750   -999.2500    236.1600     36.4800     25.5994    402.7448      0.1745   2738.6001    105.6404    -68.7300
182.4000        157.3500   -999.2500    235.1200     44.1900     23.3469    402.7448      0.1786   2718.8000     38.7106    -60.9600
182.6000        156.1250   -999.2500    246.3200     51.0000     22.0917    402.7448      0.1862   2705.8999     31.0334    -57.9450
182.8000        157.3500   -999.2500    258.5600     57.2100     20.9040    406.4713      0.2074   2726.7000     30.7489    -56.9550
183.0000        158.6000   -999.2500    290.6000     58.1100     18.7167    417.8592      0.2418   2710.8000     27.7863    -55.6950
183.2000        158.6000   -999.2500    303.4800     57.5100     18.0397    410.2324      0.2457   2717.8000     24.8788    -55.4400
183.4000        158.6000   -999.2500    307.3600     57.9000     17.3872    410.2324      0.2447   2718.8000     24.2008    -55.4400
183.6000        158.6000   -999.2500    313.2000     60.7050     15.8427    384.6183      0.2404   2726.7000     27.2791    -56.4450
