~VERSION INFORMATION
 VERS.                 2.0:   CWLS LOG ASCII STANDARD -VERSION 2.0
 WRAP.                  NO:   ONE LINE PER DEPTH STEP
~WELL INFORMATION BLOCK
#MNEM.UNIT           DATA                    DESCRIPTION OF MNEMONIC
#---------    -------------------            -------------------------------
# Generated from Intellog Unique Number	CC_84_87/WELL/1181
NULL.         -999.25                        : NULL_VALUE
WELL.         SUN CHEECHAM-19                : Well_name    - WELL              
LOC .         09-29-084-07W4                 : Location     - LOCATION          
UWI .         AA/09-29-084-07W4/0            : Uwi          - UNIQUE WELL ID    
ENTR.         JHS                            : Entered      - ENTERED BY        
SRVC.         SCHLUMBERGER                   : Scn          - SERVICE COMPANY   
DATE.         20 JAN 80                      : Date         - LOG DATE
STRT.M        140                            : top_depth    - START DEPTH       
STOP.M        430.094                        : bot_depth    - STOP DEPTH        
STEP.M        0.3                            : increment    - STEP LENGTH       
~CURVE INFORMATION BLOCK
#MNEM UNIT       ERCB CURVE CODE    CURVE DESCRIPTION
#-----------   ------------------   ----------------------------------
DEPT.M        00 001 00 00         : DEPTH        - DEPTH                       
ILD .OHMM     00 120 00 00         : RESD         - DEEP RESISTIVITY (DIL)      
GR  .API      00 310 00 00         : GR           - GAMMA RAY                   
NPHI.V/V      00 330 00 00         : PHIN         - NEUTRON POROSITY (LIMESTONE)
DPHI.V/V      00 890 00 00         : PHID         - DENSITY POROSITY (LIMESTONE)
~PARAMETER INFORMATION       
#MNEM.UNIT           DATA             DESCRIPTION OF MNEMONIC
#---------         -----------     ------------------------------
GL  .M        597.9                : gl           - GROUND LEVEL ELEVATION      
EREF.M        600.85               : kb           - ELEVATION OF DEPTH REFERENCE
DATM.M        600.85               : datum        - DATUM ELEVATION             
TDD .M        434                  : tdd          - TOTAL DEPTH DRILLER         
RUN .         ONE                  : Run          - RUN NUMBER                  
ENG .         BILL                 : Engineer     - RECORDING ENGINEER          
WIT .         JIM                  : Witness      - WITNESSED BY                
MUD .         GEL                  : Mud_type     - MUD TYPE                    
MATR.         LIMESTONE            : Logunit      - NEUTRON MATRIX              
TMAX.C        20                   : BHT          - MAXIMUM RECORDED TEMPERATURE
BHTD.M        434                  : BHTDEP       - MAXIMUM RECORDED TEMPERATURE
MATR.         1                    : LOGUNIT      - NEUTRON MATRIX              
RMT .C        25                   : MDTP         - TEMPERATURE OF MUD          
NEUT.         1                    : NEUTRON      - NEUTRON TYPE                
RESI.         0                    : RESIST       - RESISTIVITY TYPE            
RMC .OHMM     0.25                 : RMC          - RESISTIVITY OF MUD CAKE     
RMF .OHMM     0.25                 : RMF          - RESISTIVITY OF MUD FILTRATE 
SUFT.C        15                   : SUFT         - SURFACE TEMPERATURE         
~A  DEPTH     RESD       GR     PHIN     PHID
# ...
  244.401    4.105  110.790    0.486    0.250
  244.701    4.182  120.383    0.478    0.251
  245.001    4.422  119.218    0.478    0.238
  245.301    4.505  123.431    0.489    0.254
  245.601    4.342  124.651    0.503    0.264
  245.901    4.263  121.688    0.533    0.282
  246.201    4.186  118.735    0.529    0.284
  246.501    4.265  118.161    0.503    0.261
  246.801    4.594  112.807    0.500    0.261
  247.101    4.768  113.441    0.482    0.256
  247.401    4.769  116.453    0.479    0.265
  247.701    4.512  120.669    0.488    0.268
  248.001    4.113  123.084    0.499    0.274
  248.301    3.614  118.925    0.486    0.276
  248.601    3.357  119.556    0.484    0.265
  248.901    3.176  124.958    0.501    0.289
  249.201    2.790  129.771    0.500    0.300
  249.501    2.234  126.217    0.496    0.311
  249.801    2.037  126.839    0.507    0.270
  250.101    2.000  129.859    0.529    0.279
  250.401    2.076  128.692    0.537    0.270
  250.701    2.236  123.336    0.548    0.269
  251.001    2.499  121.573    0.554    0.280
  251.301    2.793  116.220    0.539    0.287
  251.601    3.301  107.881    0.492    0.293
  251.901    3.828  107.906    0.446    0.303
  252.201    4.359  108.534    0.436    0.263
  252.501    4.524  106.773    0.451    0.275
  252.801    4.361  106.200    0.469    0.302
  253.101    4.126  109.217    0.476    0.322
  253.401    3.832  108.647    0.468    0.303
  253.701    3.559  104.499    0.482    0.289
  254.001    3.244  103.325    0.509    0.309
  254.301    3.013  104.546    0.585    0.328
  254.601    2.697  101.587    0.610    0.354
  254.901    2.552  108.189    0.574    0.377
  255.201    2.505  113.596    0.574    0.363
  255.501    2.506  107.053    0.553    0.365
  255.801    2.601  107.679    0.537    0.390
  256.101    2.750  107.706    0.516    0.402
  256.401    3.073  105.948    0.519    0.389
  256.701    3.699  103.577    0.509    0.342
  257.001    4.059   94.042    0.519    0.308
  257.301    4.537   83.911    0.508    0.296
  257.601    4.978   74.974    0.480    0.316
  257.901    5.167   67.833    0.449    0.309
  258.201    5.463   63.075    0.433    0.292
  258.501    5.884   60.119    0.426    0.291
  258.801    6.337   58.950    0.402    0.276
  259.101    7.083   60.174    0.307    0.234
  259.401    8.526   53.627    0.275    0.129
  259.701    9.183   53.056    0.265    0.112
  260.001    9.016   61.454    0.327    0.196
  260.301    8.374   68.053    0.444    0.321
  260.601    6.832   72.266    0.474    0.345
  260.901    6.114   70.500    0.456    0.354
  261.201    5.472   75.314    0.457    0.351
  261.501    5.177   80.717    0.484    0.351
  261.801    4.898   86.124    0.507    0.342
  262.101    4.809   91.534    0.494    0.359
  262.401    4.810   88.571    0.472    0.349
  262.701    4.901   80.829    0.473    0.325
  263.001    4.993   65.322    0.477    0.342
  263.301    5.088   62.362    0.462    0.342
  263.601    5.183   64.782    0.466    0.329
  263.901    5.281   67.799    0.453    0.323
  264.201    5.282   66.038    0.463    0.331
  264.501    5.091   66.654    0.465    0.336
  264.801    5.092   67.880    0.453    0.326
  265.101    5.093   63.130    0.462    0.322
  265.401    5.286   64.953    0.457    0.314
  265.701    5.589   64.377    0.462    0.286
  266.001    6.364   56.636    0.427    0.105
  266.301    6.982   48.893    0.370    0.062
  266.601    6.983   47.728    0.268    0.086
  266.901    6.136   55.529    0.371    0.115
  267.201    6.024   65.714    0.456    0.324
  267.501    5.595   63.954    0.471    0.344
  267.801    5.196   63.976    0.457    0.340
  268.101    4.916   61.020    0.440    0.333
  268.401    4.827   64.037    0.459    0.345
  268.701    4.739   67.049    0.468    0.341
  269.001    4.740   68.877    0.455    0.342
  269.301    4.830   67.106    0.465    0.358
  269.601    4.830   67.139    0.466    0.353
  269.901    4.831   68.356    0.458    0.332
  270.201    4.922   66.591    0.459    0.337
  270.501    5.015   69.608    0.444    0.335
  270.801    5.205   64.258    0.427    0.321
  271.101    5.303   60.703    0.412    0.296
  271.401    5.504   62.527    0.403    0.279
  271.701    5.505   65.537    0.421    0.300
  272.001    5.306   70.347    0.442    0.336
  272.301    5.210   70.978    0.456    0.348
  272.600    4.929   71.005    0.448    0.350
  272.900    4.840   70.430    0.450    0.333
  273.200    4.752   66.275    0.438    0.340
  273.500    4.665   65.710    0.424    0.333
  273.800    4.580   68.729    0.426    0.329
  274.100    4.581   71.142    0.426    0.346
  274.400    4.667   71.168    0.420    0.345
  274.700    4.668   70.604    0.427    0.336
  275.000    4.756   73.021    0.440    0.334
  275.300    4.846   74.247    0.468    0.319
  275.600    4.847   73.677    0.478    0.316
  275.900    4.938   73.701    0.457    0.332
  276.200    5.032   75.528    0.447    0.335
  276.500    5.126   77.344    0.476    0.331
  276.800    5.223   79.164    0.482    0.350
  277.100    5.224   76.803    0.461    0.353
  277.400    5.035   73.243    0.454    0.352
  277.700    5.036   72.674    0.449    0.339
  278.000    5.037   70.312    0.441    0.316
  278.300    5.038   70.937    0.425    0.278
  278.600    5.038   75.746    0.415    0.262
  278.900    4.947   83.542    0.440    0.313
  279.200    4.768   89.547    0.458    0.322
  279.500    4.595   89.583    0.463    0.315
  279.800    4.348   93.192    0.468    0.302
  280.100    4.190   95.016    0.473    0.312
  280.400    4.039   98.626    0.477    0.305
  280.700    3.966  101.642    0.479    0.304
  281.000    4.040  101.080    0.475    0.314
  281.300    4.116  101.105    0.457    0.342
  281.600    4.194  101.728    0.470    0.311
  281.900    4.273  104.146    0.480    0.299
  282.200    4.118  107.166    0.480    0.304
  282.500    3.755  109.580    0.477    0.325
  282.800    3.553  106.026    0.516    0.307
  283.100    3.488  103.062    0.542    0.313
  283.400    3.620  100.700    0.535    0.347
  283.700    3.828  105.509    0.497    0.326
  284.000    4.047  103.148    0.471    0.303
  284.300    4.608   98.394    0.454    0.297
  284.600    4.783   97.824    0.441    0.280
  284.900    4.784  102.039    0.442    0.289
  285.200    4.610  105.652    0.461    0.283
  285.500    4.362  103.289    0.479    0.332
  285.800    4.283  101.523    0.526    0.351
  286.100    4.205  106.337    0.491    0.334
  286.400    3.905  109.354    0.474    0.281
  286.700    3.695  104.602    0.509    0.341
  287.000    3.496  104.025    0.528    0.352
  287.300    3.307  109.440    0.541    0.327
  287.600    2.749  115.436    0.553    0.321
  287.900    2.506  123.837    0.557    0.342
  288.200    2.371  123.882    0.564    0.330
  288.500    2.328  122.700    0.574    0.312
  288.800    2.328  121.527    0.568    0.319
  289.100    2.462  120.358    0.549    0.300
  289.400    2.701  114.414    0.533    0.283
  289.700    3.133  113.847    0.502    0.277
  290.000    3.634  111.479    0.484    0.282
  290.300    4.374  106.724    0.487    0.290
  290.600    4.980  110.343    0.459    0.256
  290.900    5.266  109.773    0.442    0.274
  291.200    5.465  107.415    0.455    0.285
  291.500    5.673  108.631    0.467    0.251
  291.800    5.998  114.635    0.481    0.289
  292.100    6.225  118.850    0.491    0.296
  292.400    6.343  114.695    0.446    0.287
  292.700    6.583  108.145    0.450    0.268
  293.000    6.833  110.567    0.452    0.227
  293.300    7.092  118.363    0.437    0.253
  293.600    7.639  124.368    0.417    0.214
  293.900    8.227  117.224    0.392    0.196
  294.200    8.861  111.879    0.358    0.169
  294.500    9.544  114.290    0.353    0.171
  294.800    9.724  124.483    0.382    0.236
  295.100    9.032  125.106    0.409    0.256
  295.400    8.705  116.170    0.410    0.248
  295.700    8.085  112.016    0.392    0.247
  296.000    7.792  111.443    0.401    0.243
  296.300    7.510  115.656    0.416    0.230
