~VERSION INFORMATION
 VERS.                 2.0:   CWLS LOG ASCII STANDARD -VERSION 2.0
 WRAP.                  NO:   ONE LINE PER DEPTH STEP
~WELL INFORMATION BLOCK
#MNEM.UNIT           DATA                    DESCRIPTION OF MNEMONIC
#---------    -------------------            -------------------------------
# Generated from Intellog Unique Number	CC_84_87/WELL/1180
NULL.         -999.25                        : NULL_VALUE
WELL.         COSEKA TOTAL LYNTON            : Well_name    - WELL              
LOC .         09-28-087-07W4                 : Location     - LOCATION          
UWI .         AA/09-28-087-07W400            : Uwi          - UNIQUE WELL ID    
ENTR.         DW                             : Entered      - ENTERED BY        
SRVC.         SCHLUMBERGER                   : Scn          - SERVICE COMPANY   
DATE.         20 FEB 81                      : Date         - LOG DATE
STRT.M        35                             : top_depth    - START DEPTH       
STOP.M        163.101                        : bot_depth    - STOP DEPTH        
STEP.M        0.3                            : increment    - STEP LENGTH       
~CURVE INFORMATION BLOCK
#MNEM UNIT       ERCB CURVE CODE    CURVE DESCRIPTION
#-----------   ------------------   ----------------------------------
DEPT.M        00 001 00 00         : DEPTH        - DEPTH                       
DPHI.V/V      00 890 00 00         : PHID         - DENSITY POROSITY (LIMESTONE)
NPHI.V/V      00 330 00 00         : PHIN         - NEUTRON POROSITY (LIMESTONE)
GR  .API      00 310 00 00         : GR           - GAMMA RAY                   
ILD .OHMM     00 120 00 00         : RESD         - DEEP RESISTIVITY (DIL)      
~PARAMETER INFORMATION       
#MNEM.UNIT           DATA             DESCRIPTION OF MNEMONIC
#---------         -----------     ------------------------------
GL  .M        407.99               : gl           - GROUND LEVEL ELEVATION      
EREF.M        409.49               : kb           - ELEVATION OF DEPTH REFERENCE
DATM.M        409.49               : datum        - DATUM ELEVATION             
TDD .M        168                  : tdd          - TOTAL DEPTH DRILLER         
RUN .         ONE                  : Run          - RUN NUMBER                  
ENG .         BILL                 : Engineer     - RECORDING ENGINEER          
WIT .         JIM                  : Witness      - WITNESSED BY                
MUD .         GEL                  : Mud_type     - MUD TYPE                    
MATR.         LIMESTONE            : Logunit      - NEUTRON MATRIX              
TMAX.C        15                   : BHT          - MAXIMUM RECORDED TEMPERATURE
BHTD.M        163                  : BHTDEP       - MAXIMUM RECORDED TEMPERATURE
MATR.         1                    : LOGUNIT      - NEUTRON MATRIX              
RMT .C        25                   : MDTP         - TEMPERATURE OF MUD          
NEUT.         1                    : NEUTRON      - NEUTRON TYPE                
RESI.         0                    : RESIST       - RESISTIVITY TYPE            
RMC .OHMM     0.25                 : RMC          - RESISTIVITY OF MUD CAKE     
RMF .OHMM     0.25                 : RMF          - RESISTIVITY OF MUD FILTRATE 
SUFT.C        4                    : SUFT         - SURFACE TEMPERATURE         
~A  DEPTH     PHID     PHIN       GR     RESD
# ...
   87.200    0.147    0.372   75.466   10.475
   87.500    0.221    0.380   83.424    8.984
   87.800    0.236    0.416   88.904    7.561
   88.100    0.238    0.480   91.303    7.410
   88.400    0.240    0.496   91.853    6.992
   88.700    0.217    0.495   88.673    5.774
   89.000    0.224    0.462   84.906    4.418
   89.300    0.284    0.467   79.894    3.720
   89.600    0.318    0.506   76.730    3.013
   89.900    0.329    0.562   79.742    2.843
   90.200    0.305    0.578   80.912    2.894
   90.500    0.314    0.575   80.832    3.241
   90.800    0.309    0.562   81.373    3.841
   91.100    0.277    0.544   83.160    4.062
   91.400    0.264    0.520   84.324    4.378
   91.700    0.258    0.486   81.147    4.809
   92.000    0.253    0.468   80.471    5.086
   92.300    0.255    0.470   79.772    5.276
   92.600    0.272    0.493   79.079    5.477
   92.900    0.269    0.517   80.244    6.016
   93.200    0.272    0.451   80.792    6.608
   93.500    0.273    0.455   81.340    6.726
   93.800    0.276    0.463   80.647    6.228
   94.100    0.259    0.479   80.566    5.045
   94.400    0.256    0.496   83.579    4.412
   94.700    0.278    0.513   88.448    3.930
   95.000    0.287    0.537   92.083    3.852
   95.300    0.284    0.553   92.622    3.847
   95.600    0.277    0.571   91.934    3.843
   95.900    0.263    0.575   88.769    3.913
   96.200    0.301    0.565   86.831    3.761
   96.500    0.289    0.545   87.993    3.688
   96.800    0.281    0.544   87.312    3.614
   97.100    0.285    0.568   87.865    3.679
   97.400    0.260    0.566   86.546    3.966
   97.700    0.268    0.545   86.481    4.273
   98.000    0.265    0.510   91.335    4.519
   98.300    0.265    0.523   93.731    4.600
   98.600    0.264    0.503   93.671    4.866
   98.900    0.256    0.495   92.345    5.346
   99.200    0.248    0.494   90.428    6.099
   99.500    0.248    0.493   81.094    7.231
   99.800    0.278    0.468   69.908    9.074
  100.100    0.300    0.395   67.979   11.389
  100.400    0.306    0.373   68.525   16.961
  100.700    0.306    0.384   68.453   20.102
  101.000    0.259    0.386   68.380   24.291
  101.300    0.103    0.383   65.214   24.263
  101.600    0.124    0.355   59.584   19.283
  101.900    0.209    0.364   58.270   14.482
  102.200    0.257    0.388   76.113   11.514
  102.500    0.266    0.410   75.406   10.258
  102.800    0.277    0.439   73.483   10.646
  103.100    0.283    0.452   72.166   13.360
  103.400    0.292    0.424   71.497   19.896
  103.700    0.301    0.336   70.807   41.738
  104.000    0.276    0.355   73.191   47.630
  104.300    0.255    0.364   70.031   43.245
  104.600    0.259    0.355   69.961   36.400
  104.900    0.266    0.355   78.529   32.441
  105.200    0.273    0.352   83.401   28.358
  105.500    0.278    0.352   78.996   26.245
  105.800    0.283    0.358   75.838   25.237
  106.100    0.290    0.370   70.209   25.701
  106.400    0.282    0.390   62.727   26.168
  106.700    0.260    0.380   63.888   27.672
  107.000    0.270    0.370   67.510   27.113
  107.300    0.300    0.375   71.156   25.097
  107.600    0.294    0.387   80.961   22.370
  107.900    0.247    0.399   90.765   17.785
  108.200    0.255    0.402   85.749   14.407
  108.500    0.246    0.368   75.796   15.235
  108.800    0.258    0.335   60.289   18.761
  109.100    0.281    0.311   52.166   27.415
  109.400    0.310    0.309   52.107   37.131
  109.700    0.299    0.317   55.738   44.011
  110.000    0.292    0.339   61.208   48.339
  110.300    0.286    0.349   63.009   53.113
  110.600    0.288    0.307   60.459   62.953
  110.900    0.316    0.307   54.211   71.828
  111.200    0.310    0.329   49.813   71.766
  111.500    0.301    0.369   48.503   54.918
  111.800    0.284    0.366   50.886   38.952
  112.100    0.288    0.391   55.770   23.723
  112.400    0.299    0.393   64.346   19.594
  112.700    0.281    0.392   69.209   16.491
  113.000    0.285    0.402   70.980   14.143
  113.300    0.281    0.406   69.672   13.091
  113.600    0.277    0.403   71.435   13.077
  113.900    0.266    0.410   73.850   12.817
  114.200    0.263    0.415   77.482   12.563
  114.500    0.247    0.426   82.970   11.409
  114.800    0.246    0.440   76.703   10.971
  115.100    0.258    0.446   77.267   10.548
  115.400    0.250    0.435   79.038   10.337
  115.700    0.249    0.430   76.482   10.322
  116.000    0.259    0.426   76.423   10.314
  116.300    0.248    0.425   79.440   10.297
  116.600    0.243    0.456   79.977   10.093
  116.900    0.245    0.444   79.901    9.707
  117.200    0.249    0.436   80.443    9.335
  117.500    0.232    0.435   81.618    9.502
  117.800    0.224    0.430   82.777    9.858
  118.100    0.234    0.423   83.932   10.227
  118.400    0.236    0.434   85.711   10.221
  118.700    0.234    0.442   86.873   10.404
  119.000    0.242    0.432   86.186   10.193
  119.300    0.237    0.442   82.407    9.993
  119.600    0.251    0.442   81.699    9.789
  119.900    0.253    0.406   81.637    9.595
  120.201    0.251    0.395   79.093    9.768
  120.501    0.246    0.423   78.407    9.757
  120.801    0.246    0.437   80.797   10.125
  121.101    0.249    0.428   81.351   10.111
  121.401    0.255    0.423   81.259   10.294
  121.701    0.249    0.426   82.440   10.091
  122.001    0.237    0.427   86.067   10.078
  122.301    0.237    0.445   84.748   10.068
  122.601    0.242    0.424   80.973   10.248
  122.901    0.245    0.409   79.667   10.633
  123.201    0.237    0.422   80.205   10.827
  123.501    0.231    0.408   79.524   11.020
  123.801    0.225    0.405   78.213   10.802
  124.101    0.233    0.410   78.743   10.787
  124.401    0.243    0.403   79.305   10.572
  124.701    0.247    0.410   81.687   10.562
  125.001    0.248    0.422   82.233   10.544
  125.301    0.253    0.420   82.780   10.335
  125.601    0.250    0.419   80.239    9.938
  125.901    0.230    0.418   82.023    9.558
  126.201    0.228    0.421   83.181    9.193
  126.501    0.228    0.424   81.866    9.179
  126.801    0.227    0.430   79.331    9.345
  127.101    0.229    0.423   80.489    9.508
  127.401    0.226    0.439   83.493    9.500
  127.701    0.201    0.422   82.197    9.493
  128.001    0.212    0.411   77.179    9.126
  128.301    0.208    0.428   79.571    8.946
  128.601    0.218    0.426   80.108    8.765
  128.901    0.213    0.420   79.429    8.925
  129.201    0.217    0.437   79.344    9.085
  129.501    0.229    0.423   81.124    9.247
  129.801    0.241    0.420   82.910    9.417
  130.101    0.245    0.412   81.606    9.584
  130.401    0.237    0.406   80.275    9.392
  130.701    0.231    0.405   79.611    9.207
  131.001    0.229    0.407   79.534    9.195
  131.301    0.235    0.420   79.452    9.359
  131.601    0.245    0.434   81.235    9.530
  131.901    0.221    0.429   79.292    9.702
  132.201    0.207    0.425   78.006    9.692
  132.501    0.217    0.413   72.987    9.679
  132.801    0.197    0.398   72.302    9.669
  133.101    0.226    0.398   72.213    9.657
  133.401    0.245    0.411   70.296    9.831
  133.701    0.252    0.425   70.837   10.008
  134.001    0.259    0.432   73.237    9.998
  134.301    0.252    0.424   73.760   10.181
  134.601    0.241    0.415   74.311    9.788
  134.901    0.245    0.419   76.109    9.593
  135.201    0.236    0.432   77.262    9.582
  135.501    0.234    0.431   73.486    9.571
  135.801    0.265    0.418   66.626    9.930
  136.101    0.253    0.405   66.544   10.499
  136.401    0.252    0.392   70.789   10.689
  136.701    0.244    0.399   73.196   10.675
  137.001    0.248    0.414   70.027   10.869
  137.301    0.256    0.407   68.718   11.063
  137.601    0.245    0.396   69.888   11.055
  137.901    0.246    0.402   71.648   11.470
  138.201    0.260    0.408   70.961   11.899
  138.501    0.264    0.416   69.646   11.889
  138.801    0.254    0.422   67.725   11.874
  139.101    0.272    0.422   66.418   11.860
