~VERSION INFORMATION
 VERS.                 2.0:   CWLS LOG ASCII STANDARD -VERSION 2.0
 WRAP.                  NO:   ONE LINE PER DEPTH STEP
~WELL INFORMATION BLOCK
#MNEM.UNIT           DATA                    DESCRIPTION OF MNEMONIC
#---------    -------------------            -------------------------------
# Generated from Intellog Unique Number	CN_94_101/WELL/3346
WELL.         03-30-095-09W4                 : Well_name    - WELL
LOC .         AA/03-30-095-09W4/0            : Location     - LOCATION
UWI .         AA/03-30-095-09W400            : Uwi          - UNIQUE WELL ID
ENTR.         JOETTE                         : Entered      - ENTERED BY
SRVC.         SCHLUMBERGER                   : Scn          - SERVICE COMPANY
DATE.         07/24/92                       : Date         - LOG DATE
STRT.F        50                             : top_depth    - START DEPTH
STOP.F        329.692                        : bot_depth    - STOP DEPTH
STEP.F        0.8202                         : increment    - STEP LENGTH
 NULL. -999.2500:NULL Value
~CURVE INFORMATION BLOCK
#MNEM UNIT       ERCB CURVE CODE    CURVE DESCRIPTION
#-----------   ------------------   ----------------------------------
DEPT.F        00 001 00 00         : DEPTH        - DEPTH
GR  .API      00 310 00 00         : GR           - GAMMA RAY
DPHI.V/V      00 890 00 00         : PHID         - DENSITY POROSITY (SANDSTONE)
ILD .OHMM     00 120 00 00         : RESD         - DEEP RESISTIVITY (DIL)
~PARAMETER INFORMATION
#MNEM.UNIT           DATA             DESCRIPTION OF MNEMONIC
#---------         -----------     ------------------------------
GL  .M        282.586              : gl           - GROUND LEVEL ELEVATION
EREF.M        282.586              : kb           - ELEVATION OF DEPTH REFERENCE
DATM.M        282.586              : datum        - DATUM ELEVATION
TDD .M        109.423              : tdd          - TOTAL DEPTH DRILLER
RUN .         ONE                  : Run          - RUN NUMBER
ENG .         JO                   : Engineer     - RECORDING ENGINEER
WIT .         TIM                  : Witness      - WITNESSED BY
MUD .         GEL                  : Mud_type     - MUD TYPE
MATR.         SANDSTONE            : Logunit      - NEUTRON MATRIX
TMAX.F        59                   : BHT          - MAXIMUM RECORDED TEMPERATURE
BHTD.F        359                  : BHTDEP       - MAXIMUM RECORDED TEMPERATURE
RMT .F        59                   : MDTP         - TEMPERATURE OF MUD
MUDD.LB/G     1140                 : MWT          - MUD DENSITY
NEUT.         1                    : NEUTRON      - NEUTRON TYPE
RESI.         0                    : RESIST       - RESISTIVITY TYPE
RM  .OHMM     4.55                 : RM           - RESISTIVITY OF MUD
RMC .OHMM     4.55                 : RMC          - RESISTIVITY OF MUD CAKE
RMF .OHMM     4.55                 : RMF          - RESISTIVITY OF MUD FILTRATE
SUFT.F        39.2                 : SUFT         - SURFACE TEMPERATURE
~A  DEPTH       GR     PHID     RESD
# ...
  227.986   55.392    0.279   15.353
  228.806   68.884    0.277   13.242
  229.626   84.626    0.279   12.304
  230.446   94.975    0.368   12.317
  231.266  102.179    0.339    7.052
  232.087  101.299    0.328    6.083
  232.907   93.683    0.333    5.976
  233.727   97.748    0.294    5.984
  234.547   97.318    0.268    5.988
  235.367   90.150    0.233    5.884
  236.188   90.169    0.201    5.269
  237.008   90.636    0.214    5.273
  237.828   86.613    0.268    7.113
  238.648   83.043    0.260    9.071
  239.469   81.710    0.251   11.148
  240.289   87.122    0.249    9.612
  241.109   91.183    0.257    8.605
  241.929   96.142    0.257   12.505
  242.749   94.813    0.256   14.803
  243.570   89.891    0.274   13.501
  244.390   90.368    0.290   11.644
  245.210   90.836    0.287   10.043
  246.030   88.155    0.285    8.502
  246.850   84.581    0.288    7.754
  247.671   86.845    0.298    7.340
  248.491   90.007    0.290    6.949
  249.311   88.687    0.284    6.222
  250.131   86.456    0.287    6.346
  250.951   85.576    0.293    6.474
  251.772   88.294    0.286    6.482
  252.592   90.104    0.258    6.486
  253.412   88.326    0.251    6.492
  254.232   86.099    0.240    6.501
  255.052   87.924    0.223    6.042
  255.873   85.692    0.213    5.824
  256.693   78.076    0.213    7.158
  257.513   69.112    0.225    8.632
  258.333   60.148    0.231   10.410
  259.154   54.328    0.238   12.323
  259.974   48.957    0.245   13.297
  260.794   41.790    0.249   14.607
  261.614   35.072    0.265   16.976
  262.434   37.336    0.286   16.070
  263.255   35.558    0.275   15.790
  264.075   30.187    0.274   17.025
  264.895   23.918    0.296   19.421
  265.715   22.594    0.324   19.441
  266.535   23.960    0.341   20.206
  267.356   25.326    0.340   25.761
  268.176   18.607    0.341   36.069
  268.996   12.338    0.349   28.875
  269.816    9.213    0.368   24.445
  270.636    6.991    0.359   25.883
  271.457    7.458    0.365   22.318
  272.277    8.824    0.373   19.248
  273.097    8.843    0.374   16.601
  273.917   10.213    0.372   15.141
  274.738   13.371    0.356   15.161
  275.558   16.084    0.345   15.177
  276.378   14.755    0.340   14.908
  277.198   11.630    0.339   14.649
  278.018   10.301    0.347   15.221
  278.839   14.816    0.353   18.711
  279.659   24.715    0.346   18.385
  280.479   31.021    0.333   17.404
  281.299   35.989    0.330   16.781
  282.119   36.007    0.307   16.193
  282.940   36.475    0.306   16.201
  283.760   35.142    0.326   17.477
  284.580   27.525    0.341   18.506
  285.400   27.095    0.315   18.183
  286.220   26.664    0.311   17.867
  287.041   20.395    0.310   18.564
  287.861    8.736    0.347   18.584
  288.681    8.755    0.357   18.598
  289.501    3.833    0.362   17.281
  290.322    4.310    0.368   15.474
  291.142    7.019    0.363   14.924
  291.962    7.486    0.359   14.664
  292.782    6.158    0.356   14.680
  293.602    4.829    0.357   14.699
  294.423    3.051    0.360   14.447
  295.243    0.828    0.367   14.454
  296.063    1.745    0.374   14.469
  296.883    3.565    0.367   14.484
  297.703    5.380    0.361   14.776
  298.524    6.292    0.355   14.792
  299.344    7.209    0.355   14.807
  300.164    8.584    0.359   14.823
  300.984    9.501    0.360   14.838
  301.804    7.723    0.350   14.858
  302.625    6.394    0.344   14.599
  303.445    5.963    0.347   14.614
  304.265    6.431    0.334   14.626
  305.085    8.251    0.333   14.920
  305.906   10.066    0.332   14.660
  306.726   10.533    0.326   14.676
  307.546    9.204    0.323   15.535
  308.366    9.667    0.327   15.844
  309.186   12.830    0.321   16.159
  310.007   16.446    0.316   15.877
  310.827   20.506    0.324   17.454
  311.647   22.770    0.321   17.473
  312.467   25.484    0.315   16.851
  313.287   21.465    0.352   16.562
  314.108   18.789    0.363   16.575
  314.928   17.460    0.362   16.593
  315.748   17.034    0.358   16.610
  316.568   17.052    0.356   16.627
  317.388   18.867    0.356   15.740
  318.209   19.331    0.362   14.901
  319.029   18.455    0.361   14.916
  319.849   18.025    0.360   14.932
  320.669   17.594    0.359   14.948
  321.490   19.409    0.357   14.967
  322.310   19.428    0.349   14.983
  323.130   18.997    0.321   14.999
  323.950   20.817    0.297   14.737
  324.770   33.411    0.283   13.193
  325.591   41.962    0.209   12.966
  326.411   54.111    0.122   13.980
  327.231   94.106    0.149   15.082
  328.051   97.717    0.168   14.010
  328.871   95.939    0.164    3.600
  329.692   97.754    0.171    2.577
