~VERSION INFORMATION
 VERS.                 2.0:   CWLS LOG ASCII STANDARD -VERSION 2.0
 WRAP.                  NO:   ONE LINE PER DEPTH STEP
~WELL INFORMATION BLOCK
#MNEM.UNIT           DATA                    DESCRIPTION OF MNEMONIC
#---------    -------------------            -------------------------------
# Generated from Intellog Unique Number	CW_82_90/WELL/3417
WELL.         PCENT WOODEN HOUSE             : Well_name    - WELL
LOC .         AA/05-24-088-23W4/0            : Location     - LOCATION
UWI .         AA/05-24-088-23W4/0            : Uwi          - UNIQUE WELL ID
ENTR.         MAX                            : Entered      - ENTERED BY
SRVC.         COMPUTALOG                     : Scn          - SERVICE COMPANY
STRT.M        100                            : top_depth    - START DEPTH
STOP.M        306                            : bot_depth    - STOP DEPTH
STEP.M        0.25                           : increment    - STEP LENGTH
 NULL. -999.2500:NULL Value
~CURVE INFORMATION BLOCK
#MNEM UNIT       ERCB CURVE CODE    CURVE DESCRIPTION
#-----------   ------------------   ----------------------------------
DEPT.M        00 001 00 00         : DEPTH        - DEPTH
GR  .API      00 310 00 00         : GR           - GAMMA RAY
CALI.MM       00 280 01 00         : CAL          - CALIPER
DPHI.V/V      00 890 00 00         : PHID         - DENSITY POROSITY (SANDSTONE)
NPHI.V/V      00 330 00 00         : PHIN         - NEUTRON POROSITY (SANDSTONE)
ILD .OHMM     00 120 00 00         : RESD         - DEEP RESISTIVITY (DIL)
~PARAMETER INFORMATION
#MNEM.UNIT           DATA             DESCRIPTION OF MNEMONIC
#---------         -----------     ------------------------------
GL  .M        511                  : gl           - GROUND LEVEL ELEVATION
EREF.M        515.1                : kb           - ELEVATION OF DEPTH REFERENCE
DATM.M        511                  : datum        - DATUM ELEVATION
TDD .M        317.5                : tdd          - TOTAL DEPTH DRILLER
RUN .         ONE                  : Run          - RUN NUMBER
ENG .         BILL                 : Engineer     - RECORDING ENGINEER
WIT .         JIM                  : Witness      - WITNESSED BY
MUD .         GEL                  : Mud_type     - MUD TYPE
MATR.         SANDSTONE            : Logunit      - NEUTRON MATRIX
TMAX.C        26                   : BHT          - MAXIMUM RECORDED TEMPERATURE
BHTD.M        317.5                : BHTDEP       - MAXIMUM RECORDED TEMPERATURE
MATR.         1                    : LOGUNIT      - NEUTRON MATRIX
RMT .C        15                   : MDTP         - TEMPERATURE OF MUD
NEUT.         1                    : NEUTRON      - NEUTRON TYPE
RESI.         0                    : RESIST       - RESISTIVITY TYPE
RMC .OHMM     6                    : RMC          - RESISTIVITY OF MUD CAKE
RMF .OHMM     5                    : RMF          - RESISTIVITY OF MUD FILTRATE
SUFT.C        -10                  : SUFT         - SURFACE TEMPERATURE
~A  DEPTH       GR      CAL     PHID     PHIN     RESD
  100.000   85.699  283.479    0.251    0.436    7.943
  100.250   86.013  283.493    0.246    0.428    7.656
  100.500   86.329  288.057    0.243    0.388    7.379
  100.750   86.338  291.607    0.243    0.378    6.421
  101.000   87.258  292.134    0.243    0.422    5.853
  101.250   88.178  292.658    0.246    0.426    5.642
  101.500   89.401  292.675    0.250    0.420    5.696
  101.750   90.322  293.204    0.250    0.416    5.751
  102.000   91.241  293.223    0.249    0.414    5.700
  102.250   92.465  293.242    0.249    0.409    5.649
  102.500   93.083  293.262    0.250    0.413    5.150
  102.750   92.186  292.779    0.249    0.451    4.738
  103.000   91.593  292.294    0.255    0.502    4.525
  103.250   92.211  291.803    0.255    0.496    4.402
  103.500   91.312  290.814    0.252    0.480    4.242
  103.750   90.114  287.807    0.264    0.461    4.166
  104.000   90.126  283.789    0.298    0.449    4.091
  104.250   90.138  276.236    0.312    0.430    3.979
  104.500   90.753  266.667    0.310    0.429    3.836
  104.750   91.069  268.712    0.301    0.451    3.629
  105.000   91.079  271.247    0.289    0.484    3.465
  105.250   90.790  278.332    0.290    0.488    3.278
  105.500   90.500  286.934    0.305    0.474    3.131
  105.750   89.904  292.502    0.345    0.474    3.018
  106.000   87.492  288.989    0.382    0.505    2.908
  106.250   83.870  287.494    0.382    0.542    2.830
  106.500   84.487  292.058    0.367    0.512    2.804
  106.750   84.802  292.582    0.349    0.474    2.805
  107.000   83.908  292.602    0.330    0.445    2.806
  107.250   82.404  292.623    0.316    0.495    2.807
  107.500   82.114  292.645    0.306    0.512    2.808
  107.750   82.732  292.662    0.297    0.515    2.809
  108.000   82.439  293.189    0.296    0.495    2.810
  108.250   79.728  293.203    0.295    0.441    2.759
  108.500   79.133  293.227    0.293    0.476    2.735
  108.750   79.749  293.242    0.291    0.507    2.736
  109.000   82.486  293.264    0.288    0.523    2.788
  109.250   84.011  293.281    0.287    0.499    2.868
  109.500   84.023  293.303    0.284    0.538    2.922
  109.750   83.429  293.322    0.281    0.554    3.034
  110.000   83.138  292.842    0.277    0.554    3.121
  110.250   83.454  292.856    0.272    0.503    3.210
  110.500   83.768  292.880    0.275    0.492    3.302
  110.750   84.082  292.390    0.285    0.516    3.365
  111.000   81.670  292.410    0.284    0.597    3.461
  111.250   76.534  292.429    0.277    0.539    3.661
  111.500   71.398  292.453    0.266    0.483    4.019
  111.750   66.869  292.972    0.256    0.429    4.371
  112.000   63.248  294.004    0.244    0.471    4.754
  112.250   62.954  294.528    0.244    0.492    5.028
  112.500   62.059  294.547    0.250    0.524    5.469
  112.750   61.465  294.564    0.259    0.470    6.173
  113.000   62.084  294.583    0.253    0.437    7.165
  113.250   64.214  294.605    0.247    0.409    7.939
  113.500   67.253  294.622    0.257    0.430    8.397
  113.750   67.569  294.142    0.279    0.412    8.964
  114.000   68.793  293.654    0.288    0.377    8.967
  114.250   70.013  292.162    0.298    0.358    8.971
  114.500   73.660  290.662    0.311    0.365    8.808
  114.750   78.213  281.598    0.313    0.380    8.649
  115.000   79.437  275.059    0.307    0.385    8.572
  115.250   75.813  280.122    0.288    0.385    8.575
  115.500   71.586  290.742    0.285    0.395    8.658
  115.750   68.266  299.851    0.280    0.422    8.906
  116.000   64.947  299.366    0.272    0.393    9.508
  116.250   63.145  298.878    0.259    0.364    9.423
  116.500   62.852  299.400    0.252    0.367    9.514
  116.750   63.165  297.905    0.254    0.432    9.786
  117.000   63.782  296.413    0.259    0.477   10.066
  117.250   64.401  296.430    0.264    0.466   10.259
  117.500   65.323  296.956    0.272    0.448   10.553
  117.750   65.032  296.976    0.284    0.430   10.855
  118.000   62.622  296.993    0.294    0.398   11.063
  118.250   60.814  296.510    0.289    0.417   11.274
  118.500   58.403  294.006    0.267    0.425   11.813
  118.750   59.020  294.527    0.226    0.394   12.380
  119.000   61.757  294.044    0.207    0.386   12.499
  119.250   66.918  292.043    0.240    0.401   12.621
  119.500   65.113  288.532    0.269    0.443   12.625
  119.750   63.311  288.047    0.288    0.418   12.513
  120.000   62.107  288.575    0.283    0.420   12.401
  120.250   62.426  288.085    0.275    0.417   12.291
  120.500   63.646  287.095    0.264    0.437   12.181
  120.750   65.171  286.612    0.265    0.450   12.072
  121.000   66.698  286.127    0.273    0.420   11.854
  121.250   68.223  285.639    0.265    0.363   11.748
  121.500   71.567  287.175    0.242    0.332   11.753
  121.750   70.365  291.235    0.249    0.345   11.757
  122.000   66.743  291.756    0.277    0.347   11.870
  122.250   63.727  290.264    0.278    0.351   12.097
  122.500   63.742  289.776    0.265    0.363   11.989
  122.750   65.569  291.310    0.260    0.369   11.664
  123.000   66.790  292.843    0.273    0.373   11.241
  123.250   69.528  294.881    0.285    0.374   10.059
  123.500   73.174  296.922    0.295    0.378    8.917
  123.750   78.332  298.453    0.298    0.400    6.813
  124.000   81.373  299.482    0.295    0.437    5.402
  124.250   81.080  298.996    0.286    0.455    4.284
  124.500   81.699  299.016    0.282    0.449    3.798
  124.750   81.103  300.047    0.282    0.440    3.462
  125.000   79.601  300.064    0.282    0.496    3.528
  125.250   77.495  299.074    0.276    0.503    3.873
  125.500   77.203  297.077    0.266    0.450    4.097
  125.750   77.215  295.075    0.260    0.456    4.497
  126.000   79.649  294.088    0.252    0.426    4.626
  126.250   82.690  294.609    0.243    0.415    4.758
  126.500   81.489  295.133    0.241    0.408    4.940
  126.750   78.473  296.162    0.242    0.493    5.225
  127.000   69.400  296.686    0.245    0.530    5.843
  127.250   65.475  295.196    0.241    0.515    6.596
  127.500   65.184  294.202    0.236    0.469    7.446
  127.750   68.528  295.230    0.232    0.391    7.730
  128.000   70.964  295.252    0.248    0.399    7.733
  128.250   71.579  294.265    0.264    0.443    7.049
  128.500   71.590  292.265    0.281    0.505    6.077
  128.750   69.180  288.750    0.299    0.531    5.803
  129.000   64.044  284.732    0.310    0.518    6.081
  129.250   59.816  277.685    0.308    0.485    6.801
  129.500   56.496  271.649    0.302    0.466    7.821
  129.750   55.599  274.696    0.295    0.434    8.427
  130.000   58.337  283.298    0.285    0.407    8.669
  130.250   61.376  288.868    0.287    0.419    8.512
  130.500   68.050  294.439    0.299    0.422    7.978
  130.750   75.329  297.484    0.285    0.462    6.815
  131.000   82.003  298.513    0.259    0.498    5.714
  131.250   76.867  298.537    0.236    0.470    5.716
  131.500   67.491  298.554    0.238    0.451    6.573
  131.750   66.897  296.553    0.270    0.414    7.149
  132.000   70.240  299.600    0.303    0.382    7.151
  132.250   71.767  303.662    0.315    0.354    6.829
  132.500   69.960  303.679    0.310    0.357    6.283
  132.750   66.338  295.118    0.309    0.425    6.227
  133.000   61.505  283.530    0.337    0.448    7.932
  133.250   54.855  275.979    0.391    0.453    9.555
  133.500   49.416  264.896    0.470    0.420   12.058
  133.750   45.795  255.831    0.470    0.366   15.793
  134.000   45.503  261.909    0.422    0.358   21.072
  134.250   47.029  259.907    0.392    0.379   21.474
  134.500   51.886  254.882    0.377    0.360   16.255
  134.750   55.833  260.958    0.422    0.384   13.756
  135.000   59.783  267.033    0.463    0.484   12.195
  135.250   62.822  270.081    0.452    0.451   10.612
  135.500   66.165  237.294    0.434    0.433    9.855
  135.750   69.810  223.692    0.414    0.417    9.767
  136.000   77.089  233.295    0.383    0.406    9.414
  136.250   84.671  234.326    0.359    0.414    8.907
