~VERSION INFORMATION
 VERS.                 2.0:   CWLS LOG ASCII STANDARD -VERSION 2.0
 WRAP.                  NO:   ONE LINE PER DEPTH STEP
~WELL INFORMATION BLOCK
#MNEM.UNIT           DATA                    DESCRIPTION OF MNEMONIC
#---------    -------------------            -------------------------------
# Generated from Intellog Unique Number	CX_WELLS/WELL/1050
WELL.         TEXACO McMURRAY                : Well_name    - WELL
LOC .         AA/03-16-088-09W4/0            : Location     - LOCATION
UWI .         AA/03-16-088-09W400            : Uwi          - UNIQUE WELL ID
ENTR.         RJA                            : Entered      - ENTERED BY
SRVC.         SCHLUMBERGER                   : Scn          - SERVICE COMPANY
STRT.M        75                             : top_depth    - START DEPTH
STOP.M        175                            : bot_depth    - STOP DEPTH
STEP.M        0.25                           : increment    - STEP LENGTH
 NULL. -999.2500:NULL Value
~CURVE INFORMATION BLOCK
#MNEM UNIT       ERCB CURVE CODE    CURVE DESCRIPTION
#-----------   ------------------   ----------------------------------
DEPT.M        00 001 00 00         : DEPTH        - DEPTH
GR  .API      00 310 00 00         : GR           - GAMMA RAY
NPHI.V/V      00 330 00 00         : PHIN         - NEUTRON POROSITY (SANDSTONE)
DPHI.V/V      00 890 00 00         : PHID         - DENSITY POROSITY (SANDSTONE)
ILD .OHMM     00 120 00 00         : RESD         - DEEP RESISTIVITY (DIL)
~PARAMETER INFORMATION
#MNEM.UNIT           DATA             DESCRIPTION OF MNEMONIC
#---------         -----------     ------------------------------
GL  .M        380.7                : gl           - GROUND LEVEL ELEVATION
EREF.M        384.7                : kb           - ELEVATION OF DEPTH REFERENCE
DATM.M        384.7                : datum        - DATUM ELEVATION
TDD .M        185.7                : tdd          - TOTAL DEPTH DRILLER
RUN .         ONE                  : Run          - RUN NUMBER
ENG .         BILL                 : Engineer     - RECORDING ENGINEER
WIT .         JIM                  : Witness      - WITNESSED BY
MUD .         GEL                  : Mud_type     - MUD TYPE
MATR.         SANDSTONE            : Logunit      - NEUTRON MATRIX
TMAX.C        14                   : BHT          - MAXIMUM RECORDED TEMPERATURE
BHTD.M        185.7                : BHTDEP       - MAXIMUM RECORDED TEMPERATURE
MATR.         1                    : LOGUNIT      - NEUTRON MATRIX
RMT .C        25                   : MDTP         - TEMPERATURE OF MUD
NEUT.         1                    : NEUTRON      - NEUTRON TYPE
RESI.         0                    : RESIST       - RESISTIVITY TYPE
RMC .OHMM     0.25                 : RMC          - RESISTIVITY OF MUD CAKE
RMF .OHMM     0.25                 : RMF          - RESISTIVITY OF MUD FILTRATE
SUFT.C        4                    : SUFT         - SURFACE TEMPERATURE
~A  DEPTH       GR     PHIN     PHID     RESD
# ...
  118.500   56.172    0.396    0.343   62.047
  118.750   48.642    0.423    0.337   60.909
  119.000   43.445    0.450    0.318   58.594
  119.250   44.091    0.466    0.322   57.520
  119.500   45.891    0.463    0.329   57.594
  119.750   48.274    0.452    0.329   58.872
  120.000   50.645    0.443    0.319   60.230
  120.250   52.445    0.441    0.313   60.282
  120.500   51.912    0.427    0.314   69.603
  120.750   49.047    0.405    0.307   77.144
  121.000   47.348    0.382    0.315   82.113
  121.250   46.828    0.361    0.312   85.687
  121.500   47.462    0.399    0.319   85.798
  121.750   45.763    0.434    0.334   85.982
  122.000   44.635    0.475    0.328   84.405
  122.250   44.698    0.501    0.305   84.514
  122.500   44.166    0.497    0.305   82.963
  122.750   43.050    0.470    0.310   79.845
  123.000   41.339    0.455    0.315   79.948
  123.250   43.138    0.400    0.319   76.975
  123.500   47.867    0.369    0.311   77.074
  123.750   48.513    0.399    0.302   77.174
  124.000   46.231    0.433    0.309   80.533
  124.250   43.949    0.365    0.324   80.672
  124.500   41.655    0.341    0.327   79.226
  124.750   39.373    0.336    0.326   77.739
  125.000   39.423    0.397    0.327   73.287
  125.250   41.236    0.386    0.332   70.501
  125.500   43.619    0.386    0.300   65.160
  125.750   48.905    0.398    0.266   62.630
  126.000   53.633    0.410    0.269   57.885
  126.250   52.517    0.399    0.311   55.685
  126.500   50.223    0.397    0.310   54.664
  126.750   46.775    0.425    0.306   54.758
  127.000   47.408    0.441    0.306   52.654
  127.250   55.052    0.422    0.311   49.659
  127.500   62.100    0.423    0.308   45.878
  127.750   63.900    0.436    0.311   44.115
  128.000   65.725    0.451    0.312   40.773
  128.250   66.917    0.443    0.299   40.025
  128.500   67.551    0.428    0.281   38.487
  128.750   67.601    0.419    0.270   37.797
  129.000   67.069    0.426    0.276   37.088
  129.250   65.966    0.449    0.288   37.184
  129.500   63.671    0.439    0.293   36.470
  129.750   59.069    0.424    0.283   36.533
  130.000   59.120    0.409    0.281   36.596
  130.250   58.600    0.419    0.290   36.675
  130.500   57.459    0.424    0.282   37.488
  130.750   54.024    0.415    0.284   38.337
  131.000   51.742    0.404    0.292   40.806
  131.250   50.043    0.412    0.295   42.564
  131.500   48.344    0.418    0.295   46.231
  131.750   46.075    0.389    0.307   51.219
  132.000   43.780    0.405    0.325   56.769
  132.250   41.486    0.447    0.338   53.540
  132.500   39.787    0.476    0.312   50.474
  132.750   41.599    0.367    0.310   45.696
  133.000   45.136    0.335    0.278   41.353
  133.250   55.112    0.361    0.286   36.688
  133.500   66.242    0.382    0.296   33.894
  133.750   67.459    0.411    0.306   40.734
  134.000   51.182    0.439    0.320   58.730
  134.250   47.747    0.458    0.329  190.377
  134.500   44.882    0.469    0.366  228.989
  134.750   43.170    0.479    0.381  224.595
  135.000   39.164    0.451    0.365  207.580
  135.250   36.870    0.442    0.354  184.087
  135.500   33.422    0.430    0.355  147.610
  135.750   32.281    0.437    0.357   98.614
  136.000   31.786    0.464    0.360   59.568
  136.250   32.978    0.493    0.376   48.741
  136.500   37.123    0.551    0.408   43.262
  136.750   41.255    0.573    0.469   39.967
  137.000   43.055    0.578    0.495   38.415
  137.250   45.425    0.570    0.520   37.711
  137.500   54.236    0.534    0.510   43.541
  137.750   51.383    0.553    0.515   69.491
  138.000   46.756    0.579    0.454   85.184
  138.250   41.546    0.589    0.448  153.499
  138.500   36.348    0.562    0.407  200.023
  138.750   32.317    0.545    0.337  339.210
  139.000   28.882    0.528    0.331  575.252
  139.250   28.337    0.495    0.339  490.128
  139.500   28.387    0.468    0.352  425.953
  139.750   30.187    0.508    0.376  237.296
  140.000   33.749    0.561    0.405  182.729
  140.250   36.715    0.538    0.414  129.716
  140.500   40.264    0.509    0.365  104.012
  140.750   43.231    0.496    0.345   90.432
  141.000   46.793    0.444    0.296   77.083
  141.250   49.163    0.378    0.296   67.019
  141.500   49.214    0.405    0.307   59.434
  141.750   46.349    0.427    0.318   68.624
  142.000   42.330    0.476    0.342   68.713
  142.250   41.202    0.553    0.367   66.158
  142.500   43.585    0.529    0.361   64.889
  142.750   48.896    0.477    0.306   58.746
  143.000   52.458    0.368    0.269   58.847
  143.250   50.176    0.382    0.268   51.164
  143.500   47.311    0.430    0.281   42.720
  143.750   46.195    0.475    0.299   39.450
  144.000   45.092    0.584    0.339   41.202
  144.250   44.535    0.590    0.368   39.602
  144.500   44.598    0.561    0.410   38.114
  144.750   45.231    0.496    0.444   36.665
  145.000   46.448    0.519    0.386   34.550
  145.250   46.499    0.558    0.400   31.919
  145.500   46.549    0.585    0.440   30.693
  145.750   46.600    0.593    0.454   36.163
  146.000   46.651    0.596    0.471   45.255
  146.250   46.688    0.596    0.531   67.943
  146.500   45.573    0.592    0.563  152.949
  146.750   40.375    0.586    0.444  150.143
  147.000   36.927    0.566    0.376  138.769
  147.250   36.978    0.431    0.328  128.201
  147.500   39.361    0.435    0.325  120.910
  147.750   40.578    0.457    0.328  118.590
  148.000   40.058    0.485    0.326  114.083
  148.250   40.096    0.497    0.325  121.430
  148.500   39.005    0.527    0.331  158.302
  148.750   38.447    0.540    0.337  210.498
  149.000   36.749    0.537    0.343  215.170
  149.250   35.050    0.526    0.339  215.539
  149.500   35.100    0.518    0.331  211.585
  149.750   35.151    0.501    0.328  187.801
  150.000   35.797    0.444    0.331  173.424
  150.250   36.431    0.517    0.347  150.846
  150.500   36.482    0.549    0.382  145.113
  150.750   35.949    0.558    0.422  157.548
  151.000   36.012    0.464    0.300  185.547
  151.250   36.063    0.440    0.295  185.866
  151.500   37.292    0.426    0.301  171.711
  151.750   38.484    0.416    0.306  143.372
  152.000   40.867    0.408    0.304   27.310
  152.250   51.414    0.401    0.285   14.031
  152.500   75.385    0.396    0.296   11.476
  152.750   97.607    0.389    0.301    9.782
  153.000  101.764    0.388    0.245    9.037
  153.250   99.457    0.408    0.229    8.182
  153.500   94.260    0.431    0.235    7.713
  153.750   90.812    0.453    0.243    7.572
  154.000  102.537    0.474    0.252    7.429
  154.250  113.084    0.497    0.241    7.449
  154.500  112.552    0.504    0.208    7.455
  154.750  110.865    0.482    0.212    7.624
  155.000  107.405    0.459    0.219    7.790
  155.250   97.542    0.439    0.233    7.966
  155.500   93.511    0.431    0.306    7.827
  155.750   98.239    0.468    0.327    7.680
  156.000  102.371    0.497    0.347    7.536
  156.250  105.908    0.518    0.359    7.397
  156.500  107.125    0.463    0.269    7.262
  156.750  105.426    0.418    0.230    7.277
  157.000  103.169    0.474    0.224    7.435
  157.250  105.553    0.526    0.257    7.921
  157.500  109.089    0.540    0.217    7.931
  157.750  113.222    0.492    0.198    8.104
  158.000  106.287    0.447    0.200    8.291
  158.250  103.435    0.421    0.203    8.298
  158.500  101.724    0.427    0.205    8.149
  158.750   99.999    0.435    0.200    8.160
  159.000   96.551    0.458    0.187    8.014
  159.250   93.686    0.466    0.160    7.867
  159.500   94.320    0.488    0.170    7.568
  159.750   96.716    0.518    0.187    6.991
  160.000   99.111    0.523    0.212    6.588
  160.250  100.328    0.537    0.285    5.181
  160.500  101.532    0.537    0.293    5.082
  160.750  102.775    0.508    0.286    5.091
  161.000  103.396    0.488    0.277    5.534
  161.250  104.612    0.461    0.266    5.888
  161.500  105.246    0.437    0.243    6.139
  161.750  106.463    0.412    0.221    6.668
