~Version : LASO    vs 4.00
VERS.                2.00:   CWLS Log ASCII Standard -VERSION 2.0
WRAP.                  NO:
~Well Information Block
#MNEM.UNIT       Data                        Description of Mnemonic
#----.----      -------------------------- : -----------------------------
STRT.M            30.0000:
STOP.M           204.0000:
STEP.M             0.2000:
NULL.           -999.2500:
COMP.  MOBIL OIL OF CANADA                    :COMPANY
WELL.  MOBIL CLARKE OV PROGRAM 2-81 4-3       :WELL
FLD.                                          :FIELD
LOC.   04-03-090-07W4                         :LOCATION
CTRY.  CANADA                                 :COUNTRY
PROV.  ALBERTA                                :PROVINCE
SRVC.  SCHLUMBERGER                           :SERVICE COMPANY
DATE.  26-JAN-81                              :LOG DATE
UWI.   AA/04-03-090-07W400                    :UNIQUE WELL ID
~Parameter Information Block
#MNEM.UNIT       Data                        Description of Mnemonic
#----.----      -------------------------- : -----------------------------
RUN .                   1                 : Run Number
GL  .M           466.8000                 : Ground Level Elevation
DREF.                  GD                 : Depth Reference
EREF.M           466.8000                 : Elevation of Depth Reference
TDL .M           205.0000                 : Total Depth Logger
TDD .M           205.0000                 : Total Depth Driller
BHT .DEGC         19.0000                 : Bottom Hole Temperature
BS  .MM          159.0000                 : Bit Size
DFD .            980.0000                 : Mud Weight (Density)
DFV .             38.0000                 : Mud Viscosity
DFPH.             10.0000                 : Mud pH
~Curve Information Block
#MNEM.UNIT        API CODE    Curve Description
#---------    ------------    -------------------------------------------
DEPT.M                    :   DEPTH
CALI.MM       42 280  1  1:   3 DENSITY CALIPER
DPHI.V/V                  :   DPHI
DT  .US/M     60 520  0  1:   2 SONIC INTERVAL TRANSIT TIME (COMPENSATED)
GR  .GAPI     42 310  1  1:   4 GAMMA RAY
ILD .OHMM      5 120 46  1:   7 DEEP INDUCTION
ILM .OHMM      5 120 44  1:   8 MEDIUM INDUCTION
NPHI.V/V      42 890  3  1:   5 NEUTRON POROSITY (SANDSTONE)
RHOB.K/M3     42 350  1  1:   6 BULK DENSITY
SFLU.OHMM      5 220  1  1:   9 FOCUSSED RESISTIVITY
SP  .MV        5  10  1  1:   10 SPONTANEOUS POTENTIAL
~A  Depth           CALI        DPHI          DT          GR         ILD         ILM        NPHI        RHOB        SFLU          SP
# ...
78.8000         173.5250      0.1633    398.2800     55.6800     33.4064     25.3414      0.2230   2381.3999     36.6294    -50.1750
79.0000         174.7750      0.1737    386.5600     56.3700     33.1001     25.1090      0.2240   2362.3000     36.6294    -50.4300
79.2000         173.5250      0.1766    383.4800     56.6700     33.1001     25.3414      0.2256   2372.3999     36.9683    -49.9200
79.4000         172.2500      0.1759    384.7200     56.4750     33.1001     25.3414      0.2238   2369.3000     36.2936    -49.9200
79.6000         172.2500      0.1873    393.9600     56.6700     33.1001     25.3414      0.2244   2346.3000     35.3045    -49.6650
79.8000         172.2500      0.2003    402.1600     56.4750     32.7967     25.1090      0.2252   2314.3000     34.3423    -49.9200
80.0000         178.6000      0.1957    396.8400     56.8800     32.7967     24.4247      0.2258   2346.3000     34.0275    -50.1750
80.2000         183.6750      0.1879    393.1200     56.9700     32.7967     24.2008      0.2272   2346.3000     34.3423    -49.9200
80.4000         186.2250      0.1841    393.3200     57.1800     32.4960     24.2008      0.2234   2346.3000     34.3423    -49.9200
80.6000         178.6000      0.1823    397.8400     56.7750     31.9029     24.2008      0.2216   2372.3999     34.0275    -49.4100
80.8000         178.6000      0.1779    403.0000     56.6700     31.9029     24.4247      0.2264   2370.3999     34.3423    -49.4100
81.0000         176.0500      0.1750    403.0000     57.0750     31.9029     24.4247      0.2280   2366.3000     34.0275    -49.6650
81.2000         176.0500      0.1801    402.3600     56.4750     31.3206     23.9789      0.2326   2337.3000     33.1001    -49.4100
81.4000         176.0500      0.1899    401.9600     56.3700     31.3206     23.9789      0.2390   2334.3000     33.1001    -49.4100
81.6000         176.0500      0.1929    396.6400     56.8800     31.0334     23.9789      0.2448   2354.3000     33.1001    -49.1550
81.8000         179.8750      0.1821    394.1600     55.7700     31.0334     23.5413      0.2438   2366.3000     32.1981    -49.1550
82.0000         182.4000      0.1839    392.9200     56.2800     30.7489     23.3254      0.2408   2337.3000     32.4960    -49.4100
82.2000         187.5000      0.1902    393.9600     56.6700     30.7489     23.3254      0.2350   2334.3000     32.4960    -49.6650
82.4000         187.5000      0.1977    392.5200     60.2700     30.4670     23.3254      0.2288   2330.3000     31.0334    -50.1750
82.6000         186.2250      0.2000    390.8800     60.2700     30.4670     23.3254      0.2306   2323.3000     31.0334    -50.1750
82.8000         179.8750      0.1969    393.3200     59.5800     30.1877     23.3254      0.2352   2328.3000     31.0334    -49.9200
83.0000         177.3250      0.1967    400.7200     58.4700     30.1877     23.3254      0.2326   2344.3000     31.3206    -50.1750
83.2000         176.0500      0.1994    404.6400     57.9750     30.1877     23.1116      0.2338   2328.3000     31.9029    -49.9200
83.4000         174.7750      0.2028    405.6800     56.9700     29.9109     23.1116      0.2360   2324.3000     32.1981    -50.1750
83.6000         177.3250      0.2038    405.6800     56.8800     29.9109     23.1116      0.2326   2321.3000     32.4960    -50.4300
83.8000         187.5000      0.2040    408.7600     58.0800     29.6367     22.8997      0.2280   2320.3000     32.1981    -50.6850
84.0000         182.4000      0.2051    408.9600     59.0700     29.6367     22.8997      0.2256   2314.3000     31.9029    -51.1950
84.2000         182.4000      0.2053    404.8400     58.4700     29.3650     22.6898      0.2284   2306.3000     31.9029    -51.4500
84.4000         179.8750      0.2022    413.0800     55.9800     29.0958     22.6898      0.2358   2322.3000     32.1981    -50.9400
84.6000         176.0500      0.1953    410.8000     54.4800     29.0958     22.6898      0.2380   2336.3000     31.9029    -50.9400
84.8000         177.3250      0.1921    410.6000     54.6750     29.0958     22.4817      0.2388   2350.3000     31.3206    -50.9400
85.0000         173.5250      0.2010    432.3600     57.1800     29.0958     22.6898      0.2444   2306.3000     32.1981    -50.9400
85.2000         173.5250      0.2077    441.0000     56.4750     29.0958     22.6898      0.2482   2306.3000     32.4960    -50.9400
85.4000         172.2500      0.1979    427.0400     54.8700     29.0958     22.4817      0.2518   2346.3000     32.4960    -51.4500
85.6000         172.2500      0.1858    413.8800     54.0750     28.5647     22.4817      0.2490   2365.3000     31.9029    -50.9400
85.8000         172.2500      0.1780    395.4000     54.4800     28.5647     22.4817      0.2416   2368.3000     31.9029    -50.9400
86.0000         173.5250      0.1811    392.3200     54.8700     28.5647     22.2756      0.2340   2345.3000     31.9029    -50.9400
86.2000         173.5250      0.1890    414.9200     55.1700     28.3028     22.2756      0.2324   2324.3000     31.9029    -51.1950
86.4000         174.7750      0.1978    421.8800     55.2750     27.7863     22.0714      0.2312   2306.3000     31.9029    -51.4500
86.6000         174.7750      0.2058    435.6800     54.5700     27.5315     22.0714      0.2320   2297.3000     31.6104    -51.7050
86.8000         174.7750      0.2112    414.7200     54.4800     27.5315     22.0714      0.2370   2313.3000     31.6104    -51.9600
87.0000         173.5250      0.2031    415.3200     56.7750     26.7812     21.8691      0.2336   2338.3000     31.6104    -52.2150
87.2000         173.5250      0.1955    414.2800     58.0800     26.7812     21.6686      0.2326   2324.3000     31.0334    -52.4700
87.4000         173.5250      0.2051    412.8400     58.2750     26.2924     21.6686      0.2486   2308.3000     30.7489    -52.7250
87.6000         173.5250      0.2082    413.8800     55.6800     25.5758     21.2731      0.2500   2305.3000     30.7489    -51.1950
87.8000         174.7750      0.2068    411.0000     54.6750     25.1090     20.8848      0.2406   2304.3000     31.0334    -50.9400
88.0000         174.7750      0.2119    416.3600     55.6800     24.8788     20.6933      0.2342   2320.3000     30.7489    -51.1950
88.2000         176.0500      0.2249    418.8000     55.9800     24.6507     20.5036      0.2352   2305.3000     29.6367    -51.9600
88.4000         176.0500      0.2404    417.6000     55.9800     24.4247     20.6933      0.2324   2250.2000     28.5647    -51.7050
88.6000         174.7750      0.2522    410.6000     55.2750     24.6507     20.5036      0.2356   2161.1001     28.0434    -51.7050
88.8000         177.3250      0.2398    413.0800     54.8700     24.8788     19.7620      0.2460   2254.2000     28.3028    -51.7050
89.0000         178.6000      0.2227    418.6000     56.4750     25.1090     19.5808      0.2560   2307.3000     28.3028    -51.7050
89.2000         179.8750      0.2092    418.0000     57.6750     25.1090     19.4013      0.2544   2324.3000     28.0434    -51.4500
89.4000         181.1250      0.2022    417.8000     57.6750     25.3414     19.0471      0.2436   2330.3000     28.0434    -51.7050
89.6000         178.6000      0.2017    419.6400     55.0800     25.3414     19.0471      0.2380   2328.3000     26.7812    -52.9800
89.8000         182.4000      0.2079    415.9200     53.5800     24.8788     18.6995      0.2362   2329.3000     25.5758    -54.0000
90.0000         186.2250      0.2233    427.0400     53.1750     24.2008     18.8725      0.2352   2312.3000     24.2008    -54.7650
90.2000         216.7000      0.2402    427.4400     53.8800     20.1294     18.3582      0.2414   2269.2000     24.4247    -55.0200
90.4000         231.9250      0.2541    428.6800     55.7700     16.2866     16.8978      0.2504   2234.2000     26.0513    -54.2550
90.6000         211.6250      0.2714    438.1200     59.9700     12.2414     14.0550      0.2636   2198.1001     27.2791    -52.9800
90.8000         186.2250      0.2875    458.2800     74.5800      7.4444      7.5828      0.2838   2181.1001     15.5536    -49.4100
