~VERSION INFORMATION
 VERS.                 2.0:   CWLS LOG ASCII STANDARD -VERSION 2.0
 WRAP.                  NO:   ONE LINE PER DEPTH STEP
~WELL INFORMATION BLOCK
#MNEM.UNIT           DATA                    DESCRIPTION OF MNEMONIC
#---------    -------------------            -------------------------------
# Generated from Intellog Unique Number	CN_94_101/WELL/2347
WELL.         01-05-101-13W4                 : Well_name    - WELL
LOC .         AA/01-05-101-13W4/0            : Location     - LOCATION
UWI .         AA/01-05-101-13W400            : Uwi          - UNIQUE WELL ID
ENTR.         TIM                            : Entered      - ENTERED BY
SRVC.         SCHLUMBERGER                   : Scn          - SERVICE COMPANY
DATE.         08/13/92                       : Date         - LOG DATE
STRT.M        350                            : top_depth    - START DEPTH
STOP.M        550                            : bot_depth    - STOP DEPTH
STEP.M        0.25                           : increment    - STEP LENGTH
NULL. -999.2500:NULL Value
~CURVE INFORMATION BLOCK
#MNEM UNIT       ERCB CURVE CODE    CURVE DESCRIPTION
#-----------   ------------------   ----------------------------------
DEPT.M        00 001 00 00         : DEPTH        - DEPTH
DPHI.V/V      00 890 00 00         : PHID         - DENSITY POROSITY (SANDSTONE)
NPHI.V/V      00 330 00 00         : PHIN         - NEUTRON POROSITY (SANDSTONE)
ILD .OHMM     00 120 00 00         : RESD         - DEEP RESISTIVITY (DIL)
GR  .API      00 310 00 00         : GR           - GAMMA RAY
~PARAMETER INFORMATION
#MNEM.UNIT           DATA             DESCRIPTION OF MNEMONIC
#---------         -----------     ------------------------------
GL  .M        775.3                : gl           - GROUND LEVEL ELEVATION
EREF.M        778.7                : kb           - ELEVATION OF DEPTH REFERENCE
DATM.M        778.7                : datum        - DATUM ELEVATION
TDD .M        554                  : tdd          - TOTAL DEPTH DRILLER
RUN .         ONE                  : Run          - RUN NUMBER
ENG .         JO                   : Engineer     - RECORDING ENGINEER
WIT .         TIM                  : Witness      - WITNESSED BY
MUD .         GEL                  : Mud_type     - MUD TYPE
MATR.         SANDSTONE            : Logunit      - NEUTRON MATRIX
TMAX.C        29                   : BHT          - MAXIMUM RECORDED TEMPERATURE
BHTD.M        554                  : BHTDEP       - MAXIMUM RECORDED TEMPERATURE
RMT .C        10                   : MDTP         - TEMPERATURE OF MUD
MUDD.KG/M     1000                 : MWT          - MUD DENSITY
NEUT.         1                    : NEUTRON      - NEUTRON TYPE
RESI.         0                    : RESIST       - RESISTIVITY TYPE
RM  .OHMM     6                    : RM           - RESISTIVITY OF MUD
RMC .OHMM     6                    : RMC          - RESISTIVITY OF MUD CAKE
RMF .OHMM     6                    : RMF          - RESISTIVITY OF MUD FILTRATE
SUFT.C        4                    : SUFT         - SURFACE TEMPERATURE
~A  DEPTH     PHID     PHIN     RESD       GR
# ...
  480.500    0.241    0.436    4.702  130.622
  480.750    0.245    0.447    4.504  131.905
  481.000    0.247    0.453    4.511  134.435
  481.250    0.251    0.459    4.311  135.079
  481.500    0.252    0.465    3.902  136.995
  481.750    0.252    0.471    4.332  137.633
  482.000    0.251    0.477    4.135  138.284
  482.250    0.247    0.483    4.142  138.315
  482.500    0.246    0.492    4.151  138.333
  482.750    0.247    0.509    4.158  138.990
  483.000    0.255    0.534    3.960  139.020
  483.250    0.263    0.527    3.972  139.039
  483.500    0.266    0.517    3.979  137.811
  483.750    0.263    0.511    3.784  134.078
  484.000    0.260    0.506    3.581  130.965
  484.250    0.254    0.506    2.963  132.242
  484.500    0.246    0.515    2.763  134.783
  484.750    0.238    0.543    2.565  132.297
  485.000    0.253    0.570    2.782  127.937
  485.250    0.246    0.577    3.002  125.451
  485.500    0.240    0.532    3.009  126.740
  485.750    0.249    0.506    3.021  129.275
  486.000    0.257    0.506    3.028  129.914
  486.250    0.263    0.504    3.244  131.203
  486.500    0.267    0.502    3.256  131.842
  486.750    0.268    0.492    3.263  135.009
  487.000    0.268    0.482    3.272  136.280
  487.250    0.267    0.473    3.283  137.557
  487.500    0.259    0.473    3.295  138.202
  487.750    0.257    0.477    3.302  139.485
  488.000    0.252    0.498    2.898  137.010
  488.250    0.244    0.502    2.695  135.144
  488.500    0.237    0.502    2.495  130.791
  488.750    0.231    0.473    2.295  126.431
  489.000    0.255    0.467    2.093  123.945
  489.250    0.274    0.490    1.893  118.965
  489.500    0.306    0.514    1.903  115.852
  489.750    0.322    0.543    2.123  112.745
  490.000    0.334    0.593    2.551  109.639
  490.250    0.341    0.600    2.976  106.532
  490.500    0.332    0.584    4.032  102.799
  490.750    0.330    0.579    5.299   98.439
  491.000    0.326    0.587    6.352   91.575
  491.250    0.329    0.594    8.458   80.953
  491.500    0.322    0.553    9.511   68.446
  491.750    0.308    0.516   11.823   61.582
  492.000    0.294    0.375   13.086   59.727
  492.250    0.279    0.369   14.978   58.506
  492.500    0.277    0.373   17.079   57.898
  492.750    0.284    0.375   18.974   56.043
  493.000    0.291    0.381   20.659   53.563
  493.250    0.288    0.390   20.880   53.587
  493.500    0.287    0.396   20.887   54.864
  493.750    0.292    0.397   20.057   56.147
  494.000    0.301    0.398   17.137   58.677
  494.250    0.309    0.399    8.357   61.212
  494.500    0.307    0.400    6.068   64.368
  494.750    0.302    0.402    4.822   68.770
  495.000    0.294    0.403    3.994   76.310
  495.250    0.288    0.409    3.376   88.859
  495.500    0.282    0.435    2.969  113.940
  495.750    0.287    0.460    2.764  121.480
  496.000    0.293    0.487    2.776  122.763
  496.250    0.294    0.486    2.785  115.892
  496.500    0.294    0.478    2.795  115.923
  496.750    0.292    0.470    3.013  119.079
  497.000    0.282    0.469    3.234  120.976
  497.250    0.272    0.475    3.243  124.138
  497.500    0.277    0.481    3.459  125.408
  497.750    0.262    0.480    3.469  125.433
  498.000    0.252    0.473    3.478  122.332
  498.250    0.248    0.465    4.117  117.340
  498.500    0.237    0.454    4.754  109.224
  498.750    0.209    0.411    8.736   86.703
  499.000    0.158    0.353   15.442   71.697
  499.250    0.131    0.313   17.546   63.574
  499.500    0.113    0.274   16.716   45.437
  499.750    0.142    0.248   13.169   37.320
  500.000    0.354    0.216    8.782   41.102
  500.250    0.349    0.196    7.536   45.517
  500.500    0.323    0.211    6.502   48.040
  500.750    0.301    0.249   15.716   53.701
  501.000    0.297    0.369   18.236   59.994
  501.250    0.305    0.426   19.085   63.776
  501.500    0.331    0.446   19.722   66.931
  501.750    0.334    0.457   20.566   70.093
  502.000    0.319    0.461   22.878   71.990
  502.250    0.308    0.463   26.235   75.779
  502.500    0.300    0.463   30.219   80.813
  502.750    0.268    0.453   33.367   91.478
  503.000    0.237    0.375   37.562  100.896
  503.250    0.189    0.359   39.245  116.583
  503.500    0.144    0.368   40.928  120.365
  503.750    0.137    0.398   43.030  118.511
  504.000    0.150    0.477   44.506  115.404
  504.250    0.279    0.505   45.145  111.671
  504.500    0.273    0.514   45.150  107.938
  504.750    0.264    0.492   44.950  101.700
  505.000    0.269    0.418   44.331   94.209
  505.250    0.312    0.394   41.830   86.092
  505.500    0.330    0.387   37.028   84.244
  505.750    0.340    0.368   25.321   86.147
  506.000    0.345    0.340   19.470   88.677
  506.250    0.313    0.331   14.459   92.453
  506.500    0.296    0.330   13.422   98.119
  506.750    0.267    0.331   16.151  101.901
  507.000    0.260    0.332   19.928  103.805
  507.250    0.249    0.336   22.866  105.702
  507.500    0.274    0.342   25.805  101.342
  507.750    0.303    0.390   28.952   76.943
  508.000    0.310    0.394   32.518   66.947
  508.250    0.326    0.387   37.132   63.846
  508.500    0.349    0.386   39.861   62.624
  508.750    0.343    0.398   39.243   62.017
  509.000    0.336    0.408   31.930   62.667
  509.250    0.329    0.420   27.755   65.829
  509.500    0.322    0.424   26.088   67.094
  509.750    0.327    0.422   24.214   68.997
  510.000    0.325    0.415   23.596   69.022
  510.250    0.323    0.409   24.449   68.420
  510.500    0.318    0.402   24.872   65.939
  510.750    0.308    0.400   25.093   65.337
  511.000    0.303    0.411   25.102   65.994
  511.250    0.323    0.413   24.066   67.265
  511.500    0.330    0.409   23.236   68.542
  511.750    0.329    0.400   22.201   69.193
  512.000    0.325    0.395   21.371   67.965
  512.250    0.319    0.391   20.546   67.363
  512.500    0.315    0.394   19.928   67.399
  512.750    0.315    0.400   20.146   68.044
  513.000    0.316    0.405   20.574   68.695
  513.250    0.320    0.410   21.002   68.087
  513.500    0.319    0.413   20.804   68.744
  513.750    0.316    0.417   20.390   69.388
  514.000    0.313    0.414   19.563   71.930
  514.250    0.313    0.412   18.526   73.833
  514.500    0.317    0.411   17.489   73.852
  514.750    0.322    0.411   17.712   73.876
  515.000    0.323    0.413   17.717   73.274
  515.250    0.316    0.417   18.145   72.046
  515.500    0.307    0.412   18.575   70.198
  515.750    0.303    0.407   18.791   69.596
  516.000    0.306    0.403   18.802   71.499
  516.250    0.308    0.416   17.768   73.403
  516.500    0.317    0.413   17.570   74.686
  516.750    0.323    0.406   17.575   74.698
  517.000    0.324    0.400   17.796   74.096
  517.250    0.318    0.393   17.805   73.494
  517.500    0.294    0.398   17.187   74.151
  517.750    0.292    0.405   16.150   75.428
  518.000    0.288    0.411   14.904   76.079
  518.250    0.289    0.415   14.074   76.103
  518.500    0.298    0.421   13.667   75.507
  518.750    0.307    0.429   14.097   74.900
  519.000    0.307    0.432   14.313   74.930
  519.250    0.302    0.434   14.953   74.322
  519.500    0.294    0.434   15.166   73.727
  519.750    0.265    0.430   14.967   73.739
  520.000    0.241    0.427   14.139   73.143
  520.250    0.220    0.407   13.311   73.788
  520.500    0.211    0.376   12.484   74.438
  520.750    0.207    0.373   10.192   76.342
  521.000    0.281    0.388    9.783   77.631
  521.250    0.302    0.387    9.585   77.649
  521.500    0.304    0.387    8.758   77.680
  521.750    0.306    0.389    8.139   77.698
  522.000    0.307    0.397    7.521   78.349
  522.250    0.304    0.410    7.949   79.632
  522.500    0.299    0.408    8.588   79.650
  522.750    0.299    0.403    8.383   80.307
  523.000    0.300    0.399    7.765   80.331
  523.250    0.299    0.402    6.937   79.103
  523.500    0.297    0.432    7.160   77.869
  523.750    0.294    0.455    7.797   75.389
