~VERSION INFORMATION
 VERS.                 2.0:   CWLS LOG ASCII STANDARD -VERSION 2.0
 WRAP.                  NO:   ONE LINE PER DEPTH STEP
~WELL INFORMATION BLOCK
#MNEM.UNIT           DATA                    DESCRIPTION OF MNEMONIC
#---------    -------------------            -------------------------------
# Generated from Intellog Unique Number	CC_84_87/WELL/1048
NULL.         -999.25                        : NULL_VALUE
WELL.         ARCO ACI MCMURRAY              : Well_name    - WELL
LOC .         02-35-084-09W4                 : Location     - LOCATION          
UWI .         AA/02-35-084-09W400            : Uwi          - UNIQUE WELL ID    
ENTR.         JHS                            : Entered      - ENTERED BY        
SRVC.         DRESSER ATLAS                  : Scn          - SERVICE COMPANY   
DATE.         12 JAN 76                      : Date         - LOG DATE
STRT.M        243.84                         : top_depth    - START DEPTH       
STOP.M        493.783                        : bot_depth    - STOP DEPTH        
STEP.M        0.305                          : increment    - STEP LENGTH       
~CURVE INFORMATION BLOCK
#MNEM UNIT       ERCB CURVE CODE    CURVE DESCRIPTION
#-----------   ------------------   ----------------------------------
DEPT.M        00 001 00 00         : DEPTH        - DEPTH                       
DPHI.V/V      00 890 00 00         : PHID         - DENSITY POROSITY (LIMESTONE)
GR  .API      00 310 00 00         : GR           - GAMMA RAY                   
ILD .OHMM     00 120 00 00         : RESD         - DEEP RESISTIVITY (DIL)      
~PARAMETER INFORMATION       
#MNEM.UNIT           DATA             DESCRIPTION OF MNEMONIC
#---------         -----------     ------------------------------
GL  .M        726.034              : gl           - GROUND LEVEL ELEVATION      
EREF.M        729.082              : kb           - ELEVATION OF DEPTH REFERENCE
DATM.M        729.082              : datum        - DATUM ELEVATION             
TDD .M        496.214              : tdd          - TOTAL DEPTH DRILLER         
RUN .         ONE                  : Run          - RUN NUMBER                  
ENG .         BILL                 : Engineer     - RECORDING ENGINEER          
WIT .         JIM                  : Witness      - WITNESSED BY                
MUD .         GEL                  : Mud_type     - MUD TYPE                    
MATR.         LIMESTONE            : Logunit      - NEUTRON MATRIX              
TMAX.C        60                   : BHT          - MAXIMUM RECORDED TEMPERATURE
BHTD.M        496.214              : BHTDEP       - MAXIMUM RECORDED TEMPERATURE
MATR.         1                    : LOGUNIT      - NEUTRON MATRIX              
RMT .C        25                   : MDTP         - TEMPERATURE OF MUD          
NEUT.         1                    : NEUTRON      - NEUTRON TYPE                
RESI.         0                    : RESIST       - RESISTIVITY TYPE            
RMC .OHMM     0.25                 : RMC          - RESISTIVITY OF MUD CAKE     
RMF .OHMM     0.25                 : RMF          - RESISTIVITY OF MUD FILTRATE 
SUFT.C        15                   : SUFT         - SURFACE TEMPERATURE         
~A  DEPTH     PHID       GR     RESD
  243.840    0.430   96.001    2.762
  244.145    0.420   95.421    2.712
  244.450    0.407   99.644    2.713
  244.754    0.404  104.467    2.664
  245.059    0.444  100.289    2.665
  245.364    0.465   99.114    2.666
  245.669    0.468  100.334    2.618
  245.974    0.466  100.356    2.619
  246.278    0.462   98.579    2.669
  246.583    0.459   96.802    2.670
  246.888    0.458   96.826    2.721
  247.193    0.454   96.241    2.722
  247.498    0.451   90.865    2.722
  247.802    0.443   86.687    2.723
  248.107    0.433   84.908    2.775
  248.412    0.416   86.131    2.828
  248.717    0.392   95.152    2.881
  249.021    0.383   95.174    2.936
  249.326    0.436   92.799    2.992
  249.631    0.450   92.820    2.993
  249.936    0.450   93.440    2.994
  250.241    0.451   93.462    2.940
  250.545    0.459   93.483    2.887
  250.850    0.471   92.907    2.783
  251.155    0.471   89.330    2.586
  251.460    0.462   85.152    2.493
  251.765    0.456   80.371    2.494
  252.069    0.446   62.994    2.589
  252.374    0.422   34.817    2.788
  252.679    0.336   29.439    3.679
  252.984    0.285   30.061    7.156
  253.289    0.293   33.684   10.169
  253.593    0.313   43.306   11.156
  253.898    0.337   51.726    9.989
  254.203    0.361   56.548    5.636
  254.508    0.390   42.770    5.434
  254.813    0.390   36.794    5.537
  255.117    0.374   42.816    5.855
  255.422    0.374   55.436    6.306
  255.727    0.357   60.859    6.308
  256.032    0.320   72.281    5.648
  256.337    0.329   90.302    4.052
  256.641    0.386   90.926    3.072
  256.946    0.454   90.345    2.701
  257.251    0.453   89.168    2.652
  257.556    0.448   87.992    2.753
  257.861    0.438   88.016    2.805
  258.165    0.431   88.639    3.021
  258.470    0.432   90.458    3.195
  258.775    0.437   92.876    3.255
  259.080    0.439   94.703    3.256
  259.385    0.442   94.123    3.198
  259.689    0.447   92.343    3.083
  259.994    0.442   89.365    3.084
  260.299    0.439   88.786    3.201
  260.604    0.442   89.411    3.323
  260.909    0.445   90.632    3.449
  261.214    0.450   89.455    3.450
  261.518    0.456   89.478    3.388
  261.823    0.457   89.501    3.327
  262.128    0.452   89.524    3.208
  262.433    0.444   89.543    3.209
  262.738    0.440   87.768    3.210
  263.042    0.438   88.986    3.332
  263.347    0.434   90.810    3.458
  263.652    0.428   90.828    3.459
  263.957    0.423   81.853    3.335
  264.262    0.412   62.076    3.275
  264.566    0.374   59.095    3.527
  264.871    0.350   59.718    4.742
  265.176    0.337   60.342    6.493
  265.481    0.330   61.560    8.728
  265.786    0.335   64.583   10.502
  266.090    0.348   74.204   10.507
  266.395    0.368   76.630   10.128
  266.700    0.372   73.650    8.903
  267.005    0.371   71.270    7.972
  267.310    0.371   68.900    7.545
  267.615    0.371   68.917    7.547
  267.919    0.367   71.937    8.752
  268.224    0.362   79.758    9.781
  268.529    0.360   80.981   10.534
  268.834    0.361   77.403   10.345
  269.139    0.364   72.626    9.791
  269.443    0.363   71.448    8.930
  269.748    0.366   72.068    8.297
  270.053    0.366   73.294    8.148
  270.358    0.359   73.912    8.151
  270.663    0.357   73.936    8.306
  270.967    0.364   73.357    8.309
  271.272    0.370   72.781    8.311
  271.577    0.366   72.203    8.314
  271.882    0.362   72.222    8.317
  272.187    0.363   71.649    8.319
  272.491    0.363   70.472    8.478
  272.796    0.359   69.893    8.638
  273.101    0.355   69.315    8.802
  273.406    0.356   69.935    8.970
  273.711    0.359   71.158    8.973
  274.016    0.363   71.178    8.976
  274.320    0.363   71.197    8.815
  274.625    0.366   68.820    8.656
  274.930    0.369   67.043    8.821
  275.235    0.364   63.463    9.326
  275.540    0.355   58.087   10.232
  275.844    0.354   61.111   11.434
  276.149    0.355   64.131   12.316
  276.454    0.353   65.351   13.265
  276.759    0.349   65.975   13.517
  277.064    0.338   67.198   13.521
  277.368    0.324   68.417   13.778
  277.673    0.313   70.241   13.530
  277.978    0.314   73.266   13.286
  278.283    0.338   73.285   13.049
  278.588    0.367   71.508   12.813
  278.892    0.379   67.329   12.127
  279.197    0.381   62.552   12.132
  279.502    0.379   62.574   12.136
  279.807    0.369   63.193   12.366
  280.112    0.360   65.617   12.370
  280.417    0.357   66.243   12.375
  280.721    0.359   66.861   12.152
  281.026    0.361   69.281   11.933
  281.331    0.362   73.504   11.294
  281.636    0.364   73.527   10.888
  281.941    0.370   72.348   10.498
  282.245    0.375   70.570   10.501
  282.550    0.372   69.391   10.900
  282.855    0.371   67.613   11.524
  283.160    0.374   64.635   12.412
  283.465    0.377   65.257   13.124
  283.769    0.379   70.081   13.621
  284.074    0.376   70.706   13.880
  284.379    0.375   70.729   13.382
  284.684    0.376   70.147   12.902
  284.989    0.377   69.570   12.669
  285.293    0.376   70.194   12.674
  285.598    0.376   70.210   12.678
  285.903    0.376   71.433   12.450
  286.208    0.379   73.258   12.226
  286.513    0.380   75.079   11.571
  286.818    0.378   76.898   10.751
  287.122    0.369   79.322   10.174
  287.427    0.368   81.144    9.280
  287.732    0.374   81.767    8.622
  288.037    0.380   81.785    8.160
  288.342    0.391   81.211    8.163
  288.646    0.393   79.431    8.165
  288.951    0.397   79.452    7.587
  289.256    0.403   81.275    6.919
  289.561    0.404   87.897    6.196
  289.866    0.407   96.918    5.249
  290.170    0.412  103.539    4.446
  290.475    0.416  107.162    3.981
  290.780    0.416  105.983    3.838
  291.085    0.414  101.207    4.134
  291.390    0.412   94.028    4.974
  291.694    0.402   80.249    6.811
  291.999    0.385   62.871    9.156
  292.304    0.366   58.094   11.862
  292.609    0.357   62.321   14.012
  292.914    0.358   65.339   14.278
  293.219    0.362   66.561   13.267
  293.523    0.362   66.584   12.325
  293.828    0.358   67.804   11.451
  294.133    0.352   67.226   11.040
  294.438    0.353   64.849   11.043
  294.743    0.353   58.270   11.048
  295.047    0.353   57.694   11.051
  295.352    0.354   57.113   11.262
  295.657    0.355   55.338   11.475
  295.962    0.352   54.158   11.692
  296.267    0.352   55.379   11.915
  296.571    0.352   58.402   12.140
  296.876    0.350   60.823   12.372
  297.181    0.354   59.049   12.375
  297.486    0.356   54.870   12.379
  297.791    0.357   54.889   11.935
  298.095    0.359   53.112   11.938
  298.400    0.358   49.534   11.944
  298.705    0.348   45.356   11.947
  299.010    0.347   40.580   12.174
  299.315    0.354   36.999   12.636
  299.620    0.364   35.826   13.610
  299.924    0.364   36.444   14.658
  300.229    0.361   37.067   15.788
  300.534    0.361   38.288   16.087
  300.839    0.363   40.111   16.093
  301.144    0.365   42.533   15.804
  301.448    0.364   43.754   15.519
  301.753    0.360   43.779   14.420
  302.058    0.360   43.804   14.159
  302.363    0.359   43.825   13.401
  302.668    0.361   43.248   13.161
  302.972    0.365   43.268   13.164
  303.277    0.366   43.891   12.929
  303.582    0.365   45.114   12.695
  303.887    0.360   47.534   12.468
  304.192    0.361   50.553   11.800
  304.496    0.356   53.573   11.167
  304.801    0.352   57.795   10.376
  305.106    0.351   65.619    9.640
  305.411    0.350   77.038    9.123
  305.716    0.352   91.462    8.322
  306.021    0.361   93.881    7.732
  306.325    0.386   93.307    7.317
  306.630    0.388   87.327    6.925
  306.935    0.383   82.549    6.676
  307.240    0.377   81.975    6.437
  307.545    0.369   81.992    6.438
  307.849    0.368   81.419    6.440
  308.154    0.371   82.636    6.563
  308.459    0.377   87.460    6.566
  308.764    0.381   88.081    6.447
  309.069    0.387   88.708    6.331
  309.373    0.390   91.123    5.883
  309.678    0.397   97.146    5.567
