~Version : LASO    vs 4.00 - DATA COPYRIGHT - RILEYS DATASHARE INTERNATIONAL
 VERS.                2.0 :   CWLS Log ASCII Standard -VERSION 2.0
 WRAP.                 NO :   One line per depth step
~Well Information Block
#MNEM.UNIT       Data                        Description of Mnemonic
#----.----      -------------------------- : -----------------------------
 STRT.M             0.0000                 : Start Depth
 STOP.M           204.7500                 : End Depth
 STEP.M             0.1250                 : Depth Increment
 NULL.           -999.25                   : NULL Value
 COMP.                                     : COMPANY
 WELL.    MOBIL CLARKE OV 7-25             : WELL NAME
 FLD .    WILDCAT                          : FIELD NAME
 LOC .    07-25-090-08W4                   : WELL LOCATION
 PROV.    ALBERTA                          : PROVINCE
 SRVC.    DRESSER ATLAS                    : LOGGING SERVICE COMPANY
 DATE.    19-FEB-81                        : DATE LOGGED
 UWI .    AA/07-25-090-08W400              : UNIQUE WELL ID
~Curve Information Block
#MNEM.UNIT        API CODE                   Curve Description
#----.----      LG--CV-CL--M               : -----------------
 DEPT.M          0   1  0  0               : 1 DEPTH
 DT  .US/M      60 520 42  1               : 2 SONIC INTERVAL TRANSIT TIME (COMPENSATED)
 CALI.MM        42 280  1  1               : 3 DENSITY CALIPER
 GR  .GAPI      42 310  1  1               : 4 GAMMA RAY
 NPHI.V/V       42 890  3  1               : 5 NEUTRON POROSITY (SANDSTONE)
 RHOB.K/M3      42 350  1  1               : 6 BULK DENSITY
 IL  .OHMM       5 120 45  1               : 7 INDUCTION
 SFL .OHMM       5 220  6  1               : 8 FOCUSSED RESISTIVITY
 SP  .MV         5  10  1  1               : 9 SPONTANEOUS POTENTIAL
~Parameter Information Block
#MNEM.UNIT       Data                        Description of Mnemonic
#----.----      -------------------------- : -----------------------------
 RUN .                   1                 : Run Number
 GL  .M           449.0000                 : Ground Level Elevation
 DREF.                  KB                 : Depth Reference
 EREF.M           449.0000                 : Elevation of Depth Reference
 TDL .M           202.0000                 : Total Depth Logger
 TDD .M           205.0000                 : Total Depth Driller
 BHT .DEGC         20.0000                 : Bottom Hole Temperature
 BS  .MM          159.0000                 : Bit Size
 DFD .           9999.0000                 : Mud Weight (Density)
 DFV .            150.0000                 : Mud Viscosity
 RM  .OHMM          4.1000                 : Mud Resistivity
 RMT .DEGC         20.0000                 : Mud Resistivity Temperature
 RMF .OHMM          3.9000                 : Mud Filtrate Resistivity
 RMFT.DEGC          8.0000                 : RMF Temperature
 RMC .OHMM          7.8000                 : Mud Cake Resistivity
 RMCT.DEGC          8.0000                 : RMC Temperature
~Asc DEPTH      DT         CALI       GR         NPHI       RHOB       IL         SFL        SP   
# ...
  121.5000   491.9200   210.3500   110.3400     0.4263  2135.0000     3.5050     6.6150  -121.7700
  121.6250   497.5600   210.3500   110.3400     0.4377  2139.8999     3.5050     6.6750  -121.7700
  121.7500   505.1600   210.3500   109.6050     0.4399  2143.6001     3.5650     6.2500  -121.9500
  121.8750   509.3600   210.3500   109.9650     0.4399  2141.7000     3.6300     6.1250  -121.9500
  122.0000   503.9200   210.3500   109.9650     0.4336  2137.5000     3.7500     6.1250  -121.7700
  122.1250   526.8000   210.3500   111.4500     0.4292  2134.3999     3.8750     6.3100  -121.5900
  122.2500   566.3600   210.3500   111.8100     0.4292  2135.0000     3.9950     6.5550  -121.5900
  122.3750   551.6000   210.6500   110.8950     0.4381  2139.3000     4.1200     6.6750  -121.5900
  122.5000   510.0800   210.9500   109.9650     0.4461  2141.1001     4.1800     6.7400  -121.7700
  122.6250   486.0000   210.6500   109.6050     0.4351  2146.6001     4.3050     6.9200  -122.1450
  122.7500   492.1600   211.2500   108.8700     0.4215  2154.0000     4.3650     7.4750  -122.3250
  122.8750   490.6800   211.5750   107.0250     0.4156  2165.0000     4.4250     8.1450  -122.5050
  123.0000   487.7200   211.5750   105.5400     0.4090  2170.5000     4.3650     8.2100  -122.8800
  123.1250   488.4800   210.9500   105.1800     0.4072  2174.8000     4.4250     7.9000  -122.8800
  123.2500   488.9600   210.3500   105.9150     0.4050  2182.8000     4.4250     7.7200  -123.2550
  123.3750   489.4400   209.4250   106.8300     0.4083  2188.8999     4.4250     7.2300  -123.6150
  123.5000   490.2000   207.9000   107.7600     0.4120  2190.8000     4.4250     6.4950  -123.2550
  123.6250   494.8400   206.3500   109.0500     0.4120  2190.8000     4.3650     6.1850  -122.8800
  123.7500   496.5600   205.4500   110.7000     0.4186  2182.8000     4.3050     6.5550  -122.8800
  123.8750   499.2800   204.2250   111.0750     0.4142  2169.8999     4.2400     7.1650  -123.0600
  124.0000   499.0400   202.6750   110.8950     0.4061  2163.2000     4.2400     7.6550  -123.4350
  124.1250   489.4400   202.0750   112.7400     0.4061  2164.3999     4.3050     7.5350  -123.4350
  124.2500   484.8000   201.4500   113.1000     0.4006  2169.3000     4.4250     7.0450  -123.4350
  124.3750   478.8800   200.8500   113.6550     0.4145  2177.3000     4.6700     7.0450  -123.6150
  124.5000   482.8400   200.2250   114.3900     0.4131  2183.3999     4.9150     6.9200  -123.6150
  124.6250   503.9200   200.2250   116.2350     0.4090  2190.1001     5.1600     6.5550  -123.6150
  124.7500   525.8000   200.5500   116.4150     0.4013  2191.3999     5.5900     6.3100  -123.9900
  124.8750   542.5200   200.5500   114.2100     0.3797  2189.5000     6.0200     6.9200  -124.1700
  125.0000   556.7600   200.8500   113.4750     0.3679  2188.8999     6.4500     8.1450  -124.5450
  125.1250   560.2000   200.8500   111.2550     0.3562  2193.8000     7.0650     9.6800  -125.8500
  125.2500   542.7600   201.1500   107.7600     0.3470  2198.1001     7.8600    11.2100  -128.0700
  125.3750   528.0400   201.4500   103.5150     0.3389  2200.6001     8.7800    12.1900  -130.4700
  125.5000   506.4000   201.4500   101.3100     0.3389  2206.7000     9.7000    12.4950  -132.6900
  125.6250   480.3600   201.1500    98.9100     0.3359  2204.8000    10.5000    12.2500  -133.8150
  125.7500   467.6000   200.8500    97.0650     0.3349  2203.0000    11.1750    12.5600  -134.9250
  125.8750   470.2800   199.6250    94.4850     0.3389  2195.0000    11.6050    13.1700  -135.8400
  126.0000   474.9600   198.7000    94.1250     0.3437  2181.0000    11.7250    13.6000  -136.3950
  126.1250   490.9200   198.7000    93.9300     0.3400  2187.1001    11.6650    13.5400  -136.2150
  126.2500   497.3200   198.7000    93.5700     0.3374  2196.3000    11.4200    13.1100  -136.0350
  126.3750   502.9200   199.9250    93.3900     0.3451  2190.1001    11.1750    12.6800  -135.8400
  126.5000   510.0800   200.8500    94.6800     0.3518  2169.8999    10.7450    12.6200  -135.6600
  126.6250   533.4400   201.1500    96.5100     0.3547  2155.8000    10.3750    12.8650  -135.4800
  126.7500   541.8000   200.5500    97.6200     0.3591  2158.3000    10.1950    13.0500  -135.4800
  126.8750   554.0800   199.6250   100.3800     0.3584  2158.3000     9.9500    12.8050  -134.7300
  127.0000   560.4800   199.3250   103.7100     0.3587  2149.1001     9.7650    11.0900  -133.2600
  127.1250   573.4800   198.4000   106.0950     0.3569  2141.7000     9.6400    11.4550  -131.7750
  127.2500   576.9200   197.4750   106.8300     0.3572  2141.7000     9.7000    12.4350  -132.8850
  127.3750   577.4000   196.8750   106.0950     0.3437  2142.3000     9.8250    13.1700  -134.1750
  127.5000   562.4400   196.8750   105.9150     0.3330  2145.3999    10.1300    11.0250  -133.8150
  127.6250   364.8800   196.5500   102.6000     0.3194  2136.2000    10.6850     9.9250  -133.4400
  127.7500   129.7600   196.5500    96.1500     0.3044  2122.7000    11.3600     9.9850  -133.2600
  127.8750    48.4400   196.5500    89.5200     0.2846  2103.1001    12.1550    10.8450  -133.9950
  128.0000    53.8400   196.5500    87.8550     0.2772  2092.1001    12.8900    12.8050  -134.5500
  128.1250    77.6800   195.9500    88.0350     0.2684  2088.3999    13.7500    15.9900  -135.6600
  128.2500   122.6400   195.6250    88.0350     0.2607  2084.1001    14.9150    19.4200  -138.2550
  128.3750   267.3600   194.4000    87.1200     0.2387  2081.1001    16.2650    21.0750  -139.5450
  128.5000   494.3600   194.7250    85.0950     0.2339  2075.6001    17.7400    23.4050  -139.3650
  128.6250   589.2000   195.3250    81.7800     0.2284  2060.2000    19.2100    28.1850  -139.3650
  128.7500   580.8400   194.4000    78.2700     0.2203  2051.7000    20.9900    28.4900  -139.7400
  128.8750   581.8400   193.8000    75.8850     0.2195  2050.3999    22.5850    22.5450  -139.7400
  129.0000   581.6000   194.1000    75.3300     0.2247  2057.8000    23.5050    18.3200  -139.9200
  129.1250   550.6400   194.4000    76.2450     0.2335  2084.1001    23.5650    20.2800  -139.9200
  129.2500   473.0000   194.7250    76.0650     0.2401  2136.8000    23.7500    29.4700  -140.2950
  129.3750   296.3200   195.3250    75.6900     0.2350  2200.0000    24.2400    47.3000  -140.2950
  129.5000   143.7600   195.3250    76.2450     0.2247  2263.1001    25.1000    60.7000  -140.2950
  129.6250   480.3600   194.1000    76.0650     0.2074  2344.6001    26.4500    35.6000  -140.6700
  129.7500   399.5200   194.7250    75.5100     0.1997  2392.3000    27.8600    26.0400  -140.4750
  129.8750   220.9200   195.3250    73.6650     0.2144  2357.3999    28.7200    25.8550  -140.8500
  130.0000   159.7200   195.0250    72.7500     0.2174  2225.7000    28.6000    30.3900  -141.9600
  130.1250   536.6400   195.0250    72.9300     0.2185  2084.7000    28.4150    33.8200  -142.6950
  130.2500   411.3200   193.8000    72.0150     0.2152  2059.6001    28.6600    39.3950  -143.6250
  130.3750   200.2800   193.5000    70.5300     0.2141  2065.1001    28.8450    41.6050  -144.5550
  130.5000   204.6800   193.5000    67.9500     0.2162  2065.1001    28.8450    36.5800  -145.1100
  130.6250   573.4800   192.8750    65.9250     0.2210  2062.1001    28.6600    32.1650  -145.4850
  130.7500   555.0400   192.2750    64.6350     0.2280  2060.2000    28.3550    32.7800  -146.0400
  130.8750   530.0000   192.2750    64.0800     0.2512  2063.8999    27.5550    35.1100  -147.1500
  131.0000   537.1200   191.9500    63.5250     0.2530  2074.3000    26.5100    38.1700  -147.8850
  131.1250   550.4000   191.9500    62.2350     0.2566  2074.3000    25.4100    42.3400  -147.8850
  131.2500   499.7600   192.8750    59.1150     0.2629  2078.6001    24.6700    44.8500  -148.2600
  131.3750   450.4000   194.1000    56.3400     0.2743  2086.0000    23.8750    34.8650  -148.0650
  131.5000   457.5200   193.8000    55.2450     0.2893  2091.5000    23.2600    26.4050  -146.4000
