~VERSION INFORMATION
 VERS.                 2.0:   CWLS LOG ASCII STANDARD -VERSION 2.0
 WRAP.                  NO:   ONE LINE PER DEPTH STEP
~WELL INFORMATION BLOCK
#MNEM.UNIT           DATA                    DESCRIPTION OF MNEMONIC
#---------    -------------------            -------------------------------
# Generated from Intellog Unique Number	CW_82_90/WELL/3417
WELL.         PCENT WOODEN HOUSE             : Well_name    - WELL
LOC .         AA/05-24-088-23W4/0            : Location     - LOCATION
UWI .         AA/05-24-088-23W4/0            : Uwi          - UNIQUE WELL ID
ENTR.         MAX                            : Entered      - ENTERED BY
SRVC.         COMPUTALOG                     : Scn          - SERVICE COMPANY
STRT.M        100                            : top_depth    - START DEPTH
STOP.M        306                            : bot_depth    - STOP DEPTH
STEP.M        0.25                           : increment    - STEP LENGTH
 NULL. -999.2500:NULL Value
~CURVE INFORMATION BLOCK
#MNEM UNIT       ERCB CURVE CODE    CURVE DESCRIPTION
#-----------   ------------------   ----------------------------------
DEPT.M        00 001 00 00         : DEPTH        - DEPTH
GR  .API      00 310 00 00         : GR           - GAMMA RAY
CALI.MM       00 280 01 00         : CAL          - CALIPER
DPHI.V/V      00 890 00 00         : PHID         - DENSITY POROSITY (SANDSTONE)
NPHI.V/V      00 330 00 00         : PHIN         - NEUTRON POROSITY (SANDSTONE)
ILD .OHMM     00 120 00 00         : RESD         - DEEP RESISTIVITY (DIL)
~PARAMETER INFORMATION
#MNEM.UNIT           DATA             DESCRIPTION OF MNEMONIC
#---------         -----------     ------------------------------
GL  .M        511                  : gl           - GROUND LEVEL ELEVATION
EREF.M        515.1                : kb           - ELEVATION OF DEPTH REFERENCE
DATM.M        511                  : datum        - DATUM ELEVATION
TDD .M        317.5                : tdd          - TOTAL DEPTH DRILLER
RUN .         ONE                  : Run          - RUN NUMBER
ENG .         BILL                 : Engineer     - RECORDING ENGINEER
WIT .         JIM                  : Witness      - WITNESSED BY
MUD .         GEL                  : Mud_type     - MUD TYPE
MATR.         SANDSTONE            : Logunit      - NEUTRON MATRIX
TMAX.C        26                   : BHT          - MAXIMUM RECORDED TEMPERATURE
BHTD.M        317.5                : BHTDEP       - MAXIMUM RECORDED TEMPERATURE
MATR.         1                    : LOGUNIT      - NEUTRON MATRIX
RMT .C        15                   : MDTP         - TEMPERATURE OF MUD
NEUT.         1                    : NEUTRON      - NEUTRON TYPE
RESI.         0                    : RESIST       - RESISTIVITY TYPE
RMC .OHMM     6                    : RMC          - RESISTIVITY OF MUD CAKE
RMF .OHMM     5                    : RMF          - RESISTIVITY OF MUD FILTRATE
SUFT.C        -10                  : SUFT         - SURFACE TEMPERATURE
~A  DEPTH       GR      CAL     PHID     PHIN     RESD
# ...
  136.500   84.079  229.301    0.323    0.360    8.349
  136.750   78.638  226.293    0.278    0.414    7.972
  137.000   80.770  229.345    0.313    0.431    7.067
  137.250   86.837  232.388    0.330    0.448    6.324
  137.500   90.790  233.919    0.316    0.440    5.819
  137.750   90.799  234.947    0.296    0.473    5.158
  138.000   88.995  234.964    0.293    0.478    5.018
  138.250   85.674  234.984    0.316    0.467    5.162
  138.500   78.418  233.996    0.319    0.471    5.511
  138.750   74.191  233.009    0.317    0.462    5.775
  139.000   73.294  231.509    0.315    0.441    6.165
  139.250   72.397  232.036    0.314    0.432    6.643
  139.500   70.289  224.487    0.318    0.429    7.158
  139.750   67.576  230.058    0.328    0.476    7.571
  140.000   64.862  231.084    0.311    0.476    8.158
  140.250   62.453  225.050    0.294    0.485    8.873
  140.500   61.857  222.544    0.276    0.410    9.127
  140.750   65.502  223.572    0.280    0.415    8.715
  141.000   71.267  225.106    0.285    0.390    8.246
  141.250   80.363  227.144    0.288    0.406    7.947
  141.500   84.010  222.624    0.282    0.417    7.950
  141.750   85.536  220.622    0.272    0.509    8.331
  142.000   85.547  224.174    0.283    0.474    8.650
  142.250   87.679  227.224    0.287    0.458    8.815
  142.500   88.296  229.764    0.284    0.445    8.900
  142.750   87.399  230.796    0.275    0.414    8.986
  143.000   86.502  229.806    0.258    0.417    9.073
  143.250   85.303  227.306    0.252    0.395    9.076
  143.500   85.619  226.312    0.245    0.372    9.079
  143.750   87.749  225.826    0.239    0.375    8.999
  144.000   89.577  224.841    0.240    0.411    8.836
  144.250   90.194  224.351    0.243    0.419    8.676
  144.500   89.297  222.859    0.242    0.415    8.599
  144.750   87.795  222.371    0.241    0.414    8.602
  145.000   87.505  222.391    0.241    0.426    8.605
  145.250   88.121  221.908    0.240    0.424    8.688
  145.500   87.529  221.925    0.239    0.421    8.772
  145.750   84.815  221.944    0.237    0.444    9.023
  146.000   79.980  220.957    0.230    0.439    9.456
  146.250   76.360  220.469    0.230    0.426    9.908
  146.500   76.067  220.995    0.236    0.405   10.383
  146.750   76.687  222.022    0.239    0.422   10.681
  147.000   84.267  223.050    0.236    0.404   10.488
  147.250   89.427  222.060    0.235    0.361    8.875
  147.500   96.403  222.080    0.239    0.365    7.103
  147.750  103.078  222.099    0.248    0.425    5.377
  148.000  100.970  221.619    0.259    0.448    5.040
  148.250   98.558  221.638    0.277    0.470    5.089
  148.500   94.937  221.660    0.276    0.482    5.235
  148.750   87.074  222.179    0.273    0.481    5.435
  149.000   82.545  223.210    0.276    0.487    5.695
  149.250   87.402  223.734    0.282    0.490    5.968
  149.500   90.743  222.742    0.277    0.449    6.196
  149.750   87.121  221.752    0.265    0.429    6.433
  150.000   84.409  223.286    0.258    0.406    6.617
  150.250   85.632  225.831    0.259    0.416    6.744
  150.500   89.580  226.352    0.260    0.456    6.746
  150.750   85.956  227.886    0.251    0.490    6.382
  151.000   82.940  227.908    0.218    0.466    5.982
  151.250   85.981  226.918    0.167    0.437    5.254
  151.500   93.563  226.935    0.164    0.438    4.925
  151.750   99.328  227.963    0.184    0.552    4.927
  152.000  104.487  225.462    0.246    0.536    5.068
  152.250  101.471  223.967    0.257    0.500    5.667
  152.500   94.518  223.482    0.272    0.472    6.578
  152.750   76.966  224.008    0.292    0.441    8.148
  153.000   58.204  224.025    0.315    0.455   10.573
  153.250   48.221  229.094    0.344    0.424   14.507
  153.500   42.178  235.672    0.352    0.395   18.138
  153.750   40.676  228.628    0.366    0.398   18.144
  154.000   44.321  227.636    0.372    0.415   15.213
  154.250   56.445  227.658    0.343    0.385   10.494
  154.500   67.964  226.668    0.314    0.377    8.880
  154.750   81.299  226.180    0.270    0.389    7.042
  155.000   87.367  225.697    0.250    0.430    6.015
  155.250   91.621  225.716    0.236    0.447    5.433
  155.500   94.963  225.229    0.243    0.446    5.236
  155.750   86.192  225.248    0.251    0.467    5.748
  156.000   74.091  225.267    0.250    0.507    6.989
  156.250   63.503  226.301    0.245    0.591    8.902
  156.500   56.247  226.318    0.274    0.598   11.877
  156.750   51.415  225.833    0.310    0.528   15.270
  157.000   50.517  225.350    0.342    0.474   20.951
  157.250   50.530  224.358    0.342    0.443   23.213
  157.500   51.146  224.377    0.342    0.423   23.221
  157.750   53.282  224.906    0.341    0.386   22.801
  158.000   54.806  224.920    0.339    0.357   22.598
  158.250   56.636  224.942    0.339    0.334   22.606
  158.500   57.554  225.464    0.342    0.339   22.825
  158.750   57.565  225.486    0.349    0.377   22.621
  159.000   57.273  225.508    0.357    0.460   21.803
  159.250   54.863  226.531    0.351    0.441   20.821
  159.500   47.304  228.065    0.286    0.391   20.067
  159.750   45.805  228.589    0.218    0.378   20.075
  160.000   48.236  227.097    0.271    0.445   20.084
  160.250   53.094  229.639    0.323    0.429   20.465
  160.500   55.528  231.678    0.336    0.491   20.856
  160.750   55.235  232.199    0.326    0.506   21.257
  161.000   54.339  227.174    0.331    0.523   21.661
  161.250   53.745  226.687    0.341    0.511   22.076
  161.500   53.758  226.711    0.340    0.483   22.288
  161.750   54.679  226.728    0.331    0.477   22.504
  162.000   53.175  226.243    0.307    0.491   22.304
  162.250   52.581  225.253    0.165    0.437   21.900
  162.500   53.503  224.263    0.108    0.270   20.338
  162.750   52.907  224.282    0.183    0.264   17.372
  163.000   51.708  223.297    0.227    0.388   15.545
  163.250   49.600  222.304    0.250    0.464   16.442
  163.500   49.613  221.817    0.291    0.475   17.717
  163.750   51.441  221.839    0.323    0.445   19.998
  164.000   52.060  221.858    0.325    0.438   20.005
  164.250   51.767  221.875    0.316    0.445   20.012
  164.500   51.476  221.899    0.314    0.450   19.288
  164.750   53.909  222.418    0.322    0.433   18.248
  165.000   58.161  222.443    0.300    0.427   16.481
  165.250   63.018  222.460    0.267    0.442   13.438
  165.500   72.417  222.984    0.242    0.425   11.267
  165.750   82.724  224.517    0.280    0.408    9.804
  166.000   85.460  225.046    0.260    0.414    8.773
  166.250   86.381  225.061    0.250    0.387    7.923
  166.500   90.632  221.550    0.258    0.368    6.959
  166.750   95.187  219.043    0.260    0.357    6.227
  167.000   97.621  218.558    0.260    0.364    5.837
  167.250   97.935  219.587    0.258    0.406    5.420
  167.500   97.646  221.123    0.254    0.419    5.372
  167.750   94.022  221.647    0.248    0.443    5.578
  168.000   91.006  222.168    0.244    0.452    5.684
  168.250   92.533  222.188    0.241    0.438    5.739
  168.500   96.177  221.707    0.242    0.416    5.583
  168.750  101.336  221.722    0.250    0.380    5.381
  169.000  102.559  221.744    0.256    0.339    5.045
  169.250   98.937  221.763    0.258    0.420    4.953
  169.500   96.829  221.278    0.257    0.429    5.048
  169.750   95.024  220.790    0.255    0.413    5.339
  170.000   92.916  219.800    0.251    0.472    5.753
  170.250   88.689  218.813    0.244    0.503    6.494
  170.500   81.736  217.825    0.243    0.507    7.128
  170.750   79.628  217.337    0.244    0.476    7.753
  171.000   79.640  216.857    0.261    0.441    8.590
  171.250   81.771  216.874    0.283    0.427    9.606
  171.500   84.510  216.891    0.291    0.398    9.790
  171.750   86.641  218.427    0.284    0.387    8.441
  172.000   88.467  220.465    0.254    0.387    6.693
  172.250   90.901  221.496    0.230    0.394    5.770
  172.500   94.852  222.018    0.165    0.422    4.749
  172.750  100.312  222.539    0.203    0.468    4.133
