~VERSION INFORMATION
 VERS.                 2.0:   CWLS LOG ASCII STANDARD -VERSION 2.0
 WRAP.                  NO:   ONE LINE PER DEPTH STEP
~WELL INFORMATION BLOCK
#MNEM.UNIT           DATA                    DESCRIPTION OF MNEMONIC
#---------    -------------------            -------------------------------
# Generated from Intellog Unique Number	CX_WELLS/WELL/1056
WELL.         COSEKA TOTAL LYNTON CTL 10     : Well_name    - WELL
LOC .         AA/05-03-088-07W4/0            : Location     - LOCATION
UWI .         AA/05-03-088-07W400            : Uwi          - UNIQUE WELL ID
ENTR.         DW                             : Entered      - ENTERED BY
SRVC.         SCHLUMBERGER                   : Scn          - SERVICE COMPANY
STRT.M        35                             : top_depth    - START DEPTH
STOP.M        160                            : bot_depth    - STOP DEPTH
STEP.M        0.25                           : increment    - STEP LENGTH
 NULL. -999.2500:NULL Value
~CURVE INFORMATION BLOCK
#MNEM UNIT       ERCB CURVE CODE    CURVE DESCRIPTION
#-----------   ------------------   ----------------------------------
DEPT.M        00 001 00 00         : DEPTH        - DEPTH
GR  .API      00 310 00 00         : GR           - GAMMA RAY
NPHI.V/V      00 330 00 00         : PHIN         - NEUTRON POROSITY (SANDSTONE)
DPHI.V/V      00 890 00 00         : PHID         - DENSITY POROSITY (SANDSTONE)
ILD .OHMM     00 120 00 00         : RESD         - DEEP RESISTIVITY (DIL)
~PARAMETER INFORMATION
#MNEM.UNIT           DATA             DESCRIPTION OF MNEMONIC
#---------         -----------     ------------------------------
GL  .M        402.77               : gl           - GROUND LEVEL ELEVATION
EREF.M        404.27               : kb           - ELEVATION OF DEPTH REFERENCE
DATM.M        404.27               : datum        - DATUM ELEVATION
TDD .M        167                  : tdd          - TOTAL DEPTH DRILLER
RUN .         ONE                  : Run          - RUN NUMBER
ENG .         BILL                 : Engineer     - RECORDING ENGINEER
WIT .         JIM                  : Witness      - WITNESSED BY
MUD .         GEL                  : Mud_type     - MUD TYPE
MATR.         SANDSTONE            : Logunit      - NEUTRON MATRIX
TMAX.C        25                   : BHT          - MAXIMUM RECORDED TEMPERATURE
BHTD.M        167                  : BHTDEP       - MAXIMUM RECORDED TEMPERATURE
MATR.         1                    : LOGUNIT      - NEUTRON MATRIX
RMT .C        25                   : MDTP         - TEMPERATURE OF MUD
NEUT.         1                    : NEUTRON      - NEUTRON TYPE
RESI.         0                    : RESIST       - RESISTIVITY TYPE
RMC .OHMM     0.25                 : RMC          - RESISTIVITY OF MUD CAKE
RMF .OHMM     0.25                 : RMF          - RESISTIVITY OF MUD FILTRATE
SUFT.C        4                    : SUFT         - SURFACE TEMPERATURE
~A  DEPTH       GR     PHIN     PHID     RESD
   35.000  106.832    0.593    0.318    3.552
   35.250  104.447    0.591    0.315    3.686
   35.500  100.866    0.588    0.309    4.045
   35.750  101.486    0.584    0.308    4.047
   36.000  103.307    0.585    0.303    4.052
   36.250  103.326    0.585    0.301    4.527
   36.500  103.952    0.584    0.303    4.875
   36.750  104.562    0.577    0.305    5.250
   37.000  104.587    0.569    0.307    5.254
   37.250  102.811    0.564    0.306    5.259
   37.500  101.031    0.563    0.302    5.666
   37.750  101.051    0.559    0.301    6.100
   38.000  100.471    0.553    0.300    7.072
   38.250  101.096    0.547    0.301    7.759
   38.500  101.106    0.542    0.299    8.669
   38.750   99.926    0.527    0.292    9.864
   39.000   93.945    0.510    0.254   12.081
   39.250   87.364    0.491    0.199   14.263
   39.500   79.583    0.463    0.232   15.936
   39.750   73.003    0.447    0.284   16.244
   40.000   73.023    0.451    0.300   14.560
   40.250   77.843    0.461    0.304   11.477
   40.500   83.864    0.489    0.302    9.215
   40.750   92.895    0.497    0.299    7.962
   41.000   95.915    0.509    0.299    7.269
   41.250   98.330    0.524    0.302    6.759
   41.500  100.750    0.522    0.301    6.172
   41.750  101.971    0.516    0.297    5.845
   42.000  102.596    0.511    0.292    5.438
   42.250  103.211    0.505    0.286    5.245
   42.500  104.436    0.511    0.283    5.059
   42.750  105.051    0.522    0.283    4.970
   43.000  106.876    0.540    0.285    4.883
   43.250  108.696    0.546    0.288    4.800
   43.500  109.921    0.553    0.290    4.716
   43.750  111.136    0.563    0.289    4.720
   44.000  111.761    0.573    0.288    4.722
   44.250  111.181    0.574    0.284    4.814
   44.500  109.401    0.566    0.282    5.280
   44.750  107.021    0.553    0.290    6.587
   45.000  104.040    0.544    0.298    9.007
   45.250  100.455    0.541    0.302   10.440
   45.500   94.474    0.540    0.303   10.450
   45.750   88.493    0.538    0.301    8.546
   46.000   87.318    0.534    0.293    7.248
   46.250   88.534    0.527    0.287    6.379
   46.500   91.554    0.519    0.283    6.872
   46.750   96.374    0.521    0.284    8.416
   47.000   98.799    0.525    0.252   10.893
   47.250   96.419    0.456    0.220   11.947
   47.500   91.039    0.388    0.205   13.352
   47.750   85.658    0.400    0.181   12.646
   48.000   79.682    0.425    0.235   11.129
   48.250   83.898    0.449    0.266    8.302
   48.500   89.918    0.459    0.309    7.863
   48.750   93.539    0.472    0.318    7.446
   49.000   96.559    0.483    0.307    7.319
   49.250   97.784    0.501    0.299    7.737
   49.500   97.209    0.498    0.298    8.644
   49.750   96.619    0.490    0.299   10.211
   50.000   96.049    0.483    0.302   10.406
   50.250   96.059    0.474    0.309   10.415
   50.500   96.084    0.477    0.322   10.233
   50.750   94.909    0.505    0.324   10.056
   51.000   93.723    0.512    0.315   10.062
   51.250   92.543    0.512    0.296   10.258
   51.500   91.363    0.504    0.284   10.075
   51.750   91.383    0.477    0.266    8.867
   52.000   89.608    0.466    0.234    8.097
   52.250   88.428    0.475    0.208    8.102
   52.500   90.843    0.487    0.233    7.960
   52.750   93.263    0.483    0.234    7.137
   53.000   96.288    0.478    0.286    6.883
   53.250   98.704    0.488    0.296    6.521
   53.500  102.334    0.496    0.281    6.289
   53.750  104.149    0.500    0.271    5.744
   54.000  104.769    0.502    0.275    5.438
   54.250  105.389    0.508    0.277    4.965
   54.500  105.409    0.518    0.285    4.879
   54.750  103.034    0.526    0.296    5.453
   55.000  100.654    0.530    0.297    6.206
   55.250  101.269    0.533    0.297    6.684
   55.500  101.894    0.535    0.297    6.938
   55.750  101.914    0.537    0.298    7.072
   56.000  100.133    0.537    0.301    7.072
   56.250   98.948    0.535    0.303    8.205
   56.500   97.168    0.533    0.310    7.771
   56.750   95.993    0.532    0.315    7.359
   57.000   95.418    0.529    0.310    6.844
   57.250   98.443    0.528    0.288    6.482
   57.500  100.253    0.528    0.278    6.253
   57.750  104.474    0.531    0.279    5.709
   58.000  108.699    0.536    0.285    5.506
   58.250  111.114    0.543    0.291    5.120
   58.500  112.935    0.553    0.297    4.675
   58.750  114.155    0.565    0.305    4.347
   59.000  114.775    0.581    0.299    3.826
   59.250  115.395    0.597    0.303    3.430
   59.500  116.625    0.604    0.321    3.189
   59.750  116.645    0.611    0.321    3.076
   60.000  116.070    0.611    0.319    3.137
   60.250  116.080    0.608    0.318    3.257
   60.500  116.100    0.608    0.314    3.381
   60.750  116.120    0.606    0.298    4.375
   61.000  114.939    0.601    0.286    5.072
   61.250  113.759    0.578    0.279    5.171
   61.500  111.979    0.547    0.278    5.269
   61.750  111.399    0.521    0.278    5.472
   62.000  111.424    0.517    0.282    5.576
   62.250  111.444    0.513    0.278    5.788
   62.500  111.464    0.511    0.268    6.122
   62.750  111.479    0.509    0.270    6.475
   63.000  110.909    0.509    0.273    6.722
   63.250  110.929    0.509    0.275    6.726
   63.500  110.354    0.507    0.278    6.983
   63.750  110.964    0.504    0.282    7.384
   64.000  112.184    0.502    0.281    7.667
   64.250  115.214    0.498    0.274    7.675
   64.500  116.424    0.494    0.259    7.538
   64.750  116.444    0.486    0.242    7.684
   65.000  115.264    0.472    0.248    8.585
   65.250  113.489    0.459    0.259    9.772
   65.500  111.108    0.458    0.266   10.525
   65.750  108.728    0.462    0.268   10.927
   66.000  106.343    0.466    0.271   11.344
   66.250  106.368    0.468    0.269   11.353
   66.500  107.588    0.469    0.270   10.954
   66.750  108.213    0.470    0.276   10.377
   67.000  108.833    0.471    0.279   10.192
   67.250  109.453    0.473    0.282    9.655
   67.500  108.878    0.478    0.282    9.312
   67.750  108.288    0.485    0.281    8.663
   68.000  108.313    0.488    0.280    8.508
   68.250  108.328    0.490    0.273    8.208
   68.500  108.958    0.489    0.259    7.634
   68.750  109.573    0.490    0.247    7.363
   69.000  110.788    0.495    0.242    7.105
   69.250  111.408    0.498    0.245    6.852
   69.500  112.638    0.505    0.249    6.490
   69.750  112.663    0.507    0.251    6.260
   70.000  112.673    0.508    0.253    6.042
   70.250  112.698    0.502    0.258    6.628
   70.500  112.723    0.497    0.264    7.542
   70.750  111.543    0.486    0.276    8.274
   71.000  110.953    0.478    0.277    8.911
   71.250  110.973    0.474    0.279    9.082
   71.500  112.793    0.478    0.276    9.089
   71.750  114.613    0.483    0.249    8.930
   72.000  115.833    0.486    0.249    8.460
   72.250  117.053    0.489    0.260    7.581
   72.500  117.683    0.496    0.265    6.673
   72.750  117.703    0.499    0.270    6.319
   73.000  117.718    0.505    0.268    5.876
   73.250  117.738    0.510    0.262    5.566
   73.500  117.163    0.513    0.245    5.272
   73.750  115.988    0.515    0.241    4.994
   74.000  115.408    0.516    0.246    5.184
   74.250  114.823    0.515    0.258    5.687
   74.500  113.642    0.515    0.268    6.125
   74.750  112.462    0.516    0.272    6.972
   75.000  111.282    0.519    0.281    7.789
   75.250  110.107    0.523    0.292    8.389
   75.500  108.922    0.529    0.295    7.248
   75.750  108.342    0.536    0.295    6.379
   76.000  109.557    0.545    0.292    5.411
   76.250  112.582    0.554    0.283    4.507
   76.500  112.002    0.549    0.273    4.193
   76.750  110.227    0.537    0.266    4.195
   77.000  109.052    0.514    0.255    4.275
   77.250  108.462    0.485    0.250    4.777
   77.500  107.886    0.470    0.248    5.960
   77.750  107.901    0.466    0.256    7.036
   78.000  108.526    0.465    0.264    7.863
   78.250  108.546    0.465    0.270    8.017
