~Version Information Block
VERS .                 2.00:  CWLS LOG ASCII STANDARD - VERSION 2.00
WRAP .                   NO:  One line per depth step
~Well Information Block
#MNEM.UNIT        Data Type   Information
#---------- ----------------  -----------
STRT .M               15.24:  START DEPTH
STOP .M              118.44:  STOP DEPTH
STEP .M                 0.3:  STEP
NULL .              -999.25:  NULL VALUE
COMP . HUSKY OIL OPERATIONS:  COMPANY
WELL . HUSKY FT MCMURRAY   :  WELL
FLD  .                     :  FIELD
LOC  . 07-28-090-09W4      :  LOCATION
PROV . ALBERTA             :  PROVINCE
SRVC . SCHLUMBERGER        :  SERVICE COMPANY
DATE . 23 MAR 73           :  LOG DATE
UWI  . AA/07-28-090-09W400 :  UNIQUE WELL ID
~Curve Information Block
#MNEM.UNIT         API CODE   Curve Description
#---------- ----------------  -----------------
DEPTH.M                    :  Transferred from LOGMATE/ESP.
DENS .KG/M3                 :  Loaded from 920630.111720
GR   .API                  :  Loaded from 920630.111720
PHIN .FRAC                 :  Loaded from 920630.111720
RESD .OHMM                 :  Loaded from 920630.111720
~Parameter Information Block
#MNEM.UNIT            Value   Description
#---------- ----------------  -----------
PROJECT.             MOS_90_9:
SET  .             RAW_ORIG:
~A        DEPTH           DENS             GR           PHIN           R
# ...
        81.2400      2085.0000        42.8500         0.2871        60.0
        81.5400      2058.8000        40.2100         0.2937       155.5
        81.8400      2047.0000        44.7200         0.3054       143.9
        82.1400      2061.8999        44.7200         0.2740        29.8
        82.4400      2067.2000        43.6900         0.2650        79.7
        82.7400      2064.8000        39.2000         0.2725        93.8
        83.0400      2037.2000        32.6700         0.2630        89.5
        83.3400      2019.7000        29.0100         0.2591       103.4
        83.6400      2021.0000        32.2600         0.2758        71.4
        83.9400      2030.4000        42.0000         0.2815        75.5
        84.2400      2075.2000        46.1600         0.2836       110.2
        84.5400      2086.6001        47.8800         0.2594       158.4
        84.8400      2082.6001        49.5600         0.2556       198.8
        85.1400      2090.0000        49.9100         0.2693       218.8
        85.4400      2103.5000        48.0200         0.2910        87.4
        85.7400      2088.2000        43.1400         0.2999       114.0
        86.0400      2067.8999        36.4100         0.2903       131.5
        86.3400      2063.7000        37.3100         0.2864       108.4
        86.6400      2094.5000        41.5500         0.2902        86.0
        86.9400      2104.1001        39.8500         0.3117        85.5
        87.2400      2096.2000        38.6600         0.3490        99.2
        87.5400      2126.8999        42.6300         0.3315       216.9
        87.8400      2122.5000        41.9900         0.3134       209.3
        88.1400      2094.1001        39.4700         0.3300       204.4
        88.4400      2102.0000        41.8600         0.3478       183.2
        88.7400      2116.3000        42.4000         0.3121        98.9
        89.0400      2095.0000        40.6600         0.2999        93.4
        89.3400      2067.6001        38.7700         0.3024        68.3
        89.6400      2052.3000        38.0200         0.3114        49.9
        89.9400      2021.0000        45.8700         0.2970        55.7
        90.2400      1968.4000        43.9300         0.3077       109.2
        90.5400      1981.4000        40.1200         0.3168       143.4
        90.8400      2022.2000        41.1700         0.3158       117.0
        91.1400      2052.1001        51.7000         0.2458        71.7
        91.4400      2080.8999        54.1200         0.2397       126.5
        91.7400      2099.3999        50.9000         0.2478       161.6
        92.0400      2106.8000        41.8100         0.2693       175.6
        92.3400      2099.5000        38.0300         0.2920       188.5
        92.6400      2080.6001        37.8700         0.3076       169.8
        92.9400      2071.1001        32.6700         0.3354        90.5
        93.2400      2078.3000        30.8600         0.3504        69.7
        93.5400      2080.8000        36.6300         0.3351        63.9
        93.8400      2074.3000        40.8200         0.3197        78.9
        94.1400      2070.5000        40.3500         0.3169       107.0
        94.4400      2077.0000        36.6800         0.3312       137.2
        94.7400      2083.3999        33.8500         0.3302       139.8
        95.0400      2072.0000        31.2100         0.3388        96.6
        95.3400      2061.1001        30.0200         0.3398       128.5
        95.6400      2066.8000        34.5700         0.3152       171.5
        95.9400      2074.2000        37.0400         0.3073       186.3
        96.2400      2070.7000        36.4500         0.3037       223.6
        96.5400      2052.8999        33.2200         0.3119       240.8
        96.8400      2046.4000        28.4600         0.3053        68.1
        97.1400      2057.2000        25.8200         0.3075        46.4
        97.4400      2076.6001        24.5500         0.3209        52.6
        97.7400      2087.2000        28.2000         0.3275       107.3
        98.0400      2085.8999        28.5500         0.3438       190.4
        98.3400      2073.8999        25.6700         0.3340       164.3
        98.6400      2048.7000        23.9400         0.3128       163.7
        98.9400      2052.2000        28.4900         0.3258        45.6
        99.2400      2071.2000        28.0900         0.3548        65.8
        99.5400      2060.0000        24.5800         0.3541        78.7
        99.8400      2053.3000        22.1400         0.3290       179.0
       100.1400      2063.5000        23.9000         0.3157       180.0
       100.4400      2062.2000        27.1900         0.3278       110.1
       100.7400      2044.7000        26.2000         0.3422       146.1
       101.0400      2038.0000        27.4100         0.3581       143.3
       101.3400      2051.3000        28.4700         0.3567        68.2
       101.6400      2048.7000        30.9000         0.3401        38.7
       101.9400      2035.3000        32.1500         0.3103        49.3
       102.2400      2022.9000        34.5000         0.3283       192.4
       102.5400      2024.2000        32.9200         0.3407       192.4
       102.8400      2040.5000        27.7700         0.3517       157.6
       103.1400      2066.2000        27.2900         0.3602       107.9
       103.4400      2067.0000        28.9300         0.3654        29.8
       103.7400      2055.1001        26.6500         0.3778        32.0
       104.0400      2055.8999        20.8600         0.3633        91.2
       104.3400      2063.8999        24.0000         0.3379       114.3
       104.6400      2045.7000        27.6900         0.3406       145.8
       104.9400      2048.3000        29.0900         0.3529       145.5
       105.2400      2062.8000        28.7700         0.3508       150.4
       105.5400      2054.5000        25.5400         0.3541       156.5
       105.8400      2040.9000        21.2900         0.3580       142.8
       106.1400      2063.6001        21.4000         0.3608       129.1
       106.4400      2071.3000        26.3100         0.3631        92.4
       106.7400      2060.2000        30.0700         0.3718       121.9
       107.0400      2044.1000        29.6700         0.3517       106.0
       107.3400      2028.7000        27.8600         0.3624        50.6
       107.6400      2042.2000        30.6000         0.3490        18.3
       107.9400      2051.6001        29.6100         0.3453        20.4
       108.2400      2039.9000        30.5500         0.3594        23.0
       108.5400      2036.4000        27.3200         0.3379        51.6
       108.8400      2044.2000        26.9600         0.3307       118.7
       109.1400      2070.5000        26.5200         0.3400       144.0
       109.4400      2076.8999        21.6800         0.3208       147.4
       109.7400      2069.8000        21.6300         0.3236       187.0
       110.0400      2054.8999        15.4600         0.3373       148.0
       110.3400      2070.5000         3.0700         0.3594       100.7
       110.6400      2079.7000         0.4700         0.3677       135.8
       110.9400      2077.0000         0.6600         0.3614       214.7
       111.2400      2068.3000         1.5600         0.3484       216.3
       111.5400      2051.5000         2.1000         0.3323       160.4
       111.8400      2047.4000         2.4100         0.3441       120.7
       112.1400      2048.1001         1.5000         0.3272       139.9
       112.4400      2062.6001         1.0200         0.3325       114.8
       112.7400      2074.3999         1.1700         0.3248        89.2
       113.0400      2064.7000         1.7100         0.3122        45.6
       113.3400      2072.7000         7.4400         0.3228        38.0
       113.6400      2062.5000        25.6300         0.3309        74.7
       113.9400      2038.0000        25.3100         0.3448       191.8
