~Version : LASO    vs 4.00
VERS.                2.00:   CWLS Log ASCII Standard -VERSION 2.0
WRAP.                  NO:
~Well Information Block
#MNEM.UNIT       Data                        Description of Mnemonic
#----.----      -------------------------- : -----------------------------
STRT.M            11.0000:
STOP.M           176.0000:
STEP.M             0.1000:
NULL.           -999.2500:
COMP.  MOBIL OIL CANADA LTD.  :COMPANY
WELL.  MOBIL CLARKE OV 5-32   :WELL
FLD.   CLARKE                 :FIELD
LOC.   05-32-089-08W4         :LOCATION
CTRY.  CANADA                 :COUNTRY
PROV.  ALBERTA                :PROVINCE
SRVC.  SCHLUMBERGER           :SERVICE COMPANY
DATE.  04-MAR-81              :LOG DATE
UWI.   AA/05-32-089-08W400    :UNIQUE WELL ID
~Parameter Information Block
#MNEM.UNIT       Data                        Description of Mnemonic
#----.----      -------------------------- : -----------------------------
RUN .                   1                 : Run Number
GL  .M           391.1000                 : Ground Level Elevation
DREF.                  KB                 : Depth Reference
EREF.M           394.5000                 : Elevation of Depth Reference
TDL .M           176.5000                 : Total Depth Logger
TDD .M           174.0000                 : Total Depth Driller
CSGL.M            16.0000                 : Casing Bottom Logger
CSGD.M            14.6000                 : Casing Bottom Driller
CSGS.MM          219.0000                 : Casing Size
CSGW.KG/M          0.0000                 : Casing Weight
BHT .DEGC         23.0000                 : Bottom Hole Temperature
BS  .MM          159.0000                 : Bit Size
DFD .           1110.0000                 : Mud Weight (Density)
DFV .             90.0000                 : Mud Viscosity
DFPH.             10.0000                 : Mud pH
RM  .OHMM          1.9600                 : Mud Resistivity
RMT .DEGC         20.0000                 : Mud Resistivity Temperature
~Curve Information Block
#MNEM.UNIT        API CODE    Curve Description
#---------    ------------    -------------------------------------------
DEPT.M                    :   DEPTH
CALI.MM       42 280  1  1:   3 DENSITY CALIPER
DPHI.V/V                  :   DPHI
DT  .US/M     60 520  0  1:   2 SONIC INTERVAL TRANSIT TIME (COMPENSATED)
GR  .GAPI     42 310  1  1:   4 GAMMA RAY
ILD .OHMM      5 120 46  1:   6 DEEP INDUCTION
ILM .OHMM      5 120 44  1:   7 MEDIUM INDUCTION
NPHI.V/V                  :   NPHI
RHOB.K/M3     42 350  1  1:   5 BULK DENSITY
SFLU.OHMM      5 220  1  1:   8 FOCUSSED RESISTIVITY
SP  .MV        5  10  1  1:   9 SPONTANEOUS POTENTIAL
~A  Depth           CALI        DPHI          DT          GR         ILD         ILM        NPHI        RHOB        SFLU          SP
# ...
78.1000         187.6750      0.2084    488.1600    106.0200      7.3085      6.7894      0.4347   2284.0000      7.2415    -89.7600
78.2000         187.6750      0.2064    487.4400    107.1450      7.3085      6.6655      0.4393   2301.0000      6.9156    -89.7600
78.3000         187.6750      0.2044    486.0000    108.5550      7.3085      6.6655      0.4439   2301.0000      6.9156    -89.7600
78.4000         192.7750      0.2024    483.3600    108.3300      7.3762      6.6655      0.4428   2312.0000      6.5438    -89.7600
78.5000         192.7750      0.1970    478.8400    107.8650      7.3762      6.6655      0.4371   2312.0000      6.5438    -89.7600
78.6000         192.7750      0.1924    472.4800    106.9650      7.6530      7.0442      0.4328   2316.0000      6.4838    -89.7600
78.7000         192.7750      0.1863    464.8000    105.0750      7.6530      7.0442      0.4307   2316.0000      6.4838    -89.7600
78.8000         191.5000      0.1836    456.9200    103.1850      7.4444      7.3085      0.4352   2322.0000      6.8522    -89.7600
78.9000         191.5000      0.1812    453.7200    101.5500      7.4444      7.3085      0.4442   2322.0000      6.8522    -89.7600
79.0000         192.7750      0.2113    453.5600    100.5600      6.8522      7.4444      0.4525   2326.0000      7.6530    -89.7600
79.1000         192.7750      0.2212    464.0400    100.9200      6.8522      7.4444      0.4620   2326.0000      7.6530    -89.7600
79.2000         183.8750      0.2347    479.4000    101.2200      5.0563      5.6472      0.4970   2357.0000     11.3718    -89.5050
79.3000         183.8750      0.2514    499.5200    100.0650      5.0563      5.6472      0.5325   2357.0000     11.3718    -89.5050
79.4000         192.7750      0.2665    499.5200     98.6850      4.3634      4.2838      0.5494   2358.0000      9.5462    -89.5050
79.5000         192.7750      0.2784    517.4000     97.0800      4.3634      4.2838      0.5664   2358.0000      9.5462    -89.5050
79.6000         187.6750      0.2906    544.8800     95.6400      3.8711      3.3100      0.5621   2301.0000      4.4038    -88.7550
79.7000         187.6750      0.2905    551.0800     94.8750      3.8711      3.3100      0.5581   2301.0000      4.4038    -88.7550
79.8000         187.6750      0.2905    553.5600     94.1100      3.4981      2.8829      0.5519   2238.0000      2.0316    -87.5100
79.9000         187.6750      0.2913    554.1200     93.6000      3.4981      2.8829      0.5430   2238.0000      2.0316    -87.5100
80.0000         188.9500      0.2938    552.6800     93.3750      2.8303      2.5109      0.5370   2147.0000      1.7054    -86.2500
80.1000         188.9500      0.2948    550.6400     93.1500      2.8303      2.5109      0.5321   2147.0000      1.7054    -86.2500
80.2000         188.9500      0.2919    548.3200     92.8500      2.6292      2.3759      0.5279   2147.0000      2.0316    -86.2500
80.3000         188.9500      0.2796    544.8400     92.4750      2.6292      2.3759      0.5262   2147.0000      2.0316    -86.2500
80.4000         182.5750      0.2709    541.3600     92.1000      2.5341      2.3112      0.5288   2168.0000      2.2276    -86.5050
80.5000         182.5750      0.2634    538.1600     91.6050      2.5341      2.3112      0.5262   2168.0000      2.2276    -86.5050
80.6000         185.1250      0.2567    535.3600     90.4800      2.6292      2.3759      0.5247   2153.0000      2.3112    -86.2500
80.7000         185.1250      0.2515    532.7600     91.9050      2.6292      2.3759      0.5238   2153.0000      2.3112    -86.2500
80.8000         187.6750      0.2447    531.6801     93.9450      2.7532      2.4651      0.5223   2148.0000      2.3541    -86.2500
80.9000         187.6750      0.2394    530.6000     95.9850      2.7532      2.4651      0.5194   2148.0000      2.3541    -86.2500
81.0000         197.8750      0.2334    529.5200     97.9950      2.8829      2.6051      0.5123   2190.0000      2.6051    -86.2500
81.1000         197.8750      0.2297    528.7600     99.2550      2.8829      2.6051      0.5034   2190.0000      2.6051    -86.2500
81.2000         203.0000      0.2308    528.0000     99.4200      3.2496      2.8829      0.4951   2239.0000      3.1321    -86.7600
81.3000         203.0000      0.2294    525.7200     97.2900      3.2496      2.8829      0.4850   2239.0000      3.1321    -86.7600
81.4000         197.8750      0.2254    522.8400     95.3400      3.4981      3.0749      0.4760   2256.0000      2.8303    -87.0000
81.5000         197.8750      0.2223    518.0800     95.1000      3.4981      3.0749      0.4677   2256.0000      2.8303    -87.0000
81.6000         195.3250      0.2216    513.6000     94.8600      3.8004      3.4342      0.4621   2250.8999      2.7532    -87.0000
81.7000         195.3250      0.2222    511.0800     94.4550      3.8004      3.4342      0.4585   2250.8999      2.7532    -87.0000
81.8000         186.4000      0.2284    511.8000     93.8250      4.1671      4.0910      0.4618   2270.0000      4.6971    -87.5100
81.9000         186.4000      0.2371    512.9200     93.1950      4.1671      4.0910      0.4641   2270.0000      4.6971    -87.5100
82.0000         183.8750      0.2424    515.8000     92.2950      4.3634      4.1289      0.4660   2268.0000      5.6994    -87.7500
82.1000         183.8750      0.2418    518.7600     91.2450      4.3634      4.1289      0.4640   2268.0000      5.6994    -87.7500
82.2000         188.9500      0.2382    521.8000     90.1950      4.6540      4.1289      0.4609   2283.0000      4.9640    -87.5100
82.3000         188.9500      0.2319    526.9200     89.1450      4.6540      4.1289      0.4570   2283.0000      4.9640    -87.5100
82.4000         190.2500      0.2278    531.8800     88.1100      5.2460      4.6114      0.4522   2260.0000      3.5961    -88.0050
82.5000         190.2500      0.2238    537.3600     87.0750      5.2460      4.6114      0.4488   2260.0000      3.5961    -88.0050
82.6000         187.6750      0.2209    542.9200     89.3550      5.3930      4.9640      0.4449   2240.0000      4.2838    -88.7550
82.7000         187.6750      0.2207    545.4800     91.6350      5.3930      4.9640      0.4421   2240.0000      4.2838    -88.7550
82.8000         187.6750      0.2151    543.4000     94.3650      5.5441      5.1979      0.4437   2250.8999      5.4429    -89.5050
82.9000         187.6750      0.2103    537.8400     97.5750      5.5441      5.1979      0.4466   2250.8999      5.4429    -89.5050
83.0000         187.6750      0.2053    530.0800     97.3650      5.7521      5.4429      0.4406   2257.0000      6.4244    -90.2550
83.1000         187.6750      0.1891    500.0800     97.1400      5.7521      5.4429      0.4388   2257.0000      6.4244    -90.2550
83.2000         187.6750      0.1855    500.0800     96.9150      6.4244      5.9133      0.4391   2269.0000      6.5438    -90.5100
83.3000         187.6750      0.1833    470.1200     96.7350      6.4244      5.9133      0.4459   2269.0000      6.5438    -90.5100
83.4000         190.2500      0.1797    447.2800     97.2750      6.4838      6.3071      0.4560   2298.0000      6.3071    -90.0000
83.5000         190.2500      0.1779    445.2400     98.5350      6.4838      6.3071      0.4762   2298.0000      6.3071    -90.0000
83.6000         190.2500      0.1792    446.1200    103.0350      6.1920      6.5438      0.4931   2344.0000      7.4444    -88.7550
83.7000         190.2500      0.2126    466.3200    107.5350      6.1920      6.5438      0.5047   2344.0000      7.4444    -88.7550
83.8000         180.0250      0.2322    499.4400    111.2400      5.1503      4.9640      0.5112   2340.8999      8.7062    -87.5100
83.9000         180.0250      0.2418    500.4800    114.0900      5.1503      4.9640      0.5215   2340.8999      8.7062    -87.5100
84.0000         181.3000      0.2452    504.9600    114.3600      4.8287      4.2056      0.5246   2349.0000      5.2946    -87.5100
84.1000         181.3000      0.2438    518.8400    114.5100      4.8287      4.2056      0.5220   2349.0000      5.2946    -87.5100
