~VERSION INFORMATION
 VERS.                 2.0:   CWLS LOG ASCII STANDARD -VERSION 2.0
 WRAP.                  NO:   ONE LINE PER DEPTH STEP
~WELL INFORMATION BLOCK
#MNEM.UNIT           DATA                    DESCRIPTION OF MNEMONIC
#---------    -------------------            -------------------------------
# Generated from Intellog Unique Number	CX_WELLS/WELL/3816
LOC .         AA/01-02-086-11W4/0            : Location     - LOCATION
UWI .         AA/01-02-086-11W4/0            : Uwi          - UNIQUE WELL ID
ENTR.         T                              : Entered      - ENTERED BY
SRVC.         SCHLUMBERGER                   : Scn          - SERVICE COMPANY
STRT.F        200                            : top_depth    - START DEPTH
STOP.F        796.293                        : bot_depth    - STOP DEPTH
STEP.F        0.82                           : increment    - STEP LENGTH
 NULL. -999.2500:NULL Value
~CURVE INFORMATION BLOCK
#MNEM UNIT       ERCB CURVE CODE    CURVE DESCRIPTION
#-----------   ------------------   ----------------------------------
DEPT.F        00 001 00 00         : DEPTH        - DEPTH
GR  .API      00 310 00 00         : GR           - GAMMA RAY
NPHI.V/V      00 330 00 00         : PHIN         - NEUTRON POROSITY (SANDSTONE)
ILD .OHMM     00 120 00 00         : RESD         - DEEP RESISTIVITY (DIL)
~PARAMETER INFORMATION
#MNEM.UNIT           DATA             DESCRIPTION OF MNEMONIC
#---------         -----------     ------------------------------
GL  .F        1679                 : gl           - GROUND LEVEL ELEVATION
EREF.F        1687                 : kb           - ELEVATION OF DEPTH REFERENCE
DATM.F        1687                 : datum        - DATUM ELEVATION
TDD .F        806                  : tdd          - TOTAL DEPTH DRILLER
RUN .         ONE                  : Run          - RUN NUMBER
ENG .         BILL                 : Engineer     - RECORDING ENGINEER
WIT .         JIM                  : Witness      - WITNESSED BY
MUD .         GEL                  : Mud_type     - MUD TYPE
MATR.         SANDSTONE            : Logunit      - NEUTRON MATRIX
TMAX.F        57                   : BHT          - MAXIMUM RECORDED TEMPERATURE
BHTD.F        806                  : BHTDEP       - MAXIMUM RECORDED TEMPERATURE
MATR.         1                    : LOGUNIT      - NEUTRON MATRIX
RMT .F        68                   : MDTP         - TEMPERATURE OF MUD
NEUT.         1                    : NEUTRON      - NEUTRON TYPE
RESI.         3.5                  : RESIST       - RESISTIVITY TYPE
RMC .OHMM     2.3                  : RMC          - RESISTIVITY OF MUD CAKE
RMF .OHMM     4.5                  : RMF          - RESISTIVITY OF MUD FILTRATE
SUFT.F        39.2                 : SUFT         - SURFACE TEMPERATURE
~A  DEPTH       GR     PHIN     RESD
# ...
  555.971   98.094    0.466    7.081
  556.791   93.585    0.461    7.276
  557.612   94.054    0.452    7.815
  558.432   97.010    0.436    9.191
  559.252   99.151    0.435    9.897
  560.072  100.034    0.431    9.441
  560.892   99.673    0.428    9.135
  561.713   97.667    0.420    9.190
  562.533   96.449    0.410    9.385
  563.353   95.673    0.403    9.915
  564.173   99.460    0.397   11.309
  564.993  102.844    0.394   11.839
  565.814  104.557    0.391   11.709
  566.634  105.025    0.395   10.742
  567.454  102.591    0.402   10.119
  568.274   99.741    0.406    9.803
  569.094   99.781    0.408    9.515
  569.915  104.397    0.409    9.385
  570.735  108.197    0.411    9.087
  571.555  108.665    0.417    8.446
  572.375  104.143    0.425    7.489
  573.196   98.391    0.443    7.340
  574.016   98.444    0.440    7.377
  574.836  103.903    0.434    8.594
  575.656  103.528    0.421   10.137
  576.476  101.923    0.400   11.197
  577.297   99.917    0.393   11.401
  578.117   98.298    0.394   11.940
  578.937   96.291    0.392   12.655
  579.757   98.820    0.390   13.009
  580.577  100.546    0.386   13.566
  581.398   97.697    0.385   13.250
  582.218   96.519    0.387   12.126
  583.038   96.132    0.390   11.661
  583.858   94.526    0.390   10.685
  584.678   88.760    0.390   10.378
  585.499   87.583    0.393   10.926
  586.319   87.236    0.396   11.800
  587.139   86.446    0.396   12.506
  587.959   85.256    0.395   13.380
  588.780   86.139    0.399   13.751
  589.600   87.852    0.400   12.450
  590.420   89.965    0.401   10.489
  591.240   92.093    0.402   10.173
  592.060   97.966    0.406    9.708
  592.881  101.351    0.413    9.420
  593.701  101.404    0.419    9.448
  594.521   99.786    0.422    9.671
  595.341   96.535    0.421    9.857
  596.161   93.672    0.418   10.405
  596.982   91.639    0.410   10.953
  597.802   92.107    0.404   11.148
  598.622   93.405    0.400   11.185
  599.442   90.141    0.403   11.055
  600.262   89.780    0.407   10.758
  601.083   93.151    0.430   10.451
  601.903   96.536    0.455    9.652
  602.723   96.175    0.460    8.852
  603.543   94.998    0.468    8.044
  604.364   95.867    0.471    6.417
  605.184   97.593    0.471    5.952
  606.004   99.306    0.468    5.989
  606.824  100.176    0.466    6.528
  607.644  102.303    0.463    7.058
  608.465  104.015    0.453    7.941
  609.285  106.999    0.433    8.991
  610.105  107.053    0.423    9.038
  610.925  105.019    0.410    9.056
  611.745   96.792    0.399    8.759
  612.566   94.758    0.405    8.963
  613.386   92.297    0.412    9.167
  614.206   89.033    0.401    9.037
  615.026   86.183    0.390    9.084
  615.846   86.237    0.398   10.124
  616.667   89.622    0.403   10.822
  617.487   90.906    0.379   11.035
  618.307   93.462    0.368   11.249
  619.127   95.188    0.392   11.267
  619.948   95.241    0.414   10.803
  620.768   96.539    0.420    9.845
  621.588  100.312    0.446    9.204
  622.408   96.218    0.448    8.730
  623.228   93.369    0.460    7.931
  624.049   93.008    0.469    6.797
  624.869   91.804    0.479    5.830
  625.689   87.724    0.475    5.031
  626.509   84.031    0.472    4.891
  627.329   81.998    0.449    5.439
  628.150   78.346    0.447    5.978
  628.970   78.373    0.440    7.019
  629.790   77.196    0.430    7.558
  630.610   75.162    0.421    6.926
  631.430   72.326    0.418    6.303
  632.251   72.366    0.420    5.987
  633.071   74.079    0.422    5.708
  633.891   74.547    0.426    5.727
  634.711   73.370    0.431    5.931
  635.531   73.009    0.437    6.814
  636.352   74.294    0.442    7.706
  637.172   78.080    0.448    8.236
  637.992   79.391    0.446    8.264
  638.812   79.859    0.441    8.310
  639.633   80.729    0.440    8.180
  640.453   82.027    0.464    7.725
  641.273   79.592    0.469    7.241
  642.093   78.402    0.481    6.284
  642.913   90.509    0.486    5.977
  643.734   93.038    0.487    5.680
  644.554   94.349    0.483    5.540
  645.374   86.095    0.478    5.429
  646.194   84.503    0.472    5.447
  647.014   87.446    0.467    5.494
  647.835   92.075    0.465    5.521
  648.655   94.617    0.460    5.568
  649.475   93.855    0.459    5.596
  650.295   93.467    0.460    5.633
  651.115   93.520    0.460    5.670
  651.936   91.929    0.460    5.725
  652.756   87.420    0.458    5.763
  653.576   87.046    0.455    5.790
  654.396   90.003    0.456    5.828
  655.217   93.374    0.462    5.865
  656.037   98.003    0.464    5.892
  656.857  102.217    0.464    5.930
  657.677  104.746    0.447    6.469
  658.497  107.288    0.425    7.351
  659.318  102.780    0.411    8.225
  660.138   92.880    0.398    9.600
  660.958   84.639    0.400   10.483
  661.778   81.348    0.425   10.362
  662.598   76.425    0.429   10.390
  663.419   75.649    0.435   10.260
  664.239   80.265    0.443    9.628
  665.059   83.222    0.443    8.819
  665.879   85.790    0.438    8.531
  666.699   87.088    0.419    8.559
  667.520   85.483    0.413    8.763
  668.340   84.279    0.402   11.486
  669.160   79.343    0.390   24.953
  669.980   69.028    0.373   27.835
  670.801   65.336    0.366   33.086
  671.621   59.169    0.369   28.587
  672.441   58.379    0.375   22.583
  673.261   63.022    0.387   18.921
  674.081   66.380    0.402   13.252
  674.902   71.410    0.403    9.283
  675.722   77.712    0.388   10.306
  676.542   78.996    0.380   12.527
  677.362   77.819    0.389   13.233
  678.182   78.274    0.399   11.597
  679.003   83.304    0.408   11.467
  679.823   93.739    0.403   11.671
  680.643   98.368    0.397   11.727
  681.463  102.569    0.386   11.913
  682.283  106.770    0.378   13.456
  683.104  108.483    0.370   15.677
  683.924   92.777    0.367   16.216
  684.744   90.329    0.358   14.915
  685.564   85.820    0.349   15.463
  686.385   83.800    0.341   16.327
  687.205   80.938    0.342   17.712
  688.025   76.429    0.344   17.591
  688.845   72.750    0.345   17.461
  689.665   72.389    0.347   17.833
  690.486   74.530    0.350   16.689
  691.306   77.072    0.357   13.539
  692.126   79.614    0.361   12.572
  692.946   81.741    0.367   12.265
  693.766   83.440    0.367   16.503
  694.587   83.507    0.357   19.561
  695.407   78.986    0.334   20.602
  696.227   64.510    0.323   21.317
  697.047   54.183    0.324   20.509
  697.867   49.260    0.335   19.031
  698.688   47.641    0.348   17.061
  699.508   50.210    0.362   16.094
  700.328   52.738    0.367   14.960
  701.148   59.842    0.361   14.653
  701.969   63.642    0.363   15.211
  702.789   67.013    0.366   15.740
  703.609   70.813    0.366   16.605
  704.429   75.428    0.364   20.341
  705.249   79.228    0.362   21.549
  706.070   79.268    0.362   22.599
  706.890   76.419    0.361   22.980
  707.710   80.205    0.361   22.999
  708.530   81.503    0.364   22.869
  709.350   79.068    0.366   21.902
  710.171   76.633    0.368   20.601
  710.991   77.530    0.368   18.119
  711.811   77.985    0.372   16.976
  712.631   78.868    0.373   16.195
  713.451   79.350    0.370   15.879
  714.272   79.805    0.369   15.080
  715.092   79.858    0.371   14.447
  715.912   79.912    0.376   14.308
  716.732   82.039    0.374   23.240
  717.552   84.581    0.371   59.700
  718.373   82.147    0.363   59.403
  719.193   79.297    0.357   60.444
  720.013   73.946    0.352   61.326
  720.833   58.227    0.348   61.865
  721.654   48.728    0.345   61.401
  722.474   43.391    0.354   61.261
  723.294   40.555    0.355   61.261
  724.114   39.765    0.355   62.005
  724.934   38.575    0.352   62.720
  725.755   38.655    0.351   63.761
  726.575   38.696    0.354   64.635
  727.395   39.151    0.366   66.010
  728.215   40.448    0.373   67.060
  729.035   43.405    0.378   66.084
  729.856   48.021    0.372   65.620
  730.676   49.319    0.345   66.335
  731.496   47.325    0.338   67.385
  732.316   46.536    0.328   68.417
  733.136   44.944    0.336   70.303
