~VERSION INFORMATION
 VERS.                 2.0:   CWLS LOG ASCII STANDARD -VERSION 2.0
 WRAP.                  NO:   ONE LINE PER DEPTH STEP
~WELL INFORMATION BLOCK
#MNEM.UNIT           DATA                    DESCRIPTION OF MNEMONIC
#---------    -------------------            -------------------------------
# Generated from Intellog Unique Number	CC_88_90/WELL/3019
WELL.         HUDSON'S BAY OIL & GAS CO. LTD : Well_name    - WELL
LOC .         AA/03-05-089-11W4/0            : Location     - LOCATION
UWI .         AA/03-05-089-11W400            : Uwi          - UNIQUE WELL ID
ENTR.         JOETTE                         : Entered      - ENTERED BY
SRVC.         COMPUTALOG                     : Scn          - SERVICE COMPANY
DATE.         03/11/92                       : Date         - LOG DATE
STRT.M        45.720                         : top_depth    - START DEPTH
STOP.M        146.720                        : bot_depth    - STOP DEPTH
STEP.M        0.25                           : increment    - STEP LENGTH
 NULL. -999.2500:NULL Value
~CURVE INFORMATION BLOCK
#MNEM UNIT       ERCB CURVE CODE    CURVE DESCRIPTION
#-----------   ------------------   ----------------------------------
DEPT.M        00 001 00 00         : DEPTH        - DEPTH
GR  .API      00 310 00 00         : GR           - GAMMA RAY
NPHI.V/V      00 330 00 00         : PHIN         - NEUTRON POROSITY (SANDSTONE)
ILD .OHMM     00 120 00 00         : RESD         - DEEP RESISTIVITY (DIL)
~PARAMETER INFORMATION
#MNEM.UNIT           DATA             DESCRIPTION OF MNEMONIC
#---------         -----------     ------------------------------
GL  .M        441.564              : gl           - GROUND LEVEL ELEVATION
EREF.M        441.564              : kb           - ELEVATION OF DEPTH REFERENCE
DATM.M        441.564              : datum        - DATUM ELEVATION
TDD .M        163.373              : tdd          - TOTAL DEPTH DRILLER
RUN .         ONE                  : Run          - RUN NUMBER
ENG .         JO                   : Engineer     - RECORDING ENGINEER
WIT .         TIM                  : Witness      - WITNESSED BY
MUD .         GEL                  : Mud_type     - MUD TYPE
MATR.         SANDSTONE            : Logunit      - NEUTRON MATRIX
TMAX.C        10                   : BHT          - MAXIMUM RECORDED TEMPERATURE
BHTD.M        163.373              : BHTDEP       - MAXIMUM RECORDED TEMPERATURE
RMT .C        11.6667              : MDTP         - TEMPERATURE OF MUD
MUDD.KG/M     9083.33              : MWT          - MUD DENSITY
NEUT.         1                    : NEUTRON      - NEUTRON TYPE
RESI.         0                    : RESIST       - RESISTIVITY TYPE
RM  .OHMM     6.54                 : RM           - RESISTIVITY OF MUD
RMC .OHMM     6.54                 : RMC          - RESISTIVITY OF MUD CAKE
RMF .OHMM     6.24                 : RMF          - RESISTIVITY OF MUD FILTRATE
SUFT.C        4                    : SUFT         - SURFACE TEMPERATURE
~A  DEPTH       GR     PHIN     RESD
# ...
   99.970   84.881    0.450   10.169
  100.220   82.425    0.436   13.612
  100.470   80.585    0.448    9.495
  100.720   91.650    0.470    7.309
  100.970  115.622    0.488    4.620
  101.220  122.385    0.503    4.199
  101.470  116.857    0.509    3.946
  101.720  121.162    0.518    4.112
  101.970  121.780    0.507    5.707
  102.220  121.783    0.485    7.470
  102.470  108.880    0.471    7.637
  102.720   92.905    0.449    7.804
  102.970   83.075    0.440   11.163
  103.220  100.286    0.442   12.086
  103.470  124.257    0.434   10.909
  103.720  124.875    0.439    9.900
  103.970  116.889    0.439    9.815
  104.220  111.361    0.443    8.973
  104.470   97.229    0.440    9.140
  104.720   84.940    0.441   10.735
  104.970   64.663    0.430   15.354
  105.220   41.313    0.427   24.510
  105.470   43.774    0.448   17.872
  105.720   40.705    0.502    3.086
  105.970   33.333    0.541    2.413
  106.220   35.179    0.522    2.664
  106.470   59.151    0.498    3.419
  106.720   99.101    0.486    4.762
  106.970  105.250    0.482    6.021
  107.220  108.326    0.470    5.432
  107.470   84.361    0.454    4.926
  107.720   68.385    0.434    5.765
  107.970   48.722    0.422    7.780
  108.220   46.267    0.426    8.115
  108.470   60.406    0.444    7.526
  108.720   65.940    0.427    6.013
  108.970   57.953    0.435    6.936
  109.220   45.050    0.460    8.111
  109.470   45.668    0.508    8.025
  109.720   51.203    0.513    5.672
  109.970   58.581    0.511    4.663
  110.220   58.584    0.510    3.653
  110.470   54.900    0.512    3.652
  110.720   57.975    0.522    3.567
  110.970   63.510    0.514    3.650
  111.220   61.669    0.495    3.817
  111.470   61.673    0.492    4.320
  111.720   55.530    0.494    4.823
  111.970   62.908    0.480    5.241
  112.220   75.817    0.483    5.240
  112.470   83.809    0.480    5.323
  112.720   83.198    0.480    5.406
  112.970   78.284    0.474    5.489
  113.220   67.840    0.464    6.328
  113.470   57.396    0.478    6.411
  113.720   47.566    0.493    5.234
  113.970   35.892    0.492    4.392
  114.220   32.823    0.431    5.231
  114.470   35.284    0.413    6.910
  114.720   38.360    0.395    8.589
  114.970   37.134    0.399    9.428
  115.220   40.210    0.409   10.771
  115.470   46.359    0.415   13.038
  115.720   38.987    0.414   11.777
  115.970   43.907    0.405   10.852
  116.220   48.826    0.352   11.019
  116.470   48.830    0.313   14.546
  116.720   46.989    0.242   23.449
  116.970   46.377    0.130   52.682
  117.220   46.381    0.015   53.185
  117.470   42.697   -0.014   53.520
  117.720   48.231    0.003   53.603
  117.970   48.849    0.012   53.685
  118.220   36.560    0.018   53.432
  118.470   29.189    0.024   53.347
  118.720   25.505    0.033   53.010
  118.970   21.820    0.035   52.505
  119.220   31.042    0.026   52.924
  119.470   48.867    0.028   53.007
  119.720   44.568    0.012   52.585
  119.970   42.728    0.025   51.996
  120.220   45.190    0.075   51.155
  120.470   47.651    0.228   50.398
  120.720   71.622    0.220   49.641
  120.970   87.604    0.217   48.379
  121.220   92.523    0.226   46.698
  121.470   94.370    0.277   22.924
  121.720   77.780    0.322   14.774
  121.970   71.638    0.348   13.681
  122.220   86.391    0.367   12.587
  122.470   96.841    0.377   11.830
  122.720   96.230    0.373   12.417
  122.970   95.618    0.376   12.500
  123.220   82.716    0.382   10.987
  123.470   72.272    0.383   10.565
  123.720   64.285    0.381   10.312
  123.970   64.903    0.374    9.975
  124.220   82.728    0.379   10.226
  124.470   82.117    0.396   11.569
  124.720   75.360    0.405   11.736
  124.970   75.363    0.408   11.651
  125.220   77.210    0.415   11.482
  125.470   71.068    0.402   12.825
  125.720   69.227    0.406   15.595
  125.970   66.772    0.403   16.434
  126.220   63.702    0.410   16.265
  126.470   46.498    0.399   16.096
  126.720   45.886    0.403   15.759
  126.970   55.722    0.410   15.086
  127.220   73.548    0.408   15.085
  127.470   83.999    0.398   15.840
  127.720   79.700    0.399   16.426
  127.970   66.797    0.409   16.173
  128.220   48.978    0.417   16.088
  128.470   71.105    0.414   17.095
  128.720   95.691    0.411   18.186
  128.970  123.964    0.410   18.605
  129.220  115.978    0.416   18.436
  129.470  115.981    0.421   18.518
  129.720  124.588    0.410   18.686
  129.970  120.904    0.411   19.357
  130.220   92.637    0.414   19.860
  130.470   76.047    0.418   20.698
  130.720   47.780    0.417   21.537
  130.970   63.762    0.401   22.796
  131.220  106.785    0.399   23.299
  131.470  104.330    0.396   23.129
  131.720  106.176    0.390   22.960
  131.970   93.888    0.396   22.707
  132.220   61.934    0.404   22.286
  132.470   44.115    0.394   22.033
  132.720   65.014    0.385   21.948
  132.970   74.235    0.391   22.871
  133.220   83.457    0.394   23.541
  133.470  113.573    0.387   23.877
  133.720   96.984    0.388   24.295
  133.970   55.196    0.405   24.547
  134.220   39.221    0.396   25.049
  134.470   52.744    0.398   26.056
  134.720   66.882    0.411   26.475
  134.970   77.948    0.417   27.398
  135.220   87.169    0.408   28.237
  135.470   83.485    0.400   30.084
  135.720   75.499    0.408   30.082
  135.970   73.044    0.411   29.578
  136.220   77.349    0.409   28.400
  136.470   74.894    0.424   24.535
  136.720   76.126    0.433   23.358
  136.970   67.525    0.429   29.657
  137.220   63.841    0.416   33.100
  137.470   65.688    0.388   35.451
  137.720   59.545    0.377   54.771
  137.970   54.632    0.390   52.586
  138.220   60.781    0.402   49.729
  138.470   63.242    0.432   27.130
  138.720   58.944    0.424   39.394
  138.970   62.020    0.410   37.376
  139.220   70.627    0.417   24.438
  139.470   73.703    0.425   19.397
  139.720   74.935    0.437   17.884
  139.970   74.324    0.422   16.959
  140.220   71.869    0.410   19.814
  140.470   63.883    0.399   30.649
  140.720   63.885    0.385   34.176
  140.970   66.347    0.377   48.456
  141.220   67.579    0.383   48.791
  141.470   76.187    0.390   47.110
  141.720   71.887    0.388   45.260
  141.970   69.432    0.399   31.987
  142.220   66.362    0.421   27.953
  142.470   66.980    0.429   23.836
  142.720   68.213    0.419   23.415
  142.970   65.757    0.401   26.858
  143.220   67.605    0.391   28.873
  143.470   76.212    0.391   30.047
  143.720   74.371    0.391   31.979
  143.970   70.072    0.396   34.666
  144.220   72.534    0.387   35.420
  144.470   71.308    0.393   39.536
  144.720   67.623    0.404   45.163
  144.970   65.168    0.385   48.858
  145.220   74.390    0.392   49.612
  145.470   71.935    0.404   49.275
  145.720   59.032    0.397   49.023
  145.970   39.369    0.388   48.433
  146.220   20.320    0.389   47.760
  146.470   21.553    0.403   45.743
  146.720   25.243    0.411   27.932
