~VERSION INFORMATION
 VERS.                 2.0:   CWLS LOG ASCII STANDARD -VERSION 2.0
 WRAP.                  NO:   ONE LINE PER DEPTH STEP
~WELL INFORMATION BLOCK
#MNEM.UNIT           DATA                    DESCRIPTION OF MNEMONIC
#---------    -------------------            -------------------------------
# Generated from Intellog Unique Number	CX_WELLS/WELL/3149
WELL.         PETRO-CANADA                   : Well_name    - WELL
LOC .         AA/06-08-083-08W4/0            : Location     - LOCATION
UWI .         AA/06-08-083-08W4/0            : Uwi          - UNIQUE WELL ID
ENTR.         TIM                            : Entered      - ENTERED BY
SRVC.         SCHLUMBERGER                   : Scn          - SERVICE COMPANY
STRT.M        275                            : top_depth    - START DEPTH
STOP.M        500                            : bot_depth    - STOP DEPTH
STEP.M        0.25                           : increment    - STEP LENGTH
 NULL. -999.2500:NULL Value
~CURVE INFORMATION BLOCK
#MNEM UNIT       ERCB CURVE CODE    CURVE DESCRIPTION
#-----------   ------------------   ----------------------------------
DEPT.M        00 001 00 00         : DEPTH        - DEPTH
GR  .API      00 310 00 00         : GR           - GAMMA RAY
NPHI.V/V      00 330 00 00         : PHIN         - NEUTRON POROSITY (SANDSTONE)
DPHI.V/V      00 890 00 00         : PHID         - DENSITY POROSITY (SANDSTONE)
ILD .OHMM     00 120 00 00         : RESD         - DEEP RESISTIVITY (OTHER)
~PARAMETER INFORMATION
#MNEM.UNIT           DATA             DESCRIPTION OF MNEMONIC
#---------         -----------     ------------------------------
GL  .M        726                  : gl           - GROUND LEVEL ELEVATION
EREF.M        730.2                : kb           - ELEVATION OF DEPTH REFERENCE
DATM.M        730.2                : datum        - DATUM ELEVATION
TDD .M        505                  : tdd          - TOTAL DEPTH DRILLER
RUN .         ONE                  : Run          - RUN NUMBER
ENG .         BILL                 : Engineer     - RECORDING ENGINEER
WIT .         JIM                  : Witness      - WITNESSED BY
MUD .         GEL                  : Mud_type     - MUD TYPE
MATR.         SANDSTONE            : Logunit      - NEUTRON MATRIX
TMAX.C        29                   : BHT          - MAXIMUM RECORDED TEMPERATURE
BHTD.M        505.834              : BHTDEP       - MAXIMUM RECORDED TEMPERATURE
MATR.         1                    : LOGUNIT      - NEUTRON MATRIX
RMT .C        20                   : MDTP         - TEMPERATURE OF MUD
NEUT.         1                    : NEUTRON      - NEUTRON TYPE
RESI.         4.78                 : RESIST       - RESISTIVITY TYPE
RMC .OHMM     4.8                  : RMC          - RESISTIVITY OF MUD CAKE
RMF .OHMM     4.8                  : RMF          - RESISTIVITY OF MUD FILTRATE
SUFT.C        3                    : SUFT         - SURFACE TEMPERATURE
~A  DEPTH       GR     PHIN     PHID     RESD
# ...
  362.000   85.296    0.319    0.314    6.758
  362.250   79.956    0.326    0.312    8.592
  362.500   76.392    0.343    0.318   10.528
  362.750   72.842    0.360    0.332   13.138
  363.000   67.502    0.351    0.348   22.823
  363.250   64.568    0.323    0.340   31.798
  363.500   63.395    0.334    0.328   29.584
  363.750   62.250    0.338    0.322   25.584
  364.000   62.337    0.338    0.311   24.244
  364.250   62.366    0.341    0.307   23.400
  364.500   63.054    0.340    0.307   22.592
  364.750   63.685    0.340    0.307   22.195
  365.000   62.540    0.338    0.309   21.436
  365.250   60.794    0.338    0.310   21.449
  365.500   61.468    0.338    0.313   21.086
  365.750   62.127    0.339    0.314   21.119
  366.000   60.367    0.340    0.315   20.755
  366.250   56.846    0.343    0.315   20.403
  366.500   56.288    0.352    0.314   19.347
  366.750   55.745    0.357    0.316   18.667
  367.000   55.172    0.365    0.315   18.345
  367.250   56.477    0.369    0.314   18.040
  367.500   57.723    0.366    0.314   18.068
  367.750   59.599    0.361    0.314   18.079
  368.000   60.230    0.355    0.311   18.108
  368.250   61.505    0.360    0.301   18.137
  368.500   61.563    0.362    0.298   17.818
  368.750   63.425    0.362    0.305   17.841
  369.000   63.483    0.357    0.311   17.869
  369.250   63.541    0.350    0.316   17.886
  369.500   62.998    0.339    0.319   17.914
  369.750   62.454    0.331    0.318   17.605
  370.000   62.498    0.331    0.310   17.633
  370.250   62.570    0.335    0.292   17.649
  370.500   60.825    0.334    0.193   18.332
  370.750   59.064    0.312    0.180   19.395
  371.000   57.919    0.286    0.189   20.152
  371.250   56.188    0.287    0.211   20.931
  371.500   59.253    0.299    0.222   20.951
  371.750   61.716    0.317    0.247   20.603
  372.000   61.788    0.328    0.302   19.879
  372.250   61.818    0.345    0.303   18.844
  372.500   62.477    0.350    0.295   18.530
  372.750   63.151    0.352    0.288   18.205
  373.000   63.810    0.356    0.303   17.907
  373.250   64.469    0.360    0.322   17.599
  373.500   63.325    0.357    0.321   16.991
  373.750   62.782    0.356    0.318   16.698
  374.000   62.238    0.356    0.317   16.410
  374.250   61.680    0.357    0.315   16.142
  374.500   59.949    0.358    0.315   15.863
  374.750   61.195    0.359    0.315   15.883
  375.000   63.673    0.360    0.315   16.203
  375.250   63.731    0.366    0.315   16.519
  375.500   62.572    0.370    0.317   16.534
  375.750   61.427    0.372    0.317   16.566
  376.000   62.731    0.372    0.317   16.576
  376.250   63.362    0.369    0.315   17.223
  376.500   62.217    0.364    0.314   18.221
  376.750   60.471    0.353    0.311   19.277
  377.000   60.544    0.342    0.309   19.665
  377.250   61.188    0.352    0.308   19.684
  377.500   60.660    0.361    0.308   19.715
  377.750   60.102    0.356    0.308   19.375
  378.000   58.370    0.354    0.308   18.700
  378.250   57.842    0.350    0.308   17.404
  378.500   58.486    0.348    0.306   17.103
  378.750   59.733    0.352    0.305   16.819
  379.000   61.624    0.358    0.303   17.146
  379.250   61.653    0.367    0.302   18.146
  379.500   61.109    0.362    0.303   19.203
  379.750   61.769    0.362    0.304   19.934
  380.000   63.029    0.361    0.305   21.480
  380.250   60.682    0.361    0.308   23.145
  380.500   58.349    0.359    0.309   23.182
  380.750   59.023    0.356    0.311   21.561
  381.000   60.255    0.355    0.312   19.337
  381.250   61.530    0.355    0.315   17.664
  381.500   61.588    0.356    0.316   17.697
  381.750   61.045    0.359    0.318   17.708
  382.000   61.690    0.367    0.320   17.731
  382.250   63.566    0.370    0.323   17.759
  382.500   64.225    0.366    0.325   18.116
  382.750   63.081    0.363    0.328   18.128
  383.000   61.951    0.360    0.328   18.156
  383.250   61.980    0.359    0.328   17.530
  383.500   62.639    0.359    0.328   17.227
  383.750   62.697    0.357    0.328   16.930
  384.000   63.356    0.358    0.325   16.951
  384.250   64.016    0.365    0.324   16.664
  384.500   65.878    0.371    0.318   16.690
  384.750   67.740    0.376    0.313   16.711
  385.000   69.631    0.380    0.312   16.732
  385.250   69.689    0.382    0.310   16.754
  385.500   69.732    0.382    0.309   16.775
  385.750   71.609    0.381    0.310   16.796
  386.000   73.471    0.379    0.312   16.823
  386.250   74.145    0.379    0.313   16.838
  386.500   73.573    0.379    0.313   16.558
  386.750   72.457    0.379    0.313   16.569
  387.000   71.298    0.376    0.313   15.992
  387.250   71.370    0.375    0.314   16.012
  387.500   71.399    0.374    0.314   15.741
  387.750   70.871    0.373    0.311   15.484
  388.000   70.327    0.373    0.309   15.212
  388.250   69.769    0.373    0.306   14.963
  388.500   68.639    0.371    0.305   14.705
  388.750   68.081    0.367    0.306   14.451
  389.000   68.154    0.367    0.307   13.699
  389.250   68.198    0.373    0.307   13.466
  389.500   68.871    0.374    0.307   13.733
  389.750   69.531    0.374    0.307   14.001
  390.000   70.190    0.374    0.307   14.278
  390.250   70.835    0.372    0.308   14.566
  390.500   70.922    0.372    0.308   14.859
  390.750   70.951    0.374    0.308   14.878
  391.000   71.023    0.382    0.307   14.621
  391.250   70.466    0.385    0.306   13.864
  391.500   70.538    0.392    0.302   13.377
  391.750   72.415    0.393    0.296   12.911
  392.000   73.045    0.391    0.290   12.461
  392.250   74.907    0.387    0.293   12.246
  392.500   77.385    0.383    0.298   11.394
  392.750   79.863    0.381    0.303   10.794
  393.000   83.514    0.382    0.305   10.045
  393.250   88.984    0.388    0.320    9.176
  393.500   93.867    0.395    0.339    8.379
  393.750   93.940    0.414    0.335    7.244
  394.000   94.570    0.425    0.310    6.149
  394.250   95.230    0.423    0.305    5.316
  394.500   96.490    0.420    0.303    4.512
  394.750   98.381    0.416    0.324    3.761
  395.000   96.635    0.414    0.352    3.435
  395.250   95.462    0.411    0.380    3.256
  395.500   93.716    0.407    0.375    3.707
  395.750   94.976    0.402    0.364    4.143
  396.000   96.266    0.396    0.337    5.076
  396.250   96.324    0.388    0.316    5.995
  396.500   96.368    0.378    0.338    6.826
  396.750   96.426    0.373    0.358    7.630
  397.000   95.897    0.380    0.357    7.501
  397.250   95.955    0.410    0.353    7.373
  397.500   96.600    0.417    0.347    7.119
  397.750   98.476    0.428    0.344    6.998
  398.000   99.121    0.435    0.341    6.755
  398.250   99.809    0.439    0.339    6.517
  398.500   99.838    0.436    0.340    5.845
  398.750  101.114    0.442    0.344    5.339
  399.000  102.360    0.450    0.350    4.703
  399.250  104.222    0.464    0.353    4.295
  399.500  107.917    0.474    0.349    3.782
  399.750  109.149    0.477    0.352    3.454
  400.000  110.424    0.482    0.355    2.986
  400.250  110.482    0.483    0.356    2.679
  400.500  109.953    0.491    0.358    2.634
  400.750  109.410    0.485    0.361    2.588
  401.000  108.837    0.478    0.361    2.640
  401.250  105.889    0.468    0.361    2.742
  401.500   99.933    0.437    0.366    2.954
  401.750   96.383    0.429    0.368    3.242
  402.000   96.456    0.424    0.374    3.901
  402.250   94.710    0.417    0.376    4.692
  402.500   92.950    0.415    0.382    5.443
  402.750   89.414    0.415    0.374    6.669
  403.000   88.871    0.415    0.355    7.593
  403.250   92.537    0.410    0.354    8.185
  403.500   96.188    0.402    0.351    8.499
  403.750   99.883    0.403    0.335    8.994
  404.000  100.528    0.407    0.313    9.518
  404.250  101.202    0.396    0.277    9.700
  404.500  102.448    0.369    0.279   10.266
  404.750  104.310    0.368    0.268   10.663
  405.000  106.172    0.370    0.219   10.871
  405.250  108.049    0.365    0.201   11.093
