~Version : LASO    vs 4.00
VERS.                2.00:   CWLS Log ASCII Standard -VERSION 2.0
WRAP.                  NO:
~Well Information Block
#MNEM.UNIT       Data                        Description of Mnemonic
#----.----      -------------------------- : -----------------------------
COMP.                                     : COMPANY
FLD .    WILDCAT                          : FIELD NAME
LOC .    02-32-090-08W4                   : WELL LOCATION
UWI .    AA/02-32-090-08W400              : UNIQUE WELL ID
STRT.M             0.0000:
STOP.M           201.3750:
STEP.M             0.1250:
NULL.           -999.2500:
COMP.  :COMPANY
WELL.  MOBIL CLARKE OV 2-32:WELL
FLD.   :FIELD
LOC.   :LOCATION
CTRY.  :COUNTRY
PROV.  ALBERTA:PROVINCE
SRVC.  DRESSER ATLAS:SERVICE COMPANY
DATE.  17-FEB-81:LOG DATE
UWI.   :UNIQUE WELL ID
~Parameter Information Block
#MNEM.UNIT       Data                        Description of Mnemonic
#----.----      -------------------------- : -----------------------------
RUN .                   1                 : Run Number
GL  .M           431.8000                 : Ground Level Elevation
DREF.                  KB                 : Depth Reference
EREF.M           431.8000                 : Elevation of Depth Reference
TDL .M           202.0000                 : Total Depth Logger
TDD .M           201.6000                 : Total Depth Driller
BHT .DEGC         20.0000                 : Bottom Hole Temperature
BS  .MM          159.0000                 : Bit Size
DFD .             10.3000                 : Mud Weight (Density)
DFV .             85.0000                 : Mud Viscosity
DFPH.             10.0000                 : Mud pH
RM  .OHMM          4.9000                 : Mud Resistivity
RMT .DEGC         20.0000                 : Mud Resistivity Temperature
RMF .OHMM          4.7000                 : Mud Filtrate Resistivity
RMFT.DEGC         10.0000                 : RMF Temperature
RMC .OHMM          9.5000                 : Mud Cake Resistivity
RMCT.DEGC         10.0000                 : RMC Temperature
~Curve Information Block
#MNEM.UNIT        API CODE    Curve Description
#---------    ------------    -------------------------------------------
DEPT.M                    :   DEPTH
CALI.MM       42 280  1  1:   3 DENSITY CALIPER
DPHI.V/V                  :   DPHI
DT  .US/M     60 520 42  1:   2 SONIC INTERVAL TRANSIT TIME (COMPENSATED)
GR  .GAPI     42 310  1  1:   4 GAMMA RAY
IL  .OHMM      5 120 45  1:   7 INDUCTION
NPHI.V/V      42 890  3  1:   5 NEUTRON POROSITY (SANDSTONE)
RHOB.K/M3     42 350  1  1:   6 BULK DENSITY
SFL .OHMM      5 220  6  1:   8 FOCUSSED RESISTIVITY
SP  .MV        5  10  1  1:   9 SPONTANEOUS POTENTIAL
~A  Depth           CALI        DPHI          DT          GR          IL        NPHI        RHOB         SFL          SP
# ...
92.1250         183.8000      0.3078    542.3200    106.9650      3.4400      0.4133   2132.2000      8.4250    -40.6500
92.2500         184.8750      0.3056    539.6000    104.1600      3.6250      0.4168   2135.5000      8.7950    -41.1500
92.3750         187.0500      0.3052    540.1200     99.7650      3.7450      0.4121   2131.0000      9.4050    -41.4000
92.5000         192.0250      0.3060    542.0800     97.1250      3.9900      0.3940   2124.2000     10.0800    -41.2700
92.6250         194.0000      0.3071    540.6000     96.2100      4.1750      0.4063   2119.5000     10.6300    -41.6500
92.7500         188.7250      0.3074    537.8800     93.7800      4.4200      0.4052   2117.5000     10.7550    -42.4000
92.8750         182.2750      0.3056    534.9600     94.2450      4.6050      0.3997   2118.5000     10.3850    -42.5200
93.0000         185.5250      0.3025    530.8000     93.1500      4.8500      0.4080   2123.3000     10.0800    -42.2700
93.1250         187.6250      0.2974    530.0400     91.0500      5.0350      0.4150   2134.0000      9.9600    -42.7700
93.2500         187.5500      0.2925    530.5200     92.6550      5.2200      0.4114   2154.5000      9.8950    -43.3900
93.3750         179.3500      0.2866    524.6400     95.1750      5.3400      0.4204   2178.8999      9.8350    -44.2600
93.5000         175.6250      0.2796    519.4800     97.4400      5.4650      0.4077   2197.5000      9.8950    -44.0200
93.6250         174.6000      0.2736    515.0800    100.0050      5.5250      0.4036   2209.3000     10.3250    -42.4000
93.7500         175.6000      0.2667    511.8800    101.4000      5.5850      0.4028   2226.7000     11.3050    -42.2700
93.8750         176.4500      0.2597    511.6400     99.1200      5.7100      0.3991   2235.3000     11.9200    -42.2700
94.0000         177.4500      0.2509    512.3600     99.0750      5.6450      0.4004   2233.3999     11.8550    -42.0200
94.1250         180.4000      0.2499    512.3600    101.4900      5.6450      0.3948   2224.8999     11.7350    -42.2700
94.2500         180.5000      0.2516    512.8800    103.1850      5.7100      0.3911   2216.3000     12.1000    -43.1400
94.3750         178.4750      0.2547    517.0400     98.2350      5.6450      0.3809   2210.8000     12.2250    -44.3900
94.5000         177.3750      0.2573    518.7600     96.7800      5.7700      0.3779   2208.1001     11.0600    -45.1400
94.6250         176.4750      0.2570    520.9600     98.3700      5.7700      0.3741   2209.6001      9.6500    -44.3900
94.7500         176.4750      0.2542    519.4800     99.7800      5.8300      0.3849   2214.8999      9.1600    -43.7700
94.8750         176.5500      0.2500    516.3200    101.1900      5.8950      0.3814   2205.1001      9.5300    -44.0200
95.0000         177.2000      0.2463    518.5200    102.1200      5.9550      0.4031   2203.3999     10.0200    -44.2600
95.1250         177.4250      0.2418    541.3200    100.1700      6.0150      0.4099   2208.7000     10.6300    -44.3900
95.2500         177.6000      0.2384    569.5600    101.9100      6.0750      0.4012   2215.1001     11.1200    -44.5100
95.3750         178.8500      0.2337    564.4000    104.0400      6.2600      0.4040   2264.0000     11.7950    -44.7600
95.5000         180.8500      0.2301    564.8800    102.4500      6.3200      0.4003   2268.8000     12.1650    -45.2600
95.6250         185.8500      0.2276    568.3200    101.8950      6.5050      0.3781   2261.0000     11.9200    -45.8800
95.7500         190.8000      0.2273    566.1200    102.0750      6.6900      0.3631   2253.8000     11.4300    -46.1300
95.8750         190.1250      0.2305    527.8400     98.1150      6.9350      0.3533   2247.1001     11.2450    -46.8800
96.0000         181.9000      0.2308    492.7600     96.0900      7.3050      0.3485   2247.7000     11.5500    -48.2500
96.1250         175.7250      0.2308    485.6400     94.1250      7.9150      0.3349   2249.3000     11.7950    -49.9900
96.2500         173.3000      0.2308    489.8000     92.2950      8.7150      0.3337   2250.8999     12.2250    -51.6100
96.3750         173.2750      0.2298    535.9200     89.1300      9.6950      0.3299   2255.6001     14.1850    -53.6100
96.5000         173.2750      0.2248    519.4800     89.3700     10.8000      0.3155   2266.3000     20.3150    -54.2300
96.6250         174.2250      0.2165    445.4000     90.0300     11.9650      0.2981   2331.1001    137.9999    -53.1100
96.7500         173.1750      0.1926    434.8400     88.9800     13.3150      0.2840   2425.8000    351.8500    -51.8600
96.8750         170.1500      0.1261    490.2800     80.4000     14.6050      0.2757   2520.3999    904.9999    -50.4900
97.0000         168.8000      0.0680    434.8400     77.5950     15.2200      0.2608   2615.1001   1254.9999    -49.2500
97.1250         167.8500      0.0349    488.3200     71.9700     15.2200      0.2430   2673.2000    761.4999    -48.1300
97.2500         168.2000      0.0166    565.8800     64.3950     14.3000      0.2098   2649.7000    262.9999    -46.7600
97.3750         166.1750      0.0098    518.5200     58.8600     12.8250      0.1981   2626.2000    153.9500    -46.0100
97.5000         164.4500      0.0029    519.0000     59.3250     11.1700      0.1979   2602.7000     65.8000    -45.5100
97.6250         165.9000      0.0055    528.3200     62.3100      9.8800      0.2014   2526.5000     17.8600    -45.5100
97.7500         168.4000      0.0504    430.4000     67.6350      8.6550      0.2152   2450.1001      8.9150    -45.8800
97.8750         168.9250      0.2229    463.5600     70.0650      7.7950      0.2459   2373.6001      7.6900    -46.7600
98.0000         168.2250      0.2738    468.6800     74.2350      6.9350      0.2715   2297.1001      8.5500    -47.0000
98.1250         169.0750      0.2860    509.4400     77.2350      6.2600      0.3167   2222.2000      9.7150    -47.0000
98.2500         169.0750      0.2895    515.3200     81.9750      5.8950      0.3459   2179.5000     11.0000    -47.5000
98.3750         169.0500      0.2874    540.3600     87.3000      5.7100      0.3413   2153.2000     11.5500    -49.0000
98.5000         168.1250      0.2833    520.7200     90.3300      5.5850      0.3489   2154.0000     11.4300    -49.3700
98.6250         167.0250      0.2805    487.8400     87.9900      5.5250      0.3526   2154.8999     10.3850    -47.6300
98.7500         167.4750      0.2763    505.0000     88.8900      5.5250      0.3467   2156.3999      9.6500    -44.7600
98.8750         168.0000      0.2750    471.4000     84.3600      5.5250      0.3497   2175.1001      9.4650    -43.0200
99.0000         167.6500      0.2746    510.1600     84.2100      5.5250      0.3550   2186.1001      9.6500    -42.2700
99.1250         166.9750      0.2753    508.6800     82.5450      5.5250      0.3605   2190.8000      9.4650    -41.5200
99.2500         167.5250      0.2744    511.4000     82.7700      5.5850      0.3667   2190.8000      9.7750    -42.4000
99.3750         169.1000      0.2735    507.7200     83.5500      5.5850      0.3672   2185.6001     10.1400    -44.8900
99.5000         171.8000      0.2719    505.0000     84.5850      5.5250      0.3644   2182.3000     10.8750    -46.7600
99.6250         170.6250      0.2707    503.2400     87.9000      5.5850      0.3703   2178.8999     11.1200    -47.8800
99.7500         169.2250      0.2706    491.7600     88.4850      5.5250      0.3769   2177.3999     11.0600    -47.7500
99.8750         167.6750      0.2706    457.1600     90.2700      5.4650      0.3856   2179.0000     11.3050    -47.5000
100.0000        166.8750      0.2749    496.4400     90.1650      5.3400      0.3874   2180.6001     12.1000    -49.0000
100.1250        166.3500      0.2743    499.1200     86.6400      5.2800      0.3918   2183.7000     11.7950    -48.7500
100.2500        165.8250      0.2806    503.2400     83.8050      5.2200      0.3949   2185.8000     11.1850    -47.2500
100.3750        167.0250      0.2936    513.8400     84.3900      5.1550      0.3992   2171.2000     10.2650    -46.3800
