~Version : LASO    vs 4.00 - DATA COPYRIGHT - RILEYS DATASHARE INTERNATIONAL
VERS.                2.00:   CWLS Log ASCII Standard -VERSION 2.0
WRAP.                  NO:
~Well Information Block
#MNEM.UNIT       Data                        Description of Mnemonic
#----.----      -------------------------- : -----------------------------
COMP.                                     : COMPANY
FLD .    WILDCAT                          : FIELD NAME
LOC .    03-06-091-07W4                   : WELL LOCATION
UWI .    AA/03-06-091-07W400              : UNIQUE WELL ID
STRT.M             9.0000:
STOP.M           161.0000:
STEP.M             0.1250:
NULL.           -999.2500:
COMP.  MOBIL OIL CANADA:COMPANY
WELL.  MOBIL CLARKE OV 3-6:WELL
FLD.   :FIELD
LOC.   03-06-091-07W4:LOCATION
CTRY.  CANADA:COUNTRY
PROV.  ALBERTA:PROVINCE
SRVC.  DRESSER ATLAS:SERVICE COMPANY
DATE.  08-FEB-81:LOG DATE
UWI.   AA/03-06-091-07W4/0:UNIQUE WELL ID
~Parameter Information Block
#MNEM.UNIT       Data                        Description of Mnemonic
#----.----      -------------------------- : -----------------------------
RUN .                   1                 : Run Number
GL  .M           418.1000                 : Ground Level Elevation
DREF.                  KB                 : Depth Reference
EREF.M           419.1000                 : Elevation of Depth Reference
TDL .M           162.8000                 : Total Depth Logger
TDD .M           160.0000                 : Total Depth Driller
BHT .DEGC         10.0000                 : Bottom Hole Temperature
BS  .MM          171.0000                 : Bit Size
DFD .           1090.0000                 : Mud Weight (Density)
DFV .             85.0000                 : Mud Viscosity
RM  .OHMM          1.9000                 : Mud Resistivity
RMT .DEGC         10.0000                 : Mud Resistivity Temperature
RMF .OHMM          1.1000                 : Mud Filtrate Resistivity
RMFT.DEGC         18.0000                 : RMF Temperature
RMC .OHMM          1.8000                 : Mud Cake Resistivity
RMCT.DEGC         18.0000                 : RMC Temperature
~Curve Information Block
#MNEM.UNIT        API CODE    Curve Description
#---------    ------------    -------------------------------------------
DEPT.M                    :   DEPTH
CALI.MM       42 280  1  1:   3 DENSITY CALIPER
DPHI.V/V                  :   DPHI
DT  .US/M     60 520 32  1:   2 SONIC INTERVAL TRANSIT TIME (COMPENSATED)
GR  .GAPI     42 310  1  1:   4 GAMMA RAY
ILD .OHMM      5 120 46  1:   7 DEEP INDUCTION
NPHI.V/V      42 890  3  1:   5 NEUTRON POROSITY (SANDSTONE)
RHOB.K/M3     42 350  1  1:   6 BULK DENSITY
SFL .OHMM      5 220  6  1:   8 FOCUSSED RESISTIVITY
SP  .MV        5  10  1  1:   9 SPONTANEOUS POTENTIAL
~A  Depth           CALI        DPHI          DT          GR         ILD        NPHI        RHOB         SFL          SP
# ...
117.8750        213.2750      0.2870    406.9200     25.3650    670.9000      0.2610   2173.6001    188.2000    -57.4300
118.0000        213.2750      0.2887    413.3200     26.2800    586.6000      0.2670   2170.6001    288.5000    -55.0300
118.1250        213.8750      0.2909    413.8000     27.0150    535.3000      0.2730   2165.1001    310.5000    -53.4700
118.2500        216.0250      0.2940    415.7600     28.1250    508.5000      0.2782   2166.3000    389.9000    -51.7800
118.3750        216.3250      0.2992    419.2000     29.5950    459.6000      0.2849   2160.8000    395.9999    -50.7000
118.5000        216.9500      0.3054    415.7600     32.1600    459.6000      0.2918   2153.5000    393.6000    -49.8600
118.6250        217.5500      0.3102    420.1600     32.1600    454.8000      0.3003   2151.7000    398.5000    -49.1400
118.7500        217.5500      0.3151    422.3600     31.0650    448.7000      0.3065   2148.1001    410.7000    -49.0200
118.8750        216.9500      0.3188    420.6400     30.3300    459.6000      0.3125   2148.7000    413.2000    -49.3800
119.0000        217.5500      0.3141    418.2000     30.8700    484.1000      0.3174   2153.5000    406.9999    -50.2200
119.1250        217.2500      0.3116    422.3600     32.3400    505.9999      0.3164   2166.8999    383.8000    -51.5400
119.2500        214.2000      0.3080    420.4000     31.8000    538.9999      0.3117   2168.7000    339.8000    -53.5900
119.3750        212.9750      0.3066    417.2400     29.4000    516.9999      0.3080   2169.3000    240.8000    -56.7100
119.5000        212.0500      0.3054    419.2000     27.7500    508.5000      0.3055   2160.2000    183.3000    -59.8400
119.6250        211.4250      0.3053    417.2400     27.3750    497.5000      0.3038   2106.7000    208.9999    -63.2000
119.7500        209.9000      0.3097    411.6000     26.8350    496.3000      0.3017   2097.6001    294.6000    -65.9700
119.8750        209.9000      0.3134    406.4400     26.4600    507.3000      0.3004   2097.6001    438.8000    -68.0100
120.0000        209.9000      0.3193    404.9600     25.7250    525.6000      0.2981   2103.1001    492.6000    -69.8100
120.1250        210.2000      0.3253    400.0800     23.8950    614.7000      0.2946   2111.0000    493.8000    -71.7400
120.2500        209.9000      0.3249    397.3600     23.3400    780.7999      0.2935   2107.8999    474.3000    -73.7800
120.3750        209.6000      0.3227    395.4000     23.3400   1328.9999      0.2929   2109.1001    447.4000    -75.5800
120.5000        209.9000      0.3203    390.7600     23.7000   1651.9999      0.2907   2111.0000    426.6000    -76.7800
120.6250        209.9000      0.3168    388.5600     23.3400   1845.9999      0.2883   2112.8000    415.6000    -77.6300
120.7500        209.9000      0.3142    388.3200     22.7850   1882.9999      0.2858   2114.6001    404.6000    -78.2300
120.8750        209.9000      0.3117    388.8000     23.1600   1883.9999      0.2844   2114.6001    387.5000    -78.5900
121.0000        209.9000      0.3093    386.8400     23.5200   1882.9999      0.2842   2112.8000    342.2000    -78.8300
121.1250        209.9000      0.3082    385.1200     24.4350   1882.9999      0.2831   2129.8000    268.9000    -79.0700
121.2500        209.9000      0.3076    383.8800     24.9900   1881.9999      0.2839   2127.3999    197.9999    -79.5500
121.3750        209.9000      0.3095    384.6400     25.1700   1876.9999      0.2840   2123.1001    217.6000    -80.2700
121.5000        210.2000      0.3128    388.0400     25.1700   1871.9999      0.2831   2120.7000    301.9000    -81.1100
121.6250        210.8250      0.3154    391.9600     24.4350   1856.9999      0.2809   2122.5000    452.3000    -82.1900
121.7500        210.8250      0.3172    396.8800     23.3400   1820.9999      0.2805   2126.2000    503.6000    -83.2700
121.8750        210.8250      0.3182    399.5600     23.5200   1549.9999      0.2797   2126.8000    519.4999    -84.4800
122.0000        210.5250      0.3165    400.8000     23.3400   1302.9999      0.2773   2125.6001    523.2000    -85.4400
122.1250        210.5250      0.3152    400.8000     23.1600   1125.9999      0.2749   2123.1001    517.1000    -85.6800
122.2500        210.2000      0.3120    401.2800     22.9650   1041.9999      0.2743   2128.0000    491.4000    -85.5600
122.3750        210.2000      0.3075    401.0400     23.3400    818.6000      0.2742   2134.1001    479.2000    -85.4400
122.5000        210.2000      0.3064    403.0000     23.7000    705.1000      0.2732   2131.6001    477.9000    -85.5600
122.6250        210.2000      0.3080    404.0000     22.9650    635.4999      0.2729   2117.0000    479.2000    -85.8000
122.7500        210.2000      0.3103    404.2400     22.7850    607.4000      0.2719   2121.3000    469.4000    -85.4400
122.8750        210.2000      0.3117    403.7600     22.9650    570.8000      0.2708   2131.6001    459.6000    -84.9600
123.0000        210.2000      0.3093    400.8000     22.4250    554.9000      0.2686   2133.5000    473.1000    -84.9600
123.1250        210.2000      0.3069    400.8000     22.7850    567.1000      0.2672   2156.0000    487.7000    -85.4400
123.2500        210.2000      0.3036    401.0400     23.7000    625.7000      0.2650   2153.5000    490.2000    -86.0400
123.3750        210.5250      0.3018    399.8400     24.8100    713.6000      0.2626   2150.5000    439.9999    -86.4000
123.5000        210.5250      0.3004    398.8400     23.8950    730.7000      0.2615   2146.2000    340.9999    -85.9200
123.6250        210.8250      0.2991    398.6000     22.6050    794.2000      0.2598   2135.8999    303.1000    -85.5600
123.7500        210.8250      0.2987    398.8400     22.2300    943.2000      0.2611   2133.5000    344.7000    -85.0800
123.8750        211.1250      0.2980    399.5600     22.7850   1415.9999      0.2620   2132.8999    436.4000    -85.0800
124.0000        211.1250      0.2975    395.9200     23.3400   1672.9999      0.2626   2131.6001    524.4000    -85.3200
124.1250        211.7500      0.2974    394.4400     23.1600   1839.9999      0.2636   2126.2000    499.9999    -85.5600
124.2500        211.7500      0.2981    393.2000     23.1600   1872.9999      0.2648   2124.3000    410.7000    -85.4400
124.3750        211.7500      0.2989    392.9600     22.6050   1839.9999      0.2668   2128.6001    293.3000    -85.2000
124.5000        212.3500      0.2995    389.7600     22.7850   1777.9999      0.2699   2129.8000    224.9000    -84.9600
124.6250        212.6500      0.3021    390.2800     23.7000   1680.9999      0.2726   2116.3999    221.2000    -84.8400
124.7500        212.6500      0.3046    391.2400     24.4350   1407.9999      0.2751   2117.7000    279.9000    -84.3600
124.8750        212.9750      0.3095    392.7200     24.2550    593.9999      0.2775   2114.0000    376.5000    -83.6300
125.0000        212.9750      0.3169    394.2000     24.8100    383.9000      0.2808   2107.8999    454.7000    -82.9100
125.1250        212.6500      0.3193    397.6000     25.3650    287.5000      0.2848   2130.3999    460.8000    -82.3100
125.2500        212.0500      0.3181    401.8000     25.7250    236.2000      0.2885   2132.8999    469.4000    -82.0700
125.3750        210.5250      0.3169    404.9600     25.1700    178.8000      0.2909   2126.8000    484.1000    -82.3100
125.5000        209.9000      0.3144    405.7200     24.2550    147.1000      0.2933   2119.5000    491.4000    -82.9100
125.6250        209.6000      0.3143    403.4800     23.7000    121.4000      0.2958   2103.7000    493.8000    -83.0300
125.7500        208.9750      0.3166    400.8000     23.7000    109.2000      0.2974   2092.7000    493.8000    -82.7900
125.8750        208.3750      0.3202    399.0800     24.4350    101.4000      0.2994   2087.2000    492.6000    -82.0700
126.0000        208.3750      0.3261    407.9200     24.4350     91.0500      0.3006   2075.7000    496.3000    -81.4700
126.1250        208.3750      0.3311    412.3200     23.7000     85.2900      0.3007   2074.5000    497.5000    -81.4700
