~VERSION INFORMATION
 VERS.                 2.0:   CWLS LOG ASCII STANDARD -VERSION 2.0
 WRAP.                  NO:   ONE LINE PER DEPTH STEP
~WELL INFORMATION BLOCK
#MNEM.UNIT           DATA                    DESCRIPTION OF MNEMONIC
#---------    -------------------            -------------------------------
# Generated from Intellog Unique Number	utf_inj/WELL/927
WELL.         AO-77                          : Well_name    - WELL              
LOC .         AA/07-29-093-13W4/0            : Location     - LOCATION          
UWI .         AA/07-29-093-13W400            : Uwi          - UNIQUE WELL ID    
ENTR.         JHS                            : Entered      - ENTERED BY        
SRVC.         Century                        : Scn          - SERVICE COMPANY   
STRT.M        20                             : top_depth    - START DEPTH       
STOP.M        103                            : bot_depth    - STOP DEPTH        
STEP.M        0.25                           : increment    - STEP LENGTH       
NULL.         -999.250                       : null         - NULL VALUE       
~CURVE INFORMATION BLOCK
#MNEM UNIT       ERCB CURVE CODE    CURVE DESCRIPTION
#-----------   ------------------   ----------------------------------
DEPT.M        00 001 00 00         : DEPTH        - DEPTH                       
GR  .API      00 310 00 00         : GR           - GAMMA RAY                   
DPHI.V/V      00 890 00 00         : PHID         - DENSITY POROSITY (SANDSTONE)
NPHI.V/V      00 330 00 00         : PHIN         - NEUTRON POROSITY (SANDSTONE)
ILD .OHMM     00 120 00 00         : RESD         - DEEP RESISTIVITY (DIL)      
SP  .MV       00 010 00 00         : SP           - SPONTANEOUS POTENTIAL       
CALI.MM       00 280 01 00         : CAL          - CALIPER                     
~PARAMETER INFORMATION       
#MNEM.UNIT           DATA             DESCRIPTION OF MNEMONIC
#---------         -----------     ------------------------------
GL  .M        372.69               : gl           - GROUND LEVEL ELEVATION      
EREF.M        372.69               : kb           - ELEVATION OF DEPTH REFERENCE
DATM.M        372.69               : datum        - DATUM ELEVATION             
TDD .M        107                  : tdd          - TOTAL DEPTH DRILLER         
RUN .         ONE                  : Run          - RUN NUMBER                  
ENG .         BILL                 : Engineer     - RECORDING ENGINEER          
WIT .         JIM                  : Witness      - WITNESSED BY                
MUD .         GEL                  : Mud_type     - MUD TYPE                    
MATR.         SANDSTONE            : Logunit      - NEUTRON MATRIX              
TMAX.C        6.5                  : BHT          - MAXIMUM RECORDED TEMPERATURE
BHTD.M        151.49               : BHTDEP       - MAXIMUM RECORDED TEMPERATURE
MATR.         1                    : LOGUNIT      - NEUTRON MATRIX              
RMT .C        25                   : MDTP         - TEMPERATURE OF MUD          
NEUT.         1                    : NEUTRON      - NEUTRON TYPE                
RESI.         0                    : RESIST       - RESISTIVITY TYPE            
RMC .OHMM     0.25                 : RMC          - RESISTIVITY OF MUD CAKE     
RMF .OHMM     0.25                 : RMF          - RESISTIVITY OF MUD FILTRATE 
SUFT.C        15                   : SUFT         - SURFACE TEMPERATURE         
~A  DEPTH       GR     PHID     PHIN     RESD       SP      CAL
# ...
   51.250  114.144    0.293    0.643   50.048    0.000  157.776
   51.500  113.002    0.258    0.618   47.012    0.000  159.272
   51.750  100.111    0.256    0.650   43.758    0.000  161.657
   52.000   86.341    0.257    0.591   42.610    0.000  162.856
   52.250   89.897    0.258    0.661   41.866    0.000  165.240
   52.500   86.403    0.252    0.644   42.657    0.000  165.853
   52.750  104.052    0.263    0.540   44.647    0.000  165.298
   53.000  107.017    0.258    0.512   48.896    0.000  163.271
   53.250   98.822    0.235    0.589   49.812    0.000  162.709
   53.500   92.392    0.228    0.646   43.919    0.000  163.920
   53.750  108.277    0.232    0.674   42.385    0.000  162.774
   54.000  105.080    0.233    0.616   43.572    0.000  162.803
   54.250  105.402    0.241    0.528   44.794    0.000  163.709
   54.500  107.783    0.220    0.477   46.891    0.000  163.744
   54.750   96.066    0.215    0.567   49.079    0.000  162.889
   55.000   88.755    0.166    0.600   69.841    0.000  160.573
   55.250   99.650    0.120    0.493  106.826    0.000  163.243
   55.500   89.700    0.128    0.467   76.526    0.000  163.863
   55.750   98.536    0.219    0.551   47.871    0.000  161.246
   56.000   94.455    0.233    0.512   45.376    0.000  162.166
   56.250   97.716    0.229    0.523   46.640    0.000  163.362
   56.500  105.378    0.226    0.602   47.524    0.000  163.390
   56.750  100.710    0.218    0.664   44.234    0.000  159.900
   57.000   89.586    0.219    0.573   41.922    0.000  161.106
   57.250   99.013    0.225    0.532   41.193    0.000  158.783
   57.500  108.436    0.228    0.580   42.731    0.000  158.819
   57.750  118.156    0.228    0.652   45.540    0.000  161.486
   58.000   99.980    0.228    0.685   49.873    0.000  163.870
   58.250  116.452    0.216    0.645   53.637    0.000  162.431
   58.500   94.756    0.214    0.661   50.377    0.000  161.869
   58.750  108.293    0.225    0.696   48.618    0.000  163.957
   59.000   93.052    0.215    0.627   47.775    0.000  164.279
   59.250   94.846    0.223    0.607   44.068    0.000  161.372
   59.500  106.621    0.233    0.566   42.147    0.000  161.111
   59.750   85.803    0.227    0.558   45.740    0.000  158.501
   60.000   89.354    0.224    0.551   47.023  297.556  157.939
   60.250   97.313    0.226    0.591   45.381  300.010  158.264
   60.500  107.620    0.220    0.578   44.990  300.050  157.706
   60.750  100.897    0.212    0.614   46.681  298.910  160.377
   61.000   92.705    0.217    0.608   48.414  298.949  162.174
   61.250  108.884    0.231    0.617   50.677  299.014  160.731
   61.500  109.206    0.221    0.565   52.102  299.060  159.879
   61.750   91.034    0.223    0.600   49.376  300.303  159.912
   62.000   94.002    0.230    0.575   44.328  300.358  160.825
   62.250   95.204    0.230    0.553   39.085  301.605  162.912
   62.500  106.686    0.246    0.544   36.382  300.448  163.818
   62.750  111.705    0.255    0.501   33.864  299.295  163.846
   63.000   87.955    0.253    0.529   30.953  298.143  163.589
   63.250  117.638    0.248    0.585   38.124  298.185  162.733
   63.500   97.997    0.244    0.674   41.746  299.456  162.765
   63.750   92.742    0.238    0.689   46.977  299.499  161.917
   64.000  105.988    0.233    0.632   43.722  297.137  165.758
   64.250  117.760    0.239    0.594   41.816  295.997  166.084
   64.500   98.703    0.247    0.584   42.220  296.042  161.713
   64.750   89.924    0.227    0.632   43.012  298.490  161.151
   65.000   87.017    0.137    0.584   53.453  299.727  161.477
   65.250   98.499    0.121    0.475   70.123  302.181  163.271
   65.500   92.656    0.174    0.531   55.473  303.437  163.002
   65.750   97.679    0.219    0.560   48.473  302.291  160.976
   66.000   90.956    0.227    0.555   44.715  302.322  160.421
   66.250   85.113    0.229    0.611   44.333  302.375  160.457
   66.500   71.344    0.272    0.667   35.714  302.426  161.656
   66.750   76.954    0.315    0.585   31.774  302.469  161.685
   67.000   65.824    0.322    0.476   29.309  300.126  160.539
   67.250   82.002    0.325    0.455   27.528  298.979  160.274
   67.500   71.169    0.333    0.511   27.296  297.814  160.604
   67.750   62.978    0.291    0.588   29.356  296.678  160.923
   68.000   56.548    0.264    0.617   36.483  295.521  160.955
   68.250   57.758    0.256    0.596   49.175  295.565  160.984
   68.500   49.563    0.270    0.530   73.874  296.832  158.667
   68.750   44.014    0.299    0.506   96.048  298.070  157.815
   69.000   54.908    0.291    0.471  115.129  300.510  159.609
   69.250   59.928    0.285    0.458  105.235  302.977  158.166
   69.500   62.602    0.270    0.511   73.366  303.009  157.611
   69.750   52.066    0.241    0.537   65.281  303.064  158.521
   70.000   57.669    0.186    0.501   71.488  303.108  157.375
   70.250   91.465    0.146    0.538   71.520  301.957  157.998
   70.500   91.494    0.219    0.503   49.864  302.002  159.201
   70.750   90.058    0.257    0.532   27.988  303.266  158.936
   71.000   85.683    0.249    0.561   30.104  303.305  158.084
   71.250  101.862    0.241    0.660   34.179  302.159  157.526
   71.500   93.377    0.246    0.662   38.813  301.013  157.848
   71.750   99.277    0.238    0.720   40.621  301.057  157.300
   72.000  115.456    0.230    0.731   42.137  301.103  156.735
   72.250  105.503    0.242    0.711   40.663  301.159  156.474
   72.500   90.266    0.229    0.692   44.936  301.205  156.212
   72.750  104.100    0.223    0.649   42.591  301.249  156.237
   73.000   98.254    0.228    0.609   38.935  300.094  156.560
   73.250   95.934    0.229    0.588   36.898  301.355  157.179
   73.500  105.947    0.220    0.571   35.605  301.399  157.501
   73.750  109.506    0.216    0.652   34.988  301.440  158.418
   74.000   82.813    0.228    0.730   38.315  301.485  159.030
   74.250   71.686    0.160    0.640   44.699  301.543  159.650
   74.500   89.039    0.069    0.640   50.297  300.390  160.559
   74.750   95.529    0.104    0.621   45.561  298.038  160.000
   75.000   85.573    0.199    0.611   46.004  298.097  159.736
   75.250   71.217    0.221    0.537   49.476  299.334  159.184
   75.500   76.240    0.240    0.518   52.261  300.581  158.039
   75.750   64.529    0.247    0.534   52.759  301.837  158.067
   76.000   73.362    0.231    0.597   52.759  300.683  158.096
   76.250   65.464    0.237    0.595   53.299  300.730  157.835
   76.500   84.879    0.266    0.584   53.330  301.988  156.392
   76.750   74.626    0.282    0.547   51.468  302.029  152.024
   77.000   85.814    0.279    0.508   49.664  302.085  154.398
   77.250   91.424    0.264    0.481   47.493  302.125  158.247
   77.500   71.780    0.242    0.471   44.606  302.182  159.160
   77.750   71.225    0.262    0.550   49.294  302.220  158.898
   78.000   80.061    0.258    0.542   53.014  301.067  159.221
   78.250   86.551    0.240    0.548   45.493  301.129  160.130
   78.500   85.112    0.243    0.556   45.522  301.173  158.981
   78.750   90.722    0.248    0.529   48.958  302.422  158.723
   79.000   88.696    0.248    0.506   48.106  301.269  159.629
   79.250   98.123    0.243    0.500   45.598  300.111  158.777
   79.500   89.638    0.236    0.529   48.593  302.577  160.574
   79.750   81.153    0.228    0.534   47.324  302.614  160.607
   80.000   76.191    0.190    0.505   51.824  300.271  160.632
   80.250   91.782    0.188    0.551   57.782  300.316  160.664
   80.500   82.417    0.238    0.543   44.900  300.362  160.990
   80.750   95.957    0.241    0.525   44.924  301.618  161.015
   81.000   92.753    0.243    0.538   44.543  301.654  161.341
   81.250   97.482    0.251    0.516   43.377  301.710  161.366
   81.500   90.172    0.263    0.498   41.857  301.761  161.402
   81.750  100.185    0.270    0.511   40.395  301.801  161.430
   82.000   89.055    0.271    0.514   39.336  301.860  161.456
   82.250   82.038    0.268    0.553   41.550  300.705  161.198
