~VERSION INFORMATION
 VERS.                 2.0:   CWLS LOG ASCII STANDARD -VERSION 2.0
 WRAP.                  NO:   ONE LINE PER DEPTH STEP
~WELL INFORMATION BLOCK
#MNEM.UNIT           DATA                    DESCRIPTION OF MNEMONIC
#---------    -------------------            -------------------------------
# Generated from Intellog Unique Number	CN_94_101/WELL/2816
WELL.         03-02-096-15W4                 : Well_name    - WELL
LOC .         AA/03-02-096-15W4/0            : Location     - LOCATION
UWI .         AA/03-02-096-15W400            : Uwi          - UNIQUE WELL ID
ENTR.         JOETTE                         : Entered      - ENTERED BY
SRVC.         SCHLUMBERGER                   : Scn          - SERVICE COMPANY
DATE.         07/07/92                       : Date         - LOG DATE
STRT.M        50                             : top_depth    - START DEPTH
STOP.M        330                            : bot_depth    - STOP DEPTH
STEP.M        0.25                           : increment    - STEP LENGTH
 NULL. -999.2500:NULL Value
~CURVE INFORMATION BLOCK
#MNEM UNIT       ERCB CURVE CODE    CURVE DESCRIPTION
#-----------   ------------------   ----------------------------------
DEPT.M        00 001 00 00         : DEPTH        - DEPTH
CALI.MM       00 280 01 00         : CAL          - CALIPER
GR  .API      00 310 00 00         : GR           - GAMMA RAY
NPHI.V/V      00 330 00 00         : PHIN         - NEUTRON POROSITY (SANDSTONE)
DPHI.V/V      00 890 00 00         : PHID         - DENSITY POROSITY (SANDSTONE)
ILD .OHMM     00 120 00 00         : RESD         - DEEP RESISTIVITY (DIL)
~PARAMETER INFORMATION
#MNEM.UNIT           DATA             DESCRIPTION OF MNEMONIC
#---------         -----------     ------------------------------
GL  .M        577.32               : gl           - GROUND LEVEL ELEVATION
EREF.M        580.67               : kb           - ELEVATION OF DEPTH REFERENCE
DATM.M        580.67               : datum        - DATUM ELEVATION
TDD .M        330                  : tdd          - TOTAL DEPTH DRILLER
RUN .         ONE                  : Run          - RUN NUMBER
ENG .         JO                   : Engineer     - RECORDING ENGINEER
WIT .         TIM                  : Witness      - WITNESSED BY
MUD .         GEL                  : Mud_type     - MUD TYPE
MATR.         SANDSTONE            : Logunit      - NEUTRON MATRIX
TMAX.C        19                   : BHT          - MAXIMUM RECORDED TEMPERATURE
BHTD.M        330                  : BHTDEP       - MAXIMUM RECORDED TEMPERATURE
RMT .C        13                   : MDTP         - TEMPERATURE OF MUD
MUDD.KG/M     1000                 : MWT          - MUD DENSITY
NEUT.         1                    : NEUTRON      - NEUTRON TYPE
RESI.         0                    : RESIST       - RESISTIVITY TYPE
RM  .OHMM     2.5                  : RM           - RESISTIVITY OF MUD
RMC .OHMM     2.5                  : RMC          - RESISTIVITY OF MUD CAKE
RMF .OHMM     2.5                  : RMF          - RESISTIVITY OF MUD FILTRATE
SUFT.C        4                    : SUFT         - SURFACE TEMPERATURE
~A  DEPTH      CAL       GR     PHIN     PHID     RESD
# ...
  269.000  219.651   83.402    0.467    0.262    3.505
  269.250  221.795   82.235    0.480    0.287    3.389
  269.500  214.887   81.107    0.479    0.287    3.393
  269.750  209.990   83.017    0.480    0.309    3.465
  270.000  203.082   86.133    0.505    0.258    3.537
  270.250  199.191   86.232    0.502    0.265    3.746
  270.500  199.323   85.668    0.534    0.275    4.039
  270.750  201.500   83.354    0.544    0.292    4.607
  271.000  195.598   82.206    0.553    0.304    4.620
  271.250  193.686   81.702    0.504    0.257    4.625
  271.500  192.812   82.385    0.493    0.244    4.310
  271.750  189.960   82.464    0.496    0.233    4.236
  272.000  189.020   80.129    0.501    0.227    4.096
  272.250  188.147   75.361    0.495    0.211    4.100
  272.500  187.273   68.179    0.464    0.197    4.343
  272.750  187.471   58.000    0.409    0.201    4.602
  273.000  186.532   55.685    0.460    0.250    3.978
  273.250  184.652   54.538    0.488    0.302    3.315
  273.500  182.806   51.600    0.519    0.315    4.300
  273.750  199.030   48.662    0.567    0.321    5.894
  274.000  221.322   45.724    0.574    0.395    7.376
  274.250  215.420   44.577    0.490    0.423    7.670
  274.500  187.358   43.449    0.406    0.452    8.123
  274.750  170.359   43.529    0.376    0.391    9.261
  275.000  166.534   44.211    0.376    0.327    7.300
  275.250  166.601   44.914    0.404    0.328    6.796
  275.500  167.772   46.180    0.416    0.320    7.202
  275.750  168.876   46.863    0.428    0.308    6.949
  276.000  170.047   48.753    0.427    0.299    6.469
  276.250  172.224   52.472    0.423    0.288    6.248
  276.500  172.290   54.362    0.421    0.275    6.382
  276.750  174.500   56.252    0.445    0.264    6.639
  277.000  176.611   60.575    0.468    0.302    7.032
  277.250  178.754   62.445    0.488    0.328    7.303
  277.500  182.942   56.490    0.499    0.352    6.929
  277.750  189.076   56.569    0.478    0.382    6.214
  278.000  194.237   56.648    0.505    0.447    5.180
  278.250  196.381   59.141    0.518    0.492    4.825
  278.500  200.569   64.068    0.572    0.356    4.835
  278.750  206.736   65.958    0.474    0.356    5.025
  279.000  213.908   66.680    0.548    0.362    5.224
  279.250  211.023   66.720    0.523    0.322    5.744
  279.500  206.126   66.799    0.530    0.280    6.545
  279.750  202.269   66.878    0.527    0.289    8.334
  280.000  198.378   65.771    0.501    0.280    8.991
  280.250  191.437   61.002    0.491    0.269    9.010
  280.500  165.386   61.102    0.393    0.275    9.030
  280.750  161.529   61.161    0.349    0.265    9.568
  281.000  160.622   61.864    0.377    0.177   10.322
  281.250  160.787   62.527    0.401    0.236   10.150
  281.500  160.919   62.626    0.405    0.262    9.454
  281.750  160.919   62.685    0.429    0.247    8.802
  282.000  162.222   62.161    0.431    0.263    8.660
  282.250  163.327   59.846    0.431    0.258    8.840
  282.500  163.493   56.889    0.432    0.255    9.018
  282.750  163.559   52.160    0.419    0.277    9.910
  283.000  163.691   47.996    0.400    0.276   11.722
  283.250  162.883   45.038    0.397    0.287   14.935
  283.500  161.977   39.083    0.390    0.321   18.670
  283.750  162.142   30.733    0.409    0.328   31.940
  284.000  162.274   27.172    0.410    0.325   37.112
  284.250  162.340   25.421    0.405    0.330   31.492
  284.500  163.511   26.124    0.408    0.319   28.242
  284.750  165.655   25.600    0.419    0.309   23.991
  285.000  170.783   23.245    0.412    0.301   23.161
  285.250  182.044   24.532    0.403    0.298   22.799
  285.500  185.161   27.045    0.396    0.308   20.457
  285.750  189.349   30.765    0.391    0.311   18.687
  286.000  191.493   33.238    0.399    0.314   18.040
  286.250  192.597   35.731    0.412    0.320   16.795
  286.500  193.768   38.847    0.424    0.314   15.635
  286.750  193.934   40.114    0.427    0.334   15.102
  287.000  195.005   42.003    0.416    0.307   27.812
  287.250  196.242   45.120    0.408    0.285   41.823
  287.500  197.413   48.820    0.410    0.270   51.329
  287.750  197.480   51.313    0.412    0.258   59.608
  288.000  198.584   50.205    0.416    0.249   66.718
  288.250  199.722   42.420    0.415    0.256   74.677
  288.500  201.899   37.048    0.411    0.271   72.169
  288.750  204.043   32.300    0.401    0.292   69.670
  289.000  205.148   26.948    0.391    0.293   64.860
  289.250  206.319   27.067    0.380    0.304   60.382
  289.500  206.451   27.107    0.394    0.329   57.289
  289.750  207.589   27.809    0.391    0.325   56.364
  290.000  207.688   27.889    0.396    0.318   57.505
  290.250  207.919   27.948    0.405    0.318   59.792
  290.500  207.985   28.067    0.416    0.337   61.100
  290.750  207.079   28.107    0.442    0.338   61.199
  291.000  206.205   28.186    0.448    0.330   60.211
  291.250  205.364   28.265    0.443    0.332   58.127
  291.500  204.458   27.761    0.436    0.336   56.114
  291.750  203.617   27.237    0.451    0.331   54.230
  292.000  201.771   27.336    0.458    0.325   53.326
  292.250  200.831   27.395    0.449    0.309   48.764
  292.500  199.051   28.058    0.427    0.297   43.755
  292.750  199.117   29.968    0.422    0.290   39.969
  293.000  198.211   31.877    0.423    0.295   22.202
  293.250  197.403   34.350    0.444    0.294   18.506
  293.500  196.464   36.844    0.443    0.286   15.704
  293.750  195.656   39.940    0.437    0.287   13.097
  294.000  194.749   41.850    0.436    0.287   12.199
  294.250  192.903   42.532    0.432    0.288   11.996
  294.500  192.969   43.195    0.428    0.290   11.587
  294.750  191.123   43.898    0.429    0.291   11.400
  295.000  191.222   43.997    0.423    0.291   11.418
  295.250  190.349   44.660    0.416    0.292   11.443
  295.500  188.568   44.759    0.411    0.290   11.674
  295.750  187.629   44.838    0.414    0.291   11.699
  296.000  186.722   44.918    0.416    0.295   11.731
  296.250  185.882   45.017    0.415    0.289   11.750
  296.500  185.008   45.076    0.420    0.285   12.007
  296.750  183.129   45.136    0.421    0.280   12.020
  297.000  182.255   45.858    0.425    0.272   12.052
  297.250  181.348   45.898    0.414    0.270   11.857
  297.500  179.469   45.997    0.400    0.275   11.889
  297.750  178.596   46.680    0.403    0.271   11.691
  298.000  176.716   46.156    0.410    0.268   11.086
  298.250  174.837   46.215    0.408    0.268    9.942
  298.500  173.963   45.691    0.399    0.271    8.283
  298.750  173.090   45.187    0.399    0.272    6.658
  299.000  173.255   44.682    0.417    0.276    6.085
  299.250  172.414   45.345    0.411    0.278    5.668
  299.500  171.541   45.405    0.398    0.277    5.570
  299.750  171.607   44.881    0.397    0.282    5.380
  300.000  171.805   40.132    0.400    0.288    5.194
  300.250  171.871   39.025    0.392    0.289    5.110
  300.500  172.004   41.498    0.386    0.276    5.028
  300.750  173.174   47.612    0.378    0.248    5.044
  301.000  173.274   53.745    0.370    0.239    5.050
  301.250  174.478   59.256    0.363    0.221    5.154
  301.500  174.577   65.369    0.357    0.180    5.359
  301.750  175.715   79.951    0.394    0.222    5.676
  302.000  176.853   78.844    0.451    0.250    6.241
  302.250  182.047   75.886    0.454    0.254    7.115
  302.500  185.196   72.948    0.460    0.255    8.263
  302.750  189.384   68.803    0.460    0.265    9.420
  303.000  190.456   62.224    0.451    0.278   10.945
  303.250  193.672   51.442    0.442    0.276   12.251
  303.500  193.771   44.903    0.426    0.273   14.227
  303.750  194.876   45.586    0.408    0.278   16.530
  304.000  195.074   40.818    0.405    0.277   18.836
  304.250  196.179   43.934    0.405    0.282   21.874
  304.500  196.344   46.407    0.400    0.289   23.598
  304.750  196.443   49.504    0.392    0.299   24.992
  305.000  195.569   53.807    0.382    0.305   26.498
  305.250  196.740   58.130    0.375    0.289   26.526
