~VERSION INFORMATION
 VERS.                 2.0:   CWLS LOG ASCII STANDARD -VERSION 2.0
 WRAP.                  NO:   ONE LINE PER DEPTH STEP
~WELL INFORMATION BLOCK
#MNEM.UNIT           DATA                    DESCRIPTION OF MNEMONIC
#---------    -------------------            -------------------------------
# Generated from Intellog Unique Number	CC_88_90/WELL/1054
WELL.         MOBIL CLARKE OV 4-11           : Well_name    - WELL
LOC .         04-11-090-08W4                 : Location     - LOCATION
UWI .         AA/04-11-090-08W400            : Uwi          - UNIQUE WELL ID
ENTR.         DW                             : Entered      - ENTERED BY
SRVC.         SCHLUMBERGER                   : Scn          - SERVICE COMPANY
STRT.M        25                             : top_depth    - START DEPTH
STOP.M        201.75                         : bot_depth    - STOP DEPTH
STEP.M        0.25                           : increment    - STEP LENGTH
 NULL. -999.2500:NULL Value
~CURVE INFORMATION BLOCK
#MNEM UNIT       ERCB CURVE CODE    CURVE DESCRIPTION
#-----------   ------------------   ----------------------------------
DEPT.M        00 001 00 00         : DEPTH        - DEPTH
GR  .API      00 310 00 00         : GR           - GAMMA RAY
DPHI.V/V      00 890 00 00         : PHID         - DENSITY POROSITY (SANDSTONE)
NPHI.V/V      00 330 00 00         : PHIN         - NEUTRON POROSITY (SANDSTONE)
ILD .OHMM     00 120 00 00         : RESD         - DEEP RESISTIVITY (DIL)
~PARAMETER INFORMATION
#MNEM.UNIT           DATA             DESCRIPTION OF MNEMONIC
#---------         -----------     ------------------------------
GL  .M        434.2                : gl           - GROUND LEVEL ELEVATION
EREF.M        0                    : kb           - ELEVATION OF DEPTH REFERENCE
DATM.M        434.2                : datum        - DATUM ELEVATION
TDD .M        207                  : tdd          - TOTAL DEPTH DRILLER
RUN .         ONE                  : Run          - RUN NUMBER
ENG .         BILL                 : Engineer     - RECORDING ENGINEER
WIT .         JIM                  : Witness      - WITNESSED BY
MUD .         GEL                  : Mud_type     - MUD TYPE
MATR.         SANDSTONE            : Logunit      - NEUTRON MATRIX
TMAX.C        16                   : BHT          - MAXIMUM RECORDED TEMPERATURE
BHTD.M        206                  : BHTDEP       - MAXIMUM RECORDED TEMPERATURE
MATR.         1                    : LOGUNIT      - NEUTRON MATRIX
RMT .C        25                   : MDTP         - TEMPERATURE OF MUD
NEUT.         1                    : NEUTRON      - NEUTRON TYPE
RESI.         0                    : RESIST       - RESISTIVITY TYPE
RMC .OHMM     0.25                 : RMC          - RESISTIVITY OF MUD CAKE
RMF .OHMM     0.25                 : RMF          - RESISTIVITY OF MUD FILTRATE
SUFT.C        4                    : SUFT         - SURFACE TEMPERATURE
~A  DEPTH       GR     PHID     PHIN     RESD
   25.000   70.719    0.170    0.337   36.542
   25.250   70.097    0.161    0.309   37.252
   25.500   70.604    0.134    0.315   37.426
   25.750   73.037    0.163    0.321   36.167
   26.000   76.286    0.172    0.309   33.869
   26.250   80.427    0.140    0.311   31.061
   26.500   83.704    0.171    0.353   27.729
   26.750   78.050    0.174    0.371   25.163
   27.000   74.774    0.193    0.377   23.837
   27.250   73.518    0.193    0.385   23.195
   27.500   73.583    0.185    0.394   23.241
   27.750   74.118    0.192    0.401   24.128
   28.000   71.251    0.191    0.406   25.344
   28.250   69.635    0.219    0.402   26.429
   28.500   68.481    0.177    0.387   26.782
   28.750   70.663    0.152    0.358   26.666
   29.000   74.241    0.192    0.345   26.425
   29.250   75.802    0.220    0.359   25.983
   29.500   76.792    0.200    0.367   25.450
   29.750   77.364    0.219    0.369   25.312
   30.000   77.191    0.237    0.371   24.472
   30.250   75.782    0.217    0.370   23.203
   30.500   74.691    0.202    0.371   22.049
   30.750   74.995    0.212    0.379   21.031
   31.000   75.509    0.208    0.387   20.377
   31.250   75.669    0.211    0.394   20.666
   31.500   73.798    0.209    0.392   21.217
   31.750   69.902    0.189    0.372   22.422
   32.000   67.678    0.189    0.362   24.116
   32.250   68.069    0.220    0.377   27.213
   32.500   66.781    0.235    0.389   32.948
   32.750   62.755    0.218    0.395   38.479
   33.000   58.647    0.164    0.379   43.739
   33.250   58.992    0.141    0.357   46.301
   33.500   61.094    0.162    0.349   52.686
   33.750   61.108    0.176    0.337   62.950
   34.000   60.535    0.168    0.305   65.400
   34.250   59.419    0.176    0.300   63.619
   34.500   59.456    0.170    0.301   61.398
   34.750   60.829    0.166    0.298   60.535
   35.000   62.147    0.155    0.295   60.789
   35.250   61.284    0.137    0.296   60.136
   35.500   58.009    0.151    0.305   58.166
   35.750   56.192    0.174    0.324   58.093
   36.000   56.999    0.211    0.323   56.533
   36.250   59.864    0.181    0.306   55.208
   36.500   60.983    0.148    0.296   56.180
   36.750   58.651    0.164    0.299   57.541
   37.000   56.105    0.148    0.303   57.194
   37.250   54.920    0.160    0.300   57.006
   37.500   55.086    0.146    0.309   56.944
   37.750   56.304    0.144    0.319   56.582
   38.000   58.013    0.173    0.323   57.001
   38.250   59.373    0.187    0.329   58.993
   38.500   59.785    0.165    0.332   60.420
   38.750   59.333    0.147    0.319   58.530
   39.000   58.285    0.135    0.305   57.627
   39.250   57.479    0.144    0.295   58.904
   39.500   55.626    0.167    0.303   60.096
   39.750   53.279    0.176    0.318   59.320
   40.000   52.917    0.167    0.308   57.359
   40.250   51.880    0.161    0.287   56.922
   40.500   51.183    0.153    0.263   58.806
   40.750   50.858    0.152    0.267   57.922
   41.000   51.528    0.156    0.286   57.036
   41.250   54.189    0.160    0.293   58.898
   41.500   57.839    0.162    0.296   58.476
   41.750   60.072    0.144    0.302   56.585
   42.000   60.598    0.154    0.311   55.441
   42.250   59.292    0.178    0.320   58.238
   42.500   56.700    0.196    0.331   59.640
   42.750   54.333    0.232    0.340   54.114
   43.000   53.452    0.288    0.338   45.974
   43.250   53.873    0.330    0.343   41.242
   43.500   55.118    0.392    0.391   41.267
   43.750   57.551    0.501    0.467   38.432
   44.000   61.199    0.575    0.546   46.912
   44.250   65.449    0.582    0.544   68.612
   44.500   68.918    0.581    0.415   75.217
   44.750   69.251    0.507    0.352   65.468
   45.000   66.562    0.453    0.303   51.452
   45.250   63.440    0.425    0.274   44.745
   45.500   62.996    0.400    0.273   42.811
   45.750   65.917    0.379    0.279   39.848
   46.000   69.497    0.358    0.293   37.885
   46.250   70.720    0.348    0.310   37.111
   46.500   70.392    0.353    0.327   36.811
   46.750   69.592    0.406    0.336   36.992
   47.000   68.134    0.445    0.317   37.827
   47.250   65.890    0.367    0.292   39.461
   47.500   63.870    0.225    0.305   41.531
   47.750   62.817    0.197    0.303   41.905
   48.000   61.700    0.191    0.307   38.272
   48.250   61.265    0.190    0.325   33.604
   48.500   61.405    0.198    0.332   28.272
   48.750   62.344    0.197    0.325   22.716
   49.000   65.689    0.198    0.340   19.834
   49.250   71.151    0.208    0.382   17.489
   49.500   78.444    0.203    0.405   16.063
   49.750   84.445    0.202    0.409   14.983
   50.000   89.481    0.214    0.421   14.618
   50.250   92.377    0.253    0.448   15.031
   50.500   89.838    0.330    0.478   16.210
   50.750   87.917    0.368    0.501   20.933
   51.000   89.190    0.431    0.455   25.440
   51.250   88.522    0.262    0.346   26.465
   51.500  106.314    0.077    0.279   25.059
   51.750  131.446    0.126    0.290   23.194
   52.000  120.806    0.172    0.319   21.095
   52.250  103.669    0.203    0.375   19.474
   52.500   82.999    0.195    0.380   18.170
   52.750   78.401    0.153    0.346   16.281
   53.000   83.353    0.133    0.328   14.323
   53.250   83.013    0.147    0.333   12.803
   53.500   84.789    0.158    0.346   11.028
   53.750   86.203    0.176    0.375    9.272
   54.000   89.792    0.223    0.393    7.697
   54.250   96.676    0.257    0.443    6.907
   54.500  102.899    0.252    0.515    6.793
   54.750  104.566    0.243    0.551    6.797
   55.000  102.735    0.257    0.543    6.989
   55.250  100.599    0.236    0.537    7.669
   55.500   99.203    0.216    0.526    8.099
   55.750   99.062    0.220    0.519    8.336
   56.000   98.572    0.234    0.508    8.305
   56.250   97.741    0.239    0.489    7.831
   56.500   99.593    0.247    0.484    7.300
   56.750  103.373    0.265    0.504    7.095
   57.000  104.457    0.258    0.501    7.012
   57.250  102.473    0.238    0.499    7.255
   57.500   99.835    0.235    0.515    7.493
   57.750   98.007    0.246    0.528    7.412
   58.000   97.066    0.248    0.525    7.209
   58.250   97.463    0.257    0.526    6.665
   58.500   99.210    0.265    0.531    6.272
   58.750  104.296    0.257    0.528    5.857
   59.000  108.723    0.247    0.525    5.736
   59.250  107.564    0.251    0.536    6.204
   59.500  104.469    0.261    0.548    6.904
   59.750  105.577    0.274    0.525    7.918
   60.000  103.931    0.279    0.529    8.892
   60.250   98.184    0.295    0.527    9.300
   60.500   91.042    0.321    0.510    8.835
   60.750   85.705    0.344    0.499    7.889
   61.000   84.575    0.378    0.499    6.807
   61.250   86.831    0.421    0.528    5.012
   61.500   92.228    0.345    0.541    4.010
   61.750  100.006    0.292    0.537    3.709
   62.000  109.727    0.298    0.543    3.605
   62.250  116.947    0.292    0.563    3.611
   62.500  115.547    0.291    0.580    3.799
   62.750  109.647    0.296    0.594    4.466
   63.000  107.083    0.308    0.595    5.127
   63.250  106.302    0.288    0.608    5.976
   63.500  105.145    0.259    0.592    6.593
   63.750  104.169    0.257    0.549    6.622
   64.000  103.097    0.260    0.549    6.608
   64.250  101.124    0.249    0.534    6.603
   64.500   98.393    0.247    0.520    6.553
   64.750   96.880    0.256    0.518    6.716
   65.000   98.666    0.261    0.522    7.175
   65.250  101.534    0.246    0.532    7.643
   65.500  100.574    0.220    0.549    7.970
   65.750   96.825    0.198    0.547    8.351
   66.000   94.602    0.136    0.547    8.108
   66.250   89.084    0.136    0.477    7.747
   66.500   85.268    0.201    0.416    7.192
   66.750   89.243    0.250    0.438    6.262
   67.000   96.192    0.266    0.468    5.797
   67.250  104.296    0.260    0.525    6.116
   67.500  107.204    0.266    0.539    6.346
   67.750  102.356    0.239    0.526    6.457
   68.000   97.499    0.224    0.529    6.659
   68.250   97.464    0.247    0.533    6.735
