~VERSION INFORMATION
 VERS.                 2.0:   CWLS LOG ASCII STANDARD -VERSION 2.0
 WRAP.                  NO:   ONE LINE PER DEPTH STEP
~WELL INFORMATION BLOCK
#MNEM.UNIT           DATA                    DESCRIPTION OF MNEMONIC
#---------    -------------------            -------------------------------
# Generated from Intellog Unique Number	CN_91_93/WELL/2780
WELL.         01-36-093-10W4                 : Well_name    - WELL
LOC .         AA/01-36-093-10W4/0            : Location     - LOCATION
UWI .         AA/01-36-093-10W400            : Uwi          - UNIQUE WELL ID
ENTR.         JO                             : Entered      - ENTERED BY
SRVC.         SCHLUMBERGER                   : Scn          - SERVICE COMPANY
DATE.         03/23/92                       : Date         - LOG DATE
STRT.M        0                              : top_depth    - START DEPTH
STOP.M        85                             : bot_depth    - STOP DEPTH
STEP.M        0.25                           : increment    - STEP LENGTH
 NULL. -999.2500:NULL Value
~CURVE INFORMATION BLOCK
#MNEM UNIT       ERCB CURVE CODE    CURVE DESCRIPTION
#-----------   ------------------   ----------------------------------
DEPT.M        00 001 00 00         : DEPTH        - DEPTH
CALI.MM       00 280 01 00         : CAL          - CALIPER
GR  .API      00 310 00 00         : GR           - GAMMA RAY
NPHI.V/V      00 330 00 00         : PHIN         - NEUTRON POROSITY (SANDSTONE)
DPHI.V/V      00 890 00 00         : PHID         - DENSITY POROSITY (SANDSTONE)
ILD .OHMM     00 120 00 00         : RESD         - DEEP RESISTIVITY (DIL)
~PARAMETER INFORMATION
#MNEM.UNIT           DATA             DESCRIPTION OF MNEMONIC
#---------         -----------     ------------------------------
GL  .M        334.4                : gl           - GROUND LEVEL ELEVATION
EREF.M        334.4                : kb           - ELEVATION OF DEPTH REFERENCE
DATM.M        334.4                : datum        - DATUM ELEVATION
TDD .M        86.2                 : tdd          - TOTAL DEPTH DRILLER
RUN .         ONE                  : Run          - RUN NUMBER
ENG .         JO                   : Engineer     - RECORDING ENGINEER
WIT .         TIM                  : Witness      - WITNESSED BY
MUD .         GEL                  : Mud_type     - MUD TYPE
MATR.         SANDSTONE            : Logunit      - NEUTRON MATRIX
TMAX.C        10                   : BHT          - MAXIMUM RECORDED TEMPERATURE
BHTD.M        86.2                 : BHTDEP       - MAXIMUM RECORDED TEMPERATURE
RMT .C        14                   : MDTP         - TEMPERATURE OF MUD
MUDD.KG/M     1000                 : MWT          - MUD DENSITY
NEUT.         1                    : NEUTRON      - NEUTRON TYPE
RESI.         0                    : RESIST       - RESISTIVITY TYPE
RM  .OHMM     16.5                 : RM           - RESISTIVITY OF MUD
RMC .OHMM     16.5                 : RMC          - RESISTIVITY OF MUD CAKE
RMF .OHMM     16.5                 : RMF          - RESISTIVITY OF MUD FILTRATE
SUFT.C        4                    : SUFT         - SURFACE TEMPERATURE
~A  DEPTH      CAL       GR     PHIN     PHID     RESD
    0.000   84.536   30.747    0.147    0.074    0.000
    0.250   84.629   29.489    0.150    0.086    0.000
    0.500   84.629   29.444    0.152    0.098    0.000
    0.750   84.592   29.684    0.155    0.112    0.000
    1.000   84.776   30.826    0.157    0.120    0.000
    1.250   84.860   32.870    0.159    0.127    0.000
    1.500   84.845   37.002    0.162    0.132    0.000
    1.750   84.815   34.551    0.173    0.083    0.000
    2.000   84.811   32.410    0.175    0.053    0.000
    2.250   84.889   32.067    0.175    0.067    0.000
    2.500   84.874   33.806    0.182    0.089    0.000
    2.750   84.857   34.040    0.190    0.113    0.000
    3.000   84.939   32.204    0.204    0.125    0.000
    3.250   84.939   28.565    0.210    0.128    0.000
    3.500   84.896   27.327    0.213    0.078    0.000
    3.750   84.883   35.935    0.191    0.056    0.000
    4.000   84.883   56.777    0.179    0.054    0.000
    4.250   84.844   82.102    0.188    0.056    0.000
    4.500   84.832  100.855    0.178    0.063    0.000
    4.750   84.832   57.219    0.175    0.064    0.000
    5.000   84.799   34.178    0.179    0.069    0.000
    5.250   84.782   30.241    0.184    0.077    0.000
    5.500   84.761   29.593    0.193    0.090    0.000
    5.750   84.847   31.922    0.198    0.114    0.000
    6.000   84.916   34.258    0.198    0.133    0.000
    6.250   84.912   32.117    0.197    0.141    0.000
    6.500   84.891   29.977    0.197    0.174    0.000
    6.750   84.876   30.230    0.196    0.190    0.000
    7.000   84.876   31.074    0.194    0.228    0.000
    7.250   84.839   30.413    0.191    0.248    0.000
    7.500   84.824   30.374    0.190    0.202    0.000
    7.750   84.805   31.503    0.190    0.106    0.000
    8.000   84.775   32.956    0.190    0.120    0.000
    8.250   84.768   36.187    0.192    0.094    0.000
    8.500   84.768   37.024    0.193    0.087    0.000
    8.750   84.628   34.877    0.194    0.090    0.000
    9.000   84.619   33.639    0.196    0.115    0.000
    9.250   84.503   33.885    0.202    0.140    0.000
    9.500   84.503   37.713    0.210    0.165    0.000
    9.750   84.470   49.007    0.233    0.188    0.000
   10.000   84.451   58.808    0.264    0.204    0.000
   10.250   84.432   65.023    0.280    0.221    0.000
   10.500   84.401   77.510    0.275    0.235    0.000
   10.750   84.395   81.325    0.252    0.243    0.000
   11.000   84.395   78.004    0.249    0.246    0.000
   11.250   84.352   66.302    0.249    0.248    0.000
   11.500   84.445   55.502    0.255    0.249    0.000
   11.750   84.445   50.670    0.347    0.237    0.000
   12.000   84.409   43.463    0.373    0.210    0.000
   12.250   84.493   42.510    0.386    0.207    0.000
   12.500   84.493   51.416    0.416    0.221    0.000
   12.750   84.549   54.342    0.418    0.235    0.000
   13.000   84.738   54.596    0.396    0.229    0.000
   13.250   84.820   51.255    0.383    0.171    0.000
   13.500   84.790   47.026    0.369    0.069    0.000
   13.750   84.783   40.708    0.339    0.010    0.000
   14.000   84.868   43.037    0.339   -0.020    0.000
   14.250   84.868   45.976    0.347   -0.027    0.000
   14.500   84.829   50.394    0.335   -0.027    0.000
   14.750   84.816   44.679    0.331   -0.029    0.000
   15.000   84.797   41.625    0.335   -0.031    0.000
   15.250   84.797   42.481    0.335   -0.031    0.000
   15.500   84.754   44.207    0.320   -0.031    0.000
   15.750   84.747   42.371    0.317   -0.030    0.000
   16.000   84.730   40.237    0.328   -0.024    0.000
   16.250   84.702   38.396    0.339   -0.019    0.000
   16.500   84.793   38.344    0.366   -0.025    0.000
   16.750   84.778   41.276    0.345   -0.032    0.000
   17.000   84.778   43.910    0.335   -0.034    0.000
   17.250   84.835   49.827    0.396   -0.030    0.000
   17.500   84.822   54.244    0.423   -0.025    0.000
   17.750   84.902   53.304    0.416   -0.021    0.000
   18.000   84.902   43.094    0.378   -0.024    0.000
   18.250   84.872   38.872    0.360   -0.028    0.000
   18.500   84.852   43.289    0.359   -0.033    0.000
   18.750   84.833   44.133    0.363   -0.032    0.000
   19.000   84.833   54.538    0.370   -0.028    0.000
   19.250   84.896   60.150    0.421   -0.023    0.000
   19.500   84.885   58.314    0.450   -0.019    0.000
   19.750   84.866   53.780    0.441   -0.023    0.000
   20.000   84.836   52.535    0.452   -0.026   61.965
   20.250   84.929   53.080    0.462   -0.027   58.096
   20.500   84.929   52.717    0.457   -0.013   48.685
   20.750   84.894   52.367    0.420    0.031   37.257
   21.000   84.977   53.224    0.343    0.298   35.406
   21.250   84.977   57.946    0.366    0.310   30.306
   21.500   85.033   68.942    0.382    0.320   23.508
   21.750   85.024   84.413    0.404    0.330   22.034
   22.000   85.005   82.863    0.414    0.340   20.798
   22.250   85.005   99.833    0.411    0.312   20.467
   22.500   85.068  111.120    0.418    0.287   20.858
   22.750   85.051  105.697    0.405    0.265   21.564
   23.000   85.051  113.099    0.379    0.233   20.936
   23.250   85.120  115.720    0.399    0.216   16.357
   23.500   85.120  119.269    0.387    0.210   17.270
   23.750   85.073  123.998    0.362    0.215   23.446
   24.000   85.066  111.706    0.359    0.250   37.136
   24.250   85.047   86.278    0.362    0.289   47.335
   24.500   85.019   62.939    0.346    0.304   45.935
   24.750   85.013   69.750    0.344    0.290   49.535
   25.000   85.097   77.463    0.345    0.284   54.524
   25.250   85.177   74.726    0.350    0.282   56.740
   25.500   85.158   73.773    0.360    0.289   55.461
   25.750   85.158   70.737    0.345    0.291   47.131
   26.000   85.119   79.346    0.346    0.266   39.479
   26.250   85.108   87.642    0.344    0.243   37.551
   26.500   85.108   88.493    0.347    0.232   35.944
   26.750   85.063   98.891    0.373    0.248   48.459
   27.000   85.057   94.656    0.383    0.300   74.623
   27.250   84.938   89.531    0.387    0.281   80.980
   27.500   84.908   87.086    0.388    0.084   65.548
   27.750   84.904   84.051    0.366    0.088   48.780
   28.000   84.787   80.120    0.316    0.118   42.628
   28.250   84.772   94.994    0.382    0.171   34.018
   28.500   84.750   94.048    0.384    0.270   31.211
   28.750   84.837   97.875    0.358    0.232   29.881
   29.000   85.014   96.332    0.365    0.223   27.808
   29.250   85.200  109.708    0.386    0.222   23.969
   29.500   85.082  109.656    0.391    0.215   23.429
   29.750   84.861  104.532    0.385    0.224   27.654
   30.000   84.861  102.690    0.367    0.236   27.405
   30.250   84.831  106.816    0.361    0.232   23.127
   30.500   84.712  113.030    0.374    0.229   47.789
   30.750   84.797  105.208    0.359    0.256   61.326
   31.000   84.875   95.309    0.345    0.278   62.977
   31.250   84.957   74.960    0.334    0.277   94.967
   31.500   85.039   81.175    0.348    0.275  122.751
   31.750   85.022   83.809    0.341    0.274  138.006
   32.000   85.109   79.281    0.340    0.290  147.719
   32.250   85.109   65.497    0.343    0.297  144.389
   32.500   85.072   60.970    0.330    0.300  132.503
   32.750   85.055   56.728    0.336    0.303  120.778
   33.000   85.055   59.667    0.340    0.309  108.562
   33.250   85.014   71.849    0.330    0.307   87.834
   33.500   85.003   79.251    0.340    0.312   63.563
   33.750   85.003   85.485    0.354    0.312   49.316
   34.000   84.958   98.569    0.378    0.275   44.328
   34.250   84.952  100.905    0.356    0.257   47.780
   34.500   84.930   96.961    0.359    0.247   54.083
   34.750   85.012  100.198    0.353    0.250   50.682
   35.000   84.993   89.404    0.339    0.248   52.034
   35.250   84.980   80.992    0.334    0.228   49.459
   35.500   84.959   76.756    0.339    0.220   50.063
   35.750   84.959   73.714    0.344    0.263   55.867
   36.000   84.929   82.925    0.333    0.270   55.764
   36.250   84.907   87.947    0.350    0.280   58.888
