~Version : LASO    vs 4.00
VERS.                2.00:   CWLS Log ASCII Standard -VERSION 2.0
WRAP.                  NO:
~Well Information Block
#MNEM.UNIT       Data                        Description of Mnemonic
#----.----      -------------------------- : -----------------------------
STRT.M            13.0000:
STOP.M           191.0000:
STEP.M             0.2000:
NULL.           -999.2500:
COMP.  MOBIL OIL OF CANADA          :COMPANY
WELL.  MOBIL CLARKE OV 4-1          :WELL
FLD.                                :FIELD
LOC.   04-01-091-08W4               :LOCATION
CTRY.  CANADA                       :COUNTRY
PROV.  ALBERTA                      :PROVINCE
SRVC.  SCHLUMBERGER                 :SERVICE COMPANY
DATE.  12-FEB-81                    :LOG DATE
UWI.   AA/04-01-091-08W400          :UNIQUE WELL ID
~Parameter Information Block
#MNEM.UNIT       Data                        Description of Mnemonic
#----.----      -------------------------- : -----------------------------
RUN .                   1                 : Run Number
GL  .M           444.1000                 : Ground Level Elevation
DREF.                  GD                 : Depth Reference
EREF.M           444.1000                 : Elevation of Depth Reference
TDL .M           191.5000                 : Total Depth Logger
TDD .M           192.0000                 : Total Depth Driller
CSGL.M            15.0000                 : Casing Bottom Logger
CSGD.M            15.0000                 : Casing Bottom Driller
CSGS.MM          179.0000                 : Casing Size
CSGW.KG/M          0.0000                 : Casing Weight
BHT .DEGC         12.0000                 : Bottom Hole Temperature
BS  .MM          158.0000                 : Bit Size
DFD .           1080.0000                 : Mud Weight (Density)
DFV .             85.0000                 : Mud Viscosity
DFPH.             12.6000                 : Mud pH
~Curve Information Block
#MNEM.UNIT        API CODE    Curve Description
#---------    ------------    -------------------------------------------
DEPT.M                    :   DEPTH
CALI.MM       42 280  1  1:   3 DENSITY CALIPER
DPHI.V/V                  :   DPHI
DT  .US/M     60 520  0  1:   2 SONIC INTERVAL TRANSIT TIME (COMPENSATED)
GR  .GAPI     42 310  1  1:   4 GAMMA RAY
ILD .OHMM      5 120 46  1:   7 DEEP INDUCTION
ILM .OHMM      5 120 44  1:   8 MEDIUM INDUCTION
NPHI.V/V      42 890  3  1:   5 NEUTRON POROSITY (SANDSTONE)
RHOB.K/M3     42 350  1  1:   6 BULK DENSITY
SFLU.OHMM      5 220  1  1:   9 FOCUSSED RESISTIVITY
SP  .MV        5  10  1  1:   10 SPONTANEOUS POTENTIAL
~A  Depth           CALI        DPHI          DT          GR         ILD         ILM        NPHI        RHOB        SFLU          SP
# ...
86.2000         169.7500      0.2434    519.7200     92.0400      6.8522    414.0282      0.5241   2251.3999      9.1165    -66.7200
86.4000         170.9750      0.2425    515.7200     96.4500      6.6043    410.2324      0.5068   2287.1001      9.7237    -65.2200
86.6000         170.9750      0.2336    510.5600     98.1450      6.3071    429.5660      0.4922   2317.8000      7.7238    -63.4650
86.8000         175.9250      0.2230    508.0400     99.8550      5.8591    410.2324      0.4840   2337.6001      5.8591    -61.2150
87.0000         178.4250      0.2120    505.9600    103.7550      5.0099    384.6183      0.4795   2354.3999      5.7521    -60.4650
87.2000         177.1750      0.2019    505.6400    105.9600      4.6540    399.0524      0.4908   2348.5000      4.7406    -60.2100
87.4000         177.1750      0.1958    506.3200    107.0550      4.3634    406.4713      0.5163   2321.7000      3.8004    -60.2100
87.6000         174.7000      0.2022    517.3600    109.7550      3.8004    406.4713      0.5605   2298.0000      3.2797    -59.9550
87.8000         174.7000      0.2124    528.2000    109.8600      3.5961    399.0524      0.5653   2281.1001      3.3406    -59.9550
88.0000         174.7000      0.2204    531.1600    110.8650      3.4660    406.4713      0.5613   2265.3000      3.1903    -59.9550
88.2000         175.9250      0.2242    532.2000    110.6550      3.1903    414.0282      0.5712   2277.2000      3.1033    -59.7000
88.4000         177.1750      0.2325    532.9600    110.6550      3.1033    410.2324      0.5875   2269.3000      3.1610    -59.4600
88.6000         177.1750      0.2298    534.9200    111.3600      3.0188    410.2324      0.6036   2271.2000      2.9365    -59.2050
88.8000         177.1750      0.2311    542.3200    114.1650      2.8565    381.0921      0.6175   2273.2000      2.6781    -59.2050
89.0000         177.1750      0.2287    546.1600    115.3650      2.7786    388.1771      0.6281   2262.3000      2.5812    -59.2050
89.2000         177.1750      0.2356    549.8400    117.0600      2.7279    425.6277      0.6228   2254.3999      2.4201    -59.2050
89.4000         177.1750      0.2412    552.9600    117.0600      2.6781    417.8592      0.6164   2249.5000      2.2690    -59.2050
89.6000         177.1750      0.2388    556.0400    111.9600      2.6536    410.2324      0.5903   2269.3000      2.4201    -59.2050
89.8000         177.1750      0.2373    556.4000    110.6550      2.7279    410.2324      0.5759   2265.3000      2.4201    -58.9500
90.0000         178.4250      0.2360    556.1600    112.5600      2.8303    410.2324      0.5745   2279.2000      2.3112    -58.9500
90.2000         180.9000      0.2323    552.7200    109.5600      3.1610    433.5407      0.5548   2271.2000      2.6536    -58.9500
90.4000         182.1250      0.2323    547.8800    107.5500      3.3406    395.3939      0.5525   2273.2000      3.2797    -59.2050
90.6000         183.3750      0.2293    541.3200    106.4550      3.5961    402.7448      0.5605   2306.8999      4.0535    -59.4600
90.8000         183.3750      0.2179    521.8400    108.4650      4.2056    391.7689      0.5504   2314.8000      4.5691    -59.9550
91.0000         184.6000      0.2126    520.5600    107.8500      4.5272    410.2324      0.5356   2302.8999      5.0563    -60.2100
91.2000         184.6000      0.2025    520.3600    105.2550      4.9185    410.2324      0.5340   2332.6001      5.2946    -60.4650
91.4000         183.3750      0.1916    520.2800    103.0500      5.5441    406.4713      0.5260   2365.3000      4.6971    -60.9600
91.6000         180.9000      0.1836    519.6801    101.5500      5.7521    402.7448      0.5104   2379.2000      5.1979    -61.9650
91.8000         179.6500      0.1770    517.5600    102.3450      5.8591    421.7256      0.4850   2334.6001      6.7894    -62.4600
92.0000         178.4250      0.1853    508.1600    105.4500      6.0232    421.7256      0.4579   2341.5000      7.8674    -62.4600
92.2000         177.1750      0.1973    504.4800    107.6550      6.1352    410.2324      0.4637   2293.0000      6.7894    -62.7150
92.4000         177.1750      0.2072    500.9600    110.6550      6.2493    402.7448      0.4869   2295.0000      5.7521    -62.2200
92.6000         177.1750      0.2189    500.9600    110.8650      6.3071    384.6183      0.5050   2306.8999      4.7844    -61.7100
92.8000         180.9000      0.2165    500.4800    106.3500      6.4838    402.7448      0.5221   2360.3000      5.5954    -60.9600
93.0000         180.9000      0.2093    500.0000    106.0500      6.5438    417.8592      0.5179   2350.3999      6.5438    -61.4550
93.2000         179.6500      0.2007    499.0000    105.5550      6.7894    402.7448      0.5072   2356.3999      8.0136    -62.4600
93.4000         174.7000      0.1896    485.5200    100.0500      7.5133    399.0524      0.4649   2317.8000     10.1819    -65.4750
93.6000         173.4500      0.1963    476.3200     98.0400      8.1626    414.0282      0.4546   2369.3000      8.9501    -65.9700
93.8000         172.2250      0.1957    469.2400     93.5400      9.0330    421.7256      0.4558   2393.0000      8.0136    -66.7200
94.0000         169.7500      0.1845    467.0000     80.3250     11.2676    395.3939      0.4447   2456.3999      8.9501    -67.9800
94.2000         166.0250      0.1668    467.5200     74.0250     12.5843    402.7448      0.4007   2516.8000     10.8600    -66.7200
94.4000         166.0250      0.1771    464.1600     70.9200     13.9261    381.0921      0.3187   2584.1001     27.7863    -64.2150
94.6000         170.9750      0.1966    383.8400     72.8250     15.1297    410.2324      0.2123   2756.3999   1485.3538    -61.7100
94.8000         170.9750      0.2109    272.3200     77.0250     14.4487    410.2324      0.2233   2758.3999    255.7584    -61.2150
95.0000         170.9750      0.2234    219.0000     82.2300     13.1774    402.7448      0.2584   2737.6001     79.4017    -61.2150
95.2000         170.9750      0.2191    245.3200     92.5350     10.4672    399.0524      0.3785   2600.0000      9.3720    -64.7250
95.4000         170.9750      0.2199    293.3600     95.6400      9.2009    410.2324      0.4468   2482.1001      7.1094    -65.9700
95.6000         170.9750      0.2139    333.4800     95.1450      8.2382    421.7256      0.4813   2350.3999      6.5438    -66.2250
95.8000         170.9750      0.2291    411.2400     94.6500      7.5828    417.8592      0.4906   2302.8999      7.0442    -66.2250
96.0000         173.4500      0.2361    496.1600     99.5550      7.0442    402.7448      0.4855   2257.3999      7.2415    -63.4650
96.2000         173.4500      0.2293    500.6800    100.0500      7.0442    377.5982      0.4717   2291.0000      6.6655    -63.2100
96.4000         173.4500      0.2208    503.1200     98.0400      7.0442    391.7689      0.4653   2304.8999      7.3085    -64.7250
96.6000         170.9750      0.2154    503.6800     92.4450      7.0442    417.8592      0.4791   2314.8000      9.2009    -66.9750
96.8000         170.9750      0.2103    501.6800     93.4350      7.0442    402.7448      0.4895   2322.7000      7.7952    -64.9650
97.0000         172.2250      0.2065    500.6400     94.7400      6.9796    410.2324      0.4999   2317.8000      6.2493    -63.9750
97.2000         170.9750      0.2036    500.9200     94.4400      6.7894    414.0282      0.5062   2328.7000      8.3144    -64.9650
97.4000         170.9750      0.2000    499.0400     95.1450      6.6655    437.5522      0.5003   2346.5000      7.8674    -64.4700
97.6000         172.2250      0.1943    497.6000     95.6400      6.4838    410.2324      0.4840   2348.5000      6.6043    -62.7150
97.8000         175.9250      0.1901    496.2000     97.6500      6.2493    406.4713      0.4633   2381.1001      6.6043    -61.9650
98.0000         174.7000      0.1863    503.2800     98.1450      6.0790    384.6183      0.4669   2347.5000      6.3071    -61.9650
98.2000         177.1750      0.1772    510.0800    100.4550      5.9680    399.0524      0.4826   2332.6001      5.8054    -61.4550
