~VERSION INFORMATION
 VERS.                 2.0:   CWLS LOG ASCII STANDARD -VERSION 2.0
 WRAP.                  NO:   ONE LINE PER DEPTH STEP
~WELL INFORMATION BLOCK
#MNEM.UNIT           DATA                    DESCRIPTION OF MNEMONIC
#---------    -------------------            -------------------------------
# Generated from Intellog Unique Number	CX_WELLS/WELL/3816
LOC .         AA/01-02-086-11W4/0            : Location     - LOCATION
UWI .         AA/01-02-086-11W4/0            : Uwi          - UNIQUE WELL ID
ENTR.         T                              : Entered      - ENTERED BY
SRVC.         SCHLUMBERGER                   : Scn          - SERVICE COMPANY
STRT.F        200                            : top_depth    - START DEPTH
STOP.F        796.293                        : bot_depth    - STOP DEPTH
STEP.F        0.82                           : increment    - STEP LENGTH
 NULL. -999.2500:NULL Value
~CURVE INFORMATION BLOCK
#MNEM UNIT       ERCB CURVE CODE    CURVE DESCRIPTION
#-----------   ------------------   ----------------------------------
DEPT.F        00 001 00 00         : DEPTH        - DEPTH
GR  .API      00 310 00 00         : GR           - GAMMA RAY
NPHI.V/V      00 330 00 00         : PHIN         - NEUTRON POROSITY (SANDSTONE)
ILD .OHMM     00 120 00 00         : RESD         - DEEP RESISTIVITY (DIL)
~PARAMETER INFORMATION
#MNEM.UNIT           DATA             DESCRIPTION OF MNEMONIC
#---------         -----------     ------------------------------
GL  .F        1679                 : gl           - GROUND LEVEL ELEVATION
EREF.F        1687                 : kb           - ELEVATION OF DEPTH REFERENCE
DATM.F        1687                 : datum        - DATUM ELEVATION
TDD .F        806                  : tdd          - TOTAL DEPTH DRILLER
RUN .         ONE                  : Run          - RUN NUMBER
ENG .         BILL                 : Engineer     - RECORDING ENGINEER
WIT .         JIM                  : Witness      - WITNESSED BY
MUD .         GEL                  : Mud_type     - MUD TYPE
MATR.         SANDSTONE            : Logunit      - NEUTRON MATRIX
TMAX.F        57                   : BHT          - MAXIMUM RECORDED TEMPERATURE
BHTD.F        806                  : BHTDEP       - MAXIMUM RECORDED TEMPERATURE
MATR.         1                    : LOGUNIT      - NEUTRON MATRIX
RMT .F        68                   : MDTP         - TEMPERATURE OF MUD
NEUT.         1                    : NEUTRON      - NEUTRON TYPE
RESI.         3.5                  : RESIST       - RESISTIVITY TYPE
RMC .OHMM     2.3                  : RMC          - RESISTIVITY OF MUD CAKE
RMF .OHMM     4.5                  : RMF          - RESISTIVITY OF MUD FILTRATE
SUFT.F        39.2                 : SUFT         - SURFACE TEMPERATURE
~A  DEPTH       GR     PHIN     RESD
# ...
  377.986  117.169    0.463    8.081
  378.806  119.309    0.463    8.127
  379.626  118.119    0.465    8.155
  380.446  116.915    0.468    8.006
  381.266  116.554    0.470    7.374
  382.087  114.534    0.467    7.077
  382.907  108.367    0.465    7.300
  383.727  105.504    0.471    7.318
  384.547  102.654    0.473    7.541
  385.367  102.293    0.474    7.392
  386.188  104.849    0.472    6.928
  387.008  106.962    0.467    6.305
  387.828  107.016    0.464    6.193
  388.648  104.581    0.474    6.212
  389.469  102.976    0.489    6.583
  390.289  103.445    0.490    6.788
  391.109  103.926    0.484    7.159
  391.929  101.893    0.478    7.364
  392.749   99.043    0.469    7.401
  393.570   97.853    0.467    7.429
  394.390   97.920    0.471    7.466
  395.210   97.131    0.478    7.503
  396.030   95.111    0.476    7.549
  396.850   93.506    0.472    7.586
  397.671   93.586    0.465    7.466
  398.491   94.014    0.462    7.326
  399.311   94.911    0.456    7.187
  400.131   95.807    0.455    7.233
  400.951   97.105    0.458    7.595
  401.772   98.818    0.465    8.646
  402.592   98.457    0.468    9.687
  403.412   94.350    0.454   16.099
  404.232   86.095    0.430   16.471
  405.052   81.573    0.414   20.886
  405.873   74.577    0.396   17.568
  406.693   69.226    0.365   14.566
  407.513   66.791    0.377   12.762
  408.333   69.748    0.387    9.779
  409.154   76.036    0.387    8.636
  409.974   82.310    0.403    7.836
  410.794   87.367    0.429    8.719
  411.614   86.578    0.439   10.095
  412.434   82.886    0.451   11.136
  413.255   86.271    0.460   12.855
  414.075   90.070    0.430   14.899
  414.895   87.221    0.423   15.950
  415.715   85.616    0.422   11.795
  416.535   85.669    0.419   10.494
  417.356   84.479    0.418   11.860
  418.176   81.602    0.416   11.897
  418.996   79.168    0.414   13.951
  419.816   82.151    0.410   15.847
  420.636   82.593    0.408   15.382
  421.457   80.573    0.401   15.252
  422.277   77.309    0.399   14.936
  423.097   77.389    0.387   15.819
  423.917   78.245    0.360   16.702
  424.738   78.299    0.326   16.395
  425.558   70.045    0.325   14.248
  426.378   68.440    0.367   10.595
  427.198   69.751    0.385    8.281
  428.018   72.293    0.393    9.322
  428.839   75.664    0.403   13.058
  429.659   79.036    0.428   14.601
  430.479   82.407    0.446   14.815
  431.299   82.474    0.438   14.006
  432.119   79.611    0.423   12.537
  432.940   71.397    0.413    9.888
  433.760   71.010    0.416    9.247
  434.580   71.892    0.427    9.284
  435.400   78.582    0.445    9.321
  436.220   81.967    0.451    9.535
  437.041   82.850    0.448    9.572
  437.861   83.305    0.448    9.107
  438.681   85.860    0.453    8.466
  439.501   88.830    0.460    7.165
  440.322   90.543    0.465    6.365
  441.142   91.426    0.487    5.724
  441.962   91.480    0.493    5.761
  442.782   92.376    0.494    6.319
  443.602   92.818    0.494    6.505
  444.423   94.115    0.491    7.731
  445.243   94.584    0.480    8.763
  446.063   92.149    0.457   11.319
  446.883   89.714    0.450   12.704
  447.703   88.537    0.439   11.895
  448.524   89.835    0.423   10.594
  449.344   90.718    0.414    9.627
  450.164   92.444    0.433    8.818
  450.984   93.300    0.437    7.526
  451.804   96.685    0.460    6.718
  452.625   98.812    0.480    5.918
  453.445   98.866    0.488    5.286
  454.265   99.335    0.499    4.979
  455.085  100.659    0.502    4.877
  455.906  102.372    0.503    4.738
  456.726  103.656    0.503    4.756
  457.546  105.783    0.497    4.979
  458.366  104.994    0.487    5.007
  459.186  102.559    0.481    5.379
  460.007   98.881    0.471    5.574
  460.827   94.774    0.473    6.615
  461.647   90.265    0.475    8.669
  462.467   86.586    0.460   10.379
  463.287   84.553    0.447   12.944
  464.108   81.730    0.423   11.968
  464.928   81.757    0.405   13.176
  465.748   82.226    0.396   13.380
  466.568   83.537    0.422   10.062
  467.388   84.821    0.435    9.096
  468.209   86.119    0.452    7.962
  469.029   88.260    0.462    7.488
  469.849   89.143    0.436    8.203
  470.669   87.952    0.419    9.411
  471.490   85.919    0.409   11.633
  472.310   81.411    0.404   11.177
  473.130   77.732    0.409   11.214
  473.950   73.638    0.416   10.582
  474.770   74.936    0.428    9.932
  475.591   84.127    0.454    8.630
  476.411   86.656    0.478    7.654
  477.231   91.298    0.482    6.688
  478.051   91.753    0.480    6.390
  478.871   93.064    0.475    6.595
  479.692   93.947    0.463    7.468
  480.512   95.673    0.453    9.857
  481.332   96.115    0.443   11.576
  482.152   97.827    0.429   13.119
  482.972   98.309    0.418   12.152
  483.793   96.276    0.409   11.018
  484.613   91.781    0.409   13.732
  485.433   88.089    0.405   15.117
  486.253   84.396    0.393   14.494
  487.073   79.058    0.386   14.364
  487.894   74.122    0.378   14.048
  488.714   69.614    0.374   13.267
  489.534   69.253    0.372   13.118
  490.354   71.380    0.368   13.657
  491.175   76.838    0.366   14.382
  491.995   80.210    0.363   14.233
  492.815   83.581    0.365   13.768
  493.635   89.883    0.368   13.480
  494.455   89.508    0.377   13.508
  495.276   86.645    0.394   13.555
  496.096   82.980    0.394   13.592
  496.916   82.191    0.391   13.620
  497.736   82.659    0.386   13.666
  498.556   79.408    0.381   13.870
  499.377   74.886    0.382   14.075
  500.197   71.609    0.383   13.944
  501.017   70.017    0.383   12.987
  501.837   70.900    0.382   12.336
  502.657   73.041    0.384   11.035
  503.478   73.897    0.390    9.557
  504.298   77.710    0.400    8.080
  505.118   79.824    0.404    9.130
  505.938   82.366    0.398   11.342
  506.759   84.908    0.384   11.379
  507.579   82.473    0.348   10.254
  508.399   71.329    0.212    9.789
  509.219   66.808    0.238    9.483
  510.039   66.861    0.265    7.838
  510.860   71.892    0.291    7.884
  511.680   78.594    0.341    8.246
  512.500   83.210    0.409    9.138
  513.320   87.826    0.421    9.668
  514.140   89.980    0.416   10.542
  514.961   88.776    0.427    9.575
  515.781   90.073    0.451    8.441
  516.601   90.957    0.459    7.976
  517.421   89.779    0.462    7.512
  518.241   89.833    0.462    7.381
  519.062   91.118    0.455    7.409
  519.882   95.318    0.445    7.632
  520.702   99.118    0.438    7.827
  521.522  100.831    0.429    8.366
  522.343   99.653    0.428   10.076
  523.163   97.192    0.423   12.632
  523.983   90.610    0.418   12.000
  524.803   88.175    0.409   10.699
  525.623   85.326    0.403   11.396
  526.444   84.537    0.402   11.935
  527.264   83.346    0.409   11.972
  528.084   80.911    0.418   11.675
  528.904   77.647    0.420   10.039
  529.724   75.614    0.415    9.760
  530.545   74.423    0.409   10.457
  531.365   74.905    0.403   10.661
  532.185   75.775    0.401   10.689
  533.005   78.330    0.398   10.726
  533.825   80.457    0.397   10.931
  534.646   81.769    0.397   11.321
  535.466   82.251    0.398   11.349
  536.286   82.291    0.401   11.376
  537.106   82.358    0.408   11.255
  537.927   82.385    0.422   10.791
  538.747   81.609    0.443   10.159
  539.567   81.662    0.452    9.508
  540.387   80.472    0.457    8.541
  541.207   78.867    0.456    8.077
  542.028   81.823    0.455    7.612
  542.848   85.610    0.457    6.989
  543.668   88.566    0.462    6.357
  544.488   88.633    0.464    6.218
  545.308   88.700    0.467    5.585
  546.129   89.557    0.472    5.288
  546.949   91.711    0.476    5.000
  547.769   93.009    0.479    4.851
  548.589   95.952    0.476    4.888
  549.409   99.751    0.472    5.594
  550.230   97.718    0.469    6.979
  551.050   94.869    0.445    6.691
  551.870   92.447    0.440    6.542
  552.690   91.658    0.437    6.589
  553.510   95.043    0.442    6.784
  554.331   98.401    0.446    6.997
  555.151  101.358    0.451    7.053
