~VERSION INFORMATION
 VERS.                 2.0:   CWLS LOG ASCII STANDARD -VERSION 2.0
 WRAP.                  NO:   ONE LINE PER DEPTH STEP
~WELL INFORMATION BLOCK
#MNEM.UNIT           DATA                    DESCRIPTION OF MNEMONIC
#---------    -------------------            -------------------------------
# Generated from Intellog Unique Number	CX_WELLS/WELL/3794
WELL.         HUDSON BAY                     : Well_name    - WELL
LOC .         AA/06-25-086-17W4/0            : Location     - LOCATION
UWI .         AA/06-25-086-17W400            : Uwi          - UNIQUE WELL ID
ENTR.         T                              : Entered      - ENTERED BY
SRVC.         SCHLUMBERGER                   : Scn          - SERVICE COMPANY
DATE.         03/04/92                       : Date         - LOG DATE
STRT.F        330                            : top_depth    - START DEPTH
STOP.F        809.823                        : bot_depth    - STOP DEPTH
STEP.F        0.82                           : increment    - STEP LENGTH
 NULL. -999.2500:NULL Value
~CURVE INFORMATION BLOCK
#MNEM UNIT       ERCB CURVE CODE    CURVE DESCRIPTION
#-----------   ------------------   ----------------------------------
DEPT.F        00 001 00 00         : DEPTH        - DEPTH
GR  .API      00 310 00 00         : GR           - GAMMA RAY
NPHI.V/V      00 330 00 00         : PHIN         - NEUTRON POROSITY (SANDSTONE)
ILD .OHMM     00 120 00 00         : RESD         - DEEP RESISTIVITY (DIL)
~PARAMETER INFORMATION
#MNEM.UNIT           DATA             DESCRIPTION OF MNEMONIC
#---------         -----------     ------------------------------
GL  .F        1692                 : gl           - GROUND LEVEL ELEVATION
EREF.F        1692                 : kb           - ELEVATION OF DEPTH REFERENCE
DATM.F        1692                 : datum        - DATUM ELEVATION
TDD .F        814                  : tdd          - TOTAL DEPTH DRILLER
RUN .         ONE                  : Run          - RUN NUMBER
ENG .         JO                   : Engineer     - RECORDING ENGINEER
WIT .         TIM                  : Witness      - WITNESSED BY
MUD .         GEL                  : Mud_type     - MUD TYPE
MATR.         SANDSTONE            : Logunit      - NEUTRON MATRIX
TMAX.F        57                   : BHT          - MAXIMUM RECORDED TEMPERATURE
BHTD.F        814                  : BHTDEP       - MAXIMUM RECORDED TEMPERATURE
RMT .F        60                   : MDTP         - TEMPERATURE OF MUD
MUDD.LB/G     9.6                  : MWT          - MUD DENSITY
NEUT.         1                    : NEUTRON      - NEUTRON TYPE
RESI.         6.5                  : RESIST       - RESISTIVITY TYPE
RM  .OHMM     9.5                  : RM           - RESISTIVITY OF MUD
RMC .OHMM     9.5                  : RMC          - RESISTIVITY OF MUD CAKE
RMF .OHMM     9.5                  : RMF          - RESISTIVITY OF MUD FILTRATE
SUFT.F        39.2                 : SUFT         - SURFACE TEMPERATURE
~A  DEPTH       GR     PHIN     RESD
# ...
  507.986   74.560    0.401   14.279
  508.806   70.684    0.404   14.112
  509.626   68.746    0.401   13.774
  510.446   69.233    0.398   12.761
  511.266   72.143    0.399   12.085
  512.087   79.417    0.399   10.562
  512.907   92.508    0.402    8.532
  513.727   94.933    0.413    7.348
  514.547   94.451    0.426    7.858
  515.367   92.028    0.434    8.538
  516.188   89.121    0.438    8.878
  517.008   86.214    0.438    9.727
  517.828   82.338    0.433   10.067
  518.648   80.885    0.431   10.577
  519.469   80.403    0.431   10.748
  520.289   79.920    0.430   10.750
  521.109   77.013    0.426   10.751
  521.929   76.045    0.425   10.584
  522.749   74.107    0.422   10.247
  523.570   72.655    0.421    9.741
  524.390   73.141    0.425    9.404
  525.210   74.598    0.432    8.729
  526.030   76.054    0.440    8.561
  526.850   77.995    0.445    8.393
  527.671   80.906    0.447    8.734
  528.491   84.300    0.447   10.090
  529.311   86.726    0.445   13.987
  530.131   83.820    0.433   14.836
  530.951   82.852    0.426   13.991
  531.772   79.945    0.417   12.808
  532.592   79.462    0.408   12.978
  533.412   78.495    0.395   13.658
  534.232   76.073    0.395   14.845
  535.052   74.135    0.397   15.524
  535.873   70.259    0.407   15.695
  536.693   67.352    0.411   16.206
  537.513   64.929    0.404   17.054
  538.333   62.022    0.385   17.225
  539.154   68.326    0.381   17.227
  539.974   88.688    0.366   16.721
  540.794   85.781    0.357   16.045
  541.614   78.027    0.362   15.200
  542.434   76.090    0.369   15.032
  543.255   74.153    0.376   16.050
  544.075   71.731    0.381   17.069
  544.895   69.793    0.384   17.747
  545.715   67.856    0.381   18.427
  546.535   68.343    0.375   19.953
  547.356   67.860    0.351   26.898
  548.176   67.377    0.345   48.747
  548.996   65.924    0.314   56.201
  549.816   62.532    0.239   55.864
  550.636   59.141    0.191   55.358
  551.457   56.719    0.149   55.529
  552.277   56.236    0.128   54.345
  553.097   58.661    0.112   49.774
  553.917   63.511    0.106   45.373
  554.738   68.361    0.104   39.786
  555.558   71.271    0.136   35.215
  556.378   74.666    0.230   28.612
  557.198   78.546    0.293   22.178
  558.018   81.941    0.319   18.454
  558.839   89.699    0.355   15.746
  559.659   92.125    0.373   13.716
  560.479   90.188    0.384   13.548
  561.299   91.644    0.405   13.550
  562.119   92.615    0.420   13.382
  562.940   92.617    0.423   14.061
  563.760   89.710    0.423   15.418
  564.580   86.803    0.418   15.081
  565.400   88.744    0.411   14.406
  566.220   95.048    0.408   14.069
  567.041   93.111    0.415   13.901
  567.861   93.113    0.424   13.564
  568.681   95.538    0.433   13.228
  569.501   98.449    0.436   13.059
  570.322   96.512    0.438   12.722
  571.142   96.029    0.442   12.894
  571.962   94.577    0.444   13.573
  572.782   92.154    0.432   13.067
  573.602   90.216    0.424   12.222
  574.423   94.097    0.428   12.055
  575.243   97.492    0.428   12.733
  576.063   95.554    0.424   13.751
  576.883   85.861    0.418   14.769
  577.703   81.015    0.396   15.788
  578.524   75.684    0.389   15.789
  579.344   79.080    0.380   15.452
  580.164   83.444    0.376   14.777
  580.984   85.870    0.372   13.932
  581.804   87.811    0.373   13.086
  582.625   87.813    0.374   13.428
  583.445   87.329    0.385   14.614
  584.265   87.332    0.408   16.310
  585.085   87.333    0.410   18.344
  585.906   86.365    0.404   18.007
  586.726   85.397    0.397   17.332
  587.546   83.460    0.392   16.825
  588.366   84.431    0.391   16.149
  589.186   90.250    0.392   15.982
  590.007   96.070    0.392   16.322
  590.827   88.315    0.386   17.679
  591.647   87.347    0.381   17.850
  592.467   86.865    0.381   17.852
  593.287   91.229    0.388   17.515
  594.108   98.503    0.394   17.009
  594.928   98.020    0.403   16.164
  595.748   99.476    0.405   15.489
  596.568  101.901    0.402   14.814
  597.388  104.327    0.402   14.476
  598.209  103.360    0.402   16.172
  599.029  100.937    0.398   16.681
  599.849   96.091    0.391   18.546
  600.669   85.428    0.388   18.717
  601.490   80.097    0.386   15.333
  602.310   78.645    0.381   14.995
  603.130   82.525    0.381   14.319
  603.950   95.130    0.383   13.475
  604.770  100.465    0.386   12.460
  605.591  102.891    0.391   11.277
  606.411  106.286    0.398   11.109
  607.231  109.681    0.405   11.450
  608.051  107.260    0.424   12.128
  608.871  104.838    0.428   13.485
  609.692  102.415    0.434   42.786
  610.512   95.630    0.431   44.651
  611.332   78.664    0.411   40.757
  612.152   66.547    0.363   34.493
  612.972   78.183    0.298   28.736
  613.793  101.454    0.182   21.964
  614.613  108.243    0.283   15.022
  615.433  106.306    0.334   12.483
  616.253  102.430    0.364    9.775
  617.073  104.855    0.420    9.608
  617.894  107.766    0.443    9.779
  618.714  106.313    0.454   10.289
  619.534  102.922    0.450   10.460
  620.354  100.984    0.449   10.292
  621.175  103.894    0.449   10.125
  621.995  111.168    0.446   10.126
  622.815  110.685    0.451   10.297
  623.635  113.595    0.458   11.315
  624.455  115.536    0.464   12.333
  625.276  114.569    0.457   14.367
  626.096  113.116    0.440   15.724
  626.916  109.724    0.422   20.807
  627.736  105.848    0.412   18.268
  628.556  100.032    0.398   16.238
  629.377   96.641    0.383   15.562
  630.197  101.490    0.365   15.395
  631.017  101.492    0.352   15.228
  631.837  103.433    0.383   15.060
  632.657  104.889    0.398   14.893
  633.478  105.376    0.404   14.894
  634.298  104.893    0.410   14.727
  635.118  102.955    0.401   14.898
  635.938  101.503    0.397   16.931
  636.759   97.142    0.390   20.320
  637.579   88.418    0.383   21.677
  638.399   85.511    0.378   20.832
  639.219   88.421    0.375   19.987
  640.039   96.665    0.375   18.803
  640.860   94.242    0.378   18.128
  641.680   84.064    0.377   18.130
  642.500   82.127    0.374   18.640
  643.320   80.189    0.368   19.319
  644.140   76.313    0.368   20.338
  644.961   75.345    0.367   20.847
  645.781   77.771    0.365   21.865
  646.601   77.288    0.357   22.883
  647.421   76.805    0.356   24.070
  648.241   76.807    0.349   25.596
  649.062   79.232    0.345   24.920
  649.882   81.173    0.338   22.551
  650.702   84.084    0.332   19.674
  651.522   84.570    0.335   18.151
  652.343   83.118    0.345   17.306
  653.163   84.089    0.358   16.631
  653.983   88.938    0.370   17.310
  654.803   94.273    0.381   17.651
  655.623   91.850    0.387   18.500
  656.444   87.489    0.391   19.686
  657.264   83.128    0.393   26.801
  658.084   82.645    0.388   27.142
  658.904   83.617    0.385   23.587
  659.724   86.042    0.374   21.049
  660.545   90.407    0.364   19.018
  661.365   93.317    0.352   17.496
  662.185   94.773    0.357   16.481
  663.005   96.715    0.395   14.790
  663.825   97.686    0.418   13.606
  664.646  100.112    0.426   12.422
  665.466  100.598    0.437   11.239
  666.286  103.993    0.450   10.563
  667.106  105.449    0.456   10.056
  667.927  107.875    0.455    9.550
  668.747  110.786    0.451    9.044
  669.567  111.272    0.452    8.707
  670.387  106.911    0.454   10.402
  671.207   97.702    0.451   52.913
  672.028   74.434    0.440   58.843
  672.848   55.045    0.428   59.691
  673.668   33.717    0.397   61.048
  674.488   23.539    0.391   61.051
  675.308   25.965    0.383   60.883
  676.129   30.814    0.365   61.054
  676.949   36.633    0.364   60.378
  677.769   33.726    0.375   60.380
  678.589   28.395    0.381   60.381
  679.409   25.004    0.382   60.553
  680.230   25.006    0.381   60.555
  681.050   26.462    0.369   60.387
  681.870   28.888    0.366   59.542
  682.690   31.314    0.366   58.697
  683.510   31.800    0.370   57.344
  684.331   33.257    0.376   57.176
  685.151   32.289    0.380   56.670
