~VERSION INFORMATION
 VERS.                 2.0:   CWLS LOG ASCII STANDARD -VERSION 2.0
 WRAP.                  NO:   ONE LINE PER DEPTH STEP
~WELL INFORMATION BLOCK
#MNEM.UNIT           DATA                    DESCRIPTION OF MNEMONIC
#---------    -------------------            -------------------------------
# Generated from Intellog Unique Number	CN_94_101/WELL/3568
WELL.         04-05-096-12W4                 : Well_name    - WELL
LOC .         AA/04-05-096-12W4/0            : Location     - LOCATION
UWI .         AA/04-05-096-12W400            : Uwi          - UNIQUE WELL ID
ENTR.         JOETTE                         : Entered      - ENTERED BY
SRVC.         SCHLUMBERGER                   : Scn          - SERVICE COMPANY
DATE.         07-31-92                       : Date         - LOG DATE
STRT.F        30                             : top_depth    - START DEPTH
STOP.F        430.262                        : bot_depth    - STOP DEPTH
STEP.F        0.8202                         : increment    - STEP LENGTH
 NULL. -999.2500:NULL Value
~CURVE INFORMATION BLOCK
#MNEM UNIT       ERCB CURVE CODE    CURVE DESCRIPTION
#-----------   ------------------   ----------------------------------
DEPT.F        00 001 00 00         : DEPTH        - DEPTH
GR  .API      00 310 00 00         : GR           - GAMMA RAY
RHOB.G/CC     00 350 00 00         : DENS         - BULK DENSITY
ILD .OHMM     00 120 00 00         : RESD         - DEEP RESISTIVITY (DIL)
DPHI.V/V      00 890 00 00         : PHID         - DENSITY POROSITY (SANDSTONE)
~PARAMETER INFORMATION
#MNEM.UNIT           DATA             DESCRIPTION OF MNEMONIC
#---------         -----------     ------------------------------
GL  .M        350.886              : gl           - GROUND LEVEL ELEVATION
EREF.M        350.886              : kb           - ELEVATION OF DEPTH REFERENCE
DATM.M        350.886              : datum        - DATUM ELEVATION
TDD .M        132.283              : tdd          - TOTAL DEPTH DRILLER
RUN .         ONE                  : Run          - RUN NUMBER
ENG .         BILL                 : Engineer     - RECORDING ENGINEER
WIT .         JIM                  : Witness      - WITNESSED BY
MUD .         GEL                  : Mud_type     - MUD TYPE
MATR.         SANDSTONE            : Logunit      - NEUTRON MATRIX
TMAX.F        49                   : BHT          - MAXIMUM RECORDED TEMPERATURE
BHTD.F        434                  : BHTDEP       - MAXIMUM RECORDED TEMPERATURE
RMT .F        49                   : MDTP         - TEMPERATURE OF MUD
MUDD.LB/G     1.1                  : MWT          - MUD DENSITY
NEUT.         1                    : NEUTRON      - NEUTRON TYPE
RESI.         0                    : RESIST       - RESISTIVITY TYPE
RM  .OHMM     3.35                 : RM           - RESISTIVITY OF MUD
RMC .OHMM     3.35                 : RMC          - RESISTIVITY OF MUD CAKE
RMF .OHMM     3.35                 : RMF          - RESISTIVITY OF MUD FILTRATE
SUFT.F        39.2                 : SUFT         - SURFACE TEMPERATURE
~A  DEPTH       GR     DENS     RESD     PHID
# ...
  172.717  105.003    2.080    1.956    0.345
  173.537  102.115    2.097    2.109    0.335
  174.357   96.878    2.123    2.359    0.319
  175.177   92.802    2.190    2.637    0.279
  175.997   90.534    2.226    3.116    0.257
  176.818   90.048    2.226    3.821    0.257
  177.638   88.995    2.221    4.516    0.260
  178.458   83.731    2.227    5.434    0.256
  179.278   95.121    2.257    6.422    0.238
  180.098  107.132    2.292    7.592    0.217
  180.919  114.986    2.312    6.334    0.205
  181.739  120.437    2.310    4.909    0.206
  182.559  123.514    2.257    3.950    0.238
  183.379  125.430    2.195    3.546    0.276
  184.199  126.725    2.133    3.241    0.313
  185.020  126.292    2.176    3.074    0.287
  185.840  125.159    2.180    3.023    0.285
  186.660  122.864    2.182    3.032    0.283
  187.480  118.815    2.201    3.153    0.272
  188.301  118.922    2.221    3.215    0.260
  189.121  120.218    2.229    3.470    0.255
  189.941  118.544    2.246    3.603    0.245
  190.761  114.495    2.296    3.887    0.214
  191.581  119.946    2.325    3.824    0.197
  192.402  129.015    2.235    3.629    0.252
  193.222  127.314    2.195    3.502    0.276
  194.042  126.261    2.176    3.383    0.288
  194.862  124.533    2.200    3.330    0.273
  195.682  124.101    2.214    3.337    0.264
  196.503  128.932    2.215    3.344    0.264
  197.323  125.450    2.229    3.413    0.255
  198.143  110.685    2.238    3.959    0.250
  198.963  100.698    2.234    4.676    0.252
  199.783   94.247    2.228    5.428    0.256
  200.604   87.795    2.212    6.183    0.265
  201.424   70.656    2.209    6.667    0.267
  202.244   66.040    2.219    7.457    0.261
  203.064   69.683    2.227    8.494    0.256
  203.885   73.974    2.226    9.164    0.257
  204.705   77.645    2.216    9.020    0.263
  205.525   75.377    2.206    8.709    0.269
  206.345   71.301    2.191    8.409    0.278
  207.165   66.685    2.177    7.835    0.287
  207.986   69.735    2.151    7.565    0.302
  208.806   72.217    2.148    6.920    0.304
  209.626   72.352    2.204    6.570    0.270
  210.446   75.401    2.185    6.581    0.282
  211.266   83.255    2.171    6.591    0.290
  212.087   84.578    2.209    6.601    0.267
  212.907   84.658    2.214    6.868    0.264
  213.727   85.359    2.254    7.002    0.240
  214.547   88.436    2.256    7.417    0.239
  215.367   87.950    2.239    8.001    0.249
  216.188   79.150    2.249    8.466    0.243
  217.008   70.918    2.223    9.297    0.259
  217.828   60.310    2.178   10.591    0.286
  218.648   47.327    2.140   12.746    0.309
  219.469   40.308    2.128   17.447    0.316
  220.289   36.259    2.123   23.869    0.320
  221.109   36.367    2.149   36.469    0.304
  221.929   34.099    2.171   48.988    0.290
  222.749   32.992    2.172   68.296    0.290
  223.570   33.747    2.176   85.260    0.287
  224.390   34.395    2.184  102.714    0.282
  225.210   36.904    2.173  110.692    0.289
  226.030   37.606    2.157  119.352    0.299
  226.850   37.713    2.139  121.870    0.309
  227.671   37.821    2.140  117.787    0.309
  228.491   37.901    2.128  113.666    0.316
  229.311   38.036    2.112  109.802    0.326
  230.131   38.144    2.095  112.062    0.337
  230.951   37.090    2.101  116.482    0.333
  231.772   35.956    2.143  118.878    0.307
  232.592   33.122    2.200  110.706    0.273
  233.412   35.578    2.240   92.366    0.248
  234.232   45.807    2.337   77.024    0.190
  235.052   62.568    2.297   59.724    0.214
  235.873   62.702    2.225   39.997    0.257
  236.693   63.377    2.172   32.154    0.290
  237.513   87.291    2.250   25.862    0.242
  238.333  107.615    2.282   20.043    0.223
  239.154  114.875    2.283   13.671    0.223
  239.974  119.139    2.295   11.199    0.215
  240.794  124.024    2.307    9.516    0.208
  241.614  121.729    2.310    8.388    0.206
  242.434  114.711    2.262    7.812    0.235
  243.255  105.291    2.254    7.409    0.240
  244.075   97.679    2.241    7.293    0.248
  244.895   91.821    2.215    7.301    0.264
  245.715   87.178    2.195    7.455    0.276
  246.535   84.884    2.196    8.042    0.275
  247.356   82.616    2.200    8.505    0.273
  248.176   84.505    2.198    9.004    0.274
  248.996   86.448    2.195   11.048    0.276
  249.816   86.555    2.195   12.132    0.276
  250.636   85.421    2.211   12.850    0.266
  251.457   81.399    2.250   12.870    0.243
  252.277   77.323    2.294   13.128    0.216
  253.097   70.899    2.323   13.155    0.198
  253.917   70.386    2.259   13.189    0.237
  254.738   80.615    2.161   13.709    0.296
  255.558   86.094    2.198   14.513    0.274
  256.378   86.795    2.198   14.804    0.274
  257.198   85.688    2.188   14.565    0.280
  258.018   84.014    2.167   13.815    0.293
  258.839   82.340    2.165   13.103    0.294
  259.659   83.042    2.181   13.373    0.284
  260.479   83.743    2.196   13.907    0.275
  261.299   84.444    2.194   14.186    0.276
  262.119   85.146    2.206   13.964    0.269
  262.940   85.847    2.209   13.732    0.267
  263.760   88.357    2.205   13.265    0.270
  264.580   91.433    2.209   12.588    0.267
  265.400   93.943    2.228   12.379    0.256
  266.220   96.453    2.238   11.747    0.250
  267.041   98.315    2.254   11.347    0.240
  267.861   99.016    2.269   10.763    0.231
  268.681   97.342    2.279   10.391    0.225
  269.501   97.477    2.289    9.516    0.218
  270.322   98.124    2.302    9.353    0.211
  271.142   98.232    2.316    9.202    0.202
  271.962   94.776    2.265    9.058    0.234
  272.782   91.321    2.235    9.072    0.252
  273.602   93.804    2.203    9.259    0.271
  274.423   96.880    2.222    9.624    0.260
  275.243  100.578    2.252    9.822    0.241
  276.063   99.498    2.232   10.024    0.253
  276.883   91.886    2.221   10.419    0.260
  277.703   91.400    2.249   10.639    0.243
  278.524   93.261    2.231   10.858    0.254
  279.344   95.177    2.220   11.070    0.261
  280.164   97.660    2.224   11.726    0.258
  280.984   97.768    2.232   12.194    0.253
  281.804   93.098    2.233   12.439    0.253
  282.625   88.428    2.235   12.464    0.252
  283.445   87.969    2.239   12.734    0.249
  284.265   92.800    2.240   12.753    0.249
  285.085  101.868    2.240   12.780    0.248
  285.906  100.788    2.237   12.345    0.251
  286.726  100.275    2.237   12.140    0.250
  287.546   97.414    2.235   11.514    0.251
  288.366   93.958    2.231   11.328    0.254
  289.186   90.503    2.228   10.954    0.256
  290.007   88.208    2.226   10.971    0.257
  290.827   87.722    2.225   10.988    0.258
  291.647   85.454    2.227   11.427    0.256
  292.467   82.620    2.221   12.091    0.260
  293.287   81.486    2.181   13.545    0.284
  294.108   78.058    2.174   14.324    0.289
  294.928   76.977    2.198   15.722    0.274
  295.748   74.089    2.237   18.250    0.251
  296.568   68.825    2.257   21.174    0.238
  297.388   66.585    2.241   22.020    0.248
  298.209   67.286    2.192   21.665    0.278
  299.029   67.960    2.138   21.709    0.310
  299.849   69.256    2.134   22.156    0.313
  300.669   58.081    2.135   23.902    0.312
  301.490   57.001    2.129   24.819    0.316
  302.310   57.135    2.125   26.760    0.318
  303.130   56.001    2.106   31.063    0.330
  303.950   51.385    2.108   34.743    0.329
  304.770   48.497    2.136   38.173    0.311
  305.591   49.819    2.135   39.678    0.312
  306.411   51.087    2.125   40.495    0.318
  307.231   48.819    2.119   40.578    0.322
  308.051   45.958    2.112   39.218    0.326
  308.871   53.191    2.118   38.546    0.322
  309.692   64.608    2.130   35.281    0.315
  310.512   69.466    2.149   33.446    0.304
  311.332   71.976    2.161   28.406    0.296
  312.152   76.240    2.163   24.572    0.295
  312.972   79.910    2.176   20.880    0.287
  313.793   84.174    2.176   19.092    0.287
  314.613   83.094    2.169   16.829    0.292
