~VERSION INFORMATION
 VERS.                 2.0:   CWLS LOG ASCII STANDARD -VERSION 2.0
 WRAP.                  NO:   ONE LINE PER DEPTH STEP
~WELL INFORMATION BLOCK
#MNEM.UNIT           DATA                    DESCRIPTION OF MNEMONIC
#---------    -------------------            -------------------------------
# Generated from Intellog Unique Number	CX_WELLS/WELL/3616
WELL.         AMOCO C21                      : Well_name    - WELL
LOC .         AA/08-21-085-08W4/0            : Location     - LOCATION
UWI .         AA/08-21-085-08W400            : Uwi          - UNIQUE WELL ID
ENTR.         T                              : Entered      - ENTERED BY
SRVC.         SCHLUMBERGER                   : Scn          - SERVICE COMPANY
STRT.F        600                            : top_depth    - START DEPTH
STOP.F        1360.33                        : bot_depth    - STOP DEPTH
STEP.F        0.82                           : increment    - STEP LENGTH
 NULL. -999.2500:NULL Value
~CURVE INFORMATION BLOCK
#MNEM UNIT       ERCB CURVE CODE    CURVE DESCRIPTION
#-----------   ------------------   ----------------------------------
DEPT.F        00 001 00 00         : DEPTH        - DEPTH
GR  .API      00 310 00 00         : GR           - GAMMA RAY
NPHI.V/V      00 330 00 00         : PHIN         - NEUTRON POROSITY (SANDSTONE)
ILD .OHMM     00 120 00 00         : RESD         - DEEP RESISTIVITY (OTHER)
~PARAMETER INFORMATION
#MNEM.UNIT           DATA             DESCRIPTION OF MNEMONIC
#---------         -----------     ------------------------------
GL  .F        2144.6               : gl           - GROUND LEVEL ELEVATION
EREF.F        2149                 : kb           - ELEVATION OF DEPTH REFERENCE
DATM.F        2149                 : datum        - DATUM ELEVATION
TDD .F        1373                 : tdd          - TOTAL DEPTH DRILLER
RUN .         ONE                  : Run          - RUN NUMBER
ENG .         BILL                 : Engineer     - RECORDING ENGINEER
WIT .         JIM                  : Witness      - WITNESSED BY
MUD .         GEL                  : Mud_type     - MUD TYPE
MATR.         SANDSTONE            : Logunit      - NEUTRON MATRIX
TMAX.F        80                   : BHT          - MAXIMUM RECORDED TEMPERATURE
BHTD.F        1373                 : BHTDEP       - MAXIMUM RECORDED TEMPERATURE
MATR.         1                    : LOGUNIT      - NEUTRON MATRIX
RMT .F        80                   : MDTP         - TEMPERATURE OF MUD
NEUT.         1                    : NEUTRON      - NEUTRON TYPE
RESI.         10                   : RESIST       - RESISTIVITY TYPE
RMC .OHMM     2                    : RMC          - RESISTIVITY OF MUD CAKE
RMF .OHMM     3.9                  : RMF          - RESISTIVITY OF MUD FILTRATE
SUFT.F        39.2                 : SUFT         - SURFACE TEMPERATURE
~A  DEPTH       GR     PHIN     RESD
# ...
 1133.960  130.593    0.404    2.646
 1134.780  134.808    0.396    2.264
 1135.600  139.015    0.398    2.112
 1136.420  142.030    0.400    2.117
 1137.240  142.669    0.411    2.124
 1138.060  142.107    0.419    2.128
 1138.880  142.141    0.424    1.980
 1139.700  141.588    0.426    1.829
 1140.520  141.017    0.425    1.758
 1141.340  139.868    0.423    1.607
 1142.160  139.894    0.420    1.611
 1142.980  139.349    0.424    1.619
 1143.800  139.392    0.427    1.546
 1144.620  139.409    0.426    1.552
 1145.440  139.452    0.423    1.634
 1146.260  139.486    0.423    1.641
 1147.080  138.320    0.423    1.725
 1147.900  134.777    0.424    1.806
 1148.720  131.244    0.422    1.813
 1149.540  131.295    0.418    1.896
 1150.360  131.917    0.416    1.979
 1151.180  131.355    0.415    2.140
 1152.000  129.005    0.410    2.223
 1152.820  127.251    0.401    2.309
 1153.640  127.890    0.399    2.394
 1154.460  129.704    0.400    2.474
 1155.280  133.314    0.401    2.559
 1156.100  133.945    0.401    2.486
 1156.920  128.018    0.398    2.413
 1157.740  123.284    0.396    2.341
 1158.560  117.366    0.391    2.425
 1159.380  115.603    0.390    2.741
 1160.200  119.231    0.390    3.136
 1161.020  124.630    0.387    2.833
 1161.840  128.828    0.386    2.682
 1162.660  131.860    0.384    2.764
 1163.480  132.499    0.382    3.314
 1164.300  134.321    0.381    4.255
 1165.120  134.935    0.374    4.729
 1165.940  137.353    0.362    4.733
 1166.770  140.981    0.351    4.819
 1167.590  142.795    0.353    4.744
 1168.410  145.827    0.356    4.440
 1169.230  147.632    0.358    4.367
 1170.050  148.279    0.361    4.138
 1170.870  148.322    0.365    4.067
 1171.690  148.935    0.368    3.994
 1172.510  151.958    0.372    4.000
 1173.330  153.185    0.373    4.004
 1174.150  146.654    0.374    4.011
 1174.970  137.151    0.374    4.561
 1175.790  126.456    0.371    5.267
 1176.610  114.577    0.367    6.286
 1177.430  109.238    0.362    6.914
 1178.250  102.716    0.357    6.686
 1179.070  103.951    0.356    6.224
 1179.890  108.157    0.357    5.608
 1180.710  111.777    0.360    5.146
 1181.530  110.627    0.363    5.152
 1182.350  108.856    0.366    5.780
 1183.170  104.122    0.366    7.269
 1183.990   99.387    0.367    7.505
 1184.810   85.729    0.371    7.590
 1185.630   83.371    0.374    7.283
 1186.450   80.416    0.376    6.978
 1187.270   76.286    0.378    6.825
 1188.090   73.340    0.378    6.519
 1188.910   69.202    0.378    6.292
 1189.730   70.428    0.375    6.533
 1190.550   74.039    0.372    6.770
 1191.370   78.842    0.367    7.088
 1192.190   92.594    0.365    7.095
 1193.010   97.993    0.367    6.945
 1193.830  106.977    0.369    6.716
 1194.650  115.356    0.366    6.566
 1195.470  118.379    0.360    6.726
 1196.290  119.606    0.358    7.200
 1197.110  125.004    0.364    7.516
 1197.930  131.596    0.369    7.444
 1198.750  128.053    0.371    7.762
 1199.570  116.771    0.362   10.336
 1200.390  110.836    0.358   12.676
 1201.210  102.525    0.356   13.306
 1202.030   93.618    0.357   11.676
 1202.850   88.884    0.359   10.748
 1203.670   87.138    0.358   10.132
 1204.490   88.961    0.357   10.528
 1205.310   93.176    0.357   10.997
 1206.140   96.182    0.358   12.329
 1206.960   99.793    0.362   12.645
 1207.780  105.813    0.363   13.039
 1208.600  108.215    0.364   13.589
 1209.420  111.826    0.364   13.284
 1210.240  116.032    0.364   11.965
 1211.060  121.440    0.361   10.415
 1211.880  125.050    0.358    8.942
 1212.700  131.045    0.359    7.158
 1213.520  138.241    0.360    6.849
 1214.340  144.236    0.365    5.223
 1215.160  153.211    0.367    4.914
 1215.980  151.466    0.369    4.221
 1216.800  139.579    0.375    4.847
 1217.620  122.914    0.378    6.878
 1218.440  106.855    0.381    8.363
 1219.260   93.179    0.382   10.159
 1220.080   86.061    0.378   17.950
 1220.900   84.911    0.377   19.668
 1221.720   87.321    0.378   20.297
 1222.540   94.525    0.379   16.954
 1223.360  105.894    0.381   10.109
 1224.180  107.708    0.379    9.104
 1225.000  110.126    0.377    9.809
 1225.820  110.177    0.374   11.372
 1226.640  110.195    0.371   12.934
 1227.460  110.825    0.367   13.408
 1228.280  112.060    0.362   14.114
 1229.100  111.498    0.355   14.354
 1229.920  107.964    0.345   14.126
 1230.740  105.606    0.327   14.442
 1231.560  101.467    0.322   14.370
 1232.380  102.694    0.320   11.808
 1233.200  106.305    0.318   11.499
 1234.020  109.319    0.311   10.726
 1234.840  113.543    0.319    9.953
 1235.660  112.377    0.340   13.307
 1236.480  108.238    0.347   13.703
 1237.300  104.100    0.363   10.516
 1238.120  104.739    0.368    9.743
 1238.940  108.937    0.368   11.384
 1239.760  114.941    0.366   13.024
 1240.580  114.992    0.364   14.043
 1241.400  111.441    0.360   14.515
 1242.220  107.890    0.359   15.144
 1243.040  103.156    0.360   14.526
 1243.860  102.594    0.362   12.896
 1244.690  103.259    0.362   11.112
 1245.510  103.276    0.362   12.596
 1246.330  103.319    0.362   13.225
 1247.150  102.740    0.363   12.919
 1247.970  102.774    0.364   14.403
 1248.790  102.212    0.365   15.733
 1249.610  101.063    0.365   18.542
 1250.430  101.702    0.365   20.727
 1251.250  104.112    0.367    9.988
 1252.070  110.703    0.370    7.270
 1252.890  117.898    0.373    6.342
 1253.710  128.662    0.374    6.503
 1254.530  126.312    0.368    6.741
 1255.350  116.818    0.361    7.215
 1256.170  113.871    0.351    7.687
 1256.990  112.705    0.345    9.405
 1257.810  109.171    0.345    9.878
 1258.630  110.994    0.350   10.195
 1259.450  111.633    0.356   15.339
 1260.270  109.870    0.358   14.723
 1261.090  103.952    0.366   14.182
 1261.910   91.478    0.375   13.565
 1262.730   89.110    0.377   18.632
 1263.550   84.385    0.378   17.313
 1264.370   82.026    0.372   14.129
 1265.190   81.464    0.367   13.665
 1266.010   85.092    0.366   12.893
 1266.830   88.106    0.368   12.431
 1267.650   91.130    0.369   11.814
 1268.470   92.339    0.368   11.196
 1269.290   97.150    0.366   10.657
 1270.110  100.761    0.363   10.195
 1270.930  105.564    0.367    9.811
 1271.750  107.991    0.369    9.976
 1272.570  105.053    0.370   10.136
 1273.390  103.887    0.371   10.374
 1274.210  104.517    0.376   11.002
 1275.030  109.916    0.378   11.553
 1275.850  117.708    0.378   11.561
 1276.670  122.511    0.379   11.175
 1277.490  130.294    0.377   10.480
 1278.310  135.701    0.376    9.785
 1279.130  130.967    0.374    8.389
 1279.950  128.021    0.370    7.617
 1280.770  122.690    0.362    8.478
 1281.590  115.580    0.355   12.999
 1282.410  103.693    0.355   16.352
 1283.230  101.931    0.357   20.017
 1284.060   97.196    0.361   21.269
 1284.880   91.866    0.365   21.120
 1285.700   85.948    0.371   21.359
 1286.520   85.974    0.374   19.886
 1287.340   90.785    0.377   19.502
 1288.160  101.557    0.380   19.585
 1288.980  105.168    0.382   19.824
 1289.800  108.778    0.383   13.755
 1290.620  111.793    0.383   10.492
 1291.440  113.028    0.383    9.018
 1292.260  112.458    0.382    9.179
 1293.080  111.896    0.381    9.575
 1293.900  112.535    0.381    9.970
 1294.720  111.973    0.384   10.287
 1295.540  109.631    0.385   10.682
 1296.360  107.281    0.384   10.999
 1297.180  103.730    0.379   11.319
 1298.000   98.409    0.376   11.321
 1298.820   94.858    0.376   11.329
 1299.640   90.728    0.377   11.410
 1300.460   87.773    0.378   11.728
 1301.280   73.502    0.376   11.967
 1302.100   66.979    0.370   12.907
 1302.920   56.880    0.367   13.456
 1303.740   52.155    0.364   14.243
 1304.560   49.805    0.364   15.181
 1305.380   48.638    0.364   16.822
 1306.200   48.085    0.364   19.319
 1307.020   48.128    0.364   21.893
 1307.840   48.767    0.365   26.103
 1308.660   48.784    0.367   25.875
 1309.480   49.423    0.372   26.196
 1310.300   49.448    0.375   26.355
 1311.120   50.096    0.377   26.672
