~VERSION INFORMATION
 VERS.                 2.0:   CWLS LOG ASCII STANDARD -VERSION 2.0
 WRAP.                  NO:   ONE LINE PER DEPTH STEP
~WELL INFORMATION BLOCK
#MNEM.UNIT           DATA                    DESCRIPTION OF MNEMONIC
#---------    -------------------            -------------------------------
# Generated from Intellog Unique Number	CN_94_101/WELL/4985
WELL.         06-30-097-09W4                 : Well_name    - WELL
LOC .         AA/06-30-097-09W4/0            : Location     - LOCATION
UWI .         AA/06-30-097-09W400            : Uwi          - UNIQUE WELL ID
ENTR.         JOETTE                         : Entered      - ENTERED BY
SRVC.         SCHLUMBERGER                   : Scn          - SERVICE COMPANY
DATE.         08/13/92                       : Date         - LOG DATE
STRT.M        30                             : top_depth    - START DEPTH
STOP.M        112.5                          : bot_depth    - STOP DEPTH
STEP.M        0.25                           : increment    - STEP LENGTH
 NULL. -999.2500:NULL Value
~CURVE INFORMATION BLOCK
#MNEM UNIT       ERCB CURVE CODE    CURVE DESCRIPTION
#-----------   ------------------   ----------------------------------
DEPT.M        00 001 00 00         : DEPTH        - DEPTH
GR  .API      00 310 00 00         : GR           - GAMMA RAY
ILD .OHMM     00 120 00 00         : RESD         - DEEP RESISTIVITY (DIL)
NPHI.V/V      00 330 00 00         : PHIN         - NEUTRON POROSITY (SANDSTONE)
DPHI.V/V      00 890 00 00         : PHID         - DENSITY POROSITY (SANDSTONE)
~PARAMETER INFORMATION
#MNEM.UNIT           DATA             DESCRIPTION OF MNEMONIC
#---------         -----------     ------------------------------
GL  .M        299.6                : gl           - GROUND LEVEL ELEVATION
EREF.M        299.6                : kb           - ELEVATION OF DEPTH REFERENCE
DATM.M        299.6                : datum        - DATUM ELEVATION
TDD .M        117                  : tdd          - TOTAL DEPTH DRILLER
RUN .         ONE                  : Run          - RUN NUMBER
ENG .         JO                   : Engineer     - RECORDING ENGINEER
WIT .         TIM                  : Witness      - WITNESSED BY
MUD .         GEL                  : Mud_type     - MUD TYPE
MATR.         SANDSTONE            : Logunit      - NEUTRON MATRIX
TMAX.C        0                    : BHT          - MAXIMUM RECORDED TEMPERATURE
BHTD.M        117                  : BHTDEP       - MAXIMUM RECORDED TEMPERATURE
RMT .C        0                    : MDTP         - TEMPERATURE OF MUD
MUDD.KG/M     1020                 : MWT          - MUD DENSITY
NEUT.         1                    : NEUTRON      - NEUTRON TYPE
RESI.         0                    : RESIST       - RESISTIVITY TYPE
RM  .OHMM     13.8                 : RM           - RESISTIVITY OF MUD
RMC .OHMM     13.8                 : RMC          - RESISTIVITY OF MUD CAKE
RMF .OHMM     13.8                 : RMF          - RESISTIVITY OF MUD FILTRATE
SUFT.C        4                    : SUFT         - SURFACE TEMPERATURE
~A  DEPTH       GR     RESD     PHIN     PHID
   30.000   31.015    6.082    0.548    0.147
   30.250   36.526    6.035    0.553    0.146
   30.500   59.350    6.051    0.545    0.153
   30.750   90.496    6.002    0.548    0.156
   31.000   66.221    6.016    0.549    0.166
   31.250   57.416    5.901    0.546    0.198
   31.500   55.778    5.854    0.553    0.214
   31.750   39.825    5.870    0.552    0.330
   32.000   52.503    5.882    0.546    0.401
   32.250   52.652    6.983    0.555    0.404
   32.500   58.759   17.576    0.556    0.407
   32.750   58.908   15.683    0.548    0.407
   33.000   47.144   14.755    0.560    0.407
   33.250   38.357   14.634    0.567    0.411
   33.500   25.978   14.983    0.575    0.417
   33.750   31.489   15.183    0.570    0.427
   34.000   69.206   15.219    0.561    0.427
   34.250   72.949   15.914    0.560    0.423
   34.500   89.183   19.296    0.554    0.417
   34.750   78.014   19.971    0.544    0.414
   35.000   68.017   18.794    0.531    0.407
   35.250   83.078   17.124    0.521    0.398
   35.500   71.314   15.764    0.532    0.398
   35.750   69.676   17.206    0.550    0.375
   36.000   69.825   18.178    0.545    0.369
   36.250   88.480   18.415    0.541    0.372
   36.500   75.486   20.100    0.537    0.382
   36.750   54.190   20.363    0.532    0.391
   37.000   55.512   24.423    0.540    0.398
   37.250   74.743   38.176    0.542    0.398
   37.500   31.386  100.234    0.537    0.394
   37.750   13.031  139.480    0.536    0.388
   38.000   30.475  200.465    0.538    0.388
   38.250   55.701  214.039    0.526    0.391
   38.500   53.449  190.940    0.524    0.398
   38.750   48.237  128.037    0.519    0.407
   39.000   66.277   76.432    0.522    0.407
   39.250   52.706   75.011    0.506    0.407
   39.500   61.791   69.869    0.504    0.409
   39.750   63.765  118.783    0.505    0.395
   40.000   56.729  163.552    0.506    0.398
   40.250   18.119  192.287    0.503    0.405
   40.500   36.159  186.730    0.493    0.400
   40.750   64.941  170.188    0.496    0.396
   41.000   32.884  153.389    0.498    0.396
   41.250   30.073  136.835    0.511    0.405
   41.500   58.240  115.852    0.487    0.400
   41.750   59.581   66.255    0.506    0.346
   42.000   77.025   38.327    0.512    0.364
   42.250   61.667   41.358    0.498    0.403
   42.500   46.905   87.894    0.511    0.380
   42.750   54.222  134.516    0.484    0.384
   43.000   54.967   54.272    0.479    0.376
   43.250   57.500   94.323    0.495    0.386
   43.500   52.288  113.163    0.503    0.383
   43.750   48.267  119.626    0.503    0.385
   44.000   52.587  121.223    0.500    0.375
   44.250   52.736  100.397    0.490    0.379
   44.500   51.099   94.451    0.478    0.364
   44.750   51.267   99.816    0.464    0.367
   45.000   57.969  104.408    0.468    0.363
   45.250   62.885   98.254    0.460    0.358
   45.500   72.584   86.703    0.474    0.358
   45.750   70.351   65.329    0.496    0.359
   46.000   71.692   61.461    0.493    0.358
   46.250   76.607   53.681    0.485    0.364
   46.500   63.632   69.370    0.483    0.356
   46.750   56.633   59.970    0.456    0.358
   47.000   38.297   52.379    0.450    0.361
   47.250   56.932   39.886    0.469    0.361
   47.500   58.869   34.108    0.473    0.351
   47.750   53.061   39.238    0.456    0.364
   48.000   57.399   46.581    0.466    0.367
   48.250   64.698   43.835    0.458    0.367
   48.500   67.844   34.083    0.469    0.357
   48.750   80.504   34.528    0.480    0.357
   49.000   62.782   45.587    0.489    0.355
   49.250   59.934   42.874    0.479    0.346
   49.500   52.358   22.301    0.457    0.360
   49.750   51.893   38.758    0.463    0.366
   50.000   49.660   36.079    0.453    0.373
   50.250   52.192   29.899    0.465    0.370
   50.500   64.870   29.970    0.477    0.368
   50.750   54.278   27.597    0.457    0.374
   51.000   57.406   25.152    0.484    0.361
   51.250   46.833   24.947    0.488    0.364
   51.500   64.891   21.346    0.465    0.375
   51.750   56.087   19.871    0.477    0.368
   52.000   66.382   21.913    0.486    0.363
   52.250   60.556   24.144    0.486    0.371
   52.500   61.301   44.709    0.475    0.369
   52.750   59.663   45.292    0.442    0.365
   53.000   49.090   46.370    0.464    0.357
   53.250   41.476   58.670    0.465    0.353
   53.500   44.604   45.138    0.457    0.356
   53.750   44.158   34.362    0.436    0.360
   54.000   49.092   33.018    0.450    0.355
   54.250   51.624   22.389    0.454    0.358
   54.500   47.008   23.159    0.444    0.355
   54.750   36.416   24.217    0.434    0.345
   55.000   53.860   26.147    0.436    0.351
   55.250   51.031   26.762    0.436    0.354
   55.500   47.011   21.720    0.436    0.348
   55.750   66.838   19.376    0.455    0.339
   56.000   80.707   19.016    0.457    0.340
   56.250   68.924   19.061    0.477    0.339
   56.500   51.202   17.938    0.454    0.340
   56.750   48.987   19.356    0.459    0.339
   57.000   41.355   20.240    0.477    0.329
   57.250   51.073   19.047    0.439    0.324
   57.500   51.800   20.772    0.453    0.347
   57.750   59.098   19.749    0.446    0.348
   58.000   43.163   10.833    0.445    0.329
   58.250   57.628    9.462    0.423    0.294
   58.500   72.075    8.009    0.439    0.281
   58.750   90.115    8.030    0.485    0.297
   59.000  129.024    6.515    0.528    0.323
   59.250  126.195    7.181    0.555    0.342
   59.500  107.262    7.200    0.559    0.357
   59.750  119.345    7.068    0.555    0.358
   60.000  113.537    7.081    0.556    0.341
   60.250  123.814    7.098    0.549    0.315
   60.500  123.386    7.115    0.541    0.300
   60.750  109.816    6.983    0.535    0.286
   61.000  133.217    6.932    0.530    0.279
   61.250  122.048    6.949    0.524    0.280
   61.500  122.197    6.965    0.542    0.280
   61.750  148.577    7.052    0.531    0.286
   62.000  121.901    7.069    0.511    0.279
   62.250  125.625    7.163    0.506    0.272
   62.500  129.944    7.570    0.507    0.267
   62.750  118.775    7.506    0.505    0.267
   63.000   93.290    7.214    0.507    0.266
   63.250  116.095    7.156    0.511    0.279
   63.500  116.841    6.874    0.527    0.301
   63.750  133.689    6.401    0.543    0.298
   64.000  143.389    6.553    0.540    0.294
   64.250  146.535    6.927    0.531    0.274
   64.500  104.333    7.092    0.518    0.259
   64.750  115.801    7.261    0.496    0.280
   65.000  128.479    6.977    0.504    0.322
   65.250  116.714    6.292    0.534    0.338
   65.500  106.718    6.508    0.543    0.338
   65.750  126.545    7.256    0.554    0.328
   66.000  132.075    7.585    0.550    0.308
   66.250  109.568    7.603    0.538    0.303
   66.500   99.590    7.227    0.535    0.290
   66.750  103.314    6.799    0.531    0.282
   67.000  112.400    7.266    0.523    0.270
   67.250  108.379    7.842    0.511    0.279
   67.500   91.234    8.373    0.475    0.319
   67.750   41.901   11.169    0.442    0.334
   68.000   37.862   10.073    0.466    0.341
   68.250   58.880    9.377    0.457    0.325
   68.500   66.197    9.205    0.457    0.293
   68.750   87.811    8.123    0.475    0.277
   69.000  108.234    6.455    0.496    0.271
   69.250  106.597    6.894    0.515    0.274
   69.500  129.998    7.209    0.522    0.265
   69.750  121.807    7.226    0.508    0.255
   70.000  122.552    6.943    0.502    0.264
   70.250  133.444    6.534    0.491    0.258
   70.500  150.292    6.277    0.506    0.244
   70.750  124.807    6.227    0.522    0.267
   71.000  147.612    5.917    0.528    0.299
   71.250  135.233    5.508    0.547    0.295
   71.500  143.146    5.580    0.538    0.283
   71.750  118.833    5.840    0.535    0.268
   72.000  149.402    5.493    0.538    0.279
   72.250  153.126    5.867    0.546    0.302
   72.500  134.194    6.068    0.544    0.328
   72.750  118.854    6.552    0.540    0.438
   73.000  116.640    6.998    0.554    0.389
   73.250  137.062    6.179    0.555    0.332
