~VERSION INFORMATION
 VERS.                 2.0:   CWLS LOG ASCII STANDARD -VERSION 2.0
 WRAP.                  NO:   ONE LINE PER DEPTH STEP
~WELL INFORMATION BLOCK
#MNEM.UNIT           DATA                    DESCRIPTION OF MNEMONIC
#---------    -------------------            -------------------------------
# Generated from Intellog Unique Number	CN_94_101/WELL/4981
WELL.         06-16-100-14W4                 : Well_name    - WELL
LOC .         AA/06-16-100-14W4/0            : Location     - LOCATION
UWI .         AA/06-16-100-14W400            : Uwi          - UNIQUE WELL ID
ENTR.         TIM                            : Entered      - ENTERED BY
SRVC.         SCHLUMBERGER                   : Scn          - SERVICE COMPANY
DATE.         08/11/92                       : Date         - LOG DATE
STRT.M        274.32                         : top_depth    - START DEPTH
STOP.M        481.57                         : bot_depth    - STOP DEPTH
STEP.M        0.25                           : increment    - STEP LENGTH
 NULL. -999.2500:NULL Value
~CURVE INFORMATION BLOCK
#MNEM UNIT       ERCB CURVE CODE    CURVE DESCRIPTION
#-----------   ------------------   ----------------------------------
DEPT.M        00 001 00 00         : DEPTH        - DEPTH
GR  .API      00 310 00 00         : GR           - GAMMA RAY
ILD .OHMM     00 120 00 00         : RESD         - DEEP RESISTIVITY (DIL)
NPHI.V/V      00 330 00 00         : PHIN         - NEUTRON POROSITY (SANDSTONE)
~PARAMETER INFORMATION
#MNEM.UNIT           DATA             DESCRIPTION OF MNEMONIC
#---------         -----------     ------------------------------
GL  .M        716.28               : gl           - GROUND LEVEL ELEVATION
EREF.M        719.633              : kb           - ELEVATION OF DEPTH REFERENCE
DATM.M        719.633              : datum        - DATUM ELEVATION
TDD .M        484.937              : tdd          - TOTAL DEPTH DRILLER
RUN .         ONE                  : Run          - RUN NUMBER
ENG .         JO                   : Engineer     - RECORDING ENGINEER
WIT .         TIM                  : Witness      - WITNESSED BY
MUD .         GEL                  : Mud_type     - MUD TYPE
MATR.         SANDSTONE            : Logunit      - NEUTRON MATRIX
TMAX.C        20                   : BHT          - MAXIMUM RECORDED TEMPERATURE
BHTD.M        484.937              : BHTDEP       - MAXIMUM RECORDED TEMPERATURE
RMT .C        10                   : MDTP         - TEMPERATURE OF MUD
MUDD.KG/M     9300                 : MWT          - MUD DENSITY
NEUT.         1                    : NEUTRON      - NEUTRON TYPE
RESI.         0                    : RESIST       - RESISTIVITY TYPE
RM  .OHMM     13.8                 : RM           - RESISTIVITY OF MUD
RMC .OHMM     13.8                 : RMC          - RESISTIVITY OF MUD CAKE
RMF .OHMM     13.8                 : RMF          - RESISTIVITY OF MUD FILTRATE
SUFT.C        4                    : SUFT         - SURFACE TEMPERATURE
~A  DEPTH       GR     RESD     PHIN
# ...
  328.570   82.232    2.264    0.612
  328.820   81.856    2.311    0.601
  329.070   81.895    2.407    0.595
  329.320   81.518    2.458    0.586
  329.570   81.557    2.510    0.581
  329.820   81.588    2.513    0.569
  330.070   81.227    2.568    0.564
  330.320   81.251    2.520    0.564
  330.570   80.898    2.474    0.566
  330.820   80.921    2.430    0.568
  331.070   80.952    2.386    0.571
  331.320   80.976    2.343    0.572
  331.570   81.022    2.347    0.576
  331.820   81.446    2.350    0.588
  332.070   81.900    2.308    0.592
  332.320   82.323    2.266    0.590
  332.570   82.739    2.225    0.581
  332.820   83.978    2.227    0.573
  333.070   84.809    2.230    0.559
  333.320   85.640    2.277    0.554
  333.570   86.879    2.282    0.553
  333.820   87.702    2.285    0.558
  334.070   88.933    2.287    0.571
  334.320   90.572    2.290    0.582
  334.570   91.410    2.294    0.581
  334.820   91.834    2.297    0.581
  335.070   91.465    2.299    0.581
  335.320   91.096    2.302    0.579
  335.570   90.328    2.306    0.578
  335.820   89.159    2.309    0.579
  336.070   87.606    2.268    0.585
  336.320   86.837    2.271    0.594
  336.570   86.069    2.230    0.603
  336.820   86.108    2.232    0.613
  337.070   86.131    2.192    0.620
  337.320   86.162    2.152    0.621
  337.570   86.593    2.115    0.621
  337.820   87.017    2.117    0.620
  338.070   87.856    2.080    0.619
  338.320   87.894    2.081    0.615
  338.570   87.926    2.044    0.614
  338.820   87.173    2.007    0.611
  339.070   86.796    2.010    0.606
  339.320   86.420    2.014    0.602
  339.570   85.643    2.015    0.597
  339.820   84.890    2.018    0.595
  340.070   84.529    2.021    0.588
  340.320   84.145    2.024    0.580
  340.570   84.176    2.026    0.574
  340.820   84.607    2.069    0.563
  341.070   86.238    2.155    0.558
  341.320   86.677    2.157    0.553
  341.570   83.916    2.203    0.548
  341.820   84.355    2.294    0.544
  342.070   84.771    2.297    0.553
  342.320   85.602    2.345    0.566
  342.570   87.248    2.349    0.589
  342.820   88.072    2.352    0.578
  343.070   88.518    2.356    0.566
  343.320   88.542    2.360    0.570
  343.570   88.565    2.409    0.579
  343.820   87.412    2.411    0.589
  344.070   87.035    2.415    0.613
  344.320   86.659    2.371    0.622
  344.570   86.298    2.374    0.626
  344.820   85.921    2.286    0.629
  345.070   85.568    2.245    0.630
  345.320   85.592    2.162    0.631
  345.570   85.231    2.082    0.632
  345.820   84.862    2.005    0.633
  346.070   84.486    1.931    0.636
  346.320   83.725    1.897    0.637
  346.570   82.572    1.861    0.640
  346.820   82.180    1.793    0.643
  347.070   81.027    1.726    0.643
  347.320   80.658    1.662    0.643
  347.570   80.281    1.633    0.640
  347.820   80.320    1.572    0.638
  348.070   80.359    1.514    0.634
  348.320   79.983    1.458    0.631
  348.570   79.606    1.432    0.628
  348.820   78.845    1.433    0.624
  349.070   77.677    1.435    0.619
  349.320   76.508    1.524    0.613
  349.570   76.139    1.619    0.607
  349.820   76.178    1.787    0.601
  350.070   76.202    1.897    0.577
  350.320   76.249    2.266    0.545
  350.570   76.264    2.502    0.505
  350.820   75.096    2.708    0.478
  351.070   73.127    2.990    0.451
  351.320   73.566    3.238    0.443
  351.570   74.405    3.440    0.449
  351.820   74.828    3.581    0.457
  352.070   75.259    3.658    0.480
  352.320   76.090    3.735    0.491
  352.570   76.929    3.738    0.514
  352.820   77.376    3.743    0.528
  353.070   77.391    3.748    0.540
  353.320   77.823    3.541    0.556
  353.570   78.661    3.216    0.565
  353.820   79.085    2.977    0.570
  354.070   79.124    2.811    0.572
  354.320   79.963    2.603    0.571
  354.570   80.386    2.556    0.566
  354.820   80.825    2.560    0.554
  355.070   80.856    2.719    0.543
  355.320   80.079    2.831    0.529
  355.570   78.119    2.780    0.509
  355.820   76.150    2.730    0.485
  356.070   74.174    2.787    0.460
  356.320   70.606    2.959    0.424
  356.570   67.038    3.466    0.398
  356.820   63.470    3.751    0.370
  357.070   60.301    4.225    0.346
  357.320   59.933    4.666    0.328
  357.570   66.371    4.857    0.309
  357.820   68.817    5.061    0.290
  358.070   69.240    5.066    0.247
  358.320   69.664    4.881    0.371
  358.570   71.302    4.699    0.421
  358.820   73.741    4.351    0.454
  359.070   75.364    3.873    0.510
  359.320   78.195    3.382    0.605
  359.570   81.841    2.897    0.610
  359.820   83.064    2.529    0.599
  360.070   83.111    2.124    0.589
  360.320   83.134    1.856    0.578
  360.570   82.757    1.752    0.570
  360.820   82.404    1.789    0.563
  361.070   82.436    1.975    0.556
  361.320   82.067    2.138    0.547
  361.570   81.698    2.316    0.538
  361.820   81.729    2.459    0.532
  362.070   81.361    2.562    0.524
  362.320   80.600    2.565    0.515
  362.570   80.623    2.519    0.516
  362.820   80.246    2.424    0.589
  363.070   79.901    2.245    0.595
  363.320   79.517    2.080    0.594
  363.570   79.164    2.002    0.593
  363.820   78.787    1.929    0.590
  364.070   78.426    1.894    0.596
  364.320   78.042    1.860    0.612
  364.570   77.681    1.861    0.614
  364.820   77.312    1.828    0.613
  365.070   76.543    1.866    0.609
  365.320   76.575    1.869    0.606
  365.570   75.829    1.947    0.595
  365.820   75.845    1.988    0.587
  366.070   75.868    2.070    0.566
  366.320   75.900    2.155    0.554
  366.570   76.331    2.244    0.519
  366.820   77.169    2.384    0.502
  367.070   77.601    2.532    0.492
  367.320   77.632    2.534    0.488
  367.570   77.279    2.638    0.493
  367.820   76.902    2.694    0.520
  368.070   76.925    2.646    0.556
  368.320   76.572    2.549    0.582
  368.570   76.196    2.453    0.588
  368.820   75.827    2.317    0.590
  369.070   75.066    2.188    0.585
  369.320   75.090    2.190    0.558
  369.570   74.329    2.151    0.545
  369.820   74.352    2.285    0.534
  370.070   73.991    2.333    0.520
  370.320   73.615    2.381    0.504
  370.570   72.862    2.434    0.503
  370.820   72.093    2.436    0.506
  371.070   71.724    2.438    0.515
  371.320   70.956    2.442    0.594
  371.570   69.787    2.351    0.617
  371.820   70.610    2.309    0.623
  372.070   73.441    2.224    0.627
  372.320   74.680    2.226    0.627
  372.570   74.319    2.143    0.627
  372.820   73.158    2.105    0.622
  373.070   72.374    2.068    0.612
  373.320   72.405    2.071    0.602
  373.570   72.836    2.073    0.585
  373.820   74.467    2.159    0.575
  374.070   76.505    2.204    0.562
  374.320   78.136    2.251    0.549
  374.570   79.367    2.254    0.544
  374.820   80.606    2.214    0.549
  375.070   81.429    2.173    0.551
  375.320   82.284    2.135    0.550
  375.570   82.699    2.137    0.546
  375.820   83.130    2.098    0.545
  376.070   83.969    2.022    0.543
  376.320   84.800    1.984    0.544
  376.570   85.231    1.912    0.550
  376.820   85.678    1.913    0.564
  377.070   85.701    1.879    0.589
  377.320   85.725    1.845    0.593
  377.570   85.372    1.847    0.598
  377.820   84.987    1.815    0.619
  378.070   85.026    1.817    0.613
  378.320   85.050    1.856    0.609
  378.570   85.097    1.896    0.602
  378.820   85.120    1.897    0.597
  379.070   85.151    1.976    0.597
  379.320   84.798    1.978    0.600
  379.570   84.821    2.059    0.603
  379.820   84.853    2.103    0.602
  380.070   86.084    2.190    0.600
  380.320   89.314    2.326    0.595
  380.570   92.145    2.470    0.585
  380.820   94.583    2.623    0.567
  381.070   93.407    2.784    0.556
  381.320   91.039    3.015    0.547
  381.570   87.870    3.329    0.540
  381.820   84.310    3.605    0.536
  382.070   81.542    4.059    0.535
  382.320   81.573    4.309    0.533
  382.570   81.212    4.403    0.533
