~VERSION INFORMATION
 VERS.                 2.0:   CWLS LOG ASCII STANDARD -VERSION 2.0
 WRAP.                  NO:   ONE LINE PER DEPTH STEP
~WELL INFORMATION BLOCK
#MNEM.UNIT           DATA                    DESCRIPTION OF MNEMONIC
#---------    -------------------            -------------------------------
# Generated from Intellog Unique Number	CC_84_87/WELL/1181
NULL.         -999.25                        : NULL_VALUE
WELL.         SUN CHEECHAM-19                : Well_name    - WELL              
LOC .         09-29-084-07W4                 : Location     - LOCATION          
UWI .         AA/09-29-084-07W4/0            : Uwi          - UNIQUE WELL ID    
ENTR.         JHS                            : Entered      - ENTERED BY        
SRVC.         SCHLUMBERGER                   : Scn          - SERVICE COMPANY   
DATE.         20 JAN 80                      : Date         - LOG DATE
STRT.M        140                            : top_depth    - START DEPTH       
STOP.M        430.094                        : bot_depth    - STOP DEPTH        
STEP.M        0.3                            : increment    - STEP LENGTH       
~CURVE INFORMATION BLOCK
#MNEM UNIT       ERCB CURVE CODE    CURVE DESCRIPTION
#-----------   ------------------   ----------------------------------
DEPT.M        00 001 00 00         : DEPTH        - DEPTH                       
ILD .OHMM     00 120 00 00         : RESD         - DEEP RESISTIVITY (DIL)      
GR  .API      00 310 00 00         : GR           - GAMMA RAY                   
NPHI.V/V      00 330 00 00         : PHIN         - NEUTRON POROSITY (LIMESTONE)
DPHI.V/V      00 890 00 00         : PHID         - DENSITY POROSITY (LIMESTONE)
~PARAMETER INFORMATION       
#MNEM.UNIT           DATA             DESCRIPTION OF MNEMONIC
#---------         -----------     ------------------------------
GL  .M        597.9                : gl           - GROUND LEVEL ELEVATION      
EREF.M        600.85               : kb           - ELEVATION OF DEPTH REFERENCE
DATM.M        600.85               : datum        - DATUM ELEVATION             
TDD .M        434                  : tdd          - TOTAL DEPTH DRILLER         
RUN .         ONE                  : Run          - RUN NUMBER                  
ENG .         BILL                 : Engineer     - RECORDING ENGINEER          
WIT .         JIM                  : Witness      - WITNESSED BY                
MUD .         GEL                  : Mud_type     - MUD TYPE                    
MATR.         LIMESTONE            : Logunit      - NEUTRON MATRIX              
TMAX.C        20                   : BHT          - MAXIMUM RECORDED TEMPERATURE
BHTD.M        434                  : BHTDEP       - MAXIMUM RECORDED TEMPERATURE
MATR.         1                    : LOGUNIT      - NEUTRON MATRIX              
RMT .C        25                   : MDTP         - TEMPERATURE OF MUD          
NEUT.         1                    : NEUTRON      - NEUTRON TYPE                
RESI.         0                    : RESIST       - RESISTIVITY TYPE            
RMC .OHMM     0.25                 : RMC          - RESISTIVITY OF MUD CAKE     
RMF .OHMM     0.25                 : RMF          - RESISTIVITY OF MUD FILTRATE 
SUFT.C        15                   : SUFT         - SURFACE TEMPERATURE         
~A  DEPTH     RESD       GR     PHIN     PHID
  140.000    2.874  124.914    0.518    0.279
  140.300    2.874  128.525    0.512    0.266
  140.600    2.822  130.348    0.524    0.269
  140.900    2.875  131.575    0.548    0.276
  141.200    2.930  133.995    0.560    0.273
  141.500    2.930  131.627    0.559    0.289
  141.800    2.986  127.471    0.525    0.297
  142.100    2.931  128.104    0.535    0.296
  142.400    2.932  132.309    0.549    0.300
  142.700    2.932  131.142    0.540    0.296
  143.000    2.933  126.391    0.519    0.313
  143.300    2.880  119.844    0.507    0.301
  143.600    2.880  116.286    0.522    0.317
  143.900    2.828  115.715    0.529    0.329
  144.200    2.776  116.941    0.539    0.315
  144.500    2.726  124.140    0.562    0.303
  144.800    2.627  124.166    0.567    0.314
  145.100    2.579  117.628    0.567    0.305
  145.400    2.532  113.469    0.579    0.306
  145.700    2.441  108.116    0.577    0.316
  146.000    2.352  100.972    0.534    0.319
  146.300    2.441   89.645    0.511    0.312
  146.600    2.994   75.326    0.478    0.292
  146.900    4.418   54.438    0.360    0.255
  147.200    7.151   44.304    0.337    0.247
  147.500    8.143   41.344    0.343    0.223
  147.800    6.643   52.131    0.358    0.219
  148.100    5.521   74.271    0.437    0.277
  148.400    4.941   77.889    0.498    0.254
  148.700    4.762   58.792    0.423    0.212
  149.000    4.943   55.233    0.395    0.232
  149.300    5.130   81.558    0.430    0.253
  149.600    4.854  111.468    0.460    0.278
  149.900    4.344  119.863    0.478    0.285
  150.200    3.817  125.270    0.470    0.273
  150.500    3.480  127.689    0.486    0.261
  150.800    3.354  127.122    0.509    0.276
  151.100    3.417  124.756    0.481    0.268
  151.400    3.418  120.602    0.480    0.267
  151.700    3.547  119.439    0.498    0.251
  152.000    3.548  124.250    0.522    0.270
  152.300    3.419  122.482    0.536    0.245
  152.600    3.420  122.514    0.531    0.256
  152.900    3.550  126.125    0.516    0.260
  153.200    3.823  130.931    0.492    0.261
  153.500    3.968  127.373    0.499    0.254
  153.800    3.754  119.635    0.506    0.246
  154.100    3.619  119.663    0.512    0.252
  154.400    3.553  119.095    0.494    0.244
  154.700    3.620  117.325    0.464    0.244
  155.000    3.827  120.346    0.468    0.253
  155.300    4.047  120.373    0.480    0.238
  155.600    4.200  118.608    0.483    0.255
  155.900    4.123  121.626    0.466    0.281
  156.200    4.049  124.039    0.461    0.260
  156.500    4.202  120.481    0.472    0.249
  156.800    4.361  122.900    0.470    0.238
  157.100    4.875  121.143    0.455    0.209
  157.400    5.551  121.761    0.452    0.196
  157.700    7.063  127.171    0.469    0.221
  158.000    7.749  126.600    0.471    0.227
  158.300    7.609  119.457    0.462    0.256
  158.600    7.470  105.139    0.463    0.275
  158.900    8.046   88.435    0.468    0.300
  159.200    9.333   82.489    0.411    0.295
  159.500   11.027   86.098    0.392    0.265
  159.800   12.556   93.902    0.410    0.296
  160.100   13.524   98.114    0.418    0.282
  160.400   13.034   96.343    0.395    0.287
  160.700   12.105   96.973    0.387    0.301
  161.000   11.667   98.192    0.416    0.285
  161.300   12.337   97.627    0.436    0.293
  161.600   13.287   92.273    0.427    0.323
  161.900   14.851   89.311    0.405    0.321
  162.200   16.295   95.918    0.383    0.306
  162.500   16.602  100.724    0.373    0.282
  162.800   16.301   94.776    0.379    0.275
  163.100   16.005   86.436    0.390    0.285
  163.400   16.306   74.514    0.385    0.287
  163.700   17.241   67.965    0.374    0.301
  164.000   17.895   69.791    0.369    0.319
  164.300   18.574   68.620    0.387    0.314
  164.600   19.278   65.661    0.415    0.305
  164.900   19.641   70.468    0.398    0.305
  165.200   19.644   72.290    0.387    0.298
  165.500   19.648   69.929    0.414    0.317
  165.800   19.651   73.541    0.388    0.321
  166.100   19.655   75.367    0.383    0.319
  166.400   19.658   73.597    0.400    0.339
  166.700   19.661   61.671    0.408    0.346
  167.000   20.032   65.293    0.404    0.330
  167.300   20.410   66.513    0.396    0.317
  167.600   20.414   58.172    0.384    0.336
  167.900   20.799   57.602    0.375    0.329
  168.200   20.802   71.374    0.381    0.324
  168.500   20.424   77.381    0.396    0.318
  168.800   19.324   78.008    0.411    0.307
  169.100   17.947   81.620    0.421    0.292
  169.400   16.363   86.433    0.413    0.301
  169.700   15.481   83.474    0.415    0.306
  170.000   14.921   77.526    0.416    0.325
  170.300   14.923   76.353    0.410    0.321
  170.600   15.205   72.197    0.403    0.313
  170.900   15.492   62.663    0.405    0.307
  171.200   16.079   59.703    0.385    0.310
  171.500   17.001   71.683    0.399    0.306
  171.800   17.004   80.678    0.397    0.299
  172.100   16.694   86.083    0.388    0.279
  172.400   15.220   95.079    0.399    0.241
  172.700   13.876  113.634    0.404    0.264
  173.000   12.419  130.993    0.395    0.254
  173.300   10.711  139.989    0.407    0.263
  173.600    9.948  138.225    0.431    0.270
  173.900    9.412  130.482    0.452    0.286
  174.200    9.413  115.567    0.447    0.317
  174.500    9.770   92.883    0.447    0.344
  174.800   10.921   89.927    0.399    0.320
  175.100   12.903   91.151    0.407    0.293
  175.400   14.692   95.962    0.407    0.296
  175.700   14.695  103.754    0.396    0.282
  176.000   13.903  108.566    0.382    0.268
  176.300   12.443  109.191    0.396    0.274
  176.600   11.556  106.231    0.408    0.300
  176.900   11.559   99.084    0.386    0.285
  177.200   11.777  102.698    0.403    0.268
  177.500   11.563   98.544    0.431    0.286
  177.800   11.780   86.021    0.445    0.311
  178.100   12.456   83.064    0.450    0.325
  178.400   13.922   87.279    0.415    0.338
  178.700   14.995   96.863    0.399    0.344
  179.000   15.564  105.258    0.440    0.329
  179.300   15.858   97.521    0.435    0.323
  179.600   15.861  100.533    0.423    0.323
  179.900   15.572  111.321    0.435    0.330
  180.200   15.576  115.532    0.440    0.352
  180.500   15.292   98.827    0.458    0.336
  180.800   15.014   88.096    0.463    0.318
  181.100   15.016   82.746    0.449    0.337
  181.400   15.018   83.375    0.438    0.342
  181.700   14.746   91.168    0.435    0.331
  182.000   14.478  103.751    0.437    0.314
  182.300   13.697  108.557    0.419    0.301
  182.600   12.488  121.134    0.412    0.301
  182.900   11.386  130.727    0.430    0.277
  183.200   10.381  134.939    0.447    0.265
  183.500    9.464  129.586    0.457    0.286
  183.800    8.954  122.445    0.467    0.269
  184.100    9.123  109.920    0.439    0.304
  184.400    9.469   91.420    0.414    0.313
  184.700   10.012   96.238    0.404    0.302
  185.000   10.014  105.225    0.412    0.268
  185.300    9.651  117.803    0.433    0.226
  185.600    8.638  126.795    0.463    0.170
  185.900    7.731  129.815    0.474    0.180
  186.200    6.919  125.059    0.463    0.180
  186.500    6.668  116.723    0.453    0.210
  186.800    6.670  104.793    0.442    0.231
  187.100    7.594   90.479    0.431    0.265
  187.400    8.488   55.244    0.398    0.331
  187.700   10.408   39.734    0.372    0.330
  188.000   13.000   38.566    0.360    0.346
  188.300   14.264   43.376    0.362    0.335
  188.600   14.266   56.556    0.372    0.343
  188.900   12.768   69.729    0.389    0.323
  189.201   11.858   82.311    0.402    0.306
  189.501   11.014  102.059    0.414    0.309
  189.801   10.229  109.858    0.420    0.289
  190.101    9.859  116.464    0.422    0.279
  190.401    9.680  120.072    0.428    0.299
  190.701    9.682  121.304    0.436    0.290
  191.001    9.684  115.947    0.423    0.268
  191.301    9.684  111.195    0.421    0.278
  191.601    9.686  110.025    0.409    0.293
  191.901    9.688  114.838    0.416    0.287
