~VERSION INFORMATION
 VERS.                 2.0:   CWLS LOG ASCII STANDARD -VERSION 2.0
 WRAP.                  NO:   ONE LINE PER DEPTH STEP
~WELL INFORMATION BLOCK
#MNEM.UNIT           DATA                    DESCRIPTION OF MNEMONIC
#---------    -------------------            -------------------------------
# Generated from Intellog Unique Number	CN_91_93/WELL/3557
WELL.         01-28-093-11W4                 : Well_name    - WELL
LOC .         AA/01-28-093-11W4/0            : Location     - LOCATION
UWI .         AA/01-28-093-11W400            : Uwi          - UNIQUE WELL ID
ENTR.         JOETTE                         : Entered      - ENTERED BY
SRVC.         SCHLUMBERGER                   : Scn          - SERVICE COMPANY
DATE.         03/16/92                       : Date         - LOG DATE
STRT.F        10                             : top_depth    - START DEPTH
STOP.F        370.072                        : bot_depth    - STOP DEPTH
STEP.F        0.8202                         : increment    - STEP LENGTH
 NULL. -999.2500:NULL Value
~CURVE INFORMATION BLOCK
#MNEM UNIT       ERCB CURVE CODE    CURVE DESCRIPTION
#-----------   ------------------   ----------------------------------
DEPT.F        00 001 00 00         : DEPTH        - DEPTH
GR  .API      00 310 00 00         : GR           - GAMMA RAY
CALI.MM       00 280 01 00         : CAL          - CALIPER
NPHI.V/V      00 330 00 00         : PHIN         - NEUTRON POROSITY (SANDSTONE)
DPHI.V/V      00 890 00 00         : PHID         - DENSITY POROSITY (SANDSTONE)
ILD .OHMM     00 120 00 00         : RESD         - DEEP RESISTIVITY (DIL)
~PARAMETER INFORMATION
#MNEM.UNIT           DATA             DESCRIPTION OF MNEMONIC
#---------         -----------     ------------------------------
GL  .M        328.5                : gl           - GROUND LEVEL ELEVATION
EREF.M        328.5                : kb           - ELEVATION OF DEPTH REFERENCE
DATM.M        328.5                : datum        - DATUM ELEVATION
TDD .M        118.9                : tdd          - TOTAL DEPTH DRILLER
RUN .         ONE                  : Run          - RUN NUMBER
ENG .         JO                   : Engineer     - RECORDING ENGINEER
WIT .         TIM                  : Witness      - WITNESSED BY
MUD .         GEL                  : Mud_type     - MUD TYPE
MATR.         SANDSTONE            : Logunit      - NEUTRON MATRIX
TMAX.C        18                   : BHT          - MAXIMUM RECORDED TEMPERATURE
BHTD.M        118.9                : BHTDEP       - MAXIMUM RECORDED TEMPERATURE
RMT .C        16                   : MDTP         - TEMPERATURE OF MUD
MUDD.KG/M     1010                 : MWT          - MUD DENSITY
NEUT.         1                    : NEUTRON      - NEUTRON TYPE
RESI.         0                    : RESIST       - RESISTIVITY TYPE
RM  .OHMM     6.5                  : RM           - RESISTIVITY OF MUD
RMC .OHMM     6.5                  : RMC          - RESISTIVITY OF MUD CAKE
RMF .OHMM     6.5                  : RMF          - RESISTIVITY OF MUD FILTRATE
SUFT.C        4                    : SUFT         - SURFACE TEMPERATURE
~A  DEPTH       GR      CAL     PHIN     PHID     RESD
   10.000   61.646  141.932    0.382    0.268    6.860
   10.820   60.360  141.908    0.438    0.275    6.366
   11.640   57.793  140.808    0.489    0.283    6.021
   12.461   56.508  139.725    0.491    0.278    5.588
   13.281   60.932  139.676    0.446    0.274    5.384
   14.101   65.993  138.600    0.444    0.278    4.997
   14.921   67.880  138.560    0.489    0.283    4.815
   15.742   64.052  138.527    0.451    0.291    4.721
   16.562   62.761  139.554    0.408    0.292    4.893
   17.382   66.555  140.573    0.390    0.279    5.359
   18.202   70.985  141.592    0.471    0.290    6.921
   19.022   70.965  142.627    0.498    0.296    9.273
   19.843   69.665  143.646    0.492    0.297   11.130
   20.663   72.193  143.621    0.479    0.288   50.957
   21.483   78.524  143.573    0.503    0.266   69.534
   22.303   82.318  143.573    0.517    0.269   73.385
   23.123   80.392  142.457    0.506    0.279   73.335
   23.944   77.830  145.602    0.500    0.287   73.270
   24.764   78.446  145.570    0.497    0.279   81.682
   25.584   80.969  145.537    0.507    0.270   89.465
   26.404   84.127  145.497    0.530    0.269   84.600
   27.224   89.192  145.472    0.528    0.276   70.363
   28.045   92.982  145.440    0.528    0.268   57.458
   28.865   92.967  145.399    0.527    0.268   40.499
   29.685   96.761  145.375    0.533    0.265   38.306
   30.505  107.546  145.318    0.543    0.245   33.661
   31.326  115.789  145.302    0.552    0.240   29.566
   32.146  125.929  146.313    0.486    0.302   29.009
   32.966  121.466  146.296    0.456    0.308   32.946
   33.786  112.548  146.256    0.453    0.288   36.085
   34.606  106.809  148.342    0.468    0.277   34.115
   35.426  102.971  154.673    0.448    0.255   31.674
   36.247   92.782  157.811    0.365    0.207   36.654
   37.067   83.229  157.778    0.331    0.171   37.291
   37.887   90.837  157.746    0.369    0.263   30.451
   38.707  104.800  156.646    0.405    0.316   24.866
   39.528  108.594  155.546    0.439    0.313   21.841
   40.348  107.939  154.454    0.453    0.301   24.811
   41.168  107.909  153.371    0.454    0.288   23.462
   41.988  107.890  152.271    0.445    0.268   20.617
   42.808  110.413  151.187    0.439    0.232   21.373
   43.629  112.940  150.088    0.417    0.212   27.102
   44.449  116.734  150.063    0.433    0.222   17.116
   45.269  122.435  150.023    0.468    0.275   11.851
   46.089  130.673  149.990    0.494    0.312   10.225
   46.910  132.565  151.017    0.508    0.316    8.659
   47.730  132.536  153.103    0.520    0.308    8.494
   48.550  135.059  155.181    0.544    0.298    8.644
   49.370  133.768  156.200    0.546    0.302    8.172
   50.190  131.212  158.286    0.512    0.303    7.869
   51.011  127.379  159.321    0.498    0.304    8.159
   51.831  120.994  161.391    0.502    0.298    9.790
   52.651  119.072  163.493    0.489    0.280   10.919
   53.471  123.502  165.580    0.493    0.289   10.709
   54.291  122.842  167.658    0.510    0.280   10.126
   55.111  124.099  169.744    0.531    0.271   10.498
   55.932  129.799  170.771    0.510    0.279   13.070
   56.752  131.046  170.730    0.498    0.282   11.276
   57.572  132.928  169.630    0.499    0.271   10.858
   58.392  134.816  168.547    0.493    0.250    9.898
   59.213  134.796  167.447    0.476    0.227   11.039
   60.033  128.426  166.371    0.457    0.204   24.710
   60.853  123.953  166.371    0.423    0.149   18.755
   61.673  129.653  165.215    0.431    0.194   12.290
   62.493  137.896  167.325    0.463    0.270    8.507
   63.314  143.592  167.277    0.512    0.299    7.476
   64.134  143.568  167.252    0.530    0.315    7.333
   64.954  144.184  167.212    0.542    0.321    6.685
   65.774  146.712  166.112    0.558    0.321    5.559
   66.594  146.692  166.096    0.574    0.330    5.067
   67.415  146.673  166.063    0.588    0.329    4.880
   68.235  144.106  167.090    0.598    0.324    4.448
   69.055  145.358  168.117    0.592    0.331    4.205
   69.875  142.165  169.144    0.597    0.345    4.865
   70.695  145.324  171.214    0.582    0.305    4.600
   71.516  142.762  171.189    0.539    0.309    5.227
   72.336  138.924  171.157    0.520    0.283    6.628
   73.156  143.354  172.176    0.496    0.288    7.391
   73.976  147.148  172.151    0.501    0.270    7.662
   74.797  142.679  173.178    0.500    0.262    9.716
   75.617  139.482  173.130    0.496    0.279   10.639
   76.437  140.734  174.165    0.484    0.256    8.373
   77.257  146.425  175.191    0.460    0.254    9.511
   78.077  144.503  176.194    0.465    0.247   10.804
   78.898  142.572  176.186    0.463    0.224   10.598
   79.718  145.100  177.213    0.459    0.232   10.982
   80.538  143.809  177.164    0.456    0.219   18.335
   81.358  136.799  176.072    0.447    0.173   24.571
   82.178  127.241  173.921    0.395    0.132   25.003
   82.999  126.586  172.830    0.377    0.193   11.145
   83.819  132.281  171.738    0.425    0.234   11.341
   84.639  136.080  169.595    0.437    0.246   11.331
   85.459  136.696  166.368    0.435    0.234   11.115
   86.279  134.765  164.225    0.440    0.169   32.765
   87.100  130.932  159.932    0.428    0.136   22.268
   87.920  126.464  158.848    0.384    0.107   19.572
   88.740  124.538  158.824    0.353    0.190   13.302
   89.560  128.967  157.724    0.408    0.246   11.476
   90.381  137.841  157.691    0.455    0.236    9.722
   91.201  142.906  157.659    0.460    0.233    8.537
   92.021  142.241  158.694    0.466    0.255    8.226
   92.841  140.956  158.661    0.470    0.267    7.497
   93.661  141.572  160.731    0.478    0.263    6.835
   94.482  146.642  161.766    0.482    0.253    6.228
   95.302  152.978  164.904    0.484    0.246    6.698
   96.122  148.510  165.931    0.470    0.241   10.584
   96.942  147.850  166.949    0.447    0.226   11.377
   97.763  143.376  167.992    0.417    0.225    9.464
   98.583  142.721  169.011    0.436    0.231    7.871
   99.403  143.973  168.979    0.440    0.238    8.777
  100.223  142.682  168.946    0.447    0.240    5.857
  101.043  140.756  168.914    0.468    0.231    6.071
  101.864  142.643  168.873    0.480    0.230    7.021
  102.684  141.988  167.790    0.485    0.240    6.639
  103.504  141.333  167.757    0.490    0.245    6.166
  104.324  145.763  166.649    0.491    0.255    6.752
  105.144  150.193  166.617    0.489    0.261    8.102
  105.965  150.809  166.593    0.484    0.257    7.947
  106.785  149.508  166.560    0.491    0.251    7.380
  107.605  150.760  166.520    0.501    0.249    6.728
  108.425  153.288  166.495    0.507    0.242    6.599
  109.245  152.633  166.455    0.504    0.236    7.360
  110.066  148.159  167.482    0.467    0.220   10.612
  110.886  143.055  168.508    0.451    0.162   13.956
  111.706  137.951  168.476    0.423    0.146   10.787
  112.526  132.847  169.503    0.441    0.208    7.199
  113.346  134.734  169.462    0.501    0.237    4.893
  114.167  145.520  168.362    0.555    0.257    3.782
  114.987  144.865  166.220    0.592    0.280    3.088
  115.807  141.032  165.128    0.577    0.269    4.970
  116.627  144.185  165.095    0.495    0.259    6.302
  117.448  148.610  165.063    0.472    0.247    6.413
  118.268  151.773  163.971    0.458    0.242    6.526
  119.088  155.562  162.871    0.465    0.253    5.327
  119.908  156.183  161.780    0.475    0.258    5.942
  120.728  154.257  160.680    0.470    0.235    7.535
  121.549  152.326  159.588    0.458    0.218   12.127
  122.369  144.044  158.496    0.428    0.220   12.569
  123.189  133.220  157.405    0.422    0.186    4.838
  124.009  124.938  157.364    0.430    0.173    2.840
  124.829  116.647  156.264    0.470    0.223    2.637
  125.650  110.912  156.248    0.531    0.298    2.634
  126.470  108.350  156.199    0.573    0.359    2.992
  127.290  107.690  156.183    0.611    0.382    3.158
  128.110  107.040  155.092    0.623    0.383    3.041
  128.930  110.189  155.051    0.614    0.393    2.983
