~VERSION INFORMATION
 VERS.                 2.0:   CWLS LOG ASCII STANDARD -VERSION 2.0
 WRAP.                  NO:   ONE LINE PER DEPTH STEP
~WELL INFORMATION BLOCK
#MNEM.UNIT           DATA                    DESCRIPTION OF MNEMONIC
#---------    -------------------            -------------------------------
# Generated from Intellog Unique Number	CC_88_90/WELL/1076
WELL.         09-08-090-15W4                 : Well_name    - WELL
LOC .         AA/09-08-090-15W4/0            : Location     - LOCATION
UWI .         AA/09-08-090-15W400            : Uwi          - UNIQUE WELL ID
ENTR.         DW                             : Entered      - ENTERED BY
SRVC.         SCHLUMBERGER                   : Scn          - SERVICE COMPANY
STRT.M        75                             : top_depth    - START DEPTH
STOP.M        194.75                         : bot_depth    - STOP DEPTH
STEP.M        0.25                           : increment    - STEP LENGTH
 NULL. -999.2500:NULL Value
~CURVE INFORMATION BLOCK
#MNEM UNIT       ERCB CURVE CODE    CURVE DESCRIPTION
#-----------   ------------------   ----------------------------------
DEPT.M        00 001 00 00         : DEPTH        - DEPTH
GR  .API      00 310 00 00         : GR           - GAMMA RAY
DPHI.V/V      00 890 00 00         : PHID         - DENSITY POROSITY (SANDSTONE)
NPHI.V/V      00 330 00 00         : PHIN         - NEUTRON POROSITY (SANDSTONE)
ILD .OHMM     00 120 00 00         : RESD         - DEEP RESISTIVITY (DIL)
~PARAMETER INFORMATION
#MNEM.UNIT           DATA             DESCRIPTION OF MNEMONIC
#---------         -----------     ------------------------------
GL  .M        467.77               : gl           - GROUND LEVEL ELEVATION
EREF.M        470.97               : kb           - ELEVATION OF DEPTH REFERENCE
DATM.M        470.97               : datum        - DATUM ELEVATION
TDD .M        205                  : tdd          - TOTAL DEPTH DRILLER
RUN .         ONE                  : Run          - RUN NUMBER
ENG .         BILL                 : Engineer     - RECORDING ENGINEER
WIT .         JIM                  : Witness      - WITNESSED BY
MUD .         GEL                  : Mud_type     - MUD TYPE
MATR.         SANDSTONE            : Logunit      - NEUTRON MATRIX
TMAX.C        25                   : BHT          - MAXIMUM RECORDED TEMPERATURE
BHTD.M        205                  : BHTDEP       - MAXIMUM RECORDED TEMPERATURE
MATR.         1                    : LOGUNIT      - NEUTRON MATRIX
RMT .C        25                   : MDTP         - TEMPERATURE OF MUD
NEUT.         1                    : NEUTRON      - NEUTRON TYPE
RESI.         0                    : RESIST       - RESISTIVITY TYPE
RMC .OHMM     0.25                 : RMC          - RESISTIVITY OF MUD CAKE
RMF .OHMM     0.25                 : RMF          - RESISTIVITY OF MUD FILTRATE
SUFT.C        15                   : SUFT         - SURFACE TEMPERATURE
~A  DEPTH       GR     PHID     PHIN     RESD
   75.000   55.938    0.239    0.339   31.056
   75.250   56.306    0.257    0.366   25.584
   75.500   57.973    0.288    0.362   21.804
   75.750   60.841    0.307    0.354   17.056
   76.000   63.883    0.297    0.361   13.238
   76.250   74.105    0.274    0.404   11.811
   76.500   94.011    0.271    0.469   10.398
   76.750   99.702    0.280    0.477    9.871
   77.000   97.951    0.292    0.501    9.665
   77.250   96.170    0.278    0.498    9.729
   77.500   95.892    0.278    0.469    9.831
   77.750   96.609    0.299    0.466    9.564
   78.000   96.430    0.276    0.480    9.117
   78.250   94.059    0.272    0.483    9.043
   78.500   96.044    0.292    0.512    9.809
   78.750   99.287    0.316    0.534   11.646
   79.000   96.979    0.335    0.563   14.615
   79.250   89.210    0.352    0.602   17.418
   79.500   79.182    0.382    0.613   18.693
   79.750   66.362    0.429    0.630   19.744
   80.000   66.811    0.408    0.531   19.041
   80.250   74.459    0.415    0.473   17.227
   80.500   77.755    0.407    0.481   15.320
   80.750   75.399    0.352    0.471   13.464
   81.000   74.225    0.361    0.475   11.892
   81.250   81.087    0.348    0.467   10.977
   81.500   88.670    0.313    0.464   10.157
   81.750   92.847    0.304    0.461    9.471
   82.000   92.593    0.304    0.507    8.899
   82.250   90.599    0.296    0.579    8.655
   82.500   90.171    0.313    0.588    9.667
   82.750   86.126    0.343    0.602   12.541
   83.000   76.532    0.379    0.570   16.800
   83.250   64.369    0.409    0.513   20.063
   83.500   53.740    0.430    0.473   21.201
   83.750   48.546    0.438    0.459   20.817
   84.000   49.557    0.420    0.472   19.823
   84.250   51.496    0.392    0.498   19.366
   84.500   54.761    0.377    0.526   20.083
   84.750   58.587    0.399    0.526   17.974
   85.000   63.368    0.398    0.509   13.476
   85.250   69.025    0.343    0.519   10.427
   85.500   74.108    0.313    0.562    9.148
   85.750   80.215    0.331    0.589    7.774
   86.000   86.375    0.330    0.561    7.300
   86.250   92.196    0.320    0.527    7.302
   86.500   89.921    0.306    0.521    8.446
   86.750   82.573    0.300    0.541   11.256
   87.000   83.906    0.326    0.570   14.131
   87.250   84.447    0.335    0.557   16.137
   87.500   79.607    0.327    0.521   17.285
   87.750   74.302    0.326    0.503   17.094
   88.000   72.617    0.327    0.504   15.951
   88.250   73.743    0.317    0.513   14.727
   88.500   75.262    0.305    0.518   13.617
   88.750   76.965    0.298    0.490   12.594
   89.000   82.120    0.320    0.468   11.614
   89.250   84.185    0.330    0.514   10.921
   89.500   79.470    0.340    0.565   11.033
   89.750   71.952    0.359    0.542   11.553
   90.000   66.621    0.344    0.505   11.283
   90.250   65.999    0.332    0.535   10.298
   90.500   71.562    0.356    0.498    9.291
   90.750   81.213    0.351    0.480    8.711
   91.000   86.619    0.333    0.506    8.377
   91.250   84.297    0.326    0.511    8.956
   91.500   80.722    0.290    0.506   11.288
   91.750   79.069    0.271    0.506   14.156
   92.000   77.854    0.252    0.495   19.307
   92.250   75.219    0.228    0.454   23.866
   92.500   72.318    0.205    0.449   26.142
   92.750   70.551    0.193    0.463   26.997
   93.000   70.845    0.196    0.410   26.925
   93.250   75.911    0.204    0.403   26.515
   93.500   79.539    0.225    0.407   25.800
   93.750   77.434    0.234    0.408   22.847
   94.000   72.834    0.241    0.411   19.760
   94.250   70.636    0.252    0.422   17.488
   94.500   70.193    0.240    0.455   13.917
   94.750   67.726    0.249    0.488   12.598
   95.000   65.470    0.279    0.502   11.406
   95.250   68.655    0.311    0.508   10.329
   95.500   75.106    0.316    0.515    9.134
   95.750   81.359    0.283    0.524    7.445
   96.000   88.591    0.239    0.541    6.302
   96.250   95.519    0.213    0.554    5.787
   96.500  105.099    0.195    0.537    5.626
   96.750  113.053    0.218    0.579    5.686
   97.000  116.585    0.244    0.591    5.727
   97.250  116.568    0.245    0.537    5.598
   97.500  114.376    0.255    0.567    5.422
   97.750  113.564    0.250    0.586    5.250
   98.000  115.612    0.255    0.575    5.145
   98.250  118.377    0.259    0.572    5.114
   98.500  119.325    0.248    0.563    5.145
   98.750  117.421    0.227    0.555    5.254
   99.000  113.112    0.205    0.573    5.426
   99.250  108.685    0.198    0.537    5.582
   99.500  107.915    0.190    0.506    6.041
   99.750  108.252    0.214    0.529    7.304
  100.000  108.012    0.252    0.547    9.158
  100.250  100.312    0.262    0.537   12.821
  100.500   81.107    0.244    0.535   19.233
  100.750   70.410    0.212    0.470   23.966
  101.000   67.633    0.199    0.442   26.128
  101.250   68.061    0.267    0.455   26.572
  101.500   72.502    0.329    0.451   21.547
  101.750   79.999    0.315    0.422   14.167
  102.000   85.371    0.292    0.409   13.702
  102.250   88.727    0.266    0.421   14.345
  102.500   89.380    0.265    0.431   15.413
  102.750   90.520    0.267    0.444   16.666
  103.000   85.406    0.256    0.461   17.383
  103.250   77.452    0.244    0.465   17.542
  103.500   82.259    0.244    0.452   17.525
  103.750   88.426    0.256    0.432   17.046
  104.000   89.037    0.258    0.423   16.131
  104.250   90.455    0.239    0.436   16.155
  104.500   93.921    0.205    0.446   16.766
  104.750   96.140    0.200    0.451   17.934
  105.000   96.360    0.235    0.475   20.396
  105.250   91.853    0.222    0.497   21.738
  105.500   87.438    0.203    0.463   23.424
  105.750   83.319    0.223    0.433   25.028
  106.000   78.142    0.270    0.431   24.575
  106.250   71.498    0.310    0.440   22.468
  106.500   65.586    0.330    0.464   20.799
  106.750   66.231    0.323    0.483   18.678
  107.000   69.214    0.301    0.452   16.672
  107.250   72.462    0.271    0.434   16.296
  107.500   74.980    0.238    0.447   15.963
  107.750   76.196    0.213    0.459   19.587
  108.000   76.613    0.199    0.472   32.129
  108.250   75.312    0.180    0.475   40.418
  108.500   71.287    0.140    0.389   40.053
  108.750   63.823    0.149    0.321   31.171
  109.000   62.298    0.217    0.334   21.464
  109.250   71.323    0.286    0.381   17.489
  109.500   82.106    0.320    0.418   16.295
  109.750   90.951    0.295    0.427   13.926
  110.000   92.603    0.270    0.455   12.525
  110.250   90.838    0.237    0.467   11.919
  110.500   88.208    0.210    0.456   11.536
  110.750   85.341    0.213    0.455   14.342
  111.000   82.069    0.237    0.464   22.477
  111.250   73.286    0.264    0.465   32.104
  111.500   67.287    0.207    0.385   47.262
  111.750   64.690    0.153    0.326   56.565
  112.000   63.004    0.132    0.309   55.329
  112.250   63.394    0.111    0.287   44.717
  112.500   66.661    0.101    0.278   28.211
  112.750   70.152    0.094    0.268   22.981
  113.000   80.287    0.127    0.326   19.418
  113.250   88.179    0.171    0.401   16.694
  113.500   90.976    0.220    0.446   15.486
  113.750   91.619    0.261    0.469   14.050
  114.000   88.752    0.249    0.477   13.019
  114.250   86.372    0.229    0.469   12.177
  114.500   87.541    0.214    0.442   11.720
  114.750   90.662    0.226    0.426    9.855
  115.000   93.228    0.258    0.457   10.984
  115.250   89.399    0.260    0.526   15.485
  115.500   77.037    0.200    0.558   16.035
  115.750   71.251    0.142    0.482   14.622
  116.000   77.092    0.136    0.422   10.969
  116.250   90.437    0.194    0.483    8.562
  116.500  102.727    0.267    0.563    6.300
  116.750  108.309    0.307    0.578    3.418
  117.000  108.346    0.317    0.598    3.286
  117.250  106.753    0.298    0.619    3.294
  117.500  105.779    0.280    0.636    3.379
  117.750  103.803    0.292    0.636    3.766
  118.000   99.721    0.298    0.605    5.914
  118.250   95.246    0.257    0.552    9.365
