~VERSION INFORMATION
 VERS.                 2.0:   CWLS LOG ASCII STANDARD -VERSION 2.0
 WRAP.                  NO:   ONE LINE PER DEPTH STEP
~WELL INFORMATION BLOCK
#MNEM.UNIT           DATA                    DESCRIPTION OF MNEMONIC
#---------    -------------------            -------------------------------
# Generated from Intellog Unique Number	CX_WELLS/WELL/3865
WELL.         REGENT HORSE                   : Well_name    - WELL
LOC .         AA/09-19-087-12W4/0            : Location     - LOCATION
UWI .         AA/09-19-087-12W400            : Uwi          - UNIQUE WELL ID
ENTR.         TIM                            : Entered      - ENTERED BY
SRVC.         SCHLUMBERGER                   : Scn          - SERVICE COMPANY
STRT.F        50                             : top_depth    - START DEPTH
STOP.F        589.698                        : bot_depth    - STOP DEPTH
STEP.F        0.8202                         : increment    - STEP LENGTH
 NULL. -999.2500:NULL Value
~CURVE INFORMATION BLOCK
#MNEM UNIT       ERCB CURVE CODE    CURVE DESCRIPTION
#-----------   ------------------   ----------------------------------
DEPT.F        00 001 00 00         : DEPTH        - DEPTH
GR  .API      00 310 00 00         : GR           - GAMMA RAY
NPHI.V/V      00 330 00 00         : PHIN         - NEUTRON POROSITY (SANDSTONE)
ILD .OHMM     00 120 00 00         : RESD         - DEEP RESISTIVITY (DIL)
~PARAMETER INFORMATION
#MNEM.UNIT           DATA             DESCRIPTION OF MNEMONIC
#---------         -----------     ------------------------------
GL  .F        1531                 : gl           - GROUND LEVEL ELEVATION
EREF.F        1531                 : kb           - ELEVATION OF DEPTH REFERENCE
DATM.F        1531                 : datum        - DATUM ELEVATION
TDD .F        588                  : tdd          - TOTAL DEPTH DRILLER
RUN .         ONE                  : Run          - RUN NUMBER
ENG .         BILL                 : Engineer     - RECORDING ENGINEER
WIT .         JIM                  : Witness      - WITNESSED BY
MUD .         GEL                  : Mud_type     - MUD TYPE
MATR.         SANDSTONE            : Logunit      - NEUTRON MATRIX
TMAX.F        50                   : BHT          - MAXIMUM RECORDED TEMPERATURE
BHTD.F        588                  : BHTDEP       - MAXIMUM RECORDED TEMPERATURE
MATR.         1                    : LOGUNIT      - NEUTRON MATRIX
RMT .F        62.6                 : MDTP         - TEMPERATURE OF MUD
NEUT.         1                    : NEUTRON      - NEUTRON TYPE
RESI.         0.4                  : RESIST       - RESISTIVITY TYPE
RMC .OHMM     8                    : RMC          - RESISTIVITY OF MUD CAKE
RMF .OHMM     8                    : RMF          - RESISTIVITY OF MUD FILTRATE
SUFT.F        39.2                 : SUFT         - SURFACE TEMPERATURE
~A  DEPTH       GR     PHIN     RESD
# ...
  227.986   75.169    0.503   19.622
  228.806   72.935    0.492   19.835
  229.626   70.701    0.484   19.864
  230.446   69.872    0.478   19.708
  231.266   69.929    0.473   19.921
  232.087   69.986    0.464   20.695
  232.907   71.467    0.458   21.830
  233.727   72.930    0.452   23.341
  234.547   74.392    0.441   22.994
  235.367   75.392    0.433   21.547
  236.188   75.949    0.415   20.277
  237.008   76.006    0.392   18.646
  237.828   76.082    0.385   17.937
  238.648   76.640    0.413   18.519
  239.469   77.697    0.421   19.101
  240.289   78.216    0.449   18.775
  241.109   78.716    0.458   18.421
  241.929   79.735    0.471   16.789
  242.749   79.811    0.479   16.265
  243.570   78.963    0.484   16.662
  244.390   79.058    0.487   16.875
  245.210   79.559    0.491   15.613
  246.030   79.654    0.495   13.982
  246.850   80.211    0.498   13.088
  247.671   80.287    0.501   12.563
  248.491   80.344    0.502   13.145
  249.311   79.977    0.500   13.912
  250.131   78.648    0.500   14.501
  250.951   75.971    0.499   14.707
  251.772   75.085    0.498   15.111
  252.592   72.870    0.498   15.318
  253.412   72.021    0.499   16.098
  254.232   73.503    0.505   16.858
  255.052   74.965    0.514   17.624
  255.873   75.946    0.519   18.759
  256.693   76.946    0.509   20.831
  257.513   76.098    0.474   21.590
  258.333   75.269    0.460   21.803
  259.154   75.326    0.472   21.832
  259.974   74.941    0.476   21.492
  260.794   75.017    0.476   21.152
  261.614   75.574    0.476   20.265
  262.434   76.593    0.479   19.372
  263.255   77.593    0.489   18.655
  264.075   77.688    0.501   17.946
  264.895   78.188    0.509   17.237
  265.715   79.208    0.503   16.528
  266.535   80.208    0.489   15.074
  267.356   80.265    0.480   12.152
  268.176   80.360    0.486   11.074
  268.996   79.974    0.493   10.173
  269.816   80.031    0.506    9.648
  270.636   79.683    0.519   10.607
  271.457   79.278    0.524   11.926
  272.277   79.373    0.526   13.253
  273.097   79.430    0.529   14.389
  273.917   79.044    0.530   16.084
  274.738   78.659    0.530   17.212
  275.558   78.754    0.530   18.539
  276.378   78.811    0.519   18.944
  277.198   79.368    0.505   18.965
  278.018   80.368    0.501   18.810
  278.839   81.368    0.497   18.654
  279.659   81.906    0.496   18.498
  280.479   80.596    0.492   18.527
  281.299   77.881    0.492   18.009
  282.119   75.204    0.493   17.300
  282.940   73.432    0.493   17.145
  283.760   72.584    0.496   17.166
  284.580   72.179    0.496   17.010
  285.400   71.793    0.496   17.039
  286.220   70.945    0.494   17.805
  287.041   70.097    0.491   19.870
  287.861   69.730    0.481   21.559
  288.681   70.268    0.469   24.177
  289.501   71.249    0.458   25.865
  290.322   72.730    0.443   25.709
  291.142   73.749    0.436   25.000
  291.962   73.807    0.429   23.553
  292.782   74.402    0.432   21.546
  293.602   74.921    0.465   20.099
  294.423   75.440    0.470   19.021
  295.243   75.959    0.482   17.759
  296.063   77.460    0.485   16.681
  296.883   77.979    0.491   15.787
  297.703   78.536    0.480   16.000
  298.524   78.150    0.466   16.767
  299.344   77.302    0.469   17.541
  300.164   76.011    0.479   17.938
  300.984   75.125    0.491   18.882
  301.804   73.353    0.482   21.500
  302.625   71.580    0.477   23.188
  303.445   70.270    0.478   24.884
  304.265   70.346    0.472   24.182
  305.085   70.422    0.461   23.658
  305.906   70.980    0.458   23.509
  306.726   71.499    0.455   23.892
  307.546   71.594    0.460   24.297
  308.366   72.132    0.462   24.695
  309.186   72.189    0.469   24.170
  310.007   72.727    0.470   23.638
  310.827   76.076    0.465   22.560
  311.647   78.924    0.456   21.851
  312.467   81.754    0.453   22.064
  313.287   89.242    0.456   27.633
  314.108   93.014    0.460   31.358
  314.928   92.647    0.466   34.714
  315.748   88.546    0.476   41.943
  316.568   84.463    0.486   45.852
  317.388   80.381    0.481   50.314
  318.209   76.742    0.447   45.171
  319.029   76.837    0.430   41.504
  319.849   79.242    0.430   35.254
  320.669   77.470    0.422   30.665
  321.490   75.698    0.402   26.075
  322.310   74.850    0.450   16.499
  323.130   74.907    0.502   13.576
  323.950   75.464    0.505   13.236
  324.770   75.540    0.506   15.109
  325.591   75.154    0.507   18.096
  326.411   75.230    0.507   19.969
  327.231   74.401    0.504   20.927
  328.051   74.439    0.502   21.509
  328.871   73.591    0.499   21.907
  329.692   73.224    0.497   22.489
  330.512   72.395    0.495   22.702
  331.332   71.990    0.495   23.099
  332.152   72.066    0.495   22.021
  332.972   71.661    0.493   20.759
  333.793   71.314    0.491   19.865
  334.613   71.371    0.490   21.008
  335.433   71.004    0.488   22.512
  336.253   71.061    0.489   23.839
  337.073   71.118    0.489   25.159
  337.894   70.789    0.484   25.918
  338.714   70.384    0.482   25.954
  339.534   69.998    0.482   24.684
  340.354   69.612    0.483   23.237
  341.175   69.226    0.483   21.791
  341.995   69.302    0.481   21.081
  342.815   69.397    0.479   20.933
  343.635   69.454    0.479   21.139
  344.455   69.511    0.479   21.168
  345.276   69.606    0.480   20.834
  346.096   69.701    0.480   20.487
  346.916   69.740    0.477   20.523
  347.736   69.373    0.476   20.743
  348.556   68.968    0.478   20.758
  349.377   68.120    0.482   20.971
  350.197   70.063    0.483   21.184
  351.017   72.930    0.485   21.950
  351.837   72.564    0.484   24.206
  352.657   72.159    0.484   24.781
  353.478   72.235    0.484   23.150
  354.298   71.868    0.482   21.334
  355.118   72.387    0.434   19.696
  355.938   72.444    0.408   18.064
  356.759   73.001    0.447   16.802
  357.579   73.558    0.490   15.724
  358.399   74.096    0.505   15.391
  359.219   74.635    0.518   15.611
  360.039   73.805    0.522   15.817
  360.860   73.382    0.523   15.846
  361.680   72.552    0.520   15.882
  362.500   72.610    0.512   15.896
  363.320   74.072    0.494   16.301
  364.140   75.553    0.497   17.259
  364.961   75.629    0.507   18.018
  365.781   75.705    0.511   18.423
  366.601   75.762    0.511   18.267
  367.421   75.858    0.511   18.111
  368.241   75.953    0.512   18.693
  369.062   75.586    0.512   19.651
  369.882   75.181    0.507   20.042
  370.702   75.238    0.502   20.262
  371.522   75.314    0.498   20.468
  372.343   75.409    0.494   20.681
  373.163   74.542    0.496   20.901
  373.983   73.713    0.501   21.114
  374.803   72.865    0.503   21.143
  375.623   72.460    0.496   20.980
  376.444   71.612    0.490   21.016
  377.264   71.245    0.486   20.853
  378.084   71.321    0.476   20.704
  378.904   71.859    0.470   20.549
  379.724   71.935    0.467   20.577
  380.545   72.011    0.472   20.414
  381.365   71.606    0.478   20.273
  382.185   70.296    0.483   20.294
  383.005   68.524    0.488   20.131
  383.825   64.904    0.492   20.352
  384.646   63.132    0.495   20.373
  385.466   59.511    0.496   20.778
  386.286   56.796    0.493   20.998
  387.106   55.486    0.487   21.389
  387.927   55.119    0.476   22.524
  388.747   54.271    0.473   24.212
  389.567   54.347    0.474   24.809
  390.387   56.271    0.474   24.107
  391.207   59.139    0.474   23.752
  392.028   60.158    0.473   23.788
  392.848   60.215    0.473   24.370
  393.668   60.272    0.473   24.229
  394.488   60.367    0.473   24.243
  395.308   60.924    0.474   24.080
  396.129   61.462    0.475   23.931
  396.949   61.096    0.477   23.598
  397.769   61.153    0.479   23.613
  398.589   61.691    0.479   23.464
  399.409   63.134    0.479   23.677
  400.230   68.331    0.477   24.812
  401.050   69.774    0.475   26.501
  401.870   71.236    0.476   28.927
  402.690   70.388    0.476   31.730
  403.510   68.635    0.473   30.836
  404.331   65.939    0.443   26.800
  405.151   66.920    0.373   23.509
