~VERSION INFORMATION
 VERS.                 2.0:   CWLS LOG ASCII STANDARD -VERSION 2.0
 WRAP.                  NO:   ONE LINE PER DEPTH STEP
~WELL INFORMATION BLOCK
#MNEM.UNIT           DATA                    DESCRIPTION OF MNEMONIC
#---------    -------------------            -------------------------------
# Generated from Intellog Unique Number	CN_94_101/WELL/3222
WELL.         05-26-096-07W4                 : Well_name    - WELL
LOC .         AA/05-26-096-07W4/0            : Location     - LOCATION
UWI .         AA/05-26-096-07W400            : Uwi          - UNIQUE WELL ID
ENTR.         JOETTE                         : Entered      - ENTERED BY
SRVC.         SCHLUMBERGER                   : Scn          - SERVICE COMPANY
DATE.         07/20/92                       : Date         - LOG DATE
STRT.F        0                              : top_depth    - START DEPTH
STOP.F        397.802                        : bot_depth    - STOP DEPTH
STEP.F        0.82021                        : increment    - STEP LENGTH
 NULL. -999.2500:NULL Value
~CURVE INFORMATION BLOCK
#MNEM UNIT       ERCB CURVE CODE    CURVE DESCRIPTION
#-----------   ------------------   ----------------------------------
DEPT.F        00 001 00 00         : DEPTH        - DEPTH
ILD .OHMM     00 120 00 00         : RESD         - DEEP RESISTIVITY (DIL)
GR  .API      00 310 00 00         : GR           - GAMMA RAY
DPHI.V/V      00 890 00 00         : PHID         - DENSITY POROSITY (SANDSTONE)
~PARAMETER INFORMATION
#MNEM.UNIT           DATA             DESCRIPTION OF MNEMONIC
#---------         -----------     ------------------------------
GL  .M        357.957              : gl           - GROUND LEVEL ELEVATION
EREF.M        357.957              : kb           - ELEVATION OF DEPTH REFERENCE
DATM.M        357.957              : datum        - DATUM ELEVATION
TDD .M        124.663              : tdd          - TOTAL DEPTH DRILLER
RUN .         ONE                  : Run          - RUN NUMBER
ENG .         JO                   : Engineer     - RECORDING ENGINEER
WIT .         TIM                  : Witness      - WITNESSED BY
MUD .         GEL                  : Mud_type     - MUD TYPE
MATR.         SANDSTONE            : Logunit      - NEUTRON MATRIX
TMAX.F        35                   : BHT          - MAXIMUM RECORDED TEMPERATURE
BHTD.F        409                  : BHTDEP       - MAXIMUM RECORDED TEMPERATURE
RMT .F        35                   : MDTP         - TEMPERATURE OF MUD
MUDD.LB/G     1.1                  : MWT          - MUD DENSITY
NEUT.         1                    : NEUTRON      - NEUTRON TYPE
RESI.         0                    : RESIST       - RESISTIVITY TYPE
RM  .OHMM     8.75                 : RM           - RESISTIVITY OF MUD
RMC .OHMM     8.75                 : RMC          - RESISTIVITY OF MUD CAKE
RMF .OHMM     8.75                 : RMF          - RESISTIVITY OF MUD FILTRATE
SUFT.F        39.2                 : SUFT         - SURFACE TEMPERATURE
~A  DEPTH     RESD       GR     PHID
# ...
  177.986  121.942   52.567    0.271
  178.806  144.378   53.866    0.293
  179.626  131.927   56.312    0.299
  180.446   86.795   59.595    0.283
  181.266   68.645   50.535    0.270
  182.087   99.259   45.464    0.271
  182.907  105.050   47.138    0.297
  183.727  124.148   47.225    0.302
  184.547  133.899   43.719    0.299
  185.367  120.284   37.040    0.305
  186.188  194.095   37.545    0.320
  187.008  225.364   44.399    0.340
  187.828  168.514   48.453    0.336
  188.648  106.951   59.296    0.294
  189.469   47.898   62.579    0.280
  190.289   26.263   66.634    0.260
  191.109   24.471   59.579    0.241
  191.929   77.722   47.323    0.253
  192.749  142.541   40.643    0.283
  193.570  225.843   34.757    0.293
  194.390  140.652   32.464    0.287
  195.210   86.010   43.703    0.286
  196.030   78.689   46.589    0.299
  196.850  193.479   40.703    0.313
  197.671  173.805   39.203    0.307
  198.491  104.357   44.448    0.288
  199.311   79.521   52.932    0.288
  200.131   42.785   56.965    0.280
  200.951   69.040   44.752    0.274
  201.772  207.573   40.850    0.285
  202.592  409.825   34.170    0.304
  203.412  570.966   44.992    0.310
  204.232  795.959   53.851    0.280
  205.052  153.629   61.895    0.274
  205.873   90.571   63.569    0.260
  206.693   49.630   67.645    0.243
  207.513   37.818   76.483    0.248
  208.333   35.888   83.733    0.227
  209.154   33.440   85.450    0.215
  209.974   40.298   83.532    0.224
  210.794   38.923   81.635    0.212
  211.614   31.352   83.309    0.206
  212.434   31.410   84.983    0.215
  213.255   31.488   87.891    0.205
  214.075   33.346   89.168    0.198
  214.895   35.965   83.657    0.202
  215.715   42.556   72.216    0.235
  216.535   46.716   61.966    0.247
  217.356   58.358   57.270    0.271
  218.176   85.889   48.210    0.297
  218.996  109.272   41.133    0.319
  219.816   99.972   47.987    0.321
  220.636  113.905   54.047    0.323
  221.457   72.292   60.107    0.310
  222.277   53.109   60.194    0.298
  223.097   53.241   59.509    0.283
  223.917   52.405   57.194    0.272
  224.738   61.933   54.504    0.270
  225.558   62.086   54.591    0.278
  226.378   68.198   53.487    0.288
  227.198   61.301   53.971    0.301
  228.018   60.340   57.254    0.302
  228.839   60.489   57.341    0.292
  229.659   60.639   58.662    0.294
  230.479   47.928   61.504    0.292
  231.299   53.618   59.607    0.283
  232.119   62.218   58.086    0.277
  232.940   57.973   55.792    0.277
  233.760   68.555   53.102    0.287
  234.580  119.017   46.025    0.308
  235.400  199.204   36.568    0.334
  236.220  277.702   29.095    0.353
  237.041  268.393   29.579    0.354
  237.861  120.200   58.716    0.323
  238.681   65.906   65.173    0.289
  239.501   51.116   68.059    0.268
  240.322   41.907   69.336    0.256
  241.142   39.793   67.836    0.243
  241.962   44.489   62.369    0.246
  242.782   48.013   54.895    0.277
  243.602   55.714   45.813    0.302
  244.423   85.156   39.156    0.321
  245.243   96.964   38.868    0.329
  246.063  104.644   36.156    0.322
  246.883  104.904   31.063    0.324
  247.703  117.357   28.019    0.354
  248.524  122.030   28.063    0.359
  249.344  117.939   29.340    0.362
  250.164  106.012   31.036    0.359
  250.984  112.267   35.487    0.346
  251.804   91.983   48.314    0.312
  252.625   38.313   55.564    0.296
  253.445   42.861   53.689    0.271
  254.265   51.620   55.342    0.268
  255.085   50.842   52.651    0.280
  255.906   52.833   41.607    0.284
  256.726   53.942   45.662    0.274
  257.546   72.497   45.792    0.272
  258.366   75.384   43.477    0.271
  259.186   76.965   41.162    0.281
  260.007   91.070   38.890    0.285
  260.827   98.223   38.977    0.284
  261.647   64.581   43.825    0.280
  262.467   47.444   36.352    0.270
  263.287   77.971   33.264    0.281
  264.108   90.532   36.129    0.297
  264.928   81.276   33.042    0.294
  265.748   67.904   25.569    0.290
  266.568   86.338   20.079    0.295
  267.388  103.917   20.188    0.309
  268.209  132.210   22.259    0.326
  269.029  132.537   24.748    0.325
  269.849  128.094   27.612    0.321
  270.669  126.085   26.927    0.312
  271.490  126.397   24.634    0.304
  272.310  139.012   23.509    0.289
  273.130  149.931   22.427    0.293
  273.950  150.209   22.096    0.295
  274.770   97.033   22.183    0.307
  275.591   45.935   21.079    0.353
  276.411   36.977   16.802    0.376
  277.231   41.366   12.503    0.370
  278.051   45.467    8.622    0.315
  278.871   96.520    9.921    0.327
  279.692  177.016   12.389    0.368
  280.512  201.810   14.460    0.441
  281.332  171.612   16.552    0.534
  282.152  145.933   17.014    0.590
  282.972  103.295   17.520    0.621
  283.793   58.711   18.400    0.643
  284.613   49.021   18.884    0.620
  285.433   59.002   16.215    0.573
  286.253   77.861   15.487    0.543
  287.073   99.060   19.145    0.526
  287.894   94.004   24.015    0.539
  288.714   77.068   24.895    0.595
  289.534   92.759   25.401    0.615
  290.354  120.191   27.471    0.631
  291.175  134.460   28.374    0.636
  291.995   86.859   27.667    0.561
  292.815   83.947   29.738    0.377
  293.635  101.102   27.423    0.327
  294.455   99.516   19.156    0.317
  295.276   81.586   16.884    0.319
  296.096   71.962   27.309    0.291
  296.916   63.473   39.760    0.288
  297.736   50.138   50.560    0.299
  298.556   31.821   63.783    0.328
  299.377   27.542   67.066    0.338
  300.197   24.293   67.550    0.337
  301.017   21.427   72.817    0.264
  301.837   17.891   80.464    0.250
  302.657   18.615   79.757    0.213
  303.478   19.344   80.241    0.202
  304.298   20.498   83.149    0.188
  305.118   20.561   80.437    0.192
  305.938   21.380   72.588    0.201
  306.759   23.918   69.458    0.201
  307.579   25.797   65.202    0.191
  308.399   27.319   65.664    0.175
  309.219   27.404   63.789    0.174
  310.039   28.495   61.077    0.175
  310.860   29.092   64.735    0.168
  311.680   28.636   64.844    0.176
  312.500   30.904   60.941    0.206
  313.320   34.552   57.061    0.215
  314.140   40.858   54.745    0.228
  314.961   38.071   52.849    0.243
  315.781   30.646   60.099    0.244
  316.601   28.555   66.159    0.246
  317.421   30.817   65.453    0.193
  318.241   32.615   59.191    0.177
  319.062   31.522   54.892    0.191
  319.882   30.465   45.038    0.192
  320.702   39.475   34.370    0.226
  321.522   59.206   20.151    0.326
  322.343   90.438   19.048    0.320
  323.163   97.541   20.347    0.310
  323.983   94.330   21.228    0.305
  324.803   94.563   22.108    0.299
  325.623  113.817   21.380    0.290
  326.444  125.022   19.108    0.298
  327.264  123.137   19.988    0.293
  328.084  125.642   21.266    0.285
  328.904  114.948   26.929    0.270
  329.724   79.939   29.397    0.258
  330.545   57.627   29.087    0.263
  331.365   84.865   22.429    0.323
  332.185   98.476   18.527    0.313
  333.005  110.235   14.646    0.301
  333.825  110.508   13.565    0.306
  334.646  110.782   13.630    0.316
  335.466  117.318   14.510    0.326
  336.286  115.478   13.804    0.321
  337.106  107.599   12.325    0.301
  337.927   98.442   12.412    0.298
  338.747   93.418   12.896    0.294
  339.567   90.342   13.358    0.290
  340.387   97.498   16.684    0.295
  341.207  111.017   18.712    0.286
  342.028  128.982   22.391    0.278
  342.848  124.658   24.109    0.262
  343.668  111.982   23.756    0.268
  344.488  100.595   22.652    0.270
  345.308  104.601   19.168    0.265
  346.129  121.302   19.299    0.262
  346.949  148.878   19.342    0.263
  347.769  138.806   18.239    0.277
  348.589  133.987   16.342    0.293
  349.409  134.319   15.261    0.296
  350.230  134.735   14.929    0.297
  351.050  132.621   15.016    0.300
  351.870  132.950   17.549    0.303
  352.690  130.864   17.989    0.310
  353.510  126.478   18.473    0.313
  354.331  126.791   16.576    0.314
  355.151  131.921   14.679    0.310
