~VERSION INFORMATION
 VERS.                 2.0:   CWLS LOG ASCII STANDARD -VERSION 2.0
 WRAP.                  NO:   ONE LINE PER DEPTH STEP
~WELL INFORMATION BLOCK
#MNEM.UNIT           DATA                    DESCRIPTION OF MNEMONIC
#---------    -------------------            -------------------------------
# Generated from Intellog Unique Number	CN_94_101/WELL/4994
WELL.         09-05-098-13W4                 : Well_name    - WELL
LOC .         00/09-05-098-13W4/0            : Location     - LOCATION
UWI .         00/09-05-098-13W400            : Uwi          - UNIQUE WELL ID
ENTR.         JOETTE                         : Entered      - ENTERED BY
SRVC.         WESTERN ATLAS                  : Scn          - SERVICE COMPANY
DATE.         08/28/92                       : Date         - LOG DATE
STRT.M        275                            : top_depth    - START DEPTH
STOP.M        480                            : bot_depth    - STOP DEPTH
STEP.M        0.25                           : increment    - STEP LENGTH
 NULL. -999.2500:NULL Value
~CURVE INFORMATION BLOCK
#MNEM UNIT       ERCB CURVE CODE    CURVE DESCRIPTION
#-----------   ------------------   ----------------------------------
DEPT.M        00 001 00 00         : DEPTH        - DEPTH
ILD .OHMM     00 120 00 00         : RESD         - DEEP RESISTIVITY (DIL)
GR  .API      00 310 00 00         : GR           - GAMMA RAY
NPHI.V/V      00 330 00 00         : PHIN         - NEUTRON POROSITY (SANDSTONE)
DPHI.V/V      00 890 00 00         : PHID         - DENSITY POROSITY (SANDSTONE)
~PARAMETER INFORMATION
#MNEM.UNIT           DATA             DESCRIPTION OF MNEMONIC
#---------         -----------     ------------------------------
GL  .M        723.4                : gl           - GROUND LEVEL ELEVATION
EREF.M        726.65               : kb           - ELEVATION OF DEPTH REFERENCE
DATM.M        726.65               : datum        - DATUM ELEVATION
TDD .M        491                  : tdd          - TOTAL DEPTH DRILLER
RUN .         ONE                  : Run          - RUN NUMBER
ENG .         JO                   : Engineer     - RECORDING ENGINEER
WIT .         TIM                  : Witness      - WITNESSED BY
MUD .         GEL                  : Mud_type     - MUD TYPE
MATR.         SANDSTONE            : Logunit      - NEUTRON MATRIX
TMAX.C        20                   : BHT          - MAXIMUM RECORDED TEMPERATURE
BHTD.M        491                  : BHTDEP       - MAXIMUM RECORDED TEMPERATURE
RMT .C        15                   : MDTP         - TEMPERATURE OF MUD
MUDD.KG/M     1150                 : MWT          - MUD DENSITY
NEUT.         1                    : NEUTRON      - NEUTRON TYPE
RESI.         0                    : RESIST       - RESISTIVITY TYPE
RM  .OHMM     6.17                 : RM           - RESISTIVITY OF MUD
RMC .OHMM     5.2                  : RMC          - RESISTIVITY OF MUD CAKE
RMF .OHMM     5.01                 : RMF          - RESISTIVITY OF MUD FILTRATE
SUFT.C        4                    : SUFT         - SURFACE TEMPERATURE
~A  DEPTH     RESD       GR     PHIN     PHID
# ...
  449.000   44.813   85.144    0.375    0.247
  449.250   44.131   88.105    0.376    0.248
  449.500   40.233   89.665    0.380    0.259
  449.750   21.299   89.744    0.376    0.257
  450.000   23.459   89.803    0.380    0.261
  450.250   26.844   89.402    0.385    0.264
  450.500   23.604   89.461    0.391    0.265
  450.750   31.957   76.572    0.393    0.260
  451.000   35.197   79.072    0.393    0.251
  451.250  106.945   80.552    0.388    0.255
  451.500   65.832   83.053    0.382    0.258
  451.750   60.059   86.514    0.379    0.262
  452.000   17.758   88.975    0.376    0.262
  452.250   19.195   92.916    0.381    0.264
  452.500   20.748   96.357    0.386    0.259
  452.750   16.301  101.239    0.394    0.243
  453.000   15.461  102.299    0.396    0.229
  453.250   17.029  102.358    0.395    0.224
  453.500   18.052  102.937    0.392    0.219
  453.750   24.003  103.516    0.394    0.232
  454.000   24.989  102.635    0.400    0.231
  454.250   19.991  100.273    0.403    0.218
  454.500   23.309   96.068    0.402    0.217
  454.750   34.687   98.509    0.396    0.207
  455.000  188.704  106.793    0.392    0.206
  455.250  169.070  109.274    0.391    0.201
  455.500   23.128  111.254    0.392    0.203
  455.750   18.865  111.333    0.393    0.209
  456.000   11.178  104.688    0.395    0.205
  456.250   10.788   92.740    0.394    0.209
  456.500   13.559   87.996    0.392    0.206
  456.750   15.809   83.272    0.390    0.200
  457.000   14.975   79.508    0.388    0.205
  457.250   14.462   75.764    0.381    0.204
  457.500   16.538   74.363    0.369    0.194
  457.750   17.217   67.237    0.361    0.195
  458.000   31.518   55.769    0.352    0.201
  458.250   38.851   52.967    0.341    0.232
  458.500   46.126   54.026    0.338    0.249
  458.750   53.781   67.573    0.339    0.272
  459.000   49.098   69.574    0.343    0.280
  459.250   41.553   71.074    0.350    0.274
  459.500   22.839   73.074    0.352    0.273
  459.750   29.804   74.594    0.355    0.254
  460.000   30.452   75.673    0.359    0.253
  460.250   29.967   74.772    0.365    0.249
  460.500   33.631   73.871    0.368    0.245
  460.750   77.167   70.588    0.370    0.262
  461.000   50.219   62.982    0.370    0.275
  461.250   57.426   61.620    0.374    0.283
  461.500   57.583   65.541    0.375    0.280
  461.750   56.628   65.140    0.375    0.283
  462.000   49.793   67.621    0.369    0.282
  462.250   48.090   66.259    0.368    0.279
  462.500   74.302   66.357    0.368    0.284
  462.750   66.571   66.897    0.369    0.281
  463.000   77.567   62.653    0.369    0.281
  463.250   85.489   64.173    0.368    0.284
  463.500   47.846   67.614    0.368    0.283
  463.750   56.805   66.252    0.372    0.278
  464.000   51.859   64.891    0.376    0.275
  464.250   83.189   64.489    0.379    0.280
  464.500  209.658   61.706    0.377    0.283
  464.750  198.723   59.364    0.375    0.281
  465.000  127.007   57.502    0.373    0.279
  465.250  127.181   53.258    0.373    0.281
  465.500   45.399   52.397    0.375    0.281
  465.750   42.231   56.298    0.380    0.282
  466.000   47.361   63.121    0.383    0.286
  466.250   45.741   64.161    0.394    0.290
  466.500   31.491   64.161    0.398    0.273
  466.750   45.992   60.496    0.394    0.273
  467.000   87.354   58.134    0.387    0.270
  467.250  103.781   57.753    0.385    0.269
  467.500   27.399   63.115    0.380    0.276
  467.750   26.964   67.037    0.379    0.283
  468.000   49.326   70.998    0.385    0.280
  468.250   72.088   68.156    0.391    0.274
  468.500   76.472   62.490    0.390    0.273
  468.750   82.659   63.991    0.388    0.276
  469.000   58.026   65.991    0.389    0.282
  469.250   29.547   64.149    0.395    0.284
  469.500   25.980   68.070    0.405    0.282
  469.750   40.141   72.972    0.411    0.283
  470.000   40.251   72.091    0.420    0.285
  470.250   26.709   71.209    0.419    0.284
  470.500   44.453   69.387    0.415    0.281
  470.750   63.759   68.505    0.414    0.282
  471.000   45.544   69.545    0.411    0.285
  471.250   33.846   66.722    0.411    0.285
  471.500   30.304   64.880    0.412    0.281
  471.750   33.399   63.018    0.414    0.281
  472.000   37.507   60.695    0.410    0.283
  472.250   38.296   58.853    0.404    0.286
  472.500   50.886   57.011    0.398    0.289
  472.750   51.026   55.669    0.386    0.290
  473.000   25.059   54.307    0.376    0.290
  473.250   38.718   53.386    0.376    0.291
  473.500   41.044   52.044    0.382    0.292
  473.750   27.235   50.702    0.387    0.293
  474.000   18.060   49.781    0.390    0.296
  474.250   12.434   50.820    0.391    0.299
  474.500    2.092   56.703    0.391    0.293
  474.750    1.804   59.663    0.392    0.291
  475.000    1.619   59.262    0.393    0.297
  475.250    1.621   56.920    0.394    0.299
  475.500    1.625   58.459    0.398    0.305
  475.750    1.662   68.145    0.401    0.305
  476.000    1.764   69.665    0.408    0.296
  476.250    1.835   72.145    0.412    0.284
  476.500    1.878   61.638    0.416    0.288
  476.750    1.845   56.914    0.415    0.293
  477.000    1.591   52.709    0.404    0.295
  477.250    1.427   51.308    0.401    0.306
  477.500    1.430   49.446    0.395    0.312
  477.750    1.462   48.565    0.386    0.320
  478.000    1.642   50.585    0.376    0.319
  478.250    1.740   53.085    0.365    0.303
  478.500    1.954   55.065    0.339    0.232
  478.750    2.233   55.164    0.274    0.223
  479.000    3.324   55.243    0.219    0.042
  479.250   13.903   54.822    0.193    0.003
  479.500   31.265   54.921    0.181    0.030
  479.750   42.359   55.961    0.157    0.076
  480.000   70.548   59.862    0.157    0.088
