~VERSION INFORMATION
 VERS.                 2.0:   CWLS LOG ASCII STANDARD -VERSION 2.0
 WRAP.                  NO:   ONE LINE PER DEPTH STEP
~WELL INFORMATION BLOCK
#MNEM.UNIT           DATA                    DESCRIPTION OF MNEMONIC
#---------    -------------------            -------------------------------
# Generated from Intellog Unique Number	CX_WELLS/WELL/3853
WELL.         HORSE CREEK                    : Well_name    - WELL
LOC .         AA/04-24-087-10W4/0            : Location     - LOCATION
UWI .         AA/04-24-087-10W400            : Uwi          - UNIQUE WELL ID
ENTR.         T                              : Entered      - ENTERED BY
SRVC.         SCHLUMBERGER                   : Scn          - SERVICE COMPANY
DATE.         03/06/92                       : Date         - LOG DATE
STRT.F        80                             : top_depth    - START DEPTH
STOP.F        680.394                        : bot_depth    - STOP DEPTH
STEP.F        0.8202                         : increment    - STEP LENGTH
 NULL. -999.2500:NULL Value
~CURVE INFORMATION BLOCK
#MNEM UNIT       ERCB CURVE CODE    CURVE DESCRIPTION
#-----------   ------------------   ----------------------------------
DEPT.F        00 001 00 00         : DEPTH        - DEPTH
GR  .API      00 310 00 00         : GR           - GAMMA RAY
NPHI.V/V      00 330 00 00         : PHIN         - NEUTRON POROSITY (SANDSTONE)
ILD .OHMM     00 120 00 00         : RESD         - DEEP RESISTIVITY (DIL)
~PARAMETER INFORMATION
#MNEM.UNIT           DATA             DESCRIPTION OF MNEMONIC
#---------         -----------     ------------------------------
GL  .F        1349                 : gl           - GROUND LEVEL ELEVATION
EREF.F        1349                 : kb           - ELEVATION OF DEPTH REFERENCE
DATM.F        1349                 : datum        - DATUM ELEVATION
TDD .F        582                  : tdd          - TOTAL DEPTH DRILLER
RUN .         ONE                  : Run          - RUN NUMBER
ENG .         JO                   : Engineer     - RECORDING ENGINEER
WIT .         TIM                  : Witness      - WITNESSED BY
MUD .         GEL                  : Mud_type     - MUD TYPE
MATR.         SANDSTONE            : Logunit      - NEUTRON MATRIX
TMAX.F        66.2                 : BHT          - MAXIMUM RECORDED TEMPERATURE
BHTD.F        582                  : BHTDEP       - MAXIMUM RECORDED TEMPERATURE
RMT .F        68                   : MDTP         - TEMPERATURE OF MUD
MUDD.LB/G     1                    : MWT          - MUD DENSITY
NEUT.         1                    : NEUTRON      - NEUTRON TYPE
RESI.         0                    : RESIST       - RESISTIVITY TYPE
RM  .OHMM     3.12                 : RM           - RESISTIVITY OF MUD
RMC .OHMM     4.5                  : RMC          - RESISTIVITY OF MUD CAKE
RMF .OHMM     4.5                  : RMF          - RESISTIVITY OF MUD FILTRATE
SUFT.F        39.2                 : SUFT         - SURFACE TEMPERATURE
~A  DEPTH       GR     PHIN     RESD
# ...
  257.986   58.106    0.512    5.158
  258.806   59.950    0.521    5.170
  259.626   62.888    0.528    5.175
  260.446   66.926    0.532    5.190
  261.266   69.871    0.530    5.197
  262.087   73.174    0.524    5.207
  262.907   76.126    0.517    5.214
  263.727   76.511    0.504    5.038
  264.547   75.810    0.496    5.045
  265.367   75.824    0.480    4.866
  266.188   75.852    0.473    4.879
  267.008   78.067    0.460    4.886
  267.828   79.175    0.447    5.077
  268.648   81.398    0.441    5.269
  269.469   81.776    0.435    5.462
  270.289   83.277    0.429    5.472
  271.109   83.655    0.425    5.296
  271.929   84.041    0.423    5.303
  272.749   84.076    0.422    5.316
  273.570   83.725    0.420    5.321
  274.390   83.382    0.420    6.066
  275.210   82.323    0.426    6.809
  276.030   81.608    0.430    7.552
  276.850   79.441    0.434    7.010
  277.671   75.451    0.430    6.101
  278.491   71.104    0.427    5.738
  279.311   70.395    0.418    5.750
  280.131   71.882    0.388    6.677
  280.951   73.004    0.337    7.604
  281.772   72.288    0.314    7.430
  282.592   70.858    0.299    6.152
  283.412   69.785    0.285    5.422
  284.232   71.278    0.289    4.145
  285.052   72.751    0.325    3.968
  285.873   75.696    0.406    5.081
  286.693   77.540    0.406    6.008
  287.513   77.203    0.446    6.935
  288.333   75.037    0.451    7.496
  289.154   68.501    0.447    6.957
  289.974   67.421    0.438    6.594
  290.794   61.251    0.438    6.236
  291.614   59.821    0.444    6.244
  292.434   58.741    0.457    6.254
  293.255   57.675    0.467    6.264
  294.075   58.060    0.471    6.268
  294.895   59.911    0.459    6.097
  295.715   62.856    0.452    6.104
  296.535   65.794    0.452    5.928
  297.356   68.003    0.452    5.938
  298.176   69.132    0.453    5.943
  298.996   69.875    0.460    5.769
  299.816   70.267    0.470    5.411
  300.636   70.660    0.464    5.416
  301.457   70.681    0.457    5.426
  302.277   71.081    0.461    5.433
  303.097   71.831    0.468    5.632
  303.917   72.581    0.494    5.639
  304.738   73.331    0.498    5.647
  305.558   74.825    0.505    5.656
  306.378   75.939    0.505    5.664
  307.198   77.054    0.502    5.855
  308.018   77.797    0.497    5.860
  308.839   79.284    0.494    6.054
  309.659   80.770    0.466    6.064
  310.479   82.621    0.463    6.258
  311.299   84.837    0.449    6.265
  312.119   85.587    0.436    6.643
  312.940   84.872    0.420    7.935
  313.760   82.719    0.420    9.967
  314.580   81.646    0.446    9.975
  315.400   80.945    0.471    7.962
  316.220   80.959    0.476    6.685
  317.041   80.258    0.487    6.324
  317.861   78.463    0.491    6.516
  318.681   76.654    0.478    6.893
  319.501   69.396    0.448    7.271
  320.322   64.299    0.427    7.276
  321.142   62.868    0.418    7.286
  321.962   56.333    0.416    7.482
  322.782   55.983    0.426    7.671
  323.602   54.910    0.455    7.862
  324.423   52.385    0.459    8.061
  325.243   52.771    0.489    8.068
  326.063   61.192    0.499    7.708
  326.883   63.036    0.516    7.531
  327.703   67.797    0.517    7.171
  328.524   70.749    0.519    6.994
  329.344   71.492    0.524    6.639
  330.164   72.249    0.531    6.463
  330.984   73.743    0.538    6.284
  331.804   74.486    0.545    6.291
  332.625   75.972    0.547    5.933
  333.445   77.452    0.537    5.757
  334.265   79.296    0.528    5.583
  335.085   83.334    0.519    5.593
  335.906   85.192    0.515    5.602
  336.726   85.571    0.508    5.794
  337.546   85.971    0.503    5.985
  338.366   85.992    0.500    7.098
  339.186   86.013    0.499    8.211
  340.007   86.405    0.494    8.400
  340.827   86.784    0.493    8.594
  341.647   87.548    0.489    8.052
  342.467   87.933    0.486    7.873
  343.287   88.684    0.474    7.883
  344.108   89.448    0.466    8.447
  344.928   89.826    0.450    8.636
  345.748   90.219    0.440    8.827
  346.568   90.233    0.445    9.205
  347.388   89.532    0.448    9.585
  348.209   87.730    0.451    9.776
  349.029   85.563    0.452    9.781
  349.849   85.233    0.451    9.789
  350.669   86.341    0.448    9.987
  351.490   88.199    0.440   10.176
  352.310   88.942    0.437   10.551
  353.130   89.707    0.427   11.299
  353.950   89.721    0.417   11.672
  354.770   90.127    0.419   11.863
  355.591   90.148    0.421   12.795
  356.411   90.534    0.430   12.800
  357.231   90.555    0.451   11.893
  358.051   90.576    0.454   11.348
  358.871   90.975    0.460   10.804
  359.692   91.354    0.464   10.449
  360.512   91.375    0.468   10.454
  361.332   91.767    0.469   10.464
  362.152   91.431    0.471   10.471
  362.972   88.163    0.478   10.481
  363.793   86.361    0.485   10.486
  364.613   86.038    0.496   10.314
  365.433   86.782    0.506    9.952
  366.253   87.896    0.506    9.591
  367.073   88.647    0.499    9.049
  367.894   87.945    0.474    8.875
  368.714   87.237    0.464    9.067
  369.534   86.894    0.457   10.366
  370.354   86.564    0.450   10.739
  371.175   85.856    0.447   11.114
  371.995   84.790    0.442   11.127
  372.815   84.075    0.439   10.950
  373.635   86.655    0.439   11.141
  374.455   89.964    0.438   11.338
  375.276   95.826    0.438   11.342
  376.096   96.569    0.438   11.166
  376.916   95.503    0.438   10.992
  377.736   92.607    0.439   10.999
  378.556   86.430    0.440   11.563
  379.377   83.534    0.443   11.755
  380.197   78.093    0.446   11.762
  381.017   77.749    0.451   11.586
  381.837   79.972    0.459   11.225
  382.657   80.715    0.467   10.684
  383.478   81.472    0.480   10.328
  384.298   79.677    0.480   10.149
  385.118   78.604    0.485    9.975
  385.938   77.531    0.487    9.980
  386.759   76.823    0.485    9.988
  387.579   75.757    0.484    9.997
  388.399   76.879    0.481   10.377
  389.219   77.629    0.475   10.569
  390.039   79.838    0.469   10.941
  390.860   83.147    0.463   11.138
  391.680   85.721    0.462   11.143
  392.500   87.565    0.470   10.422
  393.320   90.152    0.486    9.878
  394.140   90.166    0.493    9.515
  394.961   88.735    0.504    8.419
  395.781   86.933    0.511    7.691
  396.601   81.127    0.508    6.598
  397.421   80.419    0.498    6.973
  398.241   78.617    0.492    8.821
  399.062   76.815    0.488    9.564
  399.882   75.763    0.489    9.942
  400.702   76.499    0.485   10.138
  401.522   83.820    0.481   10.146
  402.343   84.205    0.471   10.153
  403.163   86.056    0.468   10.161
  403.983   87.171    0.459   10.168
  404.803   87.199    0.455    9.999
  405.623   86.491    0.450   10.006
  406.444   85.074    0.449   10.011
  407.264   84.359    0.449   10.019
  408.084   83.651    0.443   10.028
  408.904   82.578    0.434   10.033
  409.724   81.870    0.430   10.230
  410.545   80.439    0.421   10.235
  411.365   78.637    0.415   10.615
  412.185   77.200    0.411   10.803
  413.005   75.404    0.414   11.551
  413.825   73.245    0.422   11.924
  414.646   72.172    0.445   12.488
  415.466   71.471    0.449   12.861
  416.286   70.755    0.482   12.321
  417.106   70.061    0.493   11.961
  417.927   69.710    0.516   11.598
  418.747   69.374    0.523   10.505
  419.567   70.124    0.523    9.041
  420.387   71.968    0.519    6.658
  421.207   74.184    0.510    6.122
  422.028   76.392    0.506    6.678
  422.848   79.702    0.504    7.605
  423.668   82.282    0.501    7.983
  424.488   83.761    0.495    8.360
  425.308   85.620    0.487    8.549
  426.129   85.633    0.481    7.458
  426.949   85.662    0.475    6.911
  427.769   85.318    0.472    6.551
  428.589   82.787    0.469    7.117
  429.409   80.255    0.466    7.490
  430.230   75.908    0.462    7.865
  431.050   73.012    0.460    8.613
  431.870   71.210    0.463    8.802
  432.690   67.956    0.464    8.812
  433.510   65.790    0.476    8.638
  434.331   63.987    0.484    8.275
  435.151   66.939    0.497    9.572
