~VERSION INFORMATION
 VERS.                 2.0:   CWLS LOG ASCII STANDARD -VERSION 2.0
 WRAP.                  NO:   ONE LINE PER DEPTH STEP
~WELL INFORMATION BLOCK
#MNEM.UNIT           DATA                    DESCRIPTION OF MNEMONIC
#---------    -------------------            -------------------------------
# Generated from Intellog Unique Number	CN_94_101/WELL/4991
WELL.         08-15-099-12W4                 : Well_name    - WELL
LOC .         AA/08-15-099-12W4/0            : Location     - LOCATION
UWI .         AA/08-15-099-12W400            : Uwi          - UNIQUE WELL ID
ENTR.         TOP                            : Entered      - ENTERED BY
SRVC.         SCHLUMBERGER                   : Scn          - SERVICE COMPANY
DATE.         08/11/92                       : Date         - LOG DATE
STRT.M        121.92                         : top_depth    - START DEPTH
STOP.M        338.42                         : bot_depth    - STOP DEPTH
STEP.M        0.25                           : increment    - STEP LENGTH
 NULL. -999.2500:NULL Value
~CURVE INFORMATION BLOCK
#MNEM UNIT       ERCB CURVE CODE    CURVE DESCRIPTION
#-----------   ------------------   ----------------------------------
DEPT.M        00 001 00 00         : DEPTH        - DEPTH
GR  .API      00 310 00 00         : GR           - GAMMA RAY
ILD .OHMM     00 120 00 00         : RESD         - DEEP RESISTIVITY (DIL)
NPHI.V/V      00 330 00 00         : PHIN         - NEUTRON POROSITY (SANDSTONE)
~PARAMETER INFORMATION
#MNEM.UNIT           DATA             DESCRIPTION OF MNEMONIC
#---------         -----------     ------------------------------
GL  .M        566.014              : gl           - GROUND LEVEL ELEVATION
EREF.M        569.062              : kb           - ELEVATION OF DEPTH REFERENCE
DATM.M        569.062              : datum        - DATUM ELEVATION
TDD .M        342.595              : tdd          - TOTAL DEPTH DRILLER
RUN .         ONE                  : Run          - RUN NUMBER
ENG .         JO                   : Engineer     - RECORDING ENGINEER
WIT .         TIM                  : Witness      - WITNESSED BY
MUD .         GEL                  : Mud_type     - MUD TYPE
MATR.         SANDSTONE            : Logunit      - NEUTRON MATRIX
TMAX.C        23.8889              : BHT          - MAXIMUM RECORDED TEMPERATURE
BHTD.M        342.595              : BHTDEP       - MAXIMUM RECORDED TEMPERATURE
RMT .C        10                   : MDTP         - TEMPERATURE OF MUD
MUDD.KG/M     9200                 : MWT          - MUD DENSITY
NEUT.         1                    : NEUTRON      - NEUTRON TYPE
RESI.         0                    : RESIST       - RESISTIVITY TYPE
RM  .OHMM     6.8                  : RM           - RESISTIVITY OF MUD
RMC .OHMM     6.8                  : RMC          - RESISTIVITY OF MUD CAKE
RMF .OHMM     6.8                  : RMF          - RESISTIVITY OF MUD FILTRATE
SUFT.C        4                    : SUFT         - SURFACE TEMPERATURE
~A  DEPTH       GR     RESD     PHIN
# ...
  284.670   43.683    4.101    0.344
  284.920   43.699    4.473    0.324
  285.170   43.299    5.048    0.331
  285.420   43.744    7.896    0.345
  285.670   44.179    9.711    0.352
  285.920   45.043   11.947    0.353
  286.170   45.483   13.488    0.353
  286.420   45.923   13.734    0.352
  286.670   45.104   12.188    0.361
  286.920   44.286    9.594    0.366
  287.170   43.892    7.423    0.361
  287.420   43.912    6.368    0.350
  287.670   44.357    6.597    0.337
  287.920   45.216    7.444    0.335
  288.170   46.080    8.548    0.336
  288.420   46.090   10.158    0.344
  288.670   46.111   12.496    0.357
  288.920   46.551   12.511    0.373
  289.170   47.410   10.728    0.381
  289.420   47.445    8.301    0.393
  289.670   46.617    8.311    0.396
  289.920   45.379    8.607    0.401
  290.170   44.146    9.070    0.402
  290.420   44.161    9.559    0.401
  290.670   43.767   10.425    0.402
  290.920   44.206   11.570    0.410
  291.170   44.646   12.843    0.414
  291.420   45.096   13.531    0.407
  291.670   45.531   14.013    0.397
  291.920   45.551   14.030    0.387
  292.170   45.566   13.342    0.398
  292.420   45.587   12.678    0.406
  292.670   46.037   11.448    0.414
  292.920   46.047   10.338    0.429
  293.170   46.497    9.661    0.430
  293.420   46.937    9.031    0.424
  293.670   47.801    8.738    0.418
  293.920   47.811    8.594    0.401
  294.170   50.358    8.170    0.406
  294.420   51.208    7.507    0.412
  294.670   52.921    7.014    0.414
  294.920   53.356    6.335    0.409
  295.170   53.795    6.023    0.407
  295.420   53.811    5.726    0.400
  295.670   53.836    5.444    0.390
  295.920   53.851    5.266    0.391
  296.170   53.877    5.179    0.395
  296.420   55.585    4.924    0.402
  296.670   56.859    4.764    0.406
  296.920   58.557    4.529    0.407
  297.170   60.250    4.306    0.406
  297.420   63.626    4.164    0.400
  297.670   68.266    4.029    0.395
  297.920   71.222    4.031    0.387
  298.170   74.598    4.324    0.359
  298.420   77.135    4.477    0.341
  298.670   79.263    5.141    0.336
  298.920   76.762    6.007    0.353
  299.170   75.943    6.899    0.367
  299.420   75.963    7.653    0.377
  299.670   68.433    8.787    0.380
  299.920   59.230    9.263    0.378
  300.170   68.474    9.434    0.380
  300.420   73.947    9.441    0.394
  300.670   75.231    9.450    0.415
  300.920   76.934    8.831    0.413
  301.170   79.047    7.839    0.399
  301.420   79.067    7.203    0.376
  301.670   68.601    7.208    0.326
  301.920   60.232    7.341    0.285
  302.170   63.188    7.474    0.256
  302.420   67.408    7.486    0.381
  302.670   70.779    7.490    0.406
  302.920   75.844    7.247    0.396
  303.170   75.859    7.127    0.386
  303.420   75.879    6.897    0.378
  303.670   72.549    6.782    0.374
  303.920   72.144    6.675    0.367
  304.170   77.198    6.454    0.356
  304.420   78.902    6.032    0.337
  304.670   78.083    5.541    0.370
  304.920   76.850    4.920    0.374
  305.170   79.807    4.518    0.339
  305.420   84.436    4.081    0.373
  305.670   90.753    3.813    0.412
  305.920   92.037    3.625    0.440
  306.170   92.058    3.506    0.448
  306.420   92.497    3.392    0.442
  306.670   92.518    3.337    0.437
  306.920   92.543    3.283    0.442
  307.170   92.553    3.287    0.456
  307.420   92.579    3.290    0.445
  307.670   92.179    3.293    0.431
  307.920   92.200    3.297    0.392
  308.170   93.059    3.299    0.365
  308.420   94.757    3.302    0.428
  308.670   96.036    3.307    0.426
  308.920   96.072    3.310    0.423
  309.170   95.662    3.313    0.431
  309.420   94.429    3.315    0.446
  309.670   92.772    3.319    0.444
  309.920   91.948    3.323    0.435
  310.170   91.134    3.325    0.432
  310.420   91.574    3.329    0.450
  310.670   90.755    3.332    0.444
  310.920   89.093    3.335    0.428
  311.170   90.377    3.338    0.434
  311.420   94.592    3.341    0.447
  311.670   94.198    3.345    0.457
  311.920   92.954    3.349    0.462
  312.170   91.302    3.351    0.459
  312.420   93.834    3.299    0.453
  312.670   96.806    3.300    0.449
  312.920   95.982    3.305    0.446
  313.170   95.588    3.307    0.439
  313.420   96.018    3.311    0.434
  313.670   95.199    3.257    0.418
  313.920   91.869    3.261    0.383
  314.170   91.050    3.263    0.363
  314.420   89.812    3.212    0.390
  314.670   90.671    3.214    0.442
  314.920   96.145    3.163    0.436
  315.170   95.746    3.165    0.443
  315.420   93.249    3.115    0.483
  315.670   92.011    3.119    0.495
  315.920   89.934    3.068    0.474
  316.170   90.379    3.071    0.457
  316.420   91.238    3.074    0.447
  316.670   92.522    3.076    0.449
  316.920   93.381    3.079    0.453
  317.170   93.401    3.084    0.453
  317.420   95.100    3.085    0.450
  317.670   93.856    3.089    0.441
  317.920   89.682    3.147    0.435
  318.170   89.707    3.149    0.425
  318.420   90.567    3.152    0.378
  318.670   91.850    3.154    0.400
  318.920   92.285    3.158    0.443
  319.170   92.311    3.160    0.462
  319.420   92.750    3.165    0.462
  319.670   94.449    3.167    0.465
  319.920   96.147    3.172    0.470
  320.170   98.269    3.175    0.474
  320.420   98.709    3.176    0.477
  320.670   97.052    3.181    0.479
  320.920   95.394    3.183    0.482
  321.170   93.737    3.185    0.483
  321.420   91.654    3.189    0.473
  321.670   92.514    3.192    0.460
  321.920   91.700    3.195    0.449
  322.170   90.882    3.199    0.453
  322.420   91.326    3.202    0.460
  322.670   93.025    3.206    0.469
  322.920   95.557    3.207    0.476
  323.170   98.933    3.210    0.475
  323.420  101.056    3.213    0.468
  323.670  100.237    3.217    0.464
  323.920   97.740    3.220    0.465
  324.170   96.083    3.278    0.465
  324.420   94.850    3.340    0.459
  324.670   93.192    3.581    0.414
  324.920   91.535    3.708    0.439
  325.170   90.297    3.841    0.451
  325.420   91.990    3.652    0.426
  325.670   94.537    3.298    0.394
  325.920   96.650    3.082    0.388
  326.170   99.611    2.981    0.393
  326.420  101.309    2.884    0.381
  326.670  102.588    2.886    0.336
  326.920  102.189    2.840    0.443
  327.170  101.790    2.844    0.458
  327.420  101.401    2.845    0.469
  327.670  101.831    2.848    0.474
  327.920  102.275    2.850    0.474
  328.170  103.135    2.853    0.472
  328.420  104.408    2.856    0.469
  328.670  105.692    2.859    0.459
  328.920  102.357    2.911    0.443
  329.170  103.635    3.017    0.448
  329.420  107.017    3.072    0.448
  329.670  103.257    3.127    0.441
  329.920   98.243    3.297    0.383
  330.170   93.230    3.356    0.363
  330.420   91.992    3.476    0.335
  330.670   92.851    3.541    0.316
  330.920  101.685    3.424    0.348
  331.170  102.130    3.256    0.404
  331.420  102.989    3.150    0.432
  331.670  103.005    3.100    0.428
  331.920  102.186    3.102    0.408
  332.170  100.948    3.104    0.404
  332.420  100.129    3.108    0.400
  332.670  101.418    3.111    0.392
  332.920  103.116    3.114    0.378
  333.170  104.395    3.116    0.406
  333.420  104.845    3.174    0.417
  333.670  104.436    3.232    0.417
  333.920  103.203    3.235    0.412
  334.170  102.793    3.294    0.401
  334.420   99.877    3.355    0.385
  334.670   97.806    3.417    0.366
  334.920   96.992    3.478    0.363
  335.170   96.593    3.926    0.352
  335.420   96.613    4.586    0.237
  335.670   96.633    5.545    0.170
  335.920   97.912    6.477    0.164
  336.170   79.056    7.834    0.173
  336.420   79.916    7.840    0.190
  336.670   78.678    7.847    0.187
  336.920   76.176    7.990    0.182
  337.170   72.002    8.277    0.157
  337.420   59.019    8.723    0.094
  337.670   49.396    9.192    0.091
  337.920   67.449    9.360    0.161
  338.170   75.449    8.169    0.182
  338.420   78.820    7.130    0.204
