~VERSION INFORMATION
 VERS.                 2.0:   CWLS LOG ASCII STANDARD -VERSION 2.0
 WRAP.                  NO:   ONE LINE PER DEPTH STEP
~WELL INFORMATION BLOCK
#MNEM.UNIT           DATA                    DESCRIPTION OF MNEMONIC
#---------    -------------------            -------------------------------
# Generated from Intellog Unique Number	CN_94_101/WELL/3668
WELL.         03-28-096-16W4                 : Well_name    - WELL
LOC .         AA/03-28-096-16W4/0            : Location     - LOCATION
UWI .         AA/03-28-096-16W400            : Uwi          - UNIQUE WELL ID
ENTR.         J                              : Entered      - ENTERED BY
SRVC.         SCHLUMBERGER                   : Scn          - SERVICE COMPANY
DATE.         08/05/92                       : Date         - LOG DATE
STRT.M        200                            : top_depth    - START DEPTH
STOP.M        410                            : bot_depth    - STOP DEPTH
STEP.M        0.25                           : increment    - STEP LENGTH
 NULL. -999.2500:NULL Value
~CURVE INFORMATION BLOCK
#MNEM UNIT       ERCB CURVE CODE    CURVE DESCRIPTION
#-----------   ------------------   ----------------------------------
DEPT.M        00 001 00 00         : DEPTH        - DEPTH
GR  .API      00 310 00 00         : GR           - GAMMA RAY
NPHI.V/V      00 330 00 00         : PHIN         - NEUTRON POROSITY (SANDSTONE)
DPHI.V/V      00 890 00 00         : PHID         - DENSITY POROSITY (SANDSTONE)
ILD .OHMM     00 120 00 00         : RESD         - DEEP RESISTIVITY (DIL)
~PARAMETER INFORMATION
#MNEM.UNIT           DATA             DESCRIPTION OF MNEMONIC
#---------         -----------     ------------------------------
GL  .M        655.42               : gl           - GROUND LEVEL ELEVATION
EREF.M        658.17               : kb           - ELEVATION OF DEPTH REFERENCE
DATM.M        658.17               : datum        - DATUM ELEVATION
TDD .M        416.5                : tdd          - TOTAL DEPTH DRILLER
RUN .         ONE                  : Run          - RUN NUMBER
ENG .         JO                   : Engineer     - RECORDING ENGINEER
WIT .         TIM                  : Witness      - WITNESSED BY
MUD .         GEL                  : Mud_type     - MUD TYPE
MATR.         SANDSTONE            : Logunit      - NEUTRON MATRIX
TMAX.C        41.5                 : BHT          - MAXIMUM RECORDED TEMPERATURE
BHTD.M        416                  : BHTDEP       - MAXIMUM RECORDED TEMPERATURE
RMT .C        14                   : MDTP         - TEMPERATURE OF MUD
MUDD.KG/M     1130                 : MWT          - MUD DENSITY
NEUT.         1                    : NEUTRON      - NEUTRON TYPE
RESI.         0                    : RESIST       - RESISTIVITY TYPE
RM  .OHMM     0.523                : RM           - RESISTIVITY OF MUD
RMC .OHMM     0.523                : RMC          - RESISTIVITY OF MUD CAKE
RMF .OHMM     0.723                : RMF          - RESISTIVITY OF MUD FILTRATE
SUFT.C        4                    : SUFT         - SURFACE TEMPERATURE
~A  DEPTH       GR     PHIN     PHID     RESD
# ...
  330.500   96.910    0.436    0.233    9.324
  330.750   96.307    0.426    0.220    9.695
  331.000   95.702    0.422    0.219   10.074
  331.250   95.701    0.419    0.228   10.070
  331.500   95.096    0.418    0.222    9.868
  331.750   95.094    0.414    0.218    9.862
  332.000   95.092    0.409    0.213    9.858
  332.250   93.886    0.406    0.215    9.854
  332.500   93.885    0.401    0.217    9.848
  332.750   93.281    0.401    0.217    9.842
  333.000   93.278    0.401    0.214    9.839
  333.250   93.276    0.379    0.203    9.833
  333.500   92.072    0.311    0.178    9.826
  333.750   90.268    0.318    0.156    9.823
  334.000   90.866    0.345    0.166   10.011
  334.250   93.263    0.358    0.184   10.004
  334.500   94.462    0.372    0.207   10.000
  334.750   96.259    0.388    0.217    9.994
  335.000   96.857    0.397    0.216    9.990
  335.250   98.054    0.397    0.214    9.985
  335.500   98.052    0.385    0.214   10.178
  335.750   98.649    0.372    0.214   10.173
  336.000   99.245    0.377    0.214   10.369
  336.250   99.243    0.381    0.214   10.775
  336.500   99.241    0.392    0.216   10.771
  336.750   98.036    0.392    0.216   10.980
  337.000   96.834    0.391    0.214   11.410
  337.250   93.828    0.387    0.212   11.405
  337.500   92.024    0.381    0.206   11.625
  337.750   90.221    0.347    0.199   11.851
  338.000   87.816    0.331    0.187   11.845
  338.250   89.013    0.375    0.217   11.838
  338.500   89.612    0.372    0.242   12.062
  338.750   88.407    0.343    0.245   12.296
  339.000   87.805    0.326    0.245   12.536
  339.250   87.801    0.321    0.249   13.287
  339.500   88.398    0.351    0.260   14.648
  339.750   88.996    0.362    0.271   16.148
  340.000   89.593    0.370    0.268   17.120
  340.250   89.591    0.379    0.263   19.242
  340.500   89.588    0.381    0.260   20.400
  340.750   85.983    0.382    0.260   21.208
  341.000   81.777    0.365    0.266   22.920
  341.250   78.773    0.331    0.278   23.365
  341.500   74.567    0.308    0.263   23.815
  341.750   73.364    0.289    0.176   24.751
  342.000   72.760    0.274    0.128   24.738
  342.250   73.957    0.264    0.072   22.419
  342.500   74.556    0.272    0.057   18.417
  342.750   77.554    0.299    0.086   14.548
  343.000   82.954    0.330    0.147   11.268
  343.250   88.354    0.350    0.171   10.012
  343.500   93.154    0.373    0.190    8.896
  343.750   97.354    0.392    0.214    7.902
  344.000  101.552    0.412    0.214    7.597
  344.250  102.149    0.424    0.215    7.300
  344.500  102.147    0.438    0.225    7.295
  344.750  100.942    0.451    0.232    7.293
  345.000  100.340    0.458    0.233    7.581
  345.250   99.137    0.460    0.230    7.726
  345.500   96.731    0.440    0.229    7.874
  345.750   96.129    0.419    0.227    8.026
  346.000   94.925    0.423    0.223    8.022
  346.250   94.322    0.430    0.214    8.018
  346.500   94.320    0.417    0.204    8.013
  346.750   94.917    0.394    0.180    7.852
  347.000   96.114    0.412    0.172    7.850
  347.250   97.913    0.444    0.215    7.692
  347.500  101.510    0.450    0.243    7.249
  347.750  102.709    0.455    0.252    6.830
  348.000  103.906    0.461    0.252    6.566
  348.250  104.504    0.468    0.253    6.561
  348.500  105.101    0.470    0.257    6.688
  348.750  105.699    0.480    0.260    6.817
  349.000  106.296    0.485    0.260    7.087
  349.250  106.894    0.487    0.255    7.511
  349.500  106.891    0.476    0.250    7.656
  349.750  106.888    0.461    0.232    7.504
  350.000  106.885    0.464    0.227    7.355
  350.250  106.282    0.474    0.242    7.351
  350.500  106.278    0.472    0.243    7.346
  350.750  105.676    0.458    0.226    7.342
  351.000  105.673    0.443    0.209    7.337
  351.250  105.669    0.427    0.212    7.335
  351.500  105.666    0.426    0.219    7.331
  351.750  105.663    0.422    0.213    7.327
  352.000  103.859    0.422    0.201    7.180
  352.250  100.855    0.417    0.154    7.038
  352.500   99.050    0.383    0.039    6.502
  352.750   99.649    0.336    0.056    6.009
  353.000  101.445    0.361    0.105    5.235
  353.250  102.044    0.381    0.160    4.744
  353.500  102.642    0.396    0.199    4.470
  353.750  102.037    0.414    0.203    4.382
  354.000  100.833    0.420    0.202    4.379
  354.250  100.231    0.423    0.202    4.377
  354.500   99.628    0.429    0.201    4.460
  354.750   98.424    0.434    0.200    4.458
  355.000   99.021    0.444    0.205    4.545
  355.250   99.019    0.468    0.216    4.543
  355.500   99.615    0.476    0.237    4.721
  355.750  100.213    0.487    0.254    4.812
  356.000  100.210    0.496    0.246    5.003
  356.250   99.607    0.480    0.236    5.407
  356.500   99.605    0.466    0.217    5.733
  356.750   98.400    0.449    0.214    6.444
  357.000   95.997    0.442    0.217    7.245
  357.250   94.793    0.437    0.222    8.145
  357.500   92.989    0.428    0.229    8.806
  357.750   91.185    0.427    0.234   10.921
  358.000   86.379    0.423    0.229   13.541
  358.250   78.572    0.355    0.220   15.834
  358.500   77.368    0.361    0.228   17.454
  358.750   83.969    0.407    0.238   17.445
  359.000   94.172    0.419    0.276   17.097
  359.250  103.774    0.445    0.272   17.086
  359.500  102.571    0.472    0.272   18.114
  359.750   85.758    0.346    0.267   21.182
  360.000   68.945    0.359    0.259   28.411
  360.250   61.739    0.385    0.279   35.930
  360.500   51.530    0.402    0.293   40.389
  360.750   50.325    0.393    0.305   39.579
  361.000   49.722    0.389    0.306   38.800
  361.250   50.319    0.384    0.305   35.854
  361.500   50.918    0.379    0.302   32.488
  361.750   52.716    0.377    0.300   28.306
  362.000   53.913    0.375    0.304   23.254
  362.250   55.111    0.378    0.307   19.867
  362.500   55.708    0.393    0.309   17.308
  362.750   54.505    0.392    0.309   16.633
  363.000   52.700    0.377    0.309   16.620
  363.250   50.896    0.379    0.309   16.942
  363.500   47.892    0.391    0.309   17.271
  363.750   46.088    0.401    0.309   18.306
  364.000   45.485    0.412    0.309   19.789
  364.250   43.680    0.417    0.310   21.813
  364.500   43.078    0.419    0.313   23.129
  364.750   41.874    0.419    0.314   26.514
  365.000   40.669    0.419    0.319   35.567
  365.250   40.068    0.419    0.325   41.586
  365.500   40.065    0.417    0.325   46.754
  365.750   40.061    0.416    0.323   50.529
  366.000   40.059    0.415    0.322   51.516
  366.250   40.054    0.415    0.318   53.535
  366.500   40.053    0.416    0.318   55.661
  366.750   40.049    0.417    0.315   57.849
  367.000   40.047    0.416    0.317   58.972
  367.250   40.042    0.414    0.317   62.504
  367.500   39.440    0.407    0.318   66.265
  367.750   38.837    0.400    0.317   77.479
  368.000   38.233    0.402    0.315   97.983
  368.250   36.429    0.407    0.314  112.340
  368.500   35.226    0.419    0.313  128.802
  368.750   34.622    0.413    0.312  136.534
  369.000   33.419    0.405    0.310  133.812
  369.250   32.815    0.394    0.309  121.251
  369.500   33.414    0.371    0.309   97.674
  369.750   34.611    0.367    0.316   78.671
  370.000   35.209    0.390    0.321   72.707
  370.250   34.605    0.398    0.319   62.118
  370.500   34.002    0.394    0.317   57.402
  370.750   33.399    0.391    0.313   51.003
  371.000   33.396    0.389    0.313   48.064
  371.250   33.392    0.386    0.313   47.100
  371.500   32.788    0.381    0.314   47.081
  371.750   32.787    0.375    0.316   46.143
  372.000   31.583    0.383    0.316   46.112
  372.250   31.580    0.389    0.316   46.088
  372.500   32.177    0.393    0.316   46.070
  372.750   33.374    0.395    0.317   46.039
  373.000   35.173    0.403    0.318   46.908
  373.250   35.771    0.407    0.321   46.889
  373.500   36.968    0.409    0.322   47.799
  373.750   38.165    0.413    0.322   48.727
