~VERSION INFORMATION
 VERS.                 2.0:   CWLS LOG ASCII STANDARD -VERSION 2.0
 WRAP.                  NO:   ONE LINE PER DEPTH STEP
~WELL INFORMATION BLOCK
#MNEM.UNIT           DATA                    DESCRIPTION OF MNEMONIC
#---------    -------------------            -------------------------------
# Generated from Intellog Unique Number	CN_94_101/WELL/3176
WELL.         01-09-095-13W4                 : Well_name    - WELL
LOC .         AA/01-09-095-13W4/0            : Location     - LOCATION
UWI .         AA/01-09-095-13W4/0            : Uwi          - UNIQUE WELL ID
ENTR.         JOETTE                         : Entered      - ENTERED BY
SRVC.         SCHLUMBERGER                   : Scn          - SERVICE COMPANY
DATE.         07/16/92                       : Date         - LOG DATE
STRT.F        50                             : top_depth    - START DEPTH
STOP.F        500.295                        : bot_depth    - STOP DEPTH
STEP.F        0.8202                         : increment    - STEP LENGTH
 NULL. -999.2500:NULL Value
~CURVE INFORMATION BLOCK
#MNEM UNIT       ERCB CURVE CODE    CURVE DESCRIPTION
#-----------   ------------------   ----------------------------------
DEPT.F        00 001 00 00         : DEPTH        - DEPTH
ILD .OHMM     00 120 00 00         : RESD         - DEEP RESISTIVITY (DIL)
GR  .API      00 310 00 00         : GR           - GAMMA RAY
DELT.US/F     00 520 00 00         : DELT         - SONIC TRAVEL TIME
~PARAMETER INFORMATION
#MNEM.UNIT           DATA             DESCRIPTION OF MNEMONIC
#---------         -----------     ------------------------------
GL  .M        390.571              : gl           - GROUND LEVEL ELEVATION
EREF.M        390.571              : kb           - ELEVATION OF DEPTH REFERENCE
DATM.M        390.571              : datum        - DATUM ELEVATION
TDD .M        92.6592              : tdd          - TOTAL DEPTH DRILLER
RUN .         ONE                  : Run          - RUN NUMBER
ENG .         JO                   : Engineer     - RECORDING ENGINEER
WIT .         TIM                  : Witness      - WITNESSED BY
MUD .         GEL                  : Mud_type     - MUD TYPE
MATR.         SANDSTONE            : Logunit      - NEUTRON MATRIX
TMAX.F        36                   : BHT          - MAXIMUM RECORDED TEMPERATURE
BHTD.F        509                  : BHTDEP       - MAXIMUM RECORDED TEMPERATURE
RMT .F        36                   : MDTP         - TEMPERATURE OF MUD
MUDD.LB/G     1.11                 : MWT          - MUD DENSITY
NEUT.         1                    : NEUTRON      - NEUTRON TYPE
RESI.         0                    : RESIST       - RESISTIVITY TYPE
RM  .OHMM     3.5                  : RM           - RESISTIVITY OF MUD
RMC .OHMM     3.5                  : RMC          - RESISTIVITY OF MUD CAKE
RMF .OHMM     3.5                  : RMF          - RESISTIVITY OF MUD FILTRATE
SUFT.F        39.2                 : SUFT         - SURFACE TEMPERATURE
~A  DEPTH     RESD       GR     DELT
# ...
  405.971   27.711   56.123  194.696
  406.791   29.491   56.580  190.075
  407.612   27.936   57.495  192.254
  408.432   26.950   58.843  196.961
  409.252   31.424   57.176  202.019
  410.072   33.557   48.565  198.465
  410.892   29.805   46.007  191.683
  411.713   23.572   43.895  189.565
  412.533   21.876   48.283  190.684
  413.353   24.010   53.523  193.230
  414.173   26.215   64.397  201.517
  414.993   25.229   69.204  194.008
  415.814   23.319   69.267  188.661
  416.634   20.985   64.993  189.413
  417.454   20.284   63.733  192.694
  418.274   21.991   64.241  189.491
  419.094   21.855   62.103  186.288
  419.915   24.061   58.274  183.811
  420.735   26.054   58.757  180.975
  421.555   26.059   61.402  182.086
  422.375   26.278   63.182  182.121
  423.196   25.363   63.677  187.904
  424.016   29.410   61.565  195.123
  424.836   33.671   58.575  195.517
  425.656   35.592   53.869  193.048
  426.476   34.322   55.229  193.800
  427.297   32.343   56.996  194.911
  428.117   33.555   59.209  195.296
  428.937   38.170   60.556  195.689
  429.757   35.555   60.619  200.038
  430.577   37.121   57.197  205.095
  431.398   37.481   49.463  208.009
  432.218   34.651   43.459  205.164
  433.038   34.799   44.374  197.306
  433.858   36.224   43.559  193.044
  434.678   34.883   39.717  200.245
  435.499   34.534   39.768  202.791
  436.319   34.470   43.278  204.269
  437.139   35.256   47.233  203.586
  437.959   35.617   38.201  203.980
  438.780   33.991   36.509  205.099
  439.600   35.774   33.977  205.125
  440.420   36.060   31.420  200.854
  441.240   36.067   28.888  194.431
  442.060   36.996   29.790  192.663
  442.881   37.356   48.449  193.791
  443.701   38.142   49.364  191.305
  444.521   38.788   50.292  188.828
  445.341   37.803   50.342  192.092
  446.161   38.022   55.582  197.508
  446.982   37.816   53.902  197.184
  447.802   37.822   44.451  195.783
  448.622   37.546   41.881  200.132
  449.442   37.053   35.877  196.579
  450.262   37.343   32.468  193.025
  451.083   37.917   51.559  193.436
  451.903   37.711   51.609  195.606
  452.723   37.432   41.280  201.022
  453.543   37.581   30.939  203.218
  454.364   37.729   27.097  208.634
  455.184   37.806   20.240  228.052
  456.004   37.812   18.128  233.494
  456.824   37.822   16.436  231.358
  457.644   37.825   15.189  228.164
  458.465   37.763   15.684  221.732
  459.285   37.766   17.032  219.972
  460.105   37.774   17.947  216.419
  460.925   37.709   17.985  213.583
  461.745   37.717   16.762  210.748
  462.566   37.652   16.355  213.653
  463.386   37.375   15.540  217.642
  464.206   37.239   16.468  218.753
  465.026   37.104   19.138  217.353
  465.846   36.258   20.028  217.746
  466.667   36.407   24.403  219.216
  467.487   36.483   27.926  222.120
  468.307   36.560   24.071  229.698
  469.127   36.783   20.229  227.947
  469.948   36.859   12.928  224.027
  470.768   37.008   12.558  230.887
  471.588   37.011   14.325  233.433
  472.408   37.088   16.970  230.956
  473.228   37.239   21.358  222.379
  474.049   37.315   25.300  220.611
  474.869   37.321   28.823  218.493
  475.689   37.398   27.576  215.299
  476.509   37.547   27.206  212.104
  477.329   37.547   29.851  207.116
  478.150   37.988   32.063  211.815
  478.970   26.079   30.371  214.728
  479.790   26.225   22.205  218.359
  480.610   26.729   17.485  219.820
  481.430   26.948   69.914  222.725
  482.251   26.598   99.829  223.477
  483.071   26.533  120.230  214.183
  483.891   20.512  124.605  205.598
  484.711   16.760  121.628  198.099
  485.531   14.145  118.651  194.545
  486.352   12.872  113.511  188.113
  487.172   12.595  107.495  173.070
  487.992   11.185  103.653  163.418
  488.812   11.615  105.000  157.353
  489.633   11.977  100.739  151.280
  490.453   11.701  100.344  150.964
  491.273   11.495   83.083  153.151
  492.093   11.357  109.538  156.782
  492.913   11.154  116.941  157.893
  493.734   11.089  114.828  156.125
  494.554   11.163  111.852  154.366
  495.374   10.886  107.577  158.347
  496.194   10.750   98.978  164.131
  497.014   11.183   97.299  164.533
  497.835   10.621  100.821  161.329
  498.655   10.487  103.021  154.547
  499.475   10.777  118.665  151.344
  500.295   10.074  116.540  149.952
