~VERSION INFORMATION
 VERS.                 2.0:   CWLS LOG ASCII STANDARD -VERSION 2.0
 WRAP.                  NO:   ONE LINE PER DEPTH STEP
~WELL INFORMATION BLOCK
#MNEM.UNIT           DATA                    DESCRIPTION OF MNEMONIC
#---------    -------------------            -------------------------------
# Generated from Intellog Unique Number	CW_82_90/WELL/3428
WELL.         CDN SUP SIMON OV               : Well_name    - WELL
LOC .         AA/07-16-088-20W4/0            : Location     - LOCATION
UWI .         AA/07-16-088-20W4/0            : Uwi          - UNIQUE WELL ID
ENTR.         MAX                            : Entered      - ENTERED BY
SRVC.         SCHLUMBERGER                   : Scn          - SERVICE COMPANY
STRT.M        200                            : top_depth    - START DEPTH
STOP.M        275                            : bot_depth    - STOP DEPTH
STEP.M        0.25                           : increment    - STEP LENGTH
 NULL. -999.2500:NULL Value
~CURVE INFORMATION BLOCK
#MNEM UNIT       ERCB CURVE CODE    CURVE DESCRIPTION
#-----------   ------------------   ----------------------------------
DEPT.M        00 001 00 00         : DEPTH        - DEPTH
ILD .OHMM     00 120 00 00         : RESD         - DEEP RESISTIVITY (DIL)
NPHI.V/V      00 330 00 00         : PHIN         - NEUTRON POROSITY (SANDSTONE)
DPHI.V/V      00 890 00 00         : PHID         - DENSITY POROSITY (SANDSTONE)
CALI.MM       00 280 01 00         : CAL          - CALIPER
GR  .API      00 310 00 00         : GR           - GAMMA RAY
~PARAMETER INFORMATION
#MNEM.UNIT           DATA             DESCRIPTION OF MNEMONIC
#---------         -----------     ------------------------------
GL  .M        525.1                : gl           - GROUND LEVEL ELEVATION
EREF.M        529.58               : kb           - ELEVATION OF DEPTH REFERENCE
DATM.M        525.1                : datum        - DATUM ELEVATION
TDD .M        280.5                : tdd          - TOTAL DEPTH DRILLER
RUN .         ONE                  : Run          - RUN NUMBER
ENG .         BILL                 : Engineer     - RECORDING ENGINEER
WIT .         JIM                  : Witness      - WITNESSED BY
MUD .         GEL                  : Mud_type     - MUD TYPE
MATR.         SANDSTONE            : Logunit      - NEUTRON MATRIX
TMAX.C        17.8                 : BHT          - MAXIMUM RECORDED TEMPERATURE
BHTD.M        280.5                : BHTDEP       - MAXIMUM RECORDED TEMPERATURE
MATR.         1                    : LOGUNIT      - NEUTRON MATRIX
RMT .C        16.6                 : MDTP         - TEMPERATURE OF MUD
NEUT.         1                    : NEUTRON      - NEUTRON TYPE
RESI.         0                    : RESIST       - RESISTIVITY TYPE
RMC .OHMM     1.9                  : RMC          - RESISTIVITY OF MUD CAKE
RMF .OHMM     1.59                 : RMF          - RESISTIVITY OF MUD FILTRATE
SUFT.C        -15                  : SUFT         - SURFACE TEMPERATURE
~A  DEPTH     RESD     PHIN     PHID      CAL       GR
  200.000   27.095    0.462    0.278  241.973   81.055
  200.250   25.423    0.463    0.276  241.047   80.198
  200.500   25.431    0.444    0.252  240.108   80.813
  200.750   27.369    0.427    0.243  239.194   83.483
  201.000   28.657    0.422    0.249  238.739   84.392
  201.250   28.147    0.425    0.251  238.302   82.662
  201.500   26.411    0.419    0.256  238.343   85.336
  201.750   23.892    0.420    0.251  238.884   84.479
  202.000   21.812    0.431    0.254  239.903   82.158
  202.250   20.466    0.436    0.258  241.424   83.067
  202.500   19.204    0.427    0.264  242.449   83.979
  202.750   18.860    0.417    0.254  243.474   84.010
  203.000   18.356    0.431    0.253  243.520   84.325
  203.250   18.194    0.447    0.246  244.557   84.062
  203.500   18.035    0.458    0.250  244.598   83.793
  203.750   18.040    0.463    0.256  244.149   83.825
  204.000   18.045    0.460    0.259  244.195   84.443
  204.250   18.216    0.458    0.262  245.232   84.761
  204.500   18.901    0.463    0.269  245.762   83.321
  204.750   19.079    0.468    0.261  245.803   79.535
  205.000   17.579    0.473    0.249  247.317   75.449
  205.250   15.902    0.499    0.252  253.242   75.183
  205.500   13.129    0.519    0.283  249.373   82.551
  205.750   11.986    0.503    0.274  242.079   88.158
  206.000   11.989    0.473    0.271  239.679   86.718
  206.250   11.046    0.441    0.271  238.257   85.868
  206.500    9.901    0.437    0.273  237.331   87.074
  206.750    9.376    0.453    0.278  236.882   87.689
  207.000   10.370    0.462    0.284  236.451   85.955
  207.250    9.911    0.473    0.282  236.485   81.872
  207.500    6.631    0.507    0.271  236.532   81.603
  207.750    5.425    0.540    0.260  236.578   86.035
  208.000    4.688    0.587    0.280  237.603   93.991
  208.250    4.241    0.599    0.302  237.172   97.842
  208.500    3.980    0.596    0.303  236.234   96.986
  208.750    4.091    0.563    0.290  234.812   93.784
  209.000    4.403    0.541    0.269  231.934   89.998
  209.250    5.288    0.530    0.260  229.039   89.142
  209.500    6.011    0.519    0.253  227.617   85.940
  209.750    8.055    0.512    0.241  225.712   83.032
  210.000    9.943    0.482    0.208  224.774   80.711
  210.250   12.161    0.441    0.180  223.835   76.041
  210.500   12.850    0.419    0.168  223.393   75.775
  210.750   12.854    0.446    0.190  222.967   80.207
  211.000   12.510    0.485    0.234  222.017   82.584
  211.250   11.846    0.476    0.214  223.532   85.254
  211.500   11.530    0.469    0.177  225.058   89.396
  211.750   11.745    0.499    0.216  224.615   90.011
  212.000   12.187    0.512    0.262  224.166   89.749
  212.250   12.528    0.515    0.260  223.735   90.360
  212.500   13.239    0.491    0.249  223.292   90.975
  212.750   13.737    0.478    0.249  223.327   91.007
  213.000   14.123    0.465    0.248  224.358   88.976
  213.250   14.653    0.449    0.245  230.766   82.254
  213.500   15.342    0.453    0.236  232.769   80.227
  213.750   16.360    0.470    0.285  222.534   79.370
  214.000   17.769    0.465    0.260  214.273   78.227
  214.250   19.654    0.457    0.241  213.329   76.196
  214.500   22.547    0.435    0.189  214.360   71.233
  214.750   28.867    0.396    0.079  214.406   66.269
  215.000   37.297    0.340    0.166  214.452   59.544
  215.250   45.618    0.328    0.159  214.994   59.869
  215.500   46.052    0.353    0.120  218.466   57.548
  215.750   43.211    0.338    0.106  221.932   56.104
  216.000   41.291    0.326    0.108  225.893   56.719
  216.250   40.188    0.318    0.148  227.897   59.980
  216.500   40.569    0.344    0.162  228.439   62.947
  216.750   40.953    0.358    0.124  234.357   63.269
  217.000   41.720    0.344    0.104  240.771   62.416
  217.250   37.741    0.330    0.091  245.711   62.150
  217.500   31.446    0.313    0.152  248.210   63.059
  217.750   24.576    0.376    0.232  250.214   67.781
  218.000   19.924    0.448    0.278  251.233   71.629
  218.250   19.748    0.482    0.290  252.748   74.006
  218.500   19.574    0.472    0.290  255.247   72.569
  218.750   18.367    0.469    0.289  259.214   69.070
  219.000   17.393    0.472    0.281  262.674   67.337
  219.250   17.081    0.479    0.263  267.625   68.832
  219.500   16.777    0.483    0.248  273.538   70.328
  219.750   16.478    0.476    0.229  280.436   67.130
  220.000   16.787    0.462    0.201  283.913   66.277
  220.250   18.400    0.431    0.163  284.944   66.011
  220.500   19.266    0.405    0.118  286.453   66.626
  220.750   19.271    0.392    0.161  289.447   69.590
  221.000   18.928    0.426    0.186  290.950   71.093
  221.250   18.088    0.441    0.165  292.470   71.407
  221.500   16.513    0.428    0.186  293.979   73.494
  221.750   14.668    0.459    0.224  296.472   73.816
  222.000   13.762    0.474    0.231  297.992   73.847
  222.250   12.913    0.489    0.234  299.017   75.339
  222.500   12.568    0.495    0.239  300.048   77.716
  222.750   12.458    0.511    0.242  301.563   80.093
  223.000   12.692    0.522    0.242  302.104   80.414
  223.250   13.534    0.519    0.243  302.634   76.629
  223.500   14.301    0.518    0.243  301.213   75.779
  223.750   14.974    0.520    0.239  299.791   75.800
  224.000   14.573    0.512    0.226  298.369   75.828
  224.250   14.054    0.481    0.211  297.431   75.566
  224.500   13.554    0.485    0.210  295.526   75.593
  224.750   13.434    0.482    0.215  294.110   75.618
  225.000   13.075    0.470    0.207  292.683   77.414
  225.250   12.494    0.476    0.185  290.778   79.200
  225.500   12.272    0.491    0.213  288.867   81.577
  225.750   12.617    0.513    0.227  286.950   82.192
  226.000   13.211    0.521    0.237  283.577   81.049
  226.250   13.583    0.534    0.230  280.203   80.486
  226.500   13.711    0.521    0.223  276.329   79.633
  226.750   14.097    0.481    0.208  273.433   77.606
  227.000   13.720    0.458    0.143  269.571   74.697
  227.250   12.991    0.473    0.167  267.165   77.665
  227.500   12.529    0.480    0.241  264.764   82.097
  227.750   12.532    0.465    0.238  264.811   86.529
  228.000   12.767    0.490    0.230  264.368   85.679
  228.250   12.888    0.500    0.221  264.414   86.585
  228.500   13.011    0.501    0.215  264.956   86.612
  228.750   13.134    0.485    0.204  265.002   84.588
  229.000   13.381    0.476    0.203  263.575   82.267
  229.250   13.757    0.482    0.221  260.196   81.124
  229.500   13.886    0.484    0.202  257.318   82.029
  229.750   13.765    0.456    0.179  255.890   84.113
  230.000   13.034    0.443    0.156  254.958   87.957
  230.250   12.456    0.470    0.196  254.515   89.457
  230.500   12.574    0.443    0.204  254.078   88.897
  230.750   12.693    0.433    0.192  254.118   88.632
  231.000   12.582    0.448    0.220  254.654   90.718
  231.250   12.357    0.459    0.223  255.190   93.385
  231.500   12.027    0.468    0.223  255.248   95.175
  231.750   11.704    0.473    0.223  255.283   96.380
  232.000   11.496    0.476    0.224  255.346   97.583
  232.250   11.711    0.469    0.226  255.871   98.782
  232.500   12.836    0.457    0.228  256.412   98.226
  232.750   14.198    0.463    0.231  256.942   94.727
  233.000   14.866    0.463    0.233  257.967   91.528
  233.250   15.285    0.452    0.234  260.956   91.553
  233.500   15.290    0.429    0.236  265.412   91.588
  233.750   15.576    0.418    0.229  264.957   91.028
  234.000   16.916    0.402    0.213  261.584   87.529
  234.250   19.585    0.384    0.173  261.141   82.272
  234.500   22.265    0.366    0.121  261.193   78.186
  234.750   22.682    0.335    0.070  261.729   74.106
  235.000   21.283    0.305    0.091  261.776   73.544
  235.250   19.430    0.285    0.122  263.779   81.502
  235.500   14.640    0.343    0.168  266.762   88.283
  235.750   11.653    0.374    0.191  270.723   97.710
  236.000   12.542    0.400    0.208  275.663   97.445
  236.250   13.497    0.421    0.224  277.178   91.600
