~VERSION INFORMATION
 VERS.                 2.0:   CWLS LOG ASCII STANDARD -VERSION 2.0
 WRAP.                  NO:   ONE LINE PER DEPTH STEP
~WELL INFORMATION BLOCK
#MNEM.UNIT           DATA                    DESCRIPTION OF MNEMONIC
#---------    -------------------            -------------------------------
# Generated from Intellog Unique Number	CN_94_101/WELL/1063
WELL.         01-31-094-08W4                 : Well_name    - WELL
LOC .         AA/01-31-094-08W4/0            : Location     - LOCATION
UWI .         AA/01-31-094-08W400            : Uwi          - UNIQUE WELL ID
ENTR.         JOETTE                         : Entered      - ENTERED BY
SRVC.         SCHLUMBERGER                   : Scn          - SERVICE COMPANY
DATE.         04/29/92                       : Date         - LOG DATE
STRT.M        5                              : top_depth    - START DEPTH
STOP.M        85                             : bot_depth    - STOP DEPTH
STEP.M        0.25                           : increment    - STEP LENGTH
 NULL. -999.2500:NULL Value
~CURVE INFORMATION BLOCK
#MNEM UNIT       ERCB CURVE CODE    CURVE DESCRIPTION
#-----------   ------------------   ----------------------------------
DEPT.M        00 001 00 00         : DEPTH        - DEPTH
ILD .OHMM     00 120 00 00         : RESD         - DEEP RESISTIVITY (DIL)
DPHI.V/V      00 890 00 00         : PHID         - DENSITY POROSITY (SANDSTONE)
NPHI.V/V      00 330 00 00         : PHIN         - NEUTRON POROSITY (SANDSTONE)
GR  .API      00 310 00 00         : GR           - GAMMA RAY
CALI.MM       00 280 01 00         : CAL          - CALIPER
~PARAMETER INFORMATION
#MNEM.UNIT           DATA             DESCRIPTION OF MNEMONIC
#---------         -----------     ------------------------------
GL  .M        340.49               : gl           - GROUND LEVEL ELEVATION
EREF.M        340.49               : kb           - ELEVATION OF DEPTH REFERENCE
DATM.M        340.49               : datum        - DATUM ELEVATION
TDD .M        91                   : tdd          - TOTAL DEPTH DRILLER
RUN .         ONE                  : Run          - RUN NUMBER
ENG .         JO                   : Engineer     - RECORDING ENGINEER
WIT .         TIM                  : Witness      - WITNESSED BY
MUD .         GEL                  : Mud_type     - MUD TYPE
MATR.         SANDSTONE            : Logunit      - NEUTRON MATRIX
TMAX.C        9                    : BHT          - MAXIMUM RECORDED TEMPERATURE
BHTD.M        91                   : BHTDEP       - MAXIMUM RECORDED TEMPERATURE
RMT .C        9                    : MDTP         - TEMPERATURE OF MUD
MUDD.KG/M     1030                 : MWT          - MUD DENSITY
NEUT.         1                    : NEUTRON      - NEUTRON TYPE
RESI.         0                    : RESIST       - RESISTIVITY TYPE
RM  .OHMM     13.5                 : RM           - RESISTIVITY OF MUD
RMC .OHMM     10.5                 : RMC          - RESISTIVITY OF MUD CAKE
RMF .OHMM     12.5                 : RMF          - RESISTIVITY OF MUD FILTRATE
SUFT.C        4                    : SUFT         - SURFACE TEMPERATURE
~A  DEPTH     RESD     PHID     PHIN       GR      CAL
# ...
   41.500   28.774    0.273    0.526   96.385  139.598
   41.750   22.192    0.248    0.483   84.036  140.201
   42.000   20.804    0.229    0.475   87.349  141.004
   42.250   22.213    0.247    0.477   91.868  141.406
   42.500   30.484    0.256    0.481   92.470  140.201
   42.750   29.114    0.234    0.431   93.976  138.394
   43.000   25.575    0.240    0.413   74.096  140.402
   43.250   21.248    0.255    0.421  104.217  141.606
   43.500   22.064    0.246    0.454   85.542  141.606
   43.750   25.854    0.256    0.381   78.313  142.410
   44.000   24.464    0.241    0.464   84.940  142.410
   44.250   21.893    0.256    0.521   97.590  143.414
   44.500   23.378    0.263    0.457   83.434  143.614
   44.750   23.171    0.264    0.440   84.639  142.610
   45.000   25.678    0.237    0.464   98.494  142.008
   45.250   34.912    0.227    0.455   86.446  142.209
   45.500   35.923    0.236    0.415   72.590  142.610
   45.750   33.051    0.246    0.395   70.783  142.610
   46.000   30.698    0.236    0.413   75.301  142.410
   46.250   22.815    0.230    0.521   83.735  142.610
   46.500   22.825    0.258    0.522  100.301  143.213
   46.750   24.372    0.264    0.489   79.518  141.606
   47.000   36.027    0.256    0.451   84.639  140.402
   47.250   31.353    0.264    0.405   93.072  140.402
   47.500   24.408    0.261    0.479   79.518  140.402
   47.750   23.096    0.247    0.488   93.976  140.803
   48.000   23.763    0.249    0.478   83.735  140.803
   48.250   21.866    0.248    0.486   91.868  141.004
   48.500   21.474    0.235    0.517   78.012  141.205
   48.750   22.716    0.225    0.442   72.289  141.205
   49.000   22.941    0.225    0.492   86.145  141.205
   49.250   23.603    0.229    0.448   92.169  141.606
   49.500   22.965    0.240    0.389   82.831  141.807
   49.750   20.551    0.255    0.380   89.157  142.008
   50.000   23.857    0.249    0.429  101.807  142.008
   50.250   27.695    0.257    0.439   78.916  142.008
   50.500   28.230    0.281    0.450   65.362  142.008
   50.750   29.863    0.265    0.409   63.554  141.807
   51.000   25.042    0.234    0.402   78.313  141.807
   51.250   25.525    0.265    0.452  100.904  141.807
   51.500   26.016    0.249    0.463   80.422  141.606
   51.750   25.550    0.253    0.467   80.422  141.606
   52.000   27.285    0.255    0.416   96.687  141.606
   52.250   27.552    0.231    0.400   90.964  141.606
   52.500   28.609    0.221    0.412   88.253  141.606
   52.750   24.668    0.201    0.411   89.759  142.610
   53.000   22.912    0.222    0.470  106.627  145.622
   53.250   20.505    0.222    0.478  105.120  142.410
   53.500   19.951    0.219    0.473   97.289  144.016
   53.750   19.964    0.229    0.482  108.434  143.414
   54.000   20.160    0.214    0.441  119.880  142.209
   54.250   20.357    0.222    0.469  113.554  142.008
   54.500   20.566    0.218    0.507  110.241  142.008
   54.750   20.763    0.218    0.444  106.627  142.610
   55.000   20.769    0.219    0.440   96.988  143.815
   55.250   20.210    0.224    0.450  103.313  144.016
   55.500   18.596    0.219    0.444   99.699  142.610
   55.750   19.490    0.230    0.506   95.482  144.618
   56.000   20.239    0.234    0.454  122.892  143.614
   56.250   20.249    0.220    0.482  109.337  146.225
   56.500   21.226    0.210    0.519  110.241  142.811
   56.750   23.301    0.208    0.453  117.470  143.414
   57.000   24.195    0.236    0.401   87.952  141.205
   57.250   21.454    0.247    0.410   88.253  139.799
   57.500   22.485    0.225    0.449  105.723  139.799
   57.750   25.150    0.219    0.427   99.699  140.000
   58.000   33.563    0.213    0.444   84.940  140.402
   58.250   25.410    0.240    0.413   86.446  141.406
   58.500   20.916    0.248    0.470  107.831  143.414
   58.750   20.927    0.262    0.480  106.024  144.016
   59.000   24.069    0.269    0.448   94.277  141.406
   59.250   36.924    0.277    0.388   76.205  138.394
   59.500   36.603    0.278    0.353   60.241  140.803
   59.750   30.412    0.287    0.375   58.735  140.602
   60.000   34.652    0.337    0.450   78.012  140.201
   60.250   36.659    0.344    0.485   49.699  139.598
   60.500   34.365    0.336    0.399   46.084  139.197
   60.750   34.064    0.338    0.437   52.711  139.197
   61.000   33.770    0.345    0.491   66.265  139.197
   61.250   36.731    0.341    0.442   71.687  139.197
   61.500   40.331    0.331    0.455   65.362  139.197
   61.750   39.975    0.331    0.481   48.494  139.197
   62.000   39.261    0.344    0.519   35.241  138.996
   62.250   41.153    0.344    0.455   41.867  138.996
   62.500   51.454    0.359    0.479   51.506  138.996
   62.750   54.939    0.371    0.512   50.301  138.996
   63.000   55.479    0.362    0.455   43.976  138.394
   63.250   45.669    0.379    0.458   38.253  139.197
   63.500   51.081    0.386    0.450   31.024  141.004
   63.750   56.083    0.387    0.480   29.217  141.606
   64.000   69.481    0.386    0.464   41.867  141.406
   64.250   72.826    0.388    0.430   49.096  141.205
   64.500   55.135    0.372    0.478   35.843  141.004
   64.750   41.356    0.374    0.454   26.506  140.803
   65.000   34.359    0.357    0.440   23.795  140.602
   65.250   42.173    0.358    0.387   29.819  140.201
   65.500   45.874    0.361    0.413   31.627  139.598
   65.750   52.274    0.361    0.410   25.904  139.598
   66.000   49.928    0.355    0.444   26.807  140.602
   66.250   45.105    0.354    0.396   26.205  141.205
   66.500   41.501    0.350    0.384   25.904  141.205
   66.750   45.144    0.341    0.384   27.410  141.004
   67.000   68.618    0.339    0.395   30.120  140.602
   67.250   86.606    0.344    0.427   49.096  140.402
   67.500  106.303    0.344    0.384   24.699  140.602
   67.750  107.355    0.335    0.399   18.675  141.205
   68.000  112.516    0.340    0.407   29.518  140.402
   68.250  127.033    0.333    0.437   28.313  139.398
   68.500  232.528    0.351    0.360   29.518  139.398
   68.750  316.111    0.348    0.390   20.783  139.799
   69.000  402.700    0.344    0.374   25.000  140.602
   69.250  195.182    0.331    0.356   25.301  141.004
   69.500   49.354    0.298    0.348   33.434  141.606
   69.750   35.339    0.337    0.327   49.398  142.410
   70.000   52.238    0.358    0.471   65.663  143.012
   70.250   76.500    0.377    0.462   49.398  141.406
   70.500  242.286    0.376    0.424   28.313  140.602
   70.750  149.516    0.370    0.392   26.506  140.201
   71.000  197.683    0.373    0.407   26.205  138.394
   71.250  227.376    0.385    0.390   37.048  136.386
   71.500  130.254    0.370    0.398   40.361  134.980
   71.750   50.509    0.362    0.424   36.747  136.787
   72.000   78.939    0.363    0.447   46.084  140.000
   72.250  219.512    0.352    0.424   32.530  140.000
   72.500  359.408    0.360    0.439   27.108  140.402
   72.750  383.753    0.342    0.416   22.289  141.004
   73.000  429.233    0.332    0.402   28.614  141.807
   73.250  387.741    0.323    0.379   31.627  142.209
   73.500  243.750    0.314    0.383   24.699  142.209
   73.750  182.832    0.328    0.390   21.084  141.606
   74.000  450.560    0.323    0.405   37.952  141.205
   74.250  302.315    0.339    0.399   46.687  143.012
   74.500  322.772    0.332    0.396   44.880  144.418
   74.750  341.468    0.346    0.420   41.566  145.020
   75.000  332.244    0.290    0.363   35.843  141.406
   75.250  332.408    0.251    0.391   31.024  141.205
   75.500   29.140    0.191    0.377   60.542  141.406
   75.750    6.292    0.207    0.490   62.048  141.807
   76.000   15.362    0.180    0.417   62.952  142.008
   76.250   19.754    0.100    0.381   60.843  142.410
   76.500   30.587    0.084    0.329   55.422  141.205
   76.750   33.585    0.085    0.265   55.120  141.004
   77.000   20.724    0.078    0.186   42.771  141.004
   77.250   29.244    0.092    0.175   46.386  141.004
   77.500   77.628    0.078    0.211   40.663  141.205
   77.750   74.140    0.098    0.201   50.000  141.406
