~Version Information Block
VERS .                 2.00:  CWLS LOG ASCII STANDARD - VERSION 2.00
WRAP .                   NO:  One line per depth step
~Well Information Block
#MNEM.UNIT        Data Type   Information
#---------- ----------------  -----------
STRT .M                 6.1:  START DEPTH
STOP .M                73.6:  STOP DEPTH
STEP .M                 0.3:  STEP
NULL .              -999.25:  NULL VALUE
COMP . SYNCRUDE CANADA LTD :  COMPANY
WELL . MILDRED OV PROGRAM  :  WELL
FLD  . TAR SANDS           :  FIELD
LOC  . 07-16-094-11W4      :  LOCATION
PROV . ALBERTA             :  PROVINCE
SRVC . SCHLUMBERGER        :  SERVICE COMPANY
DATE . 11 JAN 76           :  LOG DATE
UWI  . AA/07-16-094-11W400 :  UNIQUE WELL ID
~Curve Information Block
#MNEM.UNIT         API CODE   Curve Description
#---------- ----------------  -----------------
DEPTH.M                    :  Transferred from LOGMATE/ESP.
GR   .API                  :  Rescaled GR over 6.1-73.6, from -75-45 Log
RHOB .KG/M3                 :  Graphically editted DENS.  Editted.  Edit
RT   .OHMM                 :  Loaded from 920923.083226  Depthmatched.
~Parameter Information Block
#MNEM.UNIT            Value   Description
#---------- ----------------  -----------
PROJECT.            MOS_94_11:
SET  .                  RAW:
~A        DEPTH             GR           RHOB             RT
# ...
        45.7000       107.1700      2273.8000        16.4428
        46.0000       112.0900      2270.8000        18.3081
        46.3000       104.1900      2253.6001        15.4153
        46.6000        97.5337      2198.8000        21.3011
        46.9000        89.6421      2209.2000        24.2896
        47.2000        91.2268      2187.3999        27.2625
        47.5000        83.6938      2201.2000        31.4736
        47.8000        69.3657      2266.2000        23.6679
        48.1000        56.3836      2253.8000        29.7709
        48.4000        44.4256      2195.3999        57.6056
        48.7000        43.4796      2142.5000        76.1736
        49.0000        38.1840      2143.6001        76.5755
        49.3000        39.4581      2145.7000       124.4684
        49.6000        36.4416      2136.3000       132.1576
        49.9000        33.6984      2122.1001        74.9552
        50.2000        30.9677      2124.0000       128.3456
        50.5000        30.0000      2159.0000       259.2381
        50.8000        32.8678      2140.7000       436.7472
        51.1000        30.6189      2134.1001       151.7453
        51.4000        32.9238      2121.2000       452.2943
        51.7000        34.0941      2082.1001       327.4904
        52.0000        35.3592      2093.8000       322.9122
        52.3000        33.7236      2072.1001       357.1563
        52.6000        33.8508      2085.5000       425.0946
        52.9000        36.6313      2136.3999       128.0096
        53.2000        36.6656      2132.0000        75.5497
        53.5000        41.0753      2105.2000       123.8610
        53.8000        37.0728      2124.1001        81.8428
        54.1000        33.2894      2099.5000       205.8112
        54.4000        34.2968      2082.3999       394.6947
        54.7000        35.4954      2109.1001       164.7036
        55.0000        39.5515      2097.1001       167.6309
        55.3000        38.8619      2069.5000       116.7254
        55.6000        33.3419      2106.7000        76.4875
        55.9000        32.5029      2115.6001       179.9995
        56.2000        33.6029      2095.7000       242.1652
        56.5000        33.7382      2123.1001        90.4157
        56.8000        38.9982      2128.6001        89.9598
        57.1000        37.8001      2087.7000       106.8659
        57.4000        37.7821      2093.3000       224.6221
        57.7000        37.6956      2076.0000       142.9262
        58.0000        38.7044      2090.2000        99.8957
        58.3000        39.7065      2080.8999       100.0875
        58.6000        53.1118      2064.7000       220.9714
        58.9000        65.5226      2155.2000       145.3988
        59.2000        55.9542      2296.3999        12.0328
        59.5000        53.5564      2247.6001        44.0226
        59.8000        81.5109      2152.8000       213.5134
        60.1000        98.8800      2185.3999        59.2594
        60.4000       108.0200      2250.6001        14.2935
        60.7000       126.3700      2310.8000         8.9776
        61.0000       127.3300      2343.6001         7.3552
        61.3000       135.1400      2344.7000         6.7678
        61.6000       135.8600      2320.7000         7.7090
        61.9000       144.0283      2310.3999         7.7978
        62.2000       117.6329      2376.0000         5.1721
        62.5000        91.2376      2247.6001         7.1858
        62.8000        93.3219      2291.8000        21.3254
        63.1000        75.3232      2257.2000        16.8248
        63.4000        67.2058      2394.8000        10.0671
        63.7000        74.8185      2490.8999        32.8558
        64.0000        76.8523      2496.8000        14.2981
        64.3000        85.6719      2465.8999         7.8649
        64.6000        98.6600      2246.3000         9.7001
        64.9000       108.7500      2115.5000         6.3309
        65.2000       116.0500      1995.4000         4.3910
        65.5000       119.7900      2223.8000         4.9151
        65.8000        98.9071      2194.3000         4.1210
        66.1000       101.2600      2398.6001         6.7443
        66.4000        92.5994      2480.5000         8.6702
        66.7000        56.4117      2421.2000         5.4048
        67.0000        41.7852      2356.2000        10.0170
        67.3000        35.5484      2381.8999        16.1917
        67.6000        35.1686      2367.8999        18.7463
        67.9000        35.1644      2384.7000        11.0302
        68.2000        35.1602      2359.7000         8.1463
        68.5000        35.1560      2447.1001         8.1449
        68.8000        35.1518      2307.7000        18.2356
        69.1000        35.1476      2283.3999        14.9843
        69.4000        35.1434      2390.3000         7.6368
        69.7000        35.1392      2418.8000         8.7512
        70.0000        35.1350      2417.8999         7.2168
        70.3000        35.1308      2341.5000         7.6799
        70.6000        35.1266      2386.8999         9.0621
        70.9000        35.1224      2555.3999         5.3923
        71.2000        35.1181      2661.2000         5.2381
        71.5000        35.1139      2546.5000         7.7273
        71.8000        35.1097      2546.6001        10.7969
        72.1000        35.1055      2669.5000        14.5383
        72.4000        35.1013      2635.7000        19.7912
        72.7000        35.0971      2648.1001        18.1016
        73.0000        35.0929      2637.3000        24.8729
        73.3000        35.1461      2617.1001        23.6443
        73.6000        35.2501      2647.1001        26.6455
