~VERSION INFORMATION
 VERS.                 2.0:   CWLS LOG ASCII STANDARD -VERSION 2.0
 WRAP.                  NO:   ONE LINE PER DEPTH STEP
~WELL INFORMATION BLOCK
#MNEM.UNIT           DATA                    DESCRIPTION OF MNEMONIC
#---------    -------------------            -------------------------------
# Generated from Intellog Unique Number	CX_WELLS/WELL/1048
WELL.         03-08-088-07W4                 : Well_name    - WELL
LOC .         AA/03-08-088-07W4/0            : Location     - LOCATION
UWI .         AA/03-08-088-07W400            : Uwi          - UNIQUE WELL ID
ENTR.         DW                             : Entered      - ENTERED BY
SRVC.         SCHLUMBERGER                   : Scn          - SERVICE COMPANY
STRT.M        32                             : top_depth    - START DEPTH
STOP.M        135                            : bot_depth    - STOP DEPTH
STEP.M        0.25                           : increment    - STEP LENGTH
 NULL. -999.2500:NULL Value
~CURVE INFORMATION BLOCK
#MNEM UNIT       ERCB CURVE CODE    CURVE DESCRIPTION
#-----------   ------------------   ----------------------------------
DEPT.M        00 001 00 00         : DEPTH        - DEPTH
GR  .API      00 310 00 00         : GR           - GAMMA RAY
NPHI.V/V      00 330 00 00         : PHIN         - NEUTRON POROSITY (SANDSTONE)
DPHI.V/V      00 890 00 00         : PHID         - DENSITY POROSITY (SANDSTONE)
ILD .OHMM     00 120 00 00         : RESD         - DEEP RESISTIVITY (DIL)
~PARAMETER INFORMATION
#MNEM.UNIT           DATA             DESCRIPTION OF MNEMONIC
#---------         -----------     ------------------------------
GL  .M        394.79               : gl           - GROUND LEVEL ELEVATION
EREF.M        396.315              : kb           - ELEVATION OF DEPTH REFERENCE
DATM.M        396.315              : datum        - DATUM ELEVATION
TDD .M        146                  : tdd          - TOTAL DEPTH DRILLER
RUN .         ONE                  : Run          - RUN NUMBER
ENG .         BILL                 : Engineer     - RECORDING ENGINEER
WIT .         JIM                  : Witness      - WITNESSED BY
MUD .         GEL                  : Mud_type     - MUD TYPE
MATR.         SANDSTONE            : Logunit      - NEUTRON MATRIX
TMAX.C        25                   : BHT          - MAXIMUM RECORDED TEMPERATURE
BHTD.M        146                  : BHTDEP       - MAXIMUM RECORDED TEMPERATURE
MATR.         1                    : LOGUNIT      - NEUTRON MATRIX
RMT .C        25                   : MDTP         - TEMPERATURE OF MUD
NEUT.         1                    : NEUTRON      - NEUTRON TYPE
RESI.         0                    : RESIST       - RESISTIVITY TYPE
RMC .OHMM     0.25                 : RMC          - RESISTIVITY OF MUD CAKE
RMF .OHMM     0.25                 : RMF          - RESISTIVITY OF MUD FILTRATE
SUFT.C        4                    : SUFT         - SURFACE TEMPERATURE
~A  DEPTH       GR     PHIN     PHID     RESD
# ...
   75.500  100.612    0.576    0.243    3.675
   75.750  101.259    0.552    0.240    3.612
   76.000  100.679    0.542    0.241    3.616
   76.250   99.485    0.532    0.244    3.554
   76.500   97.677    0.525    0.245    3.623
   76.750   96.482    0.520    0.247    3.696
   77.000   94.674    0.521    0.254    3.772
   77.250   91.024    0.525    0.261    3.920
   77.500   87.988    0.528    0.270    4.153
   77.750   86.794    0.532    0.278    4.315
   78.000   86.827    0.522    0.287    4.485
   78.250   86.861    0.505    0.294    4.840
   78.500   86.298    0.462    0.279    5.321
   78.750   83.876    0.415    0.256    6.070
   79.000   79.603    0.405    0.227    8.047
   79.250   77.181    0.399    0.215    9.897
   79.500   77.223    0.393    0.212   11.507
   79.750   77.871    0.394    0.215   11.525
   80.000   77.896    0.401    0.219   11.322
   80.250   79.158    0.414    0.218   10.923
   80.500   79.805    0.424    0.211   10.733
   80.750   80.462    0.434    0.194   10.161
   81.000   81.109    0.440    0.202    9.268
   81.250   81.766    0.444    0.215    8.608
   81.500   82.413    0.450    0.224    7.998
   81.750   81.833    0.451    0.221    7.160
   82.000   80.639    0.453    0.205    6.903
   82.250   77.611    0.457    0.170    7.175
   82.500   75.786    0.425    0.215    8.345
   82.750   72.758    0.383    0.244   10.454
   83.000   70.328    0.370    0.258   18.690
   83.250   67.922    0.361    0.268   27.710
   83.500   67.939    0.360    0.234   36.055
   83.750   69.209    0.359    0.225   32.877
   84.000   70.480    0.365    0.220   28.880
   84.250   72.969    0.367    0.207   25.847
   84.500   74.836    0.368    0.197   21.069
   84.750   77.326    0.375    0.195   18.850
   85.000   81.044    0.380    0.206   18.529
   85.250   87.848    0.381    0.205   17.877
   85.500   90.944    0.380    0.196   18.231
   85.750   95.275    0.377    0.175   18.597
   86.000   98.387    0.377    0.164   13.551
   86.250   95.965    0.377    0.171   10.440
   86.500   92.306    0.375    0.182    8.352
   86.750   86.200    0.376    0.188    8.520
   87.000   82.550    0.381    0.189    9.198
   87.250   81.356    0.388    0.191    9.928
   87.500   80.162    0.395    0.191   10.124
   87.750   78.968    0.399    0.197   10.328
   88.000   77.176    0.389    0.211   10.337
   88.250   75.982    0.379    0.221   10.545
   88.500   74.182    0.392    0.229   11.378
   88.750   72.971    0.408    0.238   12.276
   89.000   70.549    0.410    0.242   14.822
   89.250   68.135    0.407    0.240   16.294
   89.500   66.327    0.400    0.239   17.924
   89.750   66.361    0.396    0.234   18.273
   90.000   67.639    0.392    0.203   18.992
   90.250   68.270    0.391    0.199   19.740
   90.500   68.918    0.382    0.211   19.404
   90.750   68.346    0.369    0.229   18.368
   91.000   67.757    0.368    0.245   18.737
   91.250   66.563    0.378    0.242   20.598
   91.500   64.755    0.395    0.240   22.225
   91.750   62.955    0.406    0.240   21.435
   92.000   62.989    0.406    0.243   19.915
   92.250   64.856    0.401    0.249   18.852
   92.500   66.732    0.404    0.250   17.851
   92.750   66.152    0.405    0.255   17.542
   93.000   66.194    0.399    0.260   17.238
   93.250   68.070    0.400    0.256   16.317
   93.500   70.559    0.402    0.238   15.451
   93.750   74.277    0.406    0.221   15.174
   94.000   78.617    0.420    0.201   14.373
   94.250   78.651    0.432    0.182   13.858
   94.500   78.684    0.444    0.185   13.362
   94.750   79.332    0.448    0.213   12.648
   95.000   79.366    0.456    0.217   11.973
   95.250   79.417    0.463    0.207   10.921
   95.500   80.056    0.470    0.197   10.530
   95.750   80.695    0.480    0.190    9.786
   96.000   81.957    0.466    0.184    9.267
   96.250   83.833    0.463    0.188    9.106
   96.500   86.331    0.471    0.193    8.785
   96.750   88.206    0.487    0.203    8.630
   97.000   83.328    0.478    0.215    8.801
   97.250   75.994    0.463    0.245    9.148
   97.500   69.880    0.446    0.244   10.636
   97.750   63.790    0.429    0.246   13.328
   98.000   63.824    0.398    0.253   17.668
   98.250   66.314    0.395    0.250   17.690
   98.500   69.409    0.425    0.237   15.539
   98.750   74.969    0.445    0.228   13.149
   99.000   79.300    0.464    0.220   11.550
   99.250   82.412    0.482    0.243   10.535
   99.500   78.148    0.504    0.254   11.364
   99.750   68.964    0.453    0.260   14.781
  100.000   54.876    0.402    0.259   22.335
  100.250   54.296    0.398    0.242   29.053
  100.500   54.330    0.398    0.237   34.428
  100.750   54.994    0.391    0.243   37.836
  101.000   53.800    0.388    0.246   39.325
  101.250   53.220    0.387    0.247   36.559
  101.500   52.639    0.384    0.247   35.925
  101.750   52.051    0.381    0.247   37.340
  102.000   52.084    0.378    0.246   38.821
  102.250   52.127    0.373    0.246   40.337
  102.500   52.169    0.365    0.251   41.148
  102.750   52.194    0.354    0.258   41.976
  103.000   52.833    0.338    0.266   42.014
  103.250   53.490    0.335    0.271   42.066
  103.500   53.532    0.367    0.272   43.735
  103.750   53.574    0.381    0.264   47.188
  104.000   52.985    0.393    0.245   49.060
  104.250   52.397    0.394    0.243   48.210
  104.500   50.605    0.403    0.250   51.038
  104.750   50.008    0.412    0.255   58.245
  105.000   48.831    0.414    0.260   67.723
  105.250   48.848    0.415    0.262   75.854
  105.500   47.039    0.419    0.264   83.413
  105.750   44.617    0.427    0.269   80.450
  106.000   42.818    0.435    0.270   74.744
  106.250   44.693    0.441    0.272   69.444
  106.500   46.577    0.409    0.278   64.519
  106.750   47.225    0.391    0.282   62.246
  107.000   47.873    0.369    0.286   61.186
  107.250   48.512    0.372    0.290   60.090
  107.500   49.168    0.368    0.290   60.181
  107.750   49.808    0.364    0.284   59.139
  108.000   51.078    0.358    0.274   59.193
  108.250   52.953    0.363    0.263   59.265
  108.500   54.224    0.371    0.252   60.475
  108.750   56.099    0.384    0.238   59.409
  109.000   58.581    0.399    0.224   58.380
  109.250   62.921    0.404    0.216   55.264
  109.500   66.033    0.416    0.222   54.356
  109.750   64.839    0.433    0.241   53.382
  110.000   63.644    0.414    0.253   48.692
  110.250   62.450    0.398    0.241   44.388
  110.500   61.247    0.391    0.226   39.738
  110.750   58.825    0.379    0.241   39.050
  111.000   56.403    0.364    0.259   41.353
  111.250   52.753    0.358    0.271   44.618
  111.500   51.559    0.364    0.282   45.516
  111.750   49.136    0.374    0.273   43.899
  112.000   48.556    0.385    0.262   42.326
  112.250   47.976    0.395    0.254   40.067
  112.500   47.396    0.407    0.250   35.859
  112.750   47.438    0.421    0.255   30.343
  113.000   46.858    0.421    0.259   24.733
  113.250   43.822    0.394    0.270   20.541
  113.500   41.399    0.390    0.265   18.389
  113.750   42.047    0.389    0.259   16.458
  114.000   43.923    0.390    0.258   15.286
  114.250   45.184    0.390    0.259   13.428
  114.500   43.999    0.384    0.259   11.799
  114.750   42.813    0.381    0.259   10.759
  115.000   42.216    0.380    0.259    9.996
  115.250   42.880    0.380    0.266    9.462
  115.500   42.914    0.389    0.279    8.957
  115.750   42.334    0.393    0.286    8.968
  116.000   41.754    0.391    0.283    9.324
  116.250   41.173    0.383    0.277    9.685
  116.500   41.216    0.382    0.274   10.647
  116.750   42.461    0.385    0.280   12.617
  117.000   44.950    0.387    0.287   14.398
  117.250   47.457    0.390    0.285   16.127
  117.500   46.877    0.394    0.275   19.466
  117.750   46.910    0.395    0.274   24.398
  118.000   46.322    0.392    0.282   30.015
  118.250   43.285    0.387    0.288   34.242
  118.500   39.021    0.386    0.288   39.815
  118.750   38.441    0.386    0.293   44.608
