~VERSION INFORMATION
 VERS.                 2.0:   CWLS LOG ASCII STANDARD -VERSION 2.0
 WRAP.                  NO:   ONE LINE PER DEPTH STEP
~WELL INFORMATION BLOCK
#MNEM.UNIT           DATA                    DESCRIPTION OF MNEMONIC
#---------    -------------------            -------------------------------
# Generated from Intellog Unique Number	CC_88_90/WELL/3018
WELL.         IMPERIAL OIL                   : Well_name    - WELL
LOC .         AA/02-21-090-13W4/0            : Location     - LOCATION
UWI .         AA/02-21-090-13W400            : Uwi          - UNIQUE WELL ID
ENTR.         JOETTE                         : Entered      - ENTERED BY
SRVC.         SCHLUMBERGER                   : Scn          - SERVICE COMPANY
DATE.         03/11/92                       : Date         - LOG DATE
STRT.M        45.72                          : top_depth    - START DEPTH
STOP.M        146.72                         : bot_depth    - STOP DEPTH
STEP.M        0.25                           : increment    - STEP LENGTH
 NULL. -999.2500:NULL Value
~CURVE INFORMATION BLOCK
#MNEM UNIT       ERCB CURVE CODE    CURVE DESCRIPTION
#-----------   ------------------   ----------------------------------
DEPT.M        00 001 00 00         : DEPTH        - DEPTH
GR  .API      00 310 00 00         : GR           - GAMMA RAY
NPHI.V/V      00 330 00 00         : PHIN         - NEUTRON POROSITY (SANDSTONE)
ILD .OHMM     00 120 00 00         : RESD         - DEEP RESISTIVITY (DIL)
~PARAMETER INFORMATION
#MNEM.UNIT           DATA             DESCRIPTION OF MNEMONIC
#---------         -----------     ------------------------------
GL  .M        502.92               : gl           - GROUND LEVEL ELEVATION
EREF.M        503.53               : kb           - ELEVATION OF DEPTH REFERENCE
DATM.M        503.53               : datum        - DATUM ELEVATION
TDD .M        213.97               : tdd          - TOTAL DEPTH DRILLER
RUN .         ONE                  : Run          - RUN NUMBER
ENG .         JO                   : Engineer     - RECORDING ENGINEER
WIT .         TIM                  : Witness      - WITNESSED BY
MUD .         GEL                  : Mud_type     - MUD TYPE
MATR.         SANDSTONE            : Logunit      - NEUTRON MATRIX
TMAX.C        18.3333              : BHT          - MAXIMUM RECORDED TEMPERATURE
BHTD.M        213.97               : BHTDEP       - MAXIMUM RECORDED TEMPERATURE
RMT .C        18                   : MDTP         - TEMPERATURE OF MUD
MUDD.KG/M     541.666              : MWT          - MUD DENSITY
NEUT.         1                    : NEUTRON      - NEUTRON TYPE
RESI.         0                    : RESIST       - RESISTIVITY TYPE
RM  .OHMM     6.4                  : RM           - RESISTIVITY OF MUD
RMC .OHMM     6.4                  : RMC          - RESISTIVITY OF MUD CAKE
RMF .OHMM     6.4                  : RMF          - RESISTIVITY OF MUD FILTRATE
SUFT.C        4                    : SUFT         - SURFACE TEMPERATURE
~A  DEPTH       GR     PHIN     RESD
# ...
   99.970   84.881    0.434   22.183
  100.220   82.425    0.434   21.461
  100.470   80.585    0.421   20.450
  100.720   91.650    0.413   19.948
  100.970  115.622    0.411   19.806
  101.220  122.385    0.420   19.593
  101.470  116.857    0.429   19.380
  101.720  121.162    0.434   19.094
  101.970  121.780    0.424   18.664
  102.220  121.783    0.416   19.612
  102.470  108.880    0.418   19.763
  102.720   92.905    0.425   19.838
  102.970   83.075    0.431   20.279
  103.220  100.286    0.420   19.921
  103.470  124.257    0.429   19.562
  103.720  124.875    0.435   18.768
  103.970  116.889    0.420   19.644
  104.220  111.361    0.419   19.286
  104.470   97.229    0.429   18.783
  104.720   84.940    0.396   19.005
  104.970   64.663    0.326   28.658
  105.220   41.313    0.256   28.300
  105.470   43.774    0.195   25.113
  105.720   40.705    0.162   19.894
  105.970   33.333    0.273   17.866
  106.220   35.179    0.435   17.218
  106.470   59.151    0.439   16.862
  106.720   99.101    0.434   16.285
  106.970  105.250    0.426   17.814
  107.220  108.326    0.414   17.238
  107.470   84.361    0.420   16.661
  107.720   68.385    0.429   16.375
  107.970   48.722    0.429   17.686
  108.220   46.267    0.425   17.328
  108.470   60.406    0.423   17.479
  108.720   65.940    0.425   17.846
  108.970   57.953    0.436   18.067
  109.220   45.050    0.432   17.854
  109.470   45.668    0.427   17.351
  109.720   51.203    0.444   16.630
  109.970   58.581    0.452   16.200
  110.220   58.584    0.440   15.261
  110.470   54.900    0.432   15.047
  110.720   57.975    0.434   15.632
  110.970   63.510    0.437   15.420
  111.220   61.669    0.430   16.150
  111.470   61.673    0.423   16.952
  111.720   55.530    0.422   16.595
  111.970   62.908    0.432   16.456
  112.220   75.817    0.441   16.458
  112.470   83.809    0.431   16.464
  112.720   83.198    0.420   18.281
  112.970   78.284    0.427   18.648
  113.220   67.840    0.440   14.083
  113.470   57.396    0.460   11.040
  113.720   47.566    0.473    7.272
  113.970   35.892    0.491    7.421
  114.220   32.823    0.491    8.152
  114.470   35.284    0.475   10.115
  114.720   38.360    0.461   11.644
  114.970   37.134    0.459   11.938
  115.220   40.210    0.459   11.507
  115.470   46.359    0.454    7.957
  115.720   38.987    0.476    6.728
  115.970   43.907    0.500    6.588
  116.220   48.826    0.511    6.520
  116.470   48.830    0.492    6.815
  116.720   46.989    0.480    7.907
  116.970   46.377    0.499    8.202
  117.220   46.381    0.512    7.917
  117.470   42.697    0.512    8.358
  117.720   48.231    0.512    8.654
  117.970   48.849    0.506    8.801
  118.220   36.560    0.489    9.313
  118.470   29.189    0.477    8.884
  118.720   25.505    0.476    8.380
  118.970   21.820    0.483    8.021
  119.220   31.042    0.488    7.445
  119.470   48.867    0.503    6.943
  119.720   44.568    0.502    6.729
  119.970   42.728    0.493    9.491
  120.220   45.190    0.470   14.719
  120.470   47.651    0.456   24.155
  120.720   71.622    0.447   19.227
  120.970   87.604    0.438   18.142
  121.220   92.523    0.428   16.768
  121.470   94.370    0.431   19.313
  121.720   77.780    0.443   22.582
  121.970   71.638    0.444   20.337
  122.220   86.391    0.430   16.134
  122.470   96.841    0.438   15.849
  122.720   96.230    0.451   15.055
  122.970   95.618    0.456   16.003
  123.220   82.716    0.449   16.515
  123.470   72.272    0.446   19.277
  123.720   64.285    0.450   14.783
  123.970   64.903    0.463   13.411
  124.220   82.728    0.480   13.196
  124.470   82.117    0.451   12.548
  124.720   75.360    0.433   16.688
  124.970   75.363    0.438   17.999
  125.220   77.210    0.445   16.189
  125.470   71.068    0.452   16.193
  125.720   69.227    0.448   16.634
  125.970   66.772    0.439   15.841
  126.220   63.702    0.442   14.685
  126.470   46.498    0.451   15.705
  126.720   45.886    0.456   14.113
  126.970   55.722    0.462   14.264
  127.220   73.548    0.461   14.050
  127.470   83.999    0.457   12.894
  127.720   79.700    0.468   10.503
  127.970   66.797    0.475    9.855
  128.220   48.978    0.467   11.964
  128.470   71.105    0.473   13.929
  128.720   95.691    0.457   17.414
  128.970  123.964    0.432   17.419
  129.220  115.978    0.431   17.932
  129.470  115.981    0.440   16.195
  129.720  124.588    0.482   14.966
  129.970  120.904    0.498   11.851
  130.220   92.637    0.475    8.881
  130.470   76.047    0.454   10.990
  130.720   47.780    0.453   12.082
  130.970   63.762    0.462   13.322
  131.220  106.785    0.463   13.109
  131.470  104.330    0.463   14.273
  131.720  106.176    0.467   21.968
  131.970   93.888    0.474   21.537
  132.220   61.934    0.480    8.047
  132.470   44.115    0.479    9.503
  132.720   65.014    0.464   11.103
  132.970   74.235    0.453   11.472
  133.220   83.457    0.450   10.677
  133.470  113.573    0.451   14.962
  133.720   96.984    0.458   18.884
  133.970   55.196    0.460   18.745
  134.220   39.221    0.420    9.898
  134.470   52.744    0.393   11.716
  134.720   66.882    0.423   19.411
  134.970   77.948    0.486   17.384
  135.220   87.169    0.501   13.471
  135.470   83.485    0.510   10.357
  135.720   75.499    0.522   11.305
  135.970   73.044    0.531    7.971
  136.220   77.349    0.522    6.379
  136.470   74.894    0.512    5.804
  136.720   76.126    0.504    5.590
  136.970   67.525    0.489    5.814
  137.220   63.841    0.470    6.254
  137.470   65.688    0.455    6.259
  137.720   59.545    0.453    6.335
  137.970   54.632    0.460   11.708
  138.220   60.781    0.469   13.236
  138.470   63.242    0.477   12.733
  138.720   58.944    0.476   12.158
  138.970   62.020    0.466   11.654
  139.220   70.627    0.453   12.094
  139.470   73.703    0.439   15.363
  139.720   74.935    0.444   22.332
  139.970   74.324    0.455   21.103
  140.220   71.869    0.453   20.020
  140.470   63.883    0.441   19.808
  140.720   63.885    0.432   19.595
  140.970   66.347    0.436   19.889
  141.220   67.579    0.443   18.877
  141.470   76.187    0.447   17.141
  141.720   71.887    0.435   17.873
  141.970   69.432    0.424   17.515
  142.220   66.362    0.433   18.171
  142.470   66.980    0.422   25.212
  142.720   68.213    0.426   19.703
  142.970   65.757    0.442   18.764
  143.220   67.605    0.451   20.511
  143.470   76.212    0.436   21.458
  143.720   74.371    0.419   20.955
  143.970   70.072    0.425   20.161
  144.220   72.534    0.430   20.891
  144.470   71.308    0.437   29.094
  144.720   67.623    0.445   31.130
  144.970   65.168    0.439   27.653
  145.220   74.390    0.431   23.522
  145.470   71.935    0.434   20.552
  145.720   59.032    0.449   20.846
  145.970   39.369    0.463   21.795
  146.220   20.320    0.442   19.985
  146.470   21.553    0.420   14.185
  146.720   25.243    0.345   14.553
