~VERSION INFORMATION
 VERS.                 2.0:   CWLS LOG ASCII STANDARD -VERSION 2.0
 WRAP.                  NO:   ONE LINE PER DEPTH STEP
~WELL INFORMATION BLOCK
#MNEM.UNIT           DATA                    DESCRIPTION OF MNEMONIC
#---------    -------------------            -------------------------------
# Generated from Intellog Unique Number	CN_91_93/WELL/3616
WELL.         03-18-093-09W4                 : Well_name    - WELL
LOC .         AA/03-18-093-09W4/0            : Location     - LOCATION
UWI .         AA/03-18-093-09W400            : Uwi          - UNIQUE WELL ID
ENTR.         JOETTE                         : Entered      - ENTERED BY
SRVC.         SCHLUMBERGER                   : Scn          - SERVICE COMPANY
DATE.         03/18/92                       : Date         - LOG DATE
STRT.M        0                              : top_depth    - START DEPTH
STOP.M        75                             : bot_depth    - STOP DEPTH
STEP.M        0.25                           : increment    - STEP LENGTH
 NULL. -999.2500:NULL Value
~CURVE INFORMATION BLOCK
#MNEM UNIT       ERCB CURVE CODE    CURVE DESCRIPTION
#-----------   ------------------   ----------------------------------
DEPT.M        00 001 00 00         : DEPTH        - DEPTH
ILD .OHMM     00 120 00 00         : RESD         - DEEP RESISTIVITY (DIL)
CALI.MM       00 280 01 00         : CAL          - CALIPER
GR  .API      00 310 00 00         : GR           - GAMMA RAY
NPHI.V/V      00 330 00 00         : PHIN         - NEUTRON POROSITY (SANDSTONE)
DPHI.V/V      00 890 00 00         : PHID         - DENSITY POROSITY (SANDSTONE)
~PARAMETER INFORMATION
#MNEM.UNIT           DATA             DESCRIPTION OF MNEMONIC
#---------         -----------     ------------------------------
GL  .M        331.24               : gl           - GROUND LEVEL ELEVATION
EREF.M        331.24               : kb           - ELEVATION OF DEPTH REFERENCE
DATM.M        331.24               : datum        - DATUM ELEVATION
TDD .M        76.87                : tdd          - TOTAL DEPTH DRILLER
RUN .         ONE                  : Run          - RUN NUMBER
ENG .         JO                   : Engineer     - RECORDING ENGINEER
WIT .         TIM                  : Witness      - WITNESSED BY
MUD .         GEL                  : Mud_type     - MUD TYPE
MATR.         SANDSTONE            : Logunit      - NEUTRON MATRIX
TMAX.C        6                    : BHT          - MAXIMUM RECORDED TEMPERATURE
BHTD.M        76.87                : BHTDEP       - MAXIMUM RECORDED TEMPERATURE
RMT .C        19.5                 : MDTP         - TEMPERATURE OF MUD
MUDD.KG/M     1000                 : MWT          - MUD DENSITY
NEUT.         1                    : NEUTRON      - NEUTRON TYPE
RESI.         0                    : RESIST       - RESISTIVITY TYPE
RM  .OHMM     16.7                 : RM           - RESISTIVITY OF MUD
RMC .OHMM     18.9                 : RMC          - RESISTIVITY OF MUD CAKE
RMF .OHMM     15                   : RMF          - RESISTIVITY OF MUD FILTRATE
SUFT.C        4                    : SUFT         - SURFACE TEMPERATURE
~A  DEPTH     RESD      CAL       GR     PHIN     PHID
    0.000    0.000    0.000   16.428    0.000    0.000
    0.250    0.000    0.000   16.415    0.000    0.000
    0.500    0.000    0.000   23.700    0.000    0.000
    0.750    0.000    0.000   27.943    0.000    0.000
    1.000    0.000    0.000   30.968    0.000    0.000
    1.250    0.000    0.000   24.861    0.000    0.000
    1.500    0.000    0.000   21.192    0.000    0.000
    1.750    0.000    0.000   26.047    0.000    0.000
    2.000    0.000    0.000   25.421    0.111    0.477
    2.250    0.000    0.000   22.965    0.113    0.462
    2.500    0.000    0.000   30.255    0.111    0.457
    2.750    0.000    0.000   42.405    0.107    0.463
    3.000    0.000    0.000   36.306    0.106    0.456
    3.250    0.000    0.000   27.159    0.106    0.456
    3.500    0.000    0.000   28.967    0.105    0.464
    3.750    0.000    0.000   36.258    0.099    0.468
    4.000    0.000    0.000   30.149    0.090    0.462
    4.250    0.000    0.000   27.698    0.081    0.442
    4.500    0.000    0.000   29.506    0.085    0.444
    4.750    0.000    0.000   30.097    0.090    0.436
    5.000    0.000    0.000   28.254    0.089    0.436
    5.250    0.000    0.000   29.453    0.087    0.436
    5.500    0.000    0.000   31.266    0.089    0.430
    5.750    0.000    0.000   28.810    0.090    0.412
    6.000    0.000    0.000   38.534    0.088    0.428
    6.250    0.000    0.000   47.641    0.085    0.439
    6.500    0.000    0.000   43.972    0.084    0.439
    6.750    0.000    0.000   40.307    0.084    0.424
    7.000    0.000    0.000   40.290    0.086    0.423
    7.250    0.000    0.000   47.575    0.088    0.424
    7.500    0.000    0.000   40.863    0.085    0.421
    7.750    0.000    0.000   35.368    0.083    0.406
    8.000    0.000    0.000   38.389    0.085    0.424
    8.250    0.000    0.000   39.589    0.093    0.432
    8.500    0.000    0.000   41.397    0.100    0.423
    8.750    0.000    0.000   43.215    0.092    0.409
    9.000    0.000    0.000   63.889    0.065    0.440
    9.250    0.000    0.000   77.865    0.068    0.467
    9.500    0.000    0.000   76.022    0.072    0.499
    9.750    0.000    0.000   77.835    0.071    0.528
   10.000   50.831   98.520   72.335    0.064    0.543
   10.250   52.705   98.503   73.539    0.060    0.516
   10.500   53.668   98.491   71.696    0.063    0.525
   10.750   53.646   98.882   61.332    0.069    0.516
   11.000   53.609   99.276   57.054    0.069    0.528
   11.250   52.596   99.262   79.555    0.068    0.533
   11.500   50.648   99.653   76.495    0.067    0.516
   11.750   48.793  100.047   64.305    0.066    0.389
   12.000   44.441  100.035   55.159    0.064    0.169
   12.250   42.021  100.426   48.447    0.068    0.173
   12.500   40.471  100.415   59.992    0.074    0.165
   12.750   38.262  100.400   64.848    0.090    0.140
   13.000   36.174  100.385   72.134    0.158    0.135
   13.250   34.844  100.371   72.725    0.264    0.145
   13.500   32.943  100.362   66.013    0.316    0.149
   13.750   30.004  100.345   61.122    0.349    0.129
   14.000   28.375  100.336   61.104    0.324    0.123
   14.250   25.851   99.915   64.134    0.303    0.158
   14.500   25.359   99.495   63.504    0.322    0.180
   14.750   27.297   99.481   63.491    0.324    0.175
   15.000   29.930   99.466   67.125    0.329    0.176
   15.250   24.856   99.457   53.718    0.349    0.187
   15.500   18.471   99.440   50.657    0.406    0.219
   15.750   15.626   99.025   59.160    0.445    0.249
   16.000   17.780   99.010   62.794    0.476    0.288
   16.250   17.121   98.999   59.734    0.453    0.306
   16.500   16.189   98.576   67.015    0.421    0.293
   16.750   18.762   98.561   48.744    0.430    0.287
   17.000   19.102   98.549   50.552    0.419    0.294
   17.250   20.559   98.943   58.447    0.421    0.294
   17.500   22.131   99.334   63.289    0.413    0.286
   17.750   21.314  100.131   61.450    0.429    0.291
   18.000   19.418  102.148   65.084    0.426    0.281
   18.250   19.408  106.600   63.245    0.405    0.288
   18.500   23.343  107.397   58.359    0.382    0.290
   18.750   28.602  108.193   57.115    0.399    0.268
   19.000   40.649  112.648   58.937    0.405    0.250
   19.250   51.686  115.473   63.788    0.389    0.256
   19.500   53.606  111.804   68.031    0.422    0.279
   19.750   47.942  115.041   77.142    0.429    0.281
   20.000   34.331  113.404   69.821    0.435    0.284
   20.250   20.428  111.360   71.630    0.398    0.272
   20.500   17.932  110.937   92.913    0.392    0.248
   20.750   17.596  110.931  100.199    0.438    0.225
   21.000   21.164  110.917   92.265    0.456    0.230
   21.250   29.522  110.899   87.383    0.480    0.257
   21.500   32.368  111.290   78.845    0.474    0.280
   21.750   31.170  111.279   77.002    0.434    0.306
   22.000   34.175  111.270   89.156    0.450    0.317
   22.250   31.721  111.655   97.055    0.396    0.307
   22.500   24.014  111.649   91.560    0.431    0.266
   22.750   19.940  113.258   87.282    0.460    0.269
   23.000   24.436  117.709   95.785    0.432    0.258
   23.250   21.453  118.100  102.458    0.395    0.246
   23.500   18.149  116.057  109.139    0.425    0.247
   23.750   17.156  118.885  105.470    0.441    0.243
   24.000   17.469  119.273   92.064    0.444    0.237
   24.250   18.457  120.473   85.351    0.377    0.237
   24.500   17.776  120.873   90.203    0.402    0.233
   24.750   14.763  121.267   82.273    0.412    0.242
   25.000   15.887  121.652   84.690    0.402    0.238
   25.250   16.480  121.241   90.759    0.407    0.228
   25.500   14.738  120.415   88.915    0.425    0.230
   25.750   17.082  119.589   79.769    0.395    0.236
   26.000   28.150  118.360   70.622    0.371    0.243
   26.250   54.810  117.939   62.084    0.366    0.252
   26.500   61.219  117.928   57.807    0.407    0.264
   26.750   32.592  118.316   80.307    0.440    0.273
   27.000   22.078  119.521   77.247    0.419    0.250
   27.250   34.420  121.941   61.406    0.420    0.253
   27.500   74.886  123.955   52.259    0.430    0.280
   27.750   82.106  125.561   55.285    0.409    0.293
   28.000   45.367  125.961   75.351    0.410    0.282
   28.250   16.676  127.160   91.161    0.434    0.278
   28.500   30.151  127.557   92.970    0.390    0.270
   28.750   36.266  128.357   83.823    0.387    0.260
   29.000   37.609  128.745   71.629    0.394    0.255
   29.250   46.949  129.136   60.048    0.416    0.260
   29.500  218.298  129.128   64.291    0.405    0.254
   29.750  145.143  129.107   40.538    0.426    0.282
   30.000   98.320  129.101   25.305    0.389    0.316
   30.250   57.431  128.272   52.675    0.367    0.305
   30.500   38.904  126.635   72.746    0.361    0.281
   30.750   41.872  124.997   82.461    0.357    0.280
   31.000   41.849  124.180   78.796    0.441    0.280
   31.250   24.445  121.322   88.517    0.440    0.259
   31.500   17.184  119.279   93.368    0.422    0.241
   31.750   15.368  118.053   90.916    0.388    0.250
   32.000   23.085  116.004  103.679    0.417    0.243
   32.250   17.155  115.187  102.444    0.413    0.234
   32.500   12.515  114.358   92.081    0.410    0.240
   32.750   14.239  113.534   83.543    0.419    0.247
   33.000   18.788  113.523   82.916    0.438    0.251
   33.250   28.223  113.914   81.682    0.444    0.250
   33.500   52.947  114.308   72.535    0.410    0.246
   33.750   42.372  115.910   78.604    0.372    0.282
   34.000   20.563  116.307   76.152    0.388    0.269
   34.250   29.223  117.107   72.483    0.417    0.255
   34.500   32.640  117.090   60.293    0.392    0.259
   34.750   37.137  117.075   74.886    0.420    0.270
   35.000   21.292  116.660   70.609    0.433    0.261
   35.250   30.259  115.429   71.195    0.417    0.256
   35.500   93.610  114.197   63.270    0.454    0.272
   35.750   79.193  113.779   58.993    0.393    0.295
   36.000   24.641  113.362   69.930    0.443    0.290
   36.250   39.134  113.350   66.869    0.455    0.272
