~VERSION INFORMATION
 VERS.                 2.0:   CWLS LOG ASCII STANDARD -VERSION 2.0
 WRAP.                  NO:   ONE LINE PER DEPTH STEP
~WELL INFORMATION BLOCK
#MNEM.UNIT           DATA                    DESCRIPTION OF MNEMONIC
#---------    -------------------            -------------------------------
# Generated from Intellog Unique Number	CN_94_101/WELL/3362
WELL.         06-09-095-10W4                 : Well_name    - WELL
LOC .         AA/06-09-095-10W4/0            : Location     - LOCATION
UWI .         AA/06-09-095-10W400            : Uwi          - UNIQUE WELL ID
ENTR.         JOETTE                         : Entered      - ENTERED BY
SRVC.         SCHLUMBERGER                   : Scn          - SERVICE COMPANY
DATE.         07/24/92                       : Date         - LOG DATE
STRT.M        2.5                            : top_depth    - START DEPTH
STOP.M        90                             : bot_depth    - STOP DEPTH
STEP.M        0.25                           : increment    - STEP LENGTH
 NULL. -999.2500:NULL Value
~CURVE INFORMATION BLOCK
#MNEM UNIT       ERCB CURVE CODE    CURVE DESCRIPTION
#-----------   ------------------   ----------------------------------
DEPT.M        00 001 00 00         : DEPTH        - DEPTH
GR  .API      00 310 00 00         : GR           - GAMMA RAY
NPHI.V/V      00 330 00 00         : PHIN         - NEUTRON POROSITY (SANDSTONE)
ILD .OHMM     00 120 00 00         : RESD         - DEEP RESISTIVITY (DIL)
~PARAMETER INFORMATION
#MNEM.UNIT           DATA             DESCRIPTION OF MNEMONIC
#---------         -----------     ------------------------------
GL  .M        0                    : gl           - GROUND LEVEL ELEVATION
EREF.M        0                    : kb           - ELEVATION OF DEPTH REFERENCE
DATM.M        0                    : datum        - DATUM ELEVATION
TDD .M        91.7                 : tdd          - TOTAL DEPTH DRILLER
RUN .         ONE                  : Run          - RUN NUMBER
ENG .         JO                   : Engineer     - RECORDING ENGINEER
WIT .         TIM                  : Witness      - WITNESSED BY
MUD .         GEL                  : Mud_type     - MUD TYPE
MATR.         SANDSTONE            : Logunit      - NEUTRON MATRIX
TMAX.C        18                   : BHT          - MAXIMUM RECORDED TEMPERATURE
BHTD.M        91.7                 : BHTDEP       - MAXIMUM RECORDED TEMPERATURE
RMT .C        18                   : MDTP         - TEMPERATURE OF MUD
MUDD.KG/M     1010                 : MWT          - MUD DENSITY
NEUT.         1                    : NEUTRON      - NEUTRON TYPE
RESI.         0                    : RESIST       - RESISTIVITY TYPE
RM  .OHMM     6.5                  : RM           - RESISTIVITY OF MUD
RMC .OHMM     6.5                  : RMC          - RESISTIVITY OF MUD CAKE
RMF .OHMM     6.5                  : RMF          - RESISTIVITY OF MUD FILTRATE
SUFT.C        4                    : SUFT         - SURFACE TEMPERATURE
~A  DEPTH       GR     PHIN     RESD
    2.500   34.567    0.431   46.911
    2.750   51.358    0.471   44.283
    3.000   55.806    0.476   43.028
    3.250   54.328    0.475   42.399
    3.500   61.737    0.471   41.785
    3.750   61.740    0.477   40.579
    4.000   52.360    0.475   39.997
    4.250   54.338    0.477   39.418
    4.500   61.254    0.478   38.291
    4.750   58.788    0.477   37.736
    5.000   50.890    0.477   35.130
    5.250   47.436    0.478   36.121
    5.500   40.032    0.483   41.016
    5.750   35.592    0.490   45.278
    6.000   39.050    0.481   45.254
    6.250   51.398    0.461   39.251
    6.500   64.734    0.449   49.220
    6.750   61.280    0.448   44.545
    7.000   67.208    0.451   22.224
    7.250   88.444    0.462   19.831
    7.500   91.410    0.473   17.443
    7.750   93.388    0.470   19.528
    8.000  104.749    0.465   21.248
    8.250   96.850    0.467   19.786
    8.500   98.829    0.469   16.919
    8.750   93.893    0.456   16.908
    9.000   86.489    0.437   21.508
    9.250   78.097    0.417   72.780
    9.500   60.817    0.419  122.938
    9.750   57.363    0.441  167.852
   10.000   74.649    0.460   17.106
   10.250   82.553    0.465   16.154
   10.500   86.012    0.463   19.972
   10.750   95.891    0.457   21.734
   11.000   94.906    0.451   31.406
   11.250   80.589    0.454   24.319
   11.500   89.480    0.461   18.566
   11.750   85.039    0.463   18.037
   12.000   78.128    0.458   25.697
   12.250   81.588    0.451   20.762
   12.500   84.060    0.444   23.241
   12.750   89.494    0.438   20.445
   13.000   84.560    0.445   23.219
   13.250   79.624    0.445   28.302
   13.500   79.133    0.437   33.062
   13.750   76.173    0.431   52.768
   14.000   68.276    0.430   86.629
   14.250   61.858    0.436   33.481
   14.500   66.305    0.444   21.558
   14.750   85.567    0.456   23.798
   15.000   91.496    0.453   25.529
   15.250   90.511    0.450   23.108
   15.500   92.983    0.451   20.910
   15.750   86.566    0.451   24.430
   16.000   86.569    0.447   24.417
   16.250   86.572    0.443   31.052
   16.500   85.093    0.447   19.718
   16.750   90.528    0.451   22.710
   17.000   80.161    0.450   25.424
   17.250   83.620    0.448   32.799
   17.500   90.536    0.450   22.673
   17.750  102.390    0.445   29.668
   18.000   85.604    0.447   31.382
   18.250   86.594    0.454   31.809
   18.500   70.796    0.448   76.590
   18.750   63.885    0.451  221.741
   19.000   52.531    0.447   75.431
   19.250   57.472    0.450  105.967
   19.500   58.462    0.453   66.323
   19.750   59.947    0.450  113.631
   20.000   54.023    0.446   52.062
   20.250   56.989    0.434  412.482
   20.500   55.017    0.434  144.373
   20.750   58.477    0.436  152.716
   21.000   53.047    0.436   40.248
   21.250   58.976    0.443   29.864
   21.500   58.485    0.454   71.905
   21.750   46.142    0.449  257.515
   22.000   43.676    0.440  318.376
   22.250   47.136    0.442  545.393
   22.500   52.570    0.446  229.532
   22.750   64.424    0.450  317.866
   23.000   62.946    0.456  350.848
   23.250   58.998    0.456   64.868
   23.500   52.582    0.447  345.539
   23.750   52.091    0.435   93.686
   24.000   57.525    0.430   33.255
   24.250   66.910    0.437   53.826
   24.500   64.444    0.450   27.238
   24.750   77.286    0.454   27.224
   25.000   80.745    0.453   59.348
   25.250   73.835    0.450   92.072
   25.500   46.679    0.444   56.823
   25.750   44.213    0.439   72.274
   26.000   49.648    0.434  967.632
   26.250   45.700    0.442  277.702
   26.500   50.147    0.437  125.442
   26.750   49.162    0.439  358.063
   27.000   43.239    0.448  406.583
   27.250   41.761    0.444  347.680
   27.500   48.183    0.435  423.798
   27.750   51.148    0.429   51.201
   28.000   69.422    0.441   41.369
   28.250   82.757    0.443   29.003
   28.500   88.192    0.446   30.683
   28.750   74.862    0.448   81.576
   29.000   63.508    0.437  135.855
   29.250   56.597    0.440   68.739
   29.500   64.501    0.450  126.422
   29.750   49.690    0.446  291.682
   30.000   41.793    0.447  398.247
   30.250   40.807    0.446  513.833
   30.500   37.847    0.443  774.766
   30.750   31.430    0.443  316.906
   31.000   44.766    0.442   51.573
   31.250   56.620    0.450   44.102
   31.500   70.450    0.454   38.797
   31.750   65.021    0.455  364.404
   32.000   49.222    0.448  364.209
   32.250   38.362    0.446  348.855
   32.500   43.796    0.446  237.766
   32.750   54.169    0.447   61.781
   33.000   46.271    0.447   71.154
   33.250   39.360    0.440  401.142
   33.500   39.857    0.446  667.963
   33.750   40.847    0.448  639.804
   34.000   33.937    0.441  570.889
   34.250   32.459    0.440  657.418
   34.500   35.918    0.440  675.967
   34.750   34.933    0.440  756.860
   35.000   27.530    0.441  724.953
   35.250   25.556    0.442  553.375
   35.500   23.584    0.445  799.746
   35.750   35.932    0.437  788.066
   36.000   39.391    0.436  584.809
   36.250   47.296    0.437  295.938
   36.500   44.829    0.439  111.176
   36.750   47.794    0.434   63.918
   37.000   68.537    0.430   36.743
   37.250   67.552    0.434   87.223
   37.500   56.197    0.439  209.988
   37.750   53.731    0.443  498.488
   38.000   46.821    0.437  212.759
   38.250   36.454    0.445  359.384
   38.500   40.407    0.448  100.243
   38.750   40.410    0.446  334.385
   39.000   36.462    0.436  526.172
   39.250   28.565    0.428  718.408
   39.500   13.260    0.421  940.027
   39.750    9.807    0.403  862.786
   40.000   12.771    0.365  631.327
   40.250   25.613    0.351  571.369
   40.500   21.172    0.342  737.103
   40.750   20.187    0.315  495.307
   41.000   20.684    0.299  367.509
   41.250   17.231    0.301  417.309
   41.500   17.233    0.305  175.627
   41.750   30.074    0.319  124.902
   42.000   44.891    0.373  156.605
   42.250   82.422    0.406   86.286
   42.500   99.708    0.428    8.671
   42.750  119.957    0.467   11.028
   43.000  115.516    0.473   11.666
   43.250  111.074    0.468   11.825
   43.500  110.089    0.465   11.987
   43.750  105.154    0.464   12.153
   44.000  106.145    0.453   12.856
   44.250   90.346    0.442   15.894
   44.500   78.991    0.446   23.628
   44.750   66.156    0.446   29.625
   45.000   49.863    0.432   33.170
   45.250   29.126    0.432   81.008
   45.500   26.166    0.432   91.985
   45.750   20.737    0.421  203.418
   46.000   16.297    0.407  237.595
   46.250   18.274    0.400  258.590
   46.500   18.771    0.412  277.440
   46.750   15.317    0.419  152.843
   47.000   17.296    0.421  237.120
   47.250   14.335    0.416  436.042
   47.500    9.401    0.412  411.725
   47.750   10.884    0.415  372.673
   48.000   26.689    0.415  101.043
   48.250   33.605    0.414   46.949
   48.500   34.596    0.429   40.153
   48.750   38.055    0.448   30.222
   49.000   36.083    0.442   33.835
   49.250   41.023    0.446   25.830
   49.500   75.098    0.461    9.169
   49.750  105.223    0.474    7.100
   50.000  113.126    0.492    6.070
   50.250  113.129    0.490    6.154
   50.500  104.738    0.486    6.418
   50.750  111.160    0.485    7.084
   51.000  100.299    0.487    6.689
   51.250  104.252    0.494    6.500
   51.500  101.786    0.499    6.405
   51.750  110.183    0.490    6.401
   52.000  116.112    0.494    6.397
   52.250  120.559    0.490    6.486
   52.500   96.366    0.487    6.574
   52.750   86.493    0.484    6.954
   53.000   86.495    0.485    7.357
   53.250   78.104    0.487    8.472
   53.500   70.699    0.467    7.889
   53.750   50.456    0.418    8.708
   54.000   27.745    0.424   15.565
   54.250   21.328    0.440   21.251
   54.500   38.120    0.474   13.115
   54.750   82.565    0.507    6.543
   55.000   79.111    0.503    7.429
   55.250   83.064    0.497    8.437
   55.500   81.586    0.492    7.634
   55.750   88.996    0.487    8.427
   56.000   83.073    0.480   11.838
   56.250   83.570    0.457   18.105
   56.500   69.252    0.426   18.095
