~VERSION INFORMATION
 VERS.                 2.0:   CWLS LOG ASCII STANDARD -VERSION 2.0
 WRAP.                  NO:   ONE LINE PER DEPTH STEP
~WELL INFORMATION BLOCK
#MNEM.UNIT           DATA                    DESCRIPTION OF MNEMONIC
#---------    -------------------            -------------------------------
# Generated from Intellog Unique Number	CX_WELLS/WELL/3778
LOC .         AA/07-04-086-15W4/0            : Location     - LOCATION
UWI .         AA/07-04-086-15W400            : Uwi          - UNIQUE WELL ID
ENTR.         T                              : Entered      - ENTERED BY
SRVC.         SCHLUMBERGER                   : Scn          - SERVICE COMPANY
STRT.F        200                            : top_depth    - START DEPTH
STOP.F        750.361                        : bot_depth    - STOP DEPTH
STEP.F        0.82                           : increment    - STEP LENGTH
 NULL. -999.2500:NULL Value
~CURVE INFORMATION BLOCK
#MNEM UNIT       ERCB CURVE CODE    CURVE DESCRIPTION
#-----------   ------------------   ----------------------------------
DEPT.F        00 001 00 00         : DEPTH        - DEPTH
GR  .API      00 310 00 00         : GR           - GAMMA RAY
NPHI.V/V      00 330 00 00         : PHIN         - NEUTRON POROSITY (SANDSTONE)
ILD .OHMM     00 120 00 00         : RESD         - DEEP RESISTIVITY (DIL)
~PARAMETER INFORMATION
#MNEM.UNIT           DATA             DESCRIPTION OF MNEMONIC
#---------         -----------     ------------------------------
GL  .F        1711                 : gl           - GROUND LEVEL ELEVATION
EREF.F        1711                 : kb           - ELEVATION OF DEPTH REFERENCE
DATM.F        1711                 : datum        - DATUM ELEVATION
TDD .F        753                  : tdd          - TOTAL DEPTH DRILLER
RUN .         ONE                  : Run          - RUN NUMBER
ENG .         BILL                 : Engineer     - RECORDING ENGINEER
WIT .         JIM                  : Witness      - WITNESSED BY
MUD .         GEL                  : Mud_type     - MUD TYPE
MATR.         SANDSTONE            : Logunit      - NEUTRON MATRIX
TMAX.F        55                   : BHT          - MAXIMUM RECORDED TEMPERATURE
BHTD.F        753                  : BHTDEP       - MAXIMUM RECORDED TEMPERATURE
MATR.         1                    : LOGUNIT      - NEUTRON MATRIX
RMT .F        65                   : MDTP         - TEMPERATURE OF MUD
NEUT.         1                    : NEUTRON      - NEUTRON TYPE
RESI.         7.1                  : RESIST       - RESISTIVITY TYPE
RMC .OHMM     6.5                  : RMC          - RESISTIVITY OF MUD CAKE
RMF .OHMM     5                    : RMF          - RESISTIVITY OF MUD FILTRATE
SUFT.F        35                   : SUFT         - SURFACE TEMPERATURE
~A  DEPTH       GR     PHIN     RESD
# ...
  377.986   95.284    0.478    8.348
  378.806  100.418    0.486    8.171
  379.626  102.126    0.491    8.162
  380.446  103.834    0.491    8.157
  381.266  105.199    0.490    8.150
  382.087  108.273    0.490    7.972
  382.907  108.270    0.489    7.793
  383.727  108.606    0.488    7.784
  384.547  109.627    0.488    7.779
  385.367  110.652    0.488    7.772
  386.188  112.016    0.488    7.765
  387.008  111.325    0.488    7.758
  387.828  109.950    0.488    7.581
  388.648  108.572    0.488    7.572
  389.469  108.909    0.489    7.567
  390.289  108.218    0.491    7.387
  391.109  108.213    0.496    7.382
  391.929  110.262    0.502    7.372
  392.749  110.943    0.505    7.366
  393.570  110.249    0.505    7.190
  394.390  109.902    0.505    7.180
  395.210  109.896    0.506    7.175
  396.030  109.549    0.506    7.166
  396.850  109.542    0.507    7.161
  397.671  109.535    0.508    7.152
  398.491  108.844    0.508    7.145
  399.311  108.155    0.509    7.140
  400.131  108.149    0.509    7.133
  400.951  109.511    0.508    7.293
  401.772  110.192    0.504    7.288
  402.592  111.215    0.502    7.454
  403.412  110.867    0.496    7.443
  404.232  111.545    0.495    7.605
  405.052  111.882    0.500    7.602
  405.873  111.878    0.503    7.593
  406.693  111.182    0.507    7.415
  407.513  110.494    0.508    7.065
  408.333  110.147    0.508    6.889
  409.154  108.086    0.506    6.541
  409.974  105.680    0.503    6.363
  410.794  103.616    0.503    6.013
  411.614  102.925    0.503    5.836
  412.434  101.892    0.501    5.658
  413.255  100.515    0.496    5.651
  414.075   98.112    0.488    5.815
  414.895   95.022    0.477    6.491
  415.715   91.933    0.464    7.339
  416.535   87.813    0.447    9.038
  417.356   84.723    0.430   11.079
  418.176   83.345    0.430   13.462
  418.996   86.768    0.432   15.162
  419.816   88.817    0.432   14.301
  420.636   89.840    0.433   12.246
  421.457   90.177    0.436   10.190
  422.277   90.858    0.440   10.010
  423.097   91.877    0.444   10.003
  423.917   92.900    0.446    9.827
  424.738   93.238    0.441    9.650
  425.558   94.259    0.438    9.641
  426.378   95.280    0.440    9.636
  427.198   95.963    0.442    9.456
  428.018   97.328    0.446    9.275
  428.839   99.379    0.447    9.270
  429.659  100.401    0.446    9.265
  430.479   99.025    0.445    9.086
  431.299   95.933    0.444    8.910
  432.119   93.186    0.444    8.901
  432.940   89.754    0.445    8.896
  433.760   88.377    0.447    8.889
  434.580   90.428    0.450    8.711
  435.400   91.449    0.448    8.361
  436.220   90.071    0.448    8.013
  437.041   88.696    0.451    8.006
  437.861   86.633    0.452    7.999
  438.681   85.943    0.452    8.163
  439.501   85.592    0.452    8.326
  440.322   86.616    0.446    8.319
  441.142   87.638    0.442    7.969
  441.962   89.005    0.432    7.621
  442.782   88.314    0.425    7.443
  443.602   86.592    0.414    7.266
  444.423   85.902    0.408    7.088
  445.243   84.865    0.415    7.081
  446.063   84.176    0.420    7.586
  446.883   84.170    0.426    8.433
  447.703   85.879    0.429    9.450
  448.524   88.273    0.433    9.612
  449.344   90.323    0.439    8.241
  450.164   92.031    0.434    6.186
  450.984   89.968    0.425    7.031
  451.804   88.249    0.414    8.389
  452.625   85.501    0.398   10.089
  453.445   84.125    0.396   10.252
  454.265   84.462    0.404    9.392
  455.085   85.485    0.413    8.701
  455.906   84.792    0.415    8.521
  456.726   84.101    0.416    8.516
  457.546   84.437    0.417    9.020
  458.366   84.433    0.419    9.526
  459.186   84.769    0.422    9.861
  460.007   85.446    0.423    9.852
  460.827   85.444    0.428    9.502
  461.647   86.466    0.432    9.328
  462.467   86.460    0.433    9.148
  463.287   86.455    0.434    8.971
  464.108   86.792    0.433    8.964
  464.928   85.755    0.432    8.959
  465.748   85.408    0.425    8.952
  466.568   84.716    0.419    8.943
  467.388   85.738    0.412    8.934
  468.209   88.476    0.409    8.929
  469.029   92.581    0.415    8.751
  469.849   94.975    0.426    8.229
  470.669   97.711    0.435    8.053
  471.490   95.991    0.440    8.044
  472.310   94.616    0.437    8.041
  473.130   93.922    0.432    8.375
  473.950   93.230    0.424    8.710
  474.770   92.541    0.414    8.873
  475.591   90.822    0.402    9.377
  476.411   88.418    0.394    9.709
  477.231   86.355    0.397    9.875
  478.051   85.663    0.400   10.380
  478.871   87.373    0.407   12.421
  479.692   91.135    0.416   11.049
  480.512   90.443    0.420    9.335
  481.332   89.066    0.413    8.985
  482.152   88.034    0.404    9.831
  482.972   86.658    0.401   10.678
  483.793   85.280    0.399   11.355
  484.613   83.905    0.391   11.860
  485.433   82.528    0.389   12.532
  486.253   81.151    0.385   12.865
  487.073   80.460    0.381   13.032
  487.894   80.110    0.375   14.048
  488.714   79.760    0.368   14.211
  489.534   79.072    0.345   14.204
  490.354   78.038    0.321   14.539
  491.175   75.975    0.310   14.530
  491.995   73.228    0.273   14.527
  492.815   70.822    0.231   14.518
  493.635   69.447    0.190   15.194
  494.455   71.155    0.156   16.554
  495.276   72.518    0.185   20.302
  496.096   72.856    0.257   21.148
  496.916   74.222    0.301   17.896
  497.736   77.643    0.272   20.620
  498.556   80.034    0.266   19.931
  499.377   80.716    0.334   13.950
  500.197   82.077    0.356   10.700
  501.017   83.102    0.369   10.519
  501.837   85.153    0.384   10.512
  502.657   85.830    0.393   10.676
  503.478   84.797    0.396   11.352
  504.298   84.108    0.402   12.200
  505.118   82.731    0.405   13.558
  505.938   81.011    0.407   14.062
  506.759   79.976    0.412   12.862
  507.579   78.942    0.415   11.148
  508.399   84.421    0.421   10.455
  509.219   87.842    0.426   10.620
  510.039   88.178    0.427   10.784
  510.860   88.859    0.431   10.263
  511.680   89.539    0.432    9.917
  512.500   88.505    0.434    9.737
  513.320   87.129    0.440    9.732
  514.140   87.463    0.444    9.725
  514.961   89.172    0.445    9.718
  515.781   91.564    0.445    9.706
  516.601   91.558    0.443    9.703
  517.421   92.582    0.439    9.696
  518.241   94.632    0.437    9.689
  519.062   92.913    0.435    9.849
  519.882   90.166    0.432    9.842
  520.702   87.762    0.433    9.837
  521.522   91.867    0.435    9.832
  522.343   93.575    0.432    9.825
  523.163   92.541    0.425    9.987
  523.983   91.507    0.421    9.980
  524.803   90.472    0.415    9.802
  525.623   89.781    0.415   10.133
  526.444   88.747    0.418   10.300
  527.264   88.743    0.421   10.462
  528.084   89.764    0.427   10.965
  528.904   90.442    0.432   10.962
  529.724   90.781    0.432   11.126
  530.545   90.775    0.425   11.460
  531.365   90.770    0.414   11.794
  532.185   91.105    0.413   12.298
  533.005   90.416    0.415   12.463
  533.825   87.324    0.414   12.623
  534.646   86.291    0.411   12.958
  535.466   85.600    0.396   13.806
  536.286   82.167    0.373   15.847
  537.106   78.049    0.339   22.498
  537.927   77.701    0.273   54.237
  538.747   83.521    0.189   70.104
  539.567   88.313    0.236   32.717
  540.387   90.362    0.337   14.276
  541.207   89.672    0.400   10.171
  542.028   88.295    0.423   11.869
  542.848   87.261    0.422   12.717
  543.668   86.569    0.419   12.881
  544.488   86.564    0.402   13.384
  545.308   87.244    0.394   13.889
  546.129   89.293    0.398   12.860
  546.949   89.971    0.406   11.316
  547.769   89.626    0.413   11.648
  548.589   89.276    0.419   11.814
  549.409   89.272    0.425   11.634
  550.230   92.692    0.428   10.774
  551.050   96.113    0.436   10.084
  551.870   99.533    0.442    9.907
  552.690  100.214    0.451   10.414
  553.510   97.809    0.460    9.895
  554.331   94.376    0.451    9.201
  555.151   91.972    0.429    9.198
