~VERSION INFORMATION
 VERS.                 2.0:   CWLS LOG ASCII STANDARD -VERSION 2.0
 WRAP.                  NO:   ONE LINE PER DEPTH STEP
~WELL INFORMATION BLOCK
#MNEM.UNIT           DATA                    DESCRIPTION OF MNEMONIC
#---------    -------------------            -------------------------------
# Generated from Intellog Unique Number	CN_94_101/WELL/2717
WELL.         SYNCRUDE CANADA LTD.           : Well_name    - WELL
LOC .         AA/01-07-094-12W4/0            : Location     - LOCATION
UWI .         AA/01-07-094-12W400            : Uwi          - UNIQUE WELL ID
ENTR.         JOETTE                         : Entered      - ENTERED BY
SRVC.         SCHLUMBERGER                   : Scn          - SERVICE COMPANY
DATE.         06/19/92                       : Date         - LOG DATE
STRT.F        30                             : top_depth    - START DEPTH
STOP.F        340.039                        : bot_depth    - STOP DEPTH
STEP.F        0.8202                         : increment    - STEP LENGTH
 NULL. -999.2500:NULL Value
~CURVE INFORMATION BLOCK
#MNEM UNIT       ERCB CURVE CODE    CURVE DESCRIPTION
#-----------   ------------------   ----------------------------------
DEPT.F        00 001 00 00         : DEPTH        - DEPTH
GR  .API      00 310 00 00         : GR           - GAMMA RAY
NPHI.V/V      00 330 00 00         : PHIN         - NEUTRON POROSITY (SANDSTONE)
DPHI.V/V      00 890 00 00         : PHID         - DENSITY POROSITY (SANDSTONE)
ILD .OHMM     00 120 00 00         : RESD         - DEEP RESISTIVITY (DIL)
~PARAMETER INFORMATION
#MNEM.UNIT           DATA             DESCRIPTION OF MNEMONIC
#---------         -----------     ------------------------------
GL  .F        1156                 : gl           - GROUND LEVEL ELEVATION
EREF.F        1156                 : kb           - ELEVATION OF DEPTH REFERENCE
DATM.F        1156                 : datum        - DATUM ELEVATION
TDD .F        355                  : tdd          - TOTAL DEPTH DRILLER
RUN .         ONE                  : Run          - RUN NUMBER
ENG .         JO                   : Engineer     - RECORDING ENGINEER
WIT .         TIM                  : Witness      - WITNESSED BY
MUD .         GEL                  : Mud_type     - MUD TYPE
MATR.         SANDSTONE            : Logunit      - NEUTRON MATRIX
TMAX.F        50                   : BHT          - MAXIMUM RECORDED TEMPERATURE
BHTD.F        355                  : BHTDEP       - MAXIMUM RECORDED TEMPERATURE
RMT .F        50                   : MDTP         - TEMPERATURE OF MUD
MUDD.LB/G     1.11                 : MWT          - MUD DENSITY
NEUT.         1                    : NEUTRON      - NEUTRON TYPE
RESI.         0                    : RESIST       - RESISTIVITY TYPE
RM  .OHMM     8.1                  : RM           - RESISTIVITY OF MUD
RMC .OHMM     8.1                  : RMC          - RESISTIVITY OF MUD CAKE
RMF .OHMM     8.1                  : RMF          - RESISTIVITY OF MUD FILTRATE
SUFT.F        39.2                 : SUFT         - SURFACE TEMPERATURE
~A  DEPTH       GR     PHIN     PHID     RESD
# ...
  172.717   40.110    0.369    0.282   35.251
  173.537   40.736    0.369    0.277   32.118
  174.357   42.560    0.379    0.305   27.169
  175.177   45.587    0.381    0.303   24.298
  175.997   48.610    0.381    0.292   22.140
  176.818   51.638    0.380    0.295   20.551
  177.638   52.865    0.378    0.306   19.075
  178.458   51.083    0.374    0.301   18.037
  179.278   51.704    0.367    0.289   17.701
  180.098   54.125    0.373    0.283   18.365
  180.919   58.957    0.384    0.292   20.148
  181.739   65.595    0.394    0.286   21.296
  182.559   78.857    0.479    0.277   15.820
  183.379   83.690    0.508    0.276    8.414
  184.199   91.536    0.539    0.306    4.731
  185.020   94.558    0.541    0.312    5.001
  185.840   96.383    0.450    0.301   11.107
  186.660   98.211    0.415    0.289   39.969
  187.480  101.239    0.370    0.250   20.484
  188.301  101.262    0.333    0.232   17.652
  189.121   97.666    0.368    0.245   21.645
  189.941   92.871    0.381    0.255   37.071
  190.761   87.479    0.346    0.276   30.783
  191.581   89.299    0.324    0.273   25.562
  192.402   91.123    0.381    0.276   20.453
  193.222   94.757    0.396    0.265   21.220
  194.042   92.971    0.413    0.244   35.018
  194.862   88.777    0.417    0.254   40.614
  195.682   84.584    0.398    0.267   22.839
  196.503   83.404    0.372    0.266   18.965
  197.323   87.029    0.355    0.250   18.611
  198.143   92.463    0.378    0.239   34.331
  198.963   89.474    0.395    0.245   31.280
  199.783   75.051    0.389    0.262   39.075
  200.604   66.646    0.376    0.289  123.473
  201.424   58.250    0.372    0.303   83.600
  202.244   58.264    0.360    0.301   55.558
  203.064   64.300    0.331    0.291   36.920
  203.885   69.735    0.326    0.278   33.019
  204.705   69.758    0.359    0.267   36.903
  205.525   69.171    0.368    0.259   32.398
  206.345   69.189    0.382    0.272   34.885
  207.165   70.417    0.388    0.264   35.528
  207.986   72.241    0.397    0.279   29.503
  208.806   72.866    0.391    0.284   32.365
  209.626   72.890    0.391    0.288   55.430
  210.446   72.899    0.389    0.297   42.735
  211.266   77.732    0.373    0.298   34.834
  212.087   86.781    0.364    0.288   22.723
  212.907   94.623    0.355    0.253   14.822
  213.727   98.854    0.341    0.218   13.759
  214.547   88.643    0.389    0.220   77.302
  215.367   71.212    0.375    0.253  139.975
  216.188   61.603    0.368    0.280  127.538
  217.008   56.818    0.369    0.303  111.971
  217.828   56.827    0.365    0.297  137.301
  218.648   57.448    0.364    0.295  142.451
  219.469   55.060    0.363    0.305  195.255
  220.289   49.663    0.361    0.306  277.755
  221.109   50.895    0.354    0.300  188.048
  221.929   52.719    0.356    0.298  116.029
  222.749   48.521    0.356    0.302   94.566
  223.570   43.726    0.352    0.310  144.900
  224.390   38.330    0.352    0.312  340.239
  225.210   35.941    0.354    0.306  521.302
  226.030   34.165    0.354    0.305  675.838
  226.850   35.377    0.354    0.312  492.827
  227.671   36.008    0.357    0.312  272.036
  228.491   34.818    0.371    0.317  113.661
  229.311   33.643    0.375    0.326  287.457
  230.131   34.259    0.367    0.322  201.977
  230.951   36.088    0.370    0.309  129.337
  231.772   37.306    0.379    0.318  115.678
  232.592   39.125    0.388    0.314   71.371
  233.412   42.764    0.388    0.304   60.376
  234.232   44.588    0.382    0.306  111.375
  235.052   44.606    0.382    0.313   79.722
  235.873   42.214    0.389    0.323  190.701
  236.693   38.632    0.376    0.324  276.360
  237.513   38.039    0.360    0.318  217.056
  238.333   41.067    0.377    0.312   76.737
  239.154   42.299    0.388    0.310  161.196
  239.974   39.906    0.380    0.320  332.385
  240.794   38.726    0.372    0.332  422.993
  241.614   38.745    0.367    0.332  672.566
  242.434   39.963    0.365    0.325  385.315
  243.255   40.583    0.380    0.320  149.471
  244.075   42.417    0.377    0.320  265.676
  244.895   43.634    0.363    0.325   51.862
  245.715   45.459    0.365    0.322   68.492
  246.535   48.491    0.385    0.310   79.437
  247.356   50.912    0.397    0.299   68.458
  248.176   52.736    0.390    0.320  123.961
  248.996   51.551    0.395    0.306   51.796
  249.816   53.982    0.381    0.289  169.870
  250.636   58.218    0.373    0.288  197.016
  251.457   60.643    0.374    0.286   32.540
  252.277   59.454    0.378    0.283   67.097
  253.097   49.845    0.401    0.297   88.618
  253.917   45.657    0.390    0.307  166.533
  254.738   47.481    0.370    0.309  259.937
  255.558   50.508    0.359    0.319   24.148
  256.378   54.133    0.344    0.283   57.765
  257.198   59.572    0.391    0.277  130.694
  258.018   57.184    0.354    0.286   34.978
  258.839   62.619    0.362    0.272   48.842
  259.659   68.655    0.415    0.287   56.647
  260.479   65.665    0.397    0.296   93.483
  261.299   54.251    0.380    0.287   28.489
  262.119   57.279    0.374    0.278   36.934
  262.940   62.718    0.385    0.277   16.933
  263.760   59.733    0.391    0.272   32.418
  264.580   55.535    0.387    0.266   74.716
  265.400   49.541    0.410    0.272   83.503
  266.220   50.768    0.386    0.291   86.630
  267.041   51.384    0.383    0.286   91.574
  267.861   50.195    0.390    0.290   70.601
  268.681   45.400    0.384    0.300  705.196
  269.501   39.406    0.394    0.311   67.995
  270.322   38.226    0.373    0.315  305.730
  271.142   41.249    0.359    0.324  966.132
  271.962   52.710    0.384    0.309   61.919
  272.782   53.322    0.411    0.302  244.489
  273.602   47.925    0.430    0.319  533.004
  274.423   42.528    0.378    0.307   96.601
  275.243   40.140    0.348    0.284   25.852
  276.063   46.181    0.358    0.286   43.462
  276.883   51.615    0.383    0.297   64.164
  277.703   49.227    0.383    0.312  114.048
  278.524   48.645    0.382    0.305   33.491
  279.344   49.270    0.403    0.309  125.078
  280.164   46.877    0.403    0.324  202.615
  280.984   41.485    0.372    0.334  502.974
  281.804   46.318    0.344    0.298   55.226
  282.625   49.350    0.356    0.292   27.271
  283.445   46.361    0.358    0.280   32.824
  284.265   43.972    0.354    0.275   32.818
  285.085   43.991    0.352    0.277   71.536
  285.906   42.812    0.350    0.276   75.619
  286.726   42.821    0.338    0.270   35.981
  287.546   41.636    0.367    0.287   38.745
  288.366   39.860    0.380    0.295   87.661
  289.186   38.675    0.372    0.303  213.621
  290.007   41.698    0.350    0.303   18.087
  290.827   45.929    0.353    0.298   40.921
  291.647   47.151    0.394    0.299   96.087
  292.467   40.551    0.382    0.309   97.863
  293.287   34.553    0.368    0.330  158.529
  294.108   32.165    0.369    0.324  238.426
  294.928   30.388    0.377    0.327  109.306
  295.748   29.800    0.373    0.340  187.206
  296.568   32.231    0.368    0.334  286.830
  297.388   32.851    0.376    0.336  297.606
  298.209   32.865    0.375    0.345  439.364
  299.029   31.681    0.376    0.350   97.668
  299.849   31.700    0.380    0.353  146.891
  300.669   32.330    0.380    0.346  183.473
  301.490   32.344    0.384    0.342  205.051
  302.310   32.368    0.387    0.342  233.446
  303.130   32.993    0.392    0.347  286.256
  303.950   34.215    0.393    0.352   61.314
  304.770   35.428    0.387    0.351   53.827
  305.591   37.854    0.383    0.340   35.772
  306.411   41.488    0.378    0.325   29.705
  307.231   45.719    0.371    0.309  108.896
  308.051   49.950    0.377    0.300   90.426
  308.871   48.169    0.394    0.320   28.599
  309.692   45.780    0.404    0.313   63.517
  310.512   47.008    0.383    0.303  119.363
  311.332   47.017    0.402    0.313   48.054
  312.152   47.041    0.393    0.329   63.471
  312.972   44.653    0.383    0.322   41.406
  313.793   38.659    0.390    0.322  123.758
  314.613   38.678    0.399    0.334  264.839
