~VERSION INFORMATION
 VERS.                 2.0:   CWLS LOG ASCII STANDARD -VERSION 2.0
 WRAP.                  NO:   ONE LINE PER DEPTH STEP
~WELL INFORMATION BLOCK
#MNEM.UNIT           DATA                    DESCRIPTION OF MNEMONIC
#---------    -------------------            -------------------------------
# Generated from Intellog Unique Number	CX_WELLS/WELL/3917
LOC .         AA/06-01-097-15W4/0            : Location     - LOCATION
UWI .         AA/06-01-097-15W400            : Uwi          - UNIQUE WELL ID
ENTR.         T                              : Entered      - ENTERED BY
SRVC.         SCHLUMBERGER                   : Scn          - SERVICE COMPANY
STRT.F        600                            : top_depth    - START DEPTH
STOP.F        1320.14                        : bot_depth    - STOP DEPTH
STEP.F        0.82                           : increment    - STEP LENGTH
 NULL. -999.2500:NULL Value
~CURVE INFORMATION BLOCK
#MNEM UNIT       ERCB CURVE CODE    CURVE DESCRIPTION
#-----------   ------------------   ----------------------------------
DEPT.F        00 001 00 00         : DEPTH        - DEPTH
GR  .API      00 310 00 00         : GR           - GAMMA RAY
NPHI.V/V      00 330 00 00         : PHIN         - NEUTRON POROSITY (SANDSTONE)
ILD .OHMM     00 120 00 00         : RESD         - DEEP RESISTIVITY (OTHER)
~PARAMETER INFORMATION
#MNEM.UNIT           DATA             DESCRIPTION OF MNEMONIC
#---------         -----------     ------------------------------
GL  .F        2145                 : gl           - GROUND LEVEL ELEVATION
EREF.F        2151.7               : kb           - ELEVATION OF DEPTH REFERENCE
DATM.F        2151.7               : datum        - DATUM ELEVATION
TDD .F        1321                 : tdd          - TOTAL DEPTH DRILLER
RUN .         ONE                  : Run          - RUN NUMBER
ENG .         BILL                 : Engineer     - RECORDING ENGINEER
WIT .         JIM                  : Witness      - WITNESSED BY
MUD .         GEL                  : Mud_type     - MUD TYPE
MATR.         SANDSTONE            : Logunit      - NEUTRON MATRIX
TMAX.F        68                   : BHT          - MAXIMUM RECORDED TEMPERATURE
BHTD.F        1321                 : BHTDEP       - MAXIMUM RECORDED TEMPERATURE
MATR.         1                    : LOGUNIT      - NEUTRON MATRIX
RMT .F        68                   : MDTP         - TEMPERATURE OF MUD
NEUT.         1                    : NEUTRON      - NEUTRON TYPE
RESI.         5.65                 : RESIST       - RESISTIVITY TYPE
RMC .OHMM     6.4                  : RMC          - RESISTIVITY OF MUD CAKE
RMF .OHMM     5.2                  : RMF          - RESISTIVITY OF MUD FILTRATE
SUFT.F        37.4                 : SUFT         - SURFACE TEMPERATURE
~A  DEPTH       GR     PHIN     RESD
  600.000   55.966    0.403   25.652
  600.820   53.837    0.405   33.489
  601.640   50.434    0.401   42.038
  602.461   47.031    0.392   57.000
  603.281   44.476    0.389   64.836
  604.101   47.854    0.397   32.056
  604.921   65.651    0.423    9.965
  605.741   77.939    0.445    5.687
  606.562   85.133    0.441    7.109
  607.382   88.938    0.450    7.108
  608.202   93.167    0.450    7.818
  609.022   95.697    0.443    7.817
  609.843   95.686    0.438    6.390
  610.663   96.099    0.435    6.388
  611.483   97.362    0.427    6.386
  612.303  101.591    0.433    6.384
  613.123  104.970    0.455    7.095
  613.944  102.838    0.480    7.093
  614.764   99.856    0.463    5.666
  615.584   98.147    0.452    4.952
  616.404   98.141    0.441    4.237
  617.224   99.826    0.438    4.235
  618.045  106.172    0.440    4.945
  618.865  111.249    0.452    4.945
  619.685  109.542    0.455    5.654
  620.505  106.563    0.450    5.653
  621.325  103.584    0.455    5.651
  622.146  100.604    0.474    5.649
  622.966   96.772    0.481    5.648
  623.786   95.489    0.482    5.646
  624.606   94.208    0.484    6.356
  625.427   92.077    0.490    6.354
  626.247   89.522    0.495    6.352
  627.067   89.084    0.497    6.350
  627.887   89.497    0.494    6.349
  628.707   89.059    0.490    5.634
  629.528   88.200    0.483    4.919
  630.348   86.066    0.480    4.918
  631.168   84.356    0.475    4.203
  631.988   84.350    0.469    4.201
  632.808   84.763    0.473    4.199
  633.629   86.448    0.484    4.910
  634.449   88.133    0.486    4.908
  635.269   88.970    0.475    4.906
  636.089   87.684    0.469    4.905
  636.909   85.974    0.464    4.903
  637.730   85.539    0.468    5.613
  638.550   87.224    0.479    5.612
  639.370   88.485    0.492    4.896
  640.190   88.900    0.500    4.182
  641.010   89.313    0.502    3.467
  641.831   90.147    0.492    4.179
  642.651   88.864    0.470    4.890
  643.471   85.458    0.445   12.014
  644.291   82.058    0.445   21.275
  645.112   75.684    0.446   12.722
  645.932   74.401    0.448    9.157
  646.752   78.206    0.448    9.155
  647.572   79.891    0.447    9.154
  648.392   80.301    0.450    9.152
  649.213   81.138    0.468    7.012
  650.033   81.553    0.461    4.872
  650.853   82.385    0.461    3.446
  651.673   83.222    0.466    3.444
  652.493   84.482    0.469    3.442
  653.314   85.322    0.465    3.440
  654.134   87.001    0.463    3.438
  654.954   87.420    0.460    3.436
  655.774   88.678    0.454    4.146
  656.594   89.088    0.452    4.857
  657.415   88.653    0.450    5.568
  658.235   83.556    0.454    9.129
  659.055   81.423    0.459    9.839
  659.875   83.531    0.463    9.125
  660.696   84.363    0.465    9.836
  661.516   84.781    0.467   10.546
  662.336   85.194    0.470    8.407
  663.156   85.604    0.479    7.692
  663.976   86.017    0.489    6.978
  664.797   86.854    0.505    6.263
  665.617   87.691    0.510    6.262
  666.437   84.709    0.505    5.547
  667.257   83.429    0.493    4.833
  668.077   84.689    0.470    6.969
  668.898   85.526    0.453    8.392
  669.718   85.939    0.441    8.390
  670.538   87.621    0.444    7.676
  671.358   89.303    0.469    8.386
  672.178   89.292    0.485    9.097
  672.999   85.468    0.455    9.095
  673.819   73.158    0.429    7.668
  674.639   64.243    0.395   12.654
  675.459   58.296    0.370   24.766
  676.280   53.620    0.379   21.913
  677.100   51.065    0.389   19.774
  677.920   53.595    0.407   20.485
  678.740   57.400    0.418   18.345
  679.560   63.325    0.457   13.355
  680.381   68.402    0.454   11.928
  681.201   69.239    0.437   16.202
  682.021   69.228    0.423   20.475
  682.841   70.910    0.428   17.624
  683.661   73.022    0.437   14.058
  684.482   77.672    0.439   16.194
  685.302   79.781    0.362   21.180
  686.122   76.378    0.336   46.831
  686.942   71.278    0.305   58.231
  687.762   64.483    0.274   62.504
  688.583   66.589    0.298   48.963
  689.403   68.274    0.338   21.171
  690.223   64.447    0.327   13.331
  691.043   59.772    0.321   15.466
  691.864   55.521    0.351   40.405
  692.684   50.419    0.372   57.505
  693.504   51.677    0.379   31.850
  694.324   52.093    0.398   16.884
  695.144   51.233    0.374   28.996
  695.965   46.134    0.380   28.994
  696.785   43.152    0.387   28.279
  697.605   42.717    0.382   31.128
  698.425   43.551    0.360   31.838
  699.245   44.385    0.352   34.687
  700.066   44.801    0.357   33.260
  700.886   46.059    0.365   23.995
  701.706   46.896    0.371   21.143
  702.526   46.888    0.371   24.703
  703.346   47.301    0.368   22.564
  704.167   46.017    0.367   28.263
  704.987   44.731    0.376   29.686
  705.807   43.872    0.382   31.822
  706.627   44.285    0.385   28.969
  707.448   47.239    0.391   25.405
  708.268   47.652    0.396   22.553
  709.088   47.220    0.398   21.126
  709.908   45.934    0.389   19.699
  710.728   44.227    0.369   18.272
  711.549   43.792    0.364   21.120
  712.369   45.474    0.371   28.244
  713.189   46.735    0.392   25.392
  714.009   47.572    0.404   22.540
  714.829   48.411    0.406   26.101
  715.650   48.824    0.402   23.961
  716.470   48.810    0.397   19.684
  717.290   48.375    0.395   17.544
  718.110   47.937    0.391   20.392
  718.930   47.081    0.389   21.815
  719.751   45.792    0.387   23.951
  720.571   45.363    0.388   29.650
  721.391   46.194    0.396   31.786
  722.211   48.303    0.407   36.060
  723.031   49.564    0.414   30.357
  723.852   50.825    0.416   21.092
  724.672   52.086    0.420   15.389
  725.492   54.192    0.422   16.100
  726.312   56.306    0.425   16.810
  727.133   66.471    0.429   16.809
  727.953   74.516    0.434   15.381
  728.773   77.470    0.437   13.242
  729.593   71.523    0.443   10.390
  730.413   62.184    0.448   11.101
  731.234   65.565    0.455   13.237
  732.054   73.183    0.464   23.211
  732.874   74.444    0.436   15.370
  733.694   73.158    0.397    7.530
  734.514   69.757    0.340    9.665
  735.335   59.994    0.307   13.940
  736.155   56.591    0.112   48.141
  736.975   54.030    0.189   66.666
  737.795   55.294    0.244   56.688
  738.615   57.403    0.293   45.285
  739.436   60.360    0.318   23.906
  740.256   62.893    0.377   23.191
  741.076   66.695    0.418   21.764
  741.896   65.838    0.422   27.463
  742.717   61.585    0.393   33.874
  743.537   59.877    0.369   27.460
  744.357   59.866    0.332   18.194
  745.177   59.855    0.357   24.606
  745.997   59.420    0.401   31.017
  746.818   56.859    0.395   34.578
  747.638   55.579    0.389   36.714
  748.458   55.992    0.390   37.424
  749.278   56.402    0.398   37.422
  750.098   55.967    0.406   37.420
  750.919   55.108    0.414   37.419
  751.739   52.971    0.414   37.417
  752.559   51.694    0.406   37.414
  753.379   49.138    0.382   37.413
  754.199   47.007    0.290   38.124
  755.020   46.142    0.215   39.547
  755.840   47.406    0.183   42.395
  756.660   50.360    0.158   45.243
  757.480   52.472    0.183  161.391
  758.301   55.002    0.208   77.305
  759.121   57.111    0.265   30.274
  759.941   58.796    0.369   28.847
  760.761   62.177    0.373   24.569
  761.581   65.558    0.379   23.142
  762.402   65.123    0.398   21.715
  763.222   60.869    0.409   23.139
  764.042   58.313    0.381   25.274
  764.862   55.761    0.368   25.272
  765.682   52.782    0.391   25.271
  766.503   54.037    0.399   23.843
  767.323   56.149    0.406   23.129
  768.143   56.138    0.404   21.702
  768.963   54.852    0.396   22.413
  769.783   54.417    0.374   24.549
  770.604   55.254    0.359   25.259
  771.424   55.666    0.364   23.832
  772.244   54.383    0.378   22.405
  773.064   53.948    0.389   21.691
  773.885   55.209    0.399   23.827
  774.705   55.622    0.407   27.387
  775.525   54.763    0.416   25.961
  776.345   52.205    0.416   21.683
  777.165   50.922    0.405   21.681
