~VERSION INFORMATION
 VERS.                 2.0:   CWLS LOG ASCII STANDARD -VERSION 2.0
 WRAP.                  NO:   ONE LINE PER DEPTH STEP
~WELL INFORMATION BLOCK
#MNEM.UNIT           DATA                    DESCRIPTION OF MNEMONIC
#---------    -------------------            -------------------------------
# Generated from Intellog Unique Number	CC_88_90/WELL/3141
WELL.         HUSKY OIL OPERATIONS LTD.      : Well_name    - WELL
LOC .         06-36-090-09W4                 : Location     - LOCATION
UWI .         AA/06-36-090-09W400            : Uwi          - UNIQUE WELL ID
ENTR.         JOETTE                         : Entered      - ENTERED BY
SRVC.         SCHLUMBERGER                   : Scn          - SERVICE COMPANY
DATE.         03/06/92                       : Date         - LOG DATE
STRT.M        30.48                          : top_depth    - START DEPTH
STOP.M        131.480                        : bot_depth    - STOP DEPTH
STEP.M        0.25                           : increment    - STEP LENGTH
 NULL. -999.2500:NULL Value
~CURVE INFORMATION BLOCK
#MNEM UNIT       ERCB CURVE CODE    CURVE DESCRIPTION
#-----------   ------------------   ----------------------------------
DEPT.M        00 001 00 00         : DEPTH        - DEPTH
GR  .API      00 310 00 00         : GR           - GAMMA RAY
CALI.MM       00 280 01 00         : CAL          - CALIPER
DPHI.V/V      00 890 00 00         : PHID         - DENSITY POROSITY (SANDSTONE)
ILD .OHMM     00 120 00 00         : RESD         - DEEP RESISTIVITY (DIL)
~PARAMETER INFORMATION
#MNEM.UNIT           DATA             DESCRIPTION OF MNEMONIC
#---------         -----------     ------------------------------
GL  .M        409.042              : gl           - GROUND LEVEL ELEVATION
EREF.M        410.261              : kb           - ELEVATION OF DEPTH REFERENCE
DATM.M        410.261              : datum        - DATUM ELEVATION
TDD .M        186.842              : tdd          - TOTAL DEPTH DRILLER
RUN .         ONE                  : Run          - RUN NUMBER
ENG .         JO                   : Engineer     - RECORDING ENGINEER
WIT .         TIM                  : Witness      - WITNESSED BY
MUD .         GEL                  : Mud_type     - MUD TYPE
MATR.         SANDSTONE            : Logunit      - NEUTRON MATRIX
TMAX.C        6.7                  : BHT          - MAXIMUM RECORDED TEMPERATURE
BHTD.M        186.842              : BHTDEP       - MAXIMUM RECORDED TEMPERATURE
RMT .C        3.88889              : MDTP         - TEMPERATURE OF MUD
MUDD.KG/M     11300                : MWT          - MUD DENSITY
NEUT.         1                    : NEUTRON      - NEUTRON TYPE
RESI.         0                    : RESIST       - RESISTIVITY TYPE
RM  .OHMM     36.5                 : RM           - RESISTIVITY OF MUD
RMC .OHMM     9.3                  : RMC          - RESISTIVITY OF MUD CAKE
RMF .OHMM     10                   : RMF          - RESISTIVITY OF MUD FILTRATE
SUFT.C        4                    : SUFT         - SURFACE TEMPERATURE
~A  DEPTH       GR      CAL     PHID     RESD
# ...
   73.980  102.567  154.661    0.228   42.172
   74.230  110.560  146.406    0.236   43.792
   74.480  116.708  152.674    0.243   36.187
   74.730  103.806  156.888    0.225   31.060
   74.980   81.685  160.033    0.206   32.253
   75.230   82.302  162.173    0.195   33.493
   75.480  101.972  162.195    0.196   31.622
   75.730  102.590  162.249    0.204   26.630
   75.980   88.457  162.293    0.232   27.656
   76.230   79.857  161.299    0.224   32.813
   76.480   83.548  158.241    0.230   37.470
   76.730   81.093  159.322    0.250   36.750
   76.980   77.408  162.467    0.271   38.900
   77.230   94.619  159.398    0.288   41.962
   77.480  107.528  156.330    0.276   36.017
   77.730  105.073  152.224    0.277   38.853
   77.980   96.472  150.204    0.271   40.346
   78.230  105.079  152.333    0.274   41.103
   78.480  108.770  156.536    0.257   38.810
   78.730   95.867  158.633    0.250   34.608
   78.980   91.568  162.837    0.243   28.597
   79.230   87.884  165.992    0.236   25.988
   79.480   89.116  158.785    0.228   28.035
   79.730   77.443  155.717    0.213   38.008
   79.980   80.519  156.808    0.199   58.865
   80.230  111.865  157.878    0.172   41.770
   80.480  114.941  158.970    0.173   30.789
   80.730  114.329  160.062    0.180   40.179
   80.980  111.260  161.132    0.177   72.473
   81.230   84.836  162.213    0.157   65.868
   81.480   81.767  162.245    0.152   49.486
   81.730   84.843  163.337    0.161   38.621
   81.980   89.148  165.466    0.162   39.342
   82.230  103.900  167.573    0.167   42.440
   82.480  130.330  168.654    0.178   44.922
   82.730  124.188  165.597    0.170   62.068
   82.980  111.899  161.491    0.147   76.501
   83.230  104.529  159.471    0.134   80.968
   83.480  105.146  160.551    0.124   34.360
   83.730   91.013  160.584    0.141   16.979
   83.980   85.486  160.638    0.153   16.338
   84.230   83.031  160.693    0.175   22.149
   84.480   82.420  162.811    0.177   48.330
   84.730   84.881  164.918    0.169   61.880
   84.980   82.425  165.999    0.173   79.229
   85.230   80.585  161.904    0.171   72.008
   85.480   91.650  159.884    0.164   43.049
   85.730  115.622  160.965    0.189   16.608
   85.980  122.385  162.046    0.239   13.463
   86.230  116.857  163.116    0.268   12.712
   86.480  121.162  164.207    0.297   16.590
   86.730  121.780  163.213    0.260   24.269
   86.980  121.783  160.145    0.254   36.881
   87.230  108.880  155.013    0.221   13.439
   87.480   92.905  147.784    0.180   11.536
   87.730   83.075  144.726    0.167   10.286
   87.980  100.286  147.893    0.296   10.282
   88.230  124.257  153.134    0.361   10.883
   88.480  124.875  155.230    0.364   11.302
   88.730  116.889  158.386    0.350    9.887
   88.980  111.361  155.317    0.334    8.816
   89.230   97.229  155.361    0.333    8.324
   89.480   84.940  166.837    0.325    7.710
   89.730   64.663  169.992    0.343    6.875
   89.980   41.313  171.073    0.338    6.743
   90.230   43.774  172.154    0.348    6.488
   90.480   40.705  171.160    0.361    6.243
   90.730   33.333  170.177    0.354    6.241
   90.980   35.179  169.183    0.355    6.606
   91.230   59.151  167.163    0.348    9.127
   91.480   99.101  163.057    0.337    9.124
   91.730  105.250  163.079    0.327    6.986
   91.980  108.326  167.305    0.334    5.997
   92.230   84.361  169.401    0.309    5.881
   92.480   68.385  171.541    0.308    6.344
   92.730   48.722  172.600    0.317    6.341
   92.980   46.267  174.751    0.337    5.655
   93.230   60.406  175.821    0.348    5.139
   93.480   65.940  176.891    0.368    4.946
   93.730   57.953  176.945    0.356    5.438
   93.980   45.050  175.951    0.357    6.831
   94.230   45.668  173.920    0.350    5.863
   94.480   51.203  172.926    0.350    5.329
   94.730   58.581  174.029    0.345    5.859
   94.980   58.584  176.136    0.336    6.952
   95.230   54.900  177.217    0.342    7.219
   95.480   57.975  177.250    0.339    4.838
   95.730   63.510  176.278    0.357    3.242
   95.980   61.669  175.295    0.387    3.241
   96.230   61.673  175.317    0.388    3.845
   96.480   55.530  175.382    0.378    5.018
   96.730   62.908  175.414    0.371    5.310
   96.980   75.817  175.469    0.354    5.515
   97.230   83.809  174.464    0.325    6.180
   97.480   83.198  174.529    0.299    7.913
   97.730   78.284  174.562    0.305    8.867
   97.980   67.840  174.606    0.303    8.058
   98.230   57.396  173.612    0.286    8.055
   98.480   47.566  174.693    0.269    8.525
   98.730   35.892  174.758    0.258   10.116
   98.980   32.823  174.780    0.263   12.468
   99.230   35.284  174.834    0.308   11.998
   99.480   38.360  175.915    0.332    6.646
   99.730   37.134  182.193    0.332    7.737
   99.980   40.210  187.424    0.310    7.167
  100.230   46.359  185.381    0.299    8.343
  100.480   38.987  181.276    0.289    6.034
  100.730   43.907  178.229    0.316    4.121
  100.980   48.826  176.198    0.369    3.156
  101.230   48.830  172.081    0.409    3.215
  101.480   46.989  170.061    0.426    3.213
  101.730   46.377  170.115    0.445    3.034
  101.980   46.381  170.148    0.423    3.091
  102.230   42.697  170.202    0.391    3.399
  102.480   48.231  170.235    0.370    3.737
  102.730   48.849  169.252    0.372    4.268
  102.980   36.560  169.295    0.350    5.465
  103.230   29.189  169.350    0.332    4.873
  103.480   25.505  169.393    0.349    4.428
  103.730   21.820  169.437    0.354    4.962
  103.980   31.042  169.469    0.334    6.001
  104.230   48.867  169.513    0.313    6.352
  104.480   44.568  169.567    0.316    6.984
  104.730   42.728  168.595    0.323    6.469
  104.980   45.190  168.617    0.304    7.676
  105.230   47.651  167.634    0.297    8.600
  105.480   71.622  167.688    0.301    4.856
  105.730   87.604  167.732    0.349    4.413
  105.980   92.523  167.786    0.374    4.412
  106.230   94.370  167.819    0.381    4.246
  106.480   77.780  167.852    0.373    4.849
  106.730   71.638  167.895    0.375    4.578
  106.980   86.391  167.939    0.384    4.160
  107.230   96.841  166.966    0.402    4.159
  107.480   96.230  166.999    0.421    4.401
  107.730   95.618  167.053    0.400    4.400
  107.980   82.716  166.060    0.371    3.924
  108.230   72.272  166.092    0.376    3.997
  108.480   64.285  166.147    0.376    4.834
  108.730   64.903  167.249    0.367    6.072
  108.980   82.728  167.271    0.371    6.306
  109.230   82.117  167.325    0.364    5.413
  109.480   75.360  167.369    0.345    5.014
  109.730   75.363  167.423    0.356    5.108
  109.980   77.210  167.456    0.353    5.407
  110.230   71.068  168.559    0.344    5.614
  110.480   69.227  168.591    0.332    5.301
  110.730   66.772  168.624    0.323    4.817
  110.980   63.702  168.689    0.326    7.047
  111.230   46.498  168.722    0.310   13.459
  111.480   45.886  168.776    0.291   17.900
  111.730   55.722  167.782    0.267   13.449
  111.980   73.548  167.837    0.259   12.698
  112.230   83.999  166.821    0.265   13.698
  112.480   79.700  163.763    0.309   13.691
  112.730   66.797  160.706    0.300   13.951
  112.980   48.978  160.738    0.304   13.170
  113.230   71.105  160.793    0.300   13.164
  113.480   95.691  161.874    0.289   15.620
  113.730  123.964  163.992    0.296   18.183
  113.980  115.978  165.105    0.296   17.498
  114.230  115.981  166.175    0.297   13.918
  114.480  124.588  166.208    0.320   10.457
  114.730  120.904  165.203    0.321   13.135
  114.980   92.637  165.269    0.297   17.141
  115.230   76.047  165.312    0.290   19.577
  115.480   47.780  166.393    0.273   21.938
  115.730   63.762  167.474    0.284   24.582
  115.980  106.785  167.506    0.287   27.025
  116.230  104.330  166.513    0.276   27.539
  116.480  106.176  164.503    0.284   27.010
  116.730   93.888  163.520    0.293   23.183
  116.980   61.934  163.542    0.300   20.671
  117.230   44.115  162.559    0.309   21.878
