~VERSION INFORMATION
 VERS.                 2.0:   CWLS LOG ASCII STANDARD -VERSION 2.0
 WRAP.                  NO:   ONE LINE PER DEPTH STEP
~WELL INFORMATION BLOCK
#MNEM.UNIT           DATA                    DESCRIPTION OF MNEMONIC
#---------    -------------------            -------------------------------
# Generated from Intellog Unique Number	CN_94_101/WELL/2832
WELL.         06-08-096-14W4                 : Well_name    - WELL
LOC .         AA/06-08-096-14W4/0            : Location     - LOCATION
UWI .         AA/06-08-096-14W400            : Uwi          - UNIQUE WELL ID
ENTR.         JOETTE                         : Entered      - ENTERED BY
SRVC.         SCHLUMBERGER                   : Scn          - SERVICE COMPANY
DATE.         07/07/92                       : Date         - LOG DATE
STRT.M        40                             : top_depth    - START DEPTH
STOP.M        310                            : bot_depth    - STOP DEPTH
STEP.M        0.25                           : increment    - STEP LENGTH
 NULL. -999.2500:NULL Value
~CURVE INFORMATION BLOCK
#MNEM UNIT       ERCB CURVE CODE    CURVE DESCRIPTION
#-----------   ------------------   ----------------------------------
DEPT.M        00 001 00 00         : DEPTH        - DEPTH
CALI.MM       00 280 01 00         : CAL          - CALIPER
GR  .API      00 310 00 00         : GR           - GAMMA RAY
NPHI.V/V      00 330 00 00         : PHIN         - NEUTRON POROSITY (SANDSTONE)
DPHI.V/V      00 890 00 00         : PHID         - DENSITY POROSITY (SANDSTONE)
ILD .OHMM     00 120 00 00         : RESD         - DEEP RESISTIVITY (DIL)
~PARAMETER INFORMATION
#MNEM.UNIT           DATA             DESCRIPTION OF MNEMONIC
#---------         -----------     ------------------------------
GL  .M        559.67               : gl           - GROUND LEVEL ELEVATION
EREF.M        562.67               : kb           - ELEVATION OF DEPTH REFERENCE
DATM.M        562.67               : datum        - DATUM ELEVATION
TDD .M        320                  : tdd          - TOTAL DEPTH DRILLER
RUN .         ONE                  : Run          - RUN NUMBER
ENG .         JO                   : Engineer     - RECORDING ENGINEER
WIT .         TIM                  : Witness      - WITNESSED BY
MUD .         GEL                  : Mud_type     - MUD TYPE
MATR.         SANDSTONE            : Logunit      - NEUTRON MATRIX
TMAX.C        17                   : BHT          - MAXIMUM RECORDED TEMPERATURE
BHTD.M        320                  : BHTDEP       - MAXIMUM RECORDED TEMPERATURE
RMT .C        15                   : MDTP         - TEMPERATURE OF MUD
MUDD.KG/M     1120                 : MWT          - MUD DENSITY
NEUT.         1                    : NEUTRON      - NEUTRON TYPE
RESI.         0                    : RESIST       - RESISTIVITY TYPE
RM  .OHMM     0.709                : RM           - RESISTIVITY OF MUD
RMC .OHMM     0.709                : RMC          - RESISTIVITY OF MUD CAKE
RMF .OHMM     0.709                : RMF          - RESISTIVITY OF MUD FILTRATE
SUFT.C        4                    : SUFT         - SURFACE TEMPERATURE
~A  DEPTH      CAL       GR     PHIN     PHID     RESD
# ...
  113.000  157.965   41.986    0.469    0.304    8.461
  113.250  160.996   45.578    0.463    0.328    9.302
  113.500  163.091   51.505    0.451    0.358   10.818
  113.750  163.240   57.433    0.434    0.342   12.139
  114.000  159.496   62.237    0.443    0.343   12.623
  114.250  156.726   60.553    0.472    0.280   12.657
  114.500  154.966   58.307    0.479    0.259   12.466
  114.750  155.153   58.980    0.501    0.281   12.499
  115.000  156.237   62.572    0.504    0.311   12.084
  115.250  157.359   60.304    0.479    0.317   11.878
  115.500  157.545   58.058    0.454    0.312   11.683
  115.750  156.684   57.564    0.449    0.321   11.507
  116.000  156.833   57.653    0.460    0.320   11.530
  116.250  156.945   57.765    0.477    0.305   11.148
  116.500  156.158   57.877    0.477    0.316   10.972
  116.750  156.269   57.944    0.472    0.327   10.994
  117.000  156.456   58.011    0.476    0.335   10.828
  117.250  156.567   58.100    0.478    0.336   10.857
  117.500  156.716   58.234    0.475    0.327   10.679
  117.750  156.865   61.242    0.474    0.320   10.714
  118.000  156.041   60.725    0.476    0.311   10.736
  118.250  156.227   57.290    0.468    0.308   10.966
  118.500  156.376   52.147    0.489    0.305   11.411
  118.750  156.488   49.879    0.454    0.304   12.553
  119.000  156.637   49.968    0.455    0.308   14.067
  119.250  156.823   52.393    0.463    0.314   17.973
  119.500  156.972   56.007    0.476    0.321   19.409
  119.750  157.121   58.432    0.477    0.337   20.196
  120.000  157.269   58.521    0.453    0.351   19.878
  120.250  157.381   58.611    0.453    0.346   19.552
  120.500  157.530   58.700    0.457    0.353   17.868
  120.750  157.716   58.205    0.463    0.347   16.319
  121.000  157.865   54.770    0.468    0.338   13.848
  121.250  158.014   53.691    0.474    0.322   11.970
  121.500  159.173   53.781    0.494    0.318   12.002
  121.750  159.248   52.725    0.495    0.329   14.220
  122.000  161.343   49.873    0.482    0.325   19.541
  122.250  164.410   42.373    0.465    0.337   30.033
  122.500  165.570   37.769    0.432    0.357   47.935
  122.750  164.746   36.713    0.248    0.324   51.797
  123.000  164.894   36.219    0.180    0.104   54.833
  123.250  164.070   36.286    0.151    0.061   55.017
  123.500  163.283   36.375    0.153    0.038   52.179
  123.750  163.395   37.071    0.156    0.028   52.283
  124.000  162.571   37.721    0.164    0.023   53.440
  124.250  161.710   39.562    0.183    0.057   53.618
  124.500  158.977   43.177    0.214    0.073   49.001
  124.750  158.116   43.266    0.237    0.103   45.559
  125.000  157.366   42.794    0.261    0.155   38.660
  125.250  156.505   44.051    0.283    0.265   35.308
  125.500  156.616   47.037    0.330    0.295   30.522
  125.750  156.765   50.045    0.377    0.323   28.416
  126.000  156.053   50.135    0.433    0.343   29.568
  126.250  156.164   45.554    0.447    0.353   30.767
  126.500  155.266   41.556    0.447    0.344   32.058
  126.750  155.452   40.478    0.450    0.346   32.701
  127.000  155.601   40.567    0.446    0.356   32.810
  127.250  155.750   42.408    0.443    0.353   32.876
  127.500  155.899   44.249    0.446    0.339   32.380
  127.750  156.085   44.944    0.447    0.333   31.264
  128.000  156.159   45.640    0.439    0.330   29.671
  128.250  156.383   46.291    0.429    0.327   28.629
  128.500  156.532   46.941    0.431    0.325   28.197
  128.750  156.606   48.221    0.442    0.330   28.253
  129.000  156.755   50.039    0.474    0.328   29.419
  129.250  156.904   51.902    0.476    0.337   30.612
  129.500  157.053   54.327    0.473    0.333   30.693
  129.750  157.276   53.833    0.472    0.347   27.517
  130.000  157.388   52.170    0.475    0.355   25.164
  130.250  157.500   49.363    0.483    0.350   26.167
  130.500  157.723   48.240    0.495    0.337   28.805
  130.750  157.797   47.162    0.491    0.337   30.514
  131.000  157.983   47.273    0.462    0.333   31.751
  131.250  158.095   50.304    0.486    0.312   31.857
  131.500  158.244   52.684    0.492    0.311   30.800
  131.750  158.430   58.050    0.502    0.319   30.315
  132.000  158.616   59.891    0.502    0.330   29.818
  132.250  159.664   59.396    0.493    0.339   29.329
  132.500  160.786   53.648    0.479    0.354   28.886
  132.750  163.891   51.986    0.468    0.373   28.944
  133.000  163.067   52.075    0.495    0.368   30.702
  133.250  158.313   50.391    0.499    0.340   31.360
  133.500  154.570   46.393    0.509    0.319   31.422
  133.750  152.773   45.337    0.510    0.315   30.928
  134.000  152.922   46.617    0.485    0.325   26.718
  134.250  154.044   48.435    0.479    0.339   21.846
  134.500  159.058   50.837    0.480    0.356   13.770
  134.750  167.065   55.619    0.486    0.362   10.263
  135.000  167.252   60.963    0.483    0.355    7.932
  135.250  167.326   64.555    0.472    0.354    7.953
  135.500  167.549   66.396    0.481    0.315    8.276
  135.750  167.661   67.675    0.498    0.313    8.453
  136.000  167.810   68.371    0.505    0.326    8.476
  136.250  168.969   67.876    0.499    0.334    8.499
  136.500  169.044   66.753    0.502    0.323    8.365
  136.750  168.219   65.136    0.512    0.320    8.233
  137.000  165.449   64.013    0.521    0.308    8.727
  137.250  165.636   64.125    0.522    0.315   10.340
  137.500  167.730   65.965    0.515    0.313   11.820
  137.750  170.836   65.471    0.493    0.298   12.065
  138.000  170.910   60.284    0.490    0.305   12.089
  138.250  170.086   53.951    0.490    0.310   14.874
  138.500  167.316   50.515    0.497    0.303   16.669
  138.750  163.573   45.350    0.519    0.294   14.953
  139.000  160.803   42.543    0.532    0.304   13.168
  139.250  159.043   44.968    0.528    0.321   11.597
  139.500  159.154   47.976    0.459    0.334   10.205
  139.750  159.341   50.378    0.437    0.335    9.168
  140.000  160.462   49.884    0.444    0.353    9.352
  140.250  160.611   49.389    0.493    0.335    9.552
  140.500  161.696   54.172    0.507    0.332    8.730
  140.750  163.828   59.515    0.510    0.326    7.267
  141.000  168.879   68.384    0.497    0.337    4.175
  141.250  169.927   74.940    0.492    0.336    3.480
  141.500  173.968   76.174    0.506    0.321    3.494
  141.750  177.036   77.431    0.525    0.306    3.562
  142.000  178.195   79.272    0.538    0.286    3.571
  142.250  179.280   83.448    0.559    0.285    3.648
  142.500  179.503   84.166    0.565    0.287    3.798
  142.750  180.550   83.649    0.552    0.282    3.877
  143.000  180.774   81.965    0.543    0.283    4.265
  143.250  180.885   79.135    0.538    0.278    5.151
  143.500  180.997   74.532    0.539    0.279    5.066
  143.750  181.220   69.367    0.534    0.274    4.720
  144.000  180.359   65.953    0.536    0.278    4.394
  144.250  179.498   68.400    0.537    0.284    4.168
  144.500  177.775   70.241    0.540    0.287    4.024
  144.750  176.914   67.995    0.515    0.307    3.885
  145.000  175.117   65.143    0.502    0.312    3.898
  145.250  172.384   61.707    0.517    0.300    3.906
  145.500  170.512   54.207    0.565    0.297    4.297
  145.750  164.860   47.852    0.581    0.308    5.589
  146.000  161.080   41.520    0.585    0.305    7.539
  146.250  165.158   35.793    0.576    0.303    9.282
  146.500  166.280   35.905    0.518    0.260    9.130
  146.750  162.500   37.701    0.445    0.222    9.160
  147.000  157.784   41.877    0.402    0.225    9.185
  147.250  157.933   46.637    0.387    0.259    9.209
  147.500  160.028   51.441    0.417    0.293    8.892
  147.750  165.041   53.844    0.452    0.347    7.681
  148.000  171.066   62.106    0.458    0.318    6.398
  148.250  172.225   69.807    0.457    0.297    5.228
  148.500  172.336   69.897    0.468    0.280    4.122
  148.750  171.475   64.732    0.497    0.280    3.912
  149.000  167.807   62.464    0.536    0.278    3.845
  149.250  166.908   56.131    0.540    0.275    4.728
