~Version : LASO    vs 4.00 - DATA COPYRIGHT - RILEYS DATASHARE INTERNATIONAL
VERS.                2.00:   CWLS Log ASCII Standard -VERSION 2.0
WRAP.                  NO:
~Well Information Block
#MNEM.UNIT       Data                        Description of Mnemonic
#----.----      -------------------------- : -----------------------------
COMP.                                     : COMPANY
FLD .    WILDCAT                          : FIELD NAME
LOC .    03-06-091-07W4                   : WELL LOCATION
UWI .    AA/03-06-091-07W400              : UNIQUE WELL ID
STRT.M             9.0000:
STOP.M           161.0000:
STEP.M             0.1250:
NULL.           -999.2500:
COMP.  MOBIL OIL CANADA:COMPANY
WELL.  MOBIL CLARKE OV 3-6:WELL
FLD.   :FIELD
LOC.   03-06-091-07W4:LOCATION
CTRY.  CANADA:COUNTRY
PROV.  ALBERTA:PROVINCE
SRVC.  DRESSER ATLAS:SERVICE COMPANY
DATE.  08-FEB-81:LOG DATE
UWI.   AA/03-06-091-07W4/0:UNIQUE WELL ID
~Parameter Information Block
#MNEM.UNIT       Data                        Description of Mnemonic
#----.----      -------------------------- : -----------------------------
RUN .                   1                 : Run Number
GL  .M           418.1000                 : Ground Level Elevation
DREF.                  KB                 : Depth Reference
EREF.M           419.1000                 : Elevation of Depth Reference
TDL .M           162.8000                 : Total Depth Logger
TDD .M           160.0000                 : Total Depth Driller
BHT .DEGC         10.0000                 : Bottom Hole Temperature
BS  .MM          171.0000                 : Bit Size
DFD .           1090.0000                 : Mud Weight (Density)
DFV .             85.0000                 : Mud Viscosity
RM  .OHMM          1.9000                 : Mud Resistivity
RMT .DEGC         10.0000                 : Mud Resistivity Temperature
RMF .OHMM          1.1000                 : Mud Filtrate Resistivity
RMFT.DEGC         18.0000                 : RMF Temperature
RMC .OHMM          1.8000                 : Mud Cake Resistivity
RMCT.DEGC         18.0000                 : RMC Temperature
~Curve Information Block
#MNEM.UNIT        API CODE    Curve Description
#---------    ------------    -------------------------------------------
DEPT.M                    :   DEPTH
CALI.MM       42 280  1  1:   3 DENSITY CALIPER
DPHI.V/V                  :   DPHI
DT  .US/M     60 520 32  1:   2 SONIC INTERVAL TRANSIT TIME (COMPENSATED)
GR  .GAPI     42 310  1  1:   4 GAMMA RAY
ILD .OHMM      5 120 46  1:   7 DEEP INDUCTION
NPHI.V/V      42 890  3  1:   5 NEUTRON POROSITY (SANDSTONE)
RHOB.K/M3     42 350  1  1:   6 BULK DENSITY
SFL .OHMM      5 220  6  1:   8 FOCUSSED RESISTIVITY
SP  .MV        5  10  1  1:   9 SPONTANEOUS POTENTIAL
~A  Depth           CALI        DPHI          DT          GR         ILD        NPHI        RHOB         SFL          SP
# ...
92.7500        -999.2500      0.3124    554.9600   -999.2500     18.4600      0.3051   -999.2500     14.9300    -48.9000
92.8750        -999.2500      0.3132    547.3600   -999.2500     19.8100      0.3042   -999.2500     16.8900    -51.1800
93.0000        -999.2500      0.3182    542.2400   -999.2500     21.1600      0.3003   -999.2500     18.9700    -53.8300
93.1250        -999.2500      0.3254    561.0800   -999.2500     22.8700      0.2977   -999.2500     19.8200    -55.5100
93.2500        -999.2500      0.3327    576.5200   -999.2500     24.9500      0.2953   -999.2500     20.9300    -57.0700
93.3750        -999.2500      0.3355    604.2400   -999.2500     27.1500      0.2917   -999.2500     22.7600    -57.9100
93.5000        -999.2500      0.3357    649.0800   -999.2500     29.1100      0.2892   -999.2500     25.2100    -58.3900
93.6250        -999.2500      0.3357    650.5600   -999.2500     30.4600      0.2867   -999.2500     28.1500    -60.2000
93.7500        -999.2500      0.3323    636.0800   -999.2500     32.0500      0.2853   -999.2500     29.8600    -62.2400
93.8750        -999.2500      0.3287    537.5600   -999.2500     33.5200      0.2830   -999.2500     33.6500    -64.0400
94.0000        -999.2500      0.3239     17.9600   -999.2500     34.3800      0.2795   -999.2500     35.9800    -64.4000
94.1250        -999.2500      0.3234     32.9200   -999.2500     36.7000      0.2704   -999.2500     35.1200    -63.8000
94.2500        -999.2500      0.3244    132.9200   -999.2500     39.5200      0.2586   -999.2500     30.8400    -63.0800
94.3750        -999.2500      0.3266    475.3200   -999.2500     42.9400      0.2507   -999.2500     28.1500    -62.8400
94.5000        -999.2500      0.3290    104.2400   -999.2500     46.3700      0.2338   -999.2500     28.3900    -63.0800
94.6250        -999.2500      0.3314    199.8400   -999.2500     48.4500      0.2241   -999.2500     33.2900    -63.0800
94.7500        -999.2500      0.3369    531.6801   -999.2500     54.5700      0.2164   -999.2500     42.9600    -63.2000
94.8750        -999.2500      0.3439    252.2800   -999.2500     63.1400      0.2133   -999.2500     56.5400    -63.2000
95.0000        -999.2500      0.3542     85.3600   -999.2500     79.3000      0.2135   -999.2500     75.5200    -62.6000
95.1250        -999.2500      0.3590     87.5600   -999.2500    104.3000      0.2146   -999.2500    101.4000    -62.0000
95.2500        -999.2500      0.3589     89.7600   -999.2500    127.5000      0.2138   -999.2500    134.4000    -61.7600
95.3750        -999.2500      0.3581     84.1200   -999.2500    156.8000      0.2130   -999.2500    180.9000    -61.4000
95.5000        -999.2500      0.3587     60.8400   -999.2500    190.9999      0.2095   -999.2500    175.9999    -60.4400
95.6250        -999.2500      0.3627     89.2800   -999.2500    200.8000      0.1912   -999.2500    178.4000    -60.6800
95.7500        -999.2500      0.3683     92.4800   -999.2500    189.8000      0.1700   -999.2500    180.9000    -61.5200
95.8750        -999.2500      0.3734     88.3200   -999.2500    170.3000      0.1549   -999.2500    186.9999    -62.0000
96.0000        -999.2500      0.3783     70.6400   -999.2500    138.5000      0.1459   -999.2500    179.7000    -63.2000
96.1250        -999.2500      0.3822     51.8000   -999.2500    126.3000      0.1392   -999.2500    163.8000    -63.6800
96.2500        -999.2500      0.3727     50.8000   -999.2500    118.9999      0.1339   -999.2500    133.2000    -63.5600
96.3750        -999.2500      0.3621     50.8000   -999.2500    107.9999      0.1336   -999.2500    103.9000    -63.2000
96.5000        -999.2500      0.3539     43.6800   -999.2500    101.9000      0.1344   -999.2500     93.3900    -63.2000
96.6250        -999.2500      0.3492     53.7600   -999.2500    101.9000      0.1355   -999.2500     89.9600    -63.2000
96.7500        -999.2500      0.3489    119.9200   -999.2500    103.1000      0.1376   -999.2500     87.0200    -63.6800
96.8750        -999.2500      0.3479    352.0400   -999.2500    109.2000      0.1400   -999.2500     82.2500    -64.1600
97.0000        -999.2500      0.3476    440.2800   -999.2500    125.1000      0.1433   -999.2500     78.8200    -64.4000
97.1250        -999.2500      0.3458     52.0400   -999.2500    140.9999      0.1468   -999.2500     84.8200    -64.7600
97.2500        -999.2500      0.3435    139.2800   -999.2500    164.2000      0.1513   -999.2500    125.9000    -65.7300
97.3750        -999.2500      0.3411    507.6800   -999.2500    187.4000      0.1525   -999.2500    212.7000    -66.9300
97.5000        -999.2500      0.3386    649.3200   -999.2500    289.9000      0.1538   -999.2500    371.6000    -67.8900
97.6250        -999.2500      0.3374    648.3600   -999.2500    370.5000      0.1532   -999.2500    536.6000    -68.2500
97.7500        -999.2500      0.3367    643.9200   -999.2500    509.7000      0.1505   -999.2500    629.4999    -68.2500
97.8750        -999.2500      0.3347    628.2400   -999.2500    685.4999      0.1479   -999.2500    634.4000    -68.8500
98.0000        -999.2500      0.3333    622.6000   -999.2500    949.2999      0.1454   -999.2500    543.9999    -69.8100
98.1250        -999.2500      0.3337    620.1600   -999.2500    952.9000      0.1421   -999.2500    387.5000    -70.8900
98.2500        -999.2500      0.3380    622.1200   -999.2500    873.6000      0.1394   -999.2500    279.9000    -71.6200
98.3750        -999.2500      0.3444    631.6800   -999.2500    772.2000      0.1092   -999.2500    232.2000    -72.2200
98.5000        -999.2500      0.3505    620.6400   -999.2500    602.4999      0.0947   -999.2500    257.9000    -72.7000
98.6250        -999.2500      0.3566    619.6800   -999.2500    600.1000      0.0875   -999.2500    329.9999    -73.1800
98.7500        -999.2500      0.3627    618.6800   -999.2500    641.6000      0.0826   -999.2500    398.5000    -73.7800
98.8750        -999.2500      0.3706    620.6400   -999.2500    728.2999      0.0839   -999.2500    411.9000    -74.6200
99.0000        -999.2500      0.3779    627.2800   -999.2500   1121.9999      0.0900   -999.2500    413.2000    -75.3400
99.1250        -999.2500      0.3840    636.3600   -999.2500   1408.9999      0.0985   -999.2500    371.6000    -76.1800
99.2500        -999.2500      0.3818    471.1600   -999.2500   1713.9999      0.1034   -999.2500    351.9999    -77.2600
99.3750        -999.2500      0.3770    425.0800   -999.2500   1856.9999      0.1071   -999.2500    369.1000    -78.4700
99.5000        -999.2500      0.3733    415.0000   -999.2500   1881.9999      0.1107   -999.2500    393.6000    -79.6700
99.6250        -999.2500      0.3696    420.6400   -999.2500   1882.9999      0.1167   -999.2500    358.1000    -80.0300
99.7500        -999.2500      0.3671    427.7600   -999.2500   1882.9999      0.1147   -999.2500    348.4000    -79.4300
99.8750        -999.2500      0.3657    441.4800   -999.2500   1882.9999      0.1123   -999.2500    400.9000    -78.3500
100.0000       -999.2500      0.3645    353.2400   -999.2500   1882.9999      0.1098   -999.2500    559.9000    -77.1400
100.1250       -999.2500      0.3644    308.1600   -999.2500   1881.9999      0.1074   -999.2500    688.2000    -75.8200
100.2500       -999.2500      0.3710    108.6400   -999.2500   1881.9999      0.1060   -999.2500    761.6000    -74.7400
100.3750       -999.2500      0.3815    359.8800   -999.2500   1881.9999      0.1044   -999.2500    741.9999    -74.1400
100.5000       -999.2500      0.3892    606.6800   -999.2500   1882.9999      0.1024   -999.2500    649.1000    -74.6200
100.6250       -999.2500      0.3976    393.4400   -999.2500   1881.9999      0.1000   -999.2500    554.9999    -75.4600
100.7500       -999.2500      0.4040     60.6000   -999.2500   1882.9999      0.0976   -999.2500    493.8000    -76.0600
100.8750       -999.2500      0.4111    197.1200   -999.2500   1882.9999      0.0930   -999.2500    415.6000    -76.3000
101.0000       -999.2500      0.4110    579.7200   -999.2500   1881.9999      0.0903   -999.2500    339.8000    -76.5400
