~Version : LASO    vs 4.00 
VERS.                2.00:   CWLS Log ASCII Standard -VERSION 2.0
WRAP.                  NO:
~Well Information Block
#MNEM.UNIT       Data                        Description of Mnemonic
#----.----      -------------------------- : -----------------------------
STRT.M            15.0000:
STOP.M           207.0000:
STEP.M             0.2000:
NULL.           -999.2500:
COMP.  MOBIL OIL CANADA                   :COMPANY
WELL.  MOBIL CLARKE OV 1-2                :WELL
FLD.                                      :FIELD
LOC.   01-02-090-08W4                     :LOCATION
CTRY.  CANADA                             :COUNTRY
PROV.  ALBERTA                            :PROVINCE
SRVC.  SCHLUMBERGER                       :SERVICE COMPANY
DATE.  05-MAR-81                          :LOG DATE
UWI.   AA/01-02-090-08W400                :UNIQUE WELL ID
~Parameter Information Block
#MNEM.UNIT       Data                        Description of Mnemonic
#----.----      -------------------------- : -----------------------------
RUN .                   1                 : Run Number
GL  .M           444.4000                 : Ground Level Elevation
DREF.                  KB                 : Depth Reference
EREF.M           444.4000                 : Elevation of Depth Reference
TDL .M           207.0000                 : Total Depth Logger
TDD .M           206.0000                 : Total Depth Driller
CSGL.M            27.0000                 : Casing Bottom Logger
CSGD.M            26.4000                 : Casing Bottom Driller
CSGS.MM          219.0000                 : Casing Size
CSGW.KG/M          0.0000                 : Casing Weight
BS  .MM          159.0000                 : Bit Size
DFD .           9999.0000                 : Mud Weight (Density)
~Curve Information Block
#MNEM.UNIT        API CODE    Curve Description
#---------    ------------    -------------------------------------------
DEPT.M                    :   DEPTH
CALI.MM       42 280  1  1:   3 DENSITY CALIPER
DPHI.V/V                  :   DPHI
DT  .US/M     60 520  0  1:   2 SONIC INTERVAL TRANSIT TIME (COMPENSATED)
GR  .GAPI     42 310  1  1:   4 GAMMA RAY
ILD .OHMM      5 120 46  1:   7 DEEP INDUCTION
ILM .OHMM      5 120 44  1:   8 MEDIUM INDUCTION
NPHI.V/V      42 890  3  1:   5 NEUTRON POROSITY (SANDSTONE)
RHOB.K/M3     42 350  1  1:   6 BULK DENSITY
SFLU.OHMM      5 220  1  1:   9 FOCUSSED RESISTIVITY
SP  .MV        5  10  1  1:   10 SPONTANEOUS POTENTIAL
~A  Depth           CALI        DPHI          DT          GR         ILD         ILM        NPHI        RHOB        SFLU          SP
# ...
124.8000        175.9000      0.2195    489.5600     65.2950      3.5013      3.3468      0.5024   2299.0000      3.1321    114.7650
125.0000        175.9000      0.2184    490.3600     64.0800      3.4692      3.3778      0.5284   2307.8999      3.2797    108.2550
125.2000        178.4500      0.2171    491.2000     63.6900      3.4059      3.3778      0.5342   2281.0000      3.6629    116.1600
125.4000        178.4500      0.2190    488.0800     64.9950      3.3747      3.1962      0.5298   2289.0000      3.2496    126.1650
125.6000        177.1750      0.2244    487.4000     66.0900      3.3747      3.1669      0.5338   2272.8999      2.6536    123.8700
125.8000        177.1750      0.2360    487.9200     66.2850      3.3131      3.1962      0.5406   2279.0000      2.6051    124.1100
126.0000        177.1750      0.2478    495.1200     66.3900      3.2827      3.1669      0.5260   2249.0000      3.4342    115.5600
126.2000        177.1750      0.2463    493.9600     65.7900      3.3131      3.1378      0.5042   2250.0000      3.1903    110.3100
126.4000        177.1750      0.2330    491.6800     64.7850      3.3437      3.1378      0.5106   2233.0000      2.9096    124.1700
126.6000        177.1750      0.2252    488.4000     65.6850      3.4374      3.2257      0.5164   2298.0000      2.8829    114.4200
126.8000        177.1750      0.2243    489.8800     65.8950      3.5337      3.2857      0.4970   2279.0000      2.9365    116.1150
127.0000        178.4500      0.2273    490.3600     65.7900      3.6327      3.4090      0.4978   2265.0000      2.9911    121.5600
127.2000        177.1750      0.2340    490.2000     63.8850      3.7690      3.5370      0.5038   2254.0000      3.1610    125.8200
127.4000        177.1750      0.2304    488.0800     63.4800      4.0200      3.8782      0.5068   2253.0000      3.7656    112.1550
127.6000        177.1750      0.2242    484.6400     63.1800      4.1327      4.0237      0.5012   2272.8999      4.2838    120.0150
127.8000        177.1750      0.2179    481.0000     63.0900      4.2095      4.1365      0.4966   2279.0000      4.7844    122.0100
128.0000        175.9000      0.2149    474.8000     64.3950      4.2484      4.0985      0.4878   2290.0000      4.6114    118.2600
128.2000        175.9000      0.2141    473.8000     64.3950      4.2484      4.0237      0.4860   2307.0000      4.1289    120.0150
128.4000        175.9000      0.2099    471.5200     64.4850      4.2095      3.9869      0.4764   2304.0000      3.6629    119.6700
128.6000        175.9000      0.2133    474.9600     63.6900      4.2484      3.9141      0.4756   2300.0000      3.5961    116.8200
128.8000        175.9000      0.2082    476.0800     64.1850      4.3675      3.9141      0.4562   2289.0000      3.3716    125.0700
129.0000        175.9000      0.2009    477.4000     63.3900      4.6156      4.0610      0.4562   2293.0000      3.0749    122.7150
129.2000        174.6250      0.1955    479.2000     58.1850      5.6524      5.1125      0.4540   2323.0000      3.9430    119.9700
129.4000        174.6250      0.1964    478.2400     58.1850      6.3713      5.9790      0.4446   2323.0000      5.1503    115.6200
129.6000        173.3750      0.1907    474.2800     55.3800      7.3830      7.1159      0.4292   2331.0000      6.8522    114.8700
129.8000        170.8250      0.1933    457.2400     50.1750     10.5738      9.6434      0.4038   2340.8999     11.9078    115.9200
130.0000        170.8250      0.1938    445.6000     48.5850     12.8183     11.1745      0.3690   2343.0000     12.0179    111.6150
130.2000        170.8250      0.2004    440.6800     48.5850     14.9910     13.1895      0.3672   2325.0000     11.3718    113.2650
130.4000        170.8250      0.2034    445.0800     47.1750     15.9893     15.5679      0.3694   2316.0000     11.7986    114.2700
130.6000        172.1000      0.2096    465.6000     46.9800     16.1373     19.5988      0.3710   2320.0000     34.6601    108.4050
130.8000        172.1000      0.1875    467.4000     47.5800     16.5894     18.3751      0.3454   2302.0000     47.8443     99.4050
131.0000        170.8250      0.1342    458.0400     49.9800     17.0541     16.3016      0.3262   2304.0000     27.5315    107.0100
131.2000        169.5500      0.0878    373.4400     55.3800     16.2866     15.4252      0.3232   2385.0000     11.1643    112.8600
131.4000        169.5500      0.1236    363.0800     56.9850     14.9910     15.5679      0.3616   2462.0000     12.1291    113.9100
131.6000        169.5500      0.1581    366.5200     57.7800     14.1850     15.1436      0.3746   2544.0000     15.4110    113.8650
131.8000        169.5500      0.2074    432.4800     59.3850     14.9910     12.4804      0.3806   2383.0000     16.7429    112.2150
132.0000        169.5500      0.2194    446.7200     60.7800     16.5894     13.0686      0.3958   2307.0000     10.7604    114.4200
132.2000        169.5500      0.2221    452.0000     59.9850     18.1899     16.4524      0.3968   2291.0000      8.7062    110.1600
132.4000        168.2750      0.2175    450.3600     45.8850     20.1294     24.2231      0.3894   2276.0000     51.0305    105.1050
132.6000        169.5500      0.2253    445.2800     40.5750     21.6686     25.5994      0.3570   2272.8999     80.8779     97.5150
132.8000        169.5500      0.2365    443.8000     40.4850     23.7591     27.3042      0.3478   2289.0000     58.5909     93.5100
133.0000        170.8250      0.2278    444.9200     45.6750     22.8997     25.3647      0.3568   2282.0000     34.3423     98.6550
133.2000        172.1000      0.2253    437.4000     46.6800     20.6933     22.0917      0.3786   2258.0000     26.2924    100.8150
133.4000        169.5500      0.2250    419.8400     47.1750     18.0231     19.4191      0.3814   2254.0000     20.1294     97.4100
133.6000        163.2000      0.2269    406.4000     50.8800     15.8427     17.0699      0.3858   2269.0000     15.1297     95.4600
133.8000        160.6750      0.2251    411.3200     52.3800     12.9369     13.8112      0.3884   2277.0000     16.5894     93.8550
134.0000        160.6750      0.2270    416.7200     53.7900     12.2414     11.9187      0.3824   2282.0000     18.0231     95.5650
134.2000        160.6750      0.2237    418.6800     55.8900     12.1291     10.8700      0.3742   2275.0000     13.7984    103.0050
134.4000        163.2000      0.2140    417.4000     57.8850     12.9369     10.4768      0.3726   2287.0000      7.0442    114.7650
134.6000        164.4750      0.2063    418.8400     56.2800     13.5466     12.0290      0.4016   2289.0000      7.0442    109.3650
134.8000        165.7500      0.2014    421.3200     52.7850     14.5824     13.8112      0.4090   2304.0000      8.9501    103.4100
135.0000        158.1250      0.2082    427.7200     44.5800     18.5281     18.2066      0.3962   2318.0000     25.5758    100.5600
135.2000        158.1250      0.2190    428.6800     42.2850     21.6686     22.0917      0.3476   2317.0000     28.5647     95.5050
135.4000        158.1250      0.2307    430.6800     40.1850     25.8125     26.0753      0.3288   2340.0000     35.6312     94.0050
135.6000        158.1250      0.2425    458.8800     38.2800     30.7489     31.0620      0.3218   2285.8999     38.7106     89.4150
135.8000        158.1250      0.2494    472.6400     39.0750     30.7489     31.9323      0.3206   2250.8999     36.9683     95.6100
136.0000        158.1250      0.2489    483.0000     38.9850     29.3650     31.9323      0.3316   2225.0000     34.6601     96.9600
136.2000        159.4000      0.2463    468.7200     39.4800     26.5357     28.3289      0.3394   2229.0000     39.7951     96.3150
136.4000        158.1250      0.2430    453.8000     38.7750     26.0513     26.3166      0.3448   2253.0000     38.7106     94.2600
136.6000        158.1250      0.2381    443.4400     38.3850     27.2791     24.6735      0.3472   2248.0000     31.3206     93.2100
136.8000        158.1250      0.2319    444.1200     36.2700     29.0958     24.2231      0.3472   2253.0000     22.8997     90.4050
