~VERSION INFORMATION
 VERS.                 2.0:   CWLS LOG ASCII STANDARD -VERSION 2.0
 WRAP.                  NO:   ONE LINE PER DEPTH STEP
~WELL INFORMATION BLOCK
#MNEM.UNIT           DATA                    DESCRIPTION OF MNEMONIC
#---------    -------------------            -------------------------------
# Generated from Intellog Unique Number	CN_94_101/WELL/4993
WELL.         08-33-098-12W4                 : Well_name    - WELL
LOC .         AA/08-33-098-12W4/0            : Location     - LOCATION
UWI .         AA/08-33-098-12W400            : Uwi          - UNIQUE WELL ID
ENTR.         TIM                            : Entered      - ENTERED BY
SRVC.         SCHLUMBERGER                   : Scn          - SERVICE COMPANY
DATE.         08/11/92                       : Date         - LOG DATE
STRT.M        60.96                          : top_depth    - START DEPTH
STOP.M        267.71                         : bot_depth    - STOP DEPTH
STEP.M        0.25                           : increment    - STEP LENGTH
 NULL. -999.2500:NULL Value
~CURVE INFORMATION BLOCK
#MNEM UNIT       ERCB CURVE CODE    CURVE DESCRIPTION
#-----------   ------------------   ----------------------------------
DEPT.M        00 001 00 00         : DEPTH        - DEPTH
GR  .API      00 310 00 00         : GR           - GAMMA RAY
ILD .OHMM     00 120 00 00         : RESD         - DEEP RESISTIVITY (DIL)
NPHI.V/V      00 330 00 00         : PHIN         - NEUTRON POROSITY (SANDSTONE)
RHOB.KG/M3    00 350 00 00         : DENS         - BULK DENSITY
~PARAMETER INFORMATION
#MNEM.UNIT           DATA             DESCRIPTION OF MNEMONIC
#---------         -----------     ------------------------------
GL  .M        499.872              : gl           - GROUND LEVEL ELEVATION
EREF.M        502.92               : kb           - ELEVATION OF DEPTH REFERENCE
DATM.M        502.92               : datum        - DATUM ELEVATION
TDD .M        267.614              : tdd          - TOTAL DEPTH DRILLER
RUN .         ONE                  : Run          - RUN NUMBER
ENG .         JO                   : Engineer     - RECORDING ENGINEER
WIT .         TIM                  : Witness      - WITNESSED BY
MUD .         GEL                  : Mud_type     - MUD TYPE
MATR.         SANDSTONE            : Logunit      - NEUTRON MATRIX
TMAX.C        10                   : BHT          - MAXIMUM RECORDED TEMPERATURE
BHTD.M        267.614              : BHTDEP       - MAXIMUM RECORDED TEMPERATURE
RMT .C        10                   : MDTP         - TEMPERATURE OF MUD
MUDD.KG/M     1000                 : MWT          - MUD DENSITY
NEUT.         1                    : NEUTRON      - NEUTRON TYPE
RESI.         0                    : RESIST       - RESISTIVITY TYPE
RM  .OHMM     13.8                 : RM           - RESISTIVITY OF MUD
RMC .OHMM     13.8                 : RMC          - RESISTIVITY OF MUD CAKE
RMF .OHMM     13.8                 : RMF          - RESISTIVITY OF MUD FILTRATE
SUFT.C        4                    : SUFT         - SURFACE TEMPERATURE
~A  DEPTH       GR     RESD     PHIN     DENS
# ...
  147.960   96.254    2.771    0.455 2137.830
  148.210   99.399    2.622    0.450 2177.740
  148.460  103.069    2.435    0.450 2211.660
  148.710   96.262    2.391    0.449 2237.610
  148.960   91.027    2.436    0.448 2267.540
  149.210   88.934    2.623    0.444 2313.440
  149.460   86.842    2.723    0.441 2381.270
  149.710   84.225    2.673    0.437 2423.170
  149.960   97.323    2.625    0.431 2381.300
  150.210  106.230    2.530    0.420 2293.560
  150.460  110.423    2.484    0.407 2263.660
  150.710  108.854    2.484    0.414 2249.720
  150.960  106.238    2.531    0.428 2203.870
  151.210  103.621    2.676    0.449 2183.930
  151.460   97.863    2.777    0.454 2152.040
  151.710   88.961    2.830    0.444 2183.970
  151.960   85.821    2.992    0.429 2219.890
  152.210   83.728    3.222    0.411 2241.850
  152.460   99.444    3.344    0.405 2243.860
  152.710  101.019    3.471    0.440 2241.890
  152.960   96.831    3.536    0.457 2247.890
  153.210   86.883    3.808    0.447 2253.880
  153.460   85.313    4.256    0.420 2259.890
  153.710   82.696    4.417    0.399 2243.950
  153.960   82.700    4.937    0.376 2222.030
  154.210   82.702    5.725    0.361 2220.050
  154.460   82.704    6.167    0.364 2230.040
  154.710   82.707    6.167    0.366 2244.020
  154.960   82.711    6.055    0.367 2258.000
  155.210   82.712    5.946    0.368 2271.980
  155.460   82.715    5.837    0.368 2281.970
  155.710   81.670    5.838    0.374 2281.990
  155.960   80.103    5.839    0.383 2228.150
  156.210   80.104    6.060    0.406 2190.280
  156.460   79.059    6.174    0.422 2170.350
  156.710   78.538    6.175    0.441 2176.350
  156.960   78.540    6.063    0.442 2188.330
  157.210   78.545    5.844    0.440 2184.360
  157.460   78.547    5.738    0.434 2176.400
  157.710   78.549    5.633    0.429 2164.450
  157.960   77.504    5.429    0.423 2148.520
  158.210   76.982    5.431    0.420 2150.530
  158.460   75.415    5.431    0.416 2154.530
  158.710   74.894    5.432    0.407 2168.510
  158.960   74.895    5.433    0.394 2180.490
  159.210   75.947    5.535    0.387 2204.450
  159.460   76.996    5.435    0.382 2220.420
  159.710   77.523    5.336    0.375 2236.400
  159.960   77.001    5.143    0.372 2246.390
  160.210   76.480    5.050    0.367 2256.380
  160.460   76.483    5.050    0.366 2256.390
  160.710   75.961    5.340    0.368 2252.430
  160.960   77.012    5.645    0.370 2250.450
  161.210   79.110    5.752    0.381 2244.480
  161.460   81.207    5.544    0.399 2228.540
  161.710   84.877    4.962    0.401 2202.630
  161.960   87.499    4.695    0.410 2180.710
  162.210   85.406    4.442    0.415 2120.890
  162.460   83.313    4.526    0.413 2092.990
  162.710   81.744    4.697    0.412 2085.030
  162.960   80.700    4.875    0.415 2142.880
  163.210   80.179    5.060    0.417 2172.820
  163.460   80.706    5.060    0.419 2190.800
  163.710   82.279    4.968    0.426 2192.810
  163.960   85.948    4.615    0.430 2198.800
  164.210   86.998    4.366    0.429 2206.800
  164.460   85.953    4.131    0.428 2204.820
  164.710   84.908    4.132    0.426 2196.860
  164.960   84.387    4.209    0.423 2198.880
  165.210   83.866    4.369    0.413 2214.850
  165.460   83.345    4.705    0.407 2234.810
  165.710   82.300    4.975    0.403 2254.770
  165.960   80.733    4.976    0.400 2284.710
  166.210   80.210    4.292    0.400 2312.650
  166.460   80.213    2.965    0.404 2242.860
  166.710   81.787    2.753    0.421 2230.910
  166.960   84.409    2.419    0.432 2193.030
  167.210   87.031    2.247    0.449 2177.100
  167.460   89.652    2.376    0.456 2179.110
  167.710   91.227    2.559    0.456 2181.120
  167.960   91.752    2.913    0.449 2181.150
  168.210   91.754    2.968    0.436 2181.150
  168.460   91.757    2.968    0.434 2179.180
  168.710   90.189    2.657    0.436 2171.220
  168.960   89.144    2.468    0.440 2169.240
  169.210   89.146    2.250    0.453 2171.250
  169.460   89.674    2.090    0.475 2181.240
  169.710   90.723    2.052    0.480 2193.230
  169.960   92.297    2.169    0.472 2205.210
  170.210   93.871    2.294    0.460 2219.190
  170.460   95.970    2.516    0.447 2231.180
  170.710   97.019    2.918    0.436 2245.160
  170.960  100.164    3.262    0.429 2259.140
  171.210  101.739    3.853    0.428 2285.080
  171.460  101.218    4.552    0.423 2307.040
  171.710   98.078    5.378    0.413 2305.070
  171.960   94.414    5.480    0.409 2267.190
  172.210   88.655    5.687    0.417 2223.330
  172.460   87.086    5.794    0.425 2205.390
  172.710   86.564    5.903    0.431 2249.290
  172.960   86.044    6.014    0.435 2243.320
  173.210   86.046    5.905    0.440 2189.490
  173.460   86.049    5.798    0.443 2199.480
  173.710   86.051    5.693    0.447 2181.550
  173.960   85.007    5.589    0.448 2141.680
  174.210   85.009    5.694    0.447 2105.790
  174.460   85.012    5.802    0.443 2065.920
  174.710   85.015    6.022    0.436 2055.960
  174.960   84.493    6.135    0.428 2051.990
  175.210   84.497    6.251    0.419 2177.660
  175.460   84.499    6.252    0.411 2235.520
  175.710   84.501    6.138    0.399 2237.530
  175.960   86.076    6.139    0.385 2243.530
  176.210   86.603    6.028    0.384 2255.520
  176.460   87.129    6.141    0.381 2261.520
  176.710   87.655    6.142    0.380 2257.550
  176.960   87.658    6.374    0.380 2247.590
  177.210   88.183    6.375    0.387 2235.650
  177.460   88.712    6.496    0.399 2217.720
  177.710   89.237    6.378    0.405 2207.760
  177.960   90.287    6.379    0.409 2201.800
  178.210   91.863    6.263    0.410 2197.820
  178.460   92.387    6.264    0.410 2181.890
  178.710   93.439    6.265    0.410 2146.010
  178.960   93.964    6.266    0.403 2136.050
  179.210   93.444    6.267    0.392 2128.090
  179.460   92.398    6.154    0.384 2179.960
  179.710   90.829    6.154    0.381 2215.880
  179.960   87.689    6.270    0.380 2231.850
  180.210   84.550    6.388    0.376 2227.880
  180.460   84.028    6.630    0.374 2215.930
  180.710   82.984    6.631    0.372 2203.980
  180.960   82.462    6.632    0.366 2186.050
  181.210   81.417    6.633    0.362 2190.060
  181.460   80.896    6.885    0.356 2237.940
  181.710   77.756    7.145    0.351 2317.740
  181.960   72.521    7.416    0.337 2369.620
  182.210   65.714    7.987    0.326 2425.480
  182.460   56.288    8.137    0.308 2469.380
  182.710   58.386    7.989    0.279 2425.520
  182.960   83.007    7.020    0.242 2385.650
  183.210   92.962    5.944    0.200 2345.770
  183.460   92.966    4.106    0.240 2321.860
  183.710   91.395    4.032    0.385 2287.970
  183.960   88.779    4.032    0.427 2234.130
  184.210   87.211    4.108    0.434 2254.090
  184.460   88.785    4.109    0.434 2238.160
  184.710   90.883    4.109    0.434 2234.190
  184.960   93.505    4.110    0.433 2254.150
  185.210   95.079    3.818    0.433 2280.090
  185.460   96.129    3.481    0.433 2327.980
  185.710   97.703    3.355    0.434 2349.950
  185.960   99.277    3.059    0.439 2314.060
  186.210   99.803    2.738    0.443 2242.280
  186.460   99.805    2.496    0.447 2204.390
  186.710   96.665    2.234    0.454 2182.470
  186.960   91.954    2.114    0.459 2154.560
  187.210   91.434    2.114    0.459 2108.710
  187.460   91.960    2.194    0.454 2068.830
  187.710   92.486    2.320    0.447 2082.820
  187.960   93.536    2.691    0.436 2124.720
  188.210   94.063    3.063    0.424 2298.260
  188.460   94.589    3.361    0.408 2318.220
  188.710   94.592    3.970    0.379 2242.450
  188.960   95.642    4.691    0.381 2290.340
  189.210   95.121    4.959    0.382 2334.230
  189.460   95.124    5.147    0.375 2342.240
  189.710   94.079    5.244    0.347 2348.230
  189.960   92.509    5.343    0.337 2364.210
  190.210   87.275    5.755    0.329 2382.170
  190.460   83.611    5.972    0.320 2418.090
  190.710   84.138    6.199    0.309 2471.960
  190.960   87.807    6.199    0.295 2460.010
  191.210   90.952    6.201    0.324 2346.340
