~VERSION INFORMATION
 VERS.                 2.0:   CWLS LOG ASCII STANDARD -VERSION 2.0
 WRAP.                  NO:   ONE LINE PER DEPTH STEP
~WELL INFORMATION BLOCK
#MNEM.UNIT           DATA                    DESCRIPTION OF MNEMONIC
#---------    -------------------            -------------------------------
# Generated from Intellog Unique Number	CN_94_101/WELL/2800
WELL.         03-25-096-16W4                 : Well_name    - WELL
LOC .         AA/03-25-096-16W4/0            : Location     - LOCATION
UWI .         AA/03-25-096-16W400            : Uwi          - UNIQUE WELL ID
ENTR.         JOETTE                         : Entered      - ENTERED BY
SRVC.         SCHLUMBERGER                   : Scn          - SERVICE COMPANY
DATE.         07/07/92                       : Date         - LOG DATE
STRT.M        140                            : top_depth    - START DEPTH
STOP.M        395                            : bot_depth    - STOP DEPTH
STEP.M        0.25                           : increment    - STEP LENGTH
 NULL. -999.2500:NULL Value
~CURVE INFORMATION BLOCK
#MNEM UNIT       ERCB CURVE CODE    CURVE DESCRIPTION
#-----------   ------------------   ----------------------------------
DEPT.M        00 001 00 00         : DEPTH        - DEPTH
CALI.MM       00 280 01 00         : CAL          - CALIPER
GR  .API      00 310 00 00         : GR           - GAMMA RAY
NPHI.V/V      00 330 00 00         : PHIN         - NEUTRON POROSITY (SANDSTONE)
DPHI.V/V      00 890 00 00         : PHID         - DENSITY POROSITY (SANDSTONE)
ILD .OHMM     00 120 00 00         : RESD         - DEEP RESISTIVITY (DIL)
~PARAMETER INFORMATION
#MNEM.UNIT           DATA             DESCRIPTION OF MNEMONIC
#---------         -----------     ------------------------------
GL  .M        651.2                : gl           - GROUND LEVEL ELEVATION
EREF.M        655                  : kb           - ELEVATION OF DEPTH REFERENCE
DATM.M        655                  : datum        - DATUM ELEVATION
TDD .M        398                  : tdd          - TOTAL DEPTH DRILLER
RUN .         ONE                  : Run          - RUN NUMBER
ENG .         JO                   : Engineer     - RECORDING ENGINEER
WIT .         TIM                  : Witness      - WITNESSED BY
MUD .         GEL                  : Mud_type     - MUD TYPE
MATR.         SANDSTONE            : Logunit      - NEUTRON MATRIX
TMAX.C        20                   : BHT          - MAXIMUM RECORDED TEMPERATURE
BHTD.M        398                  : BHTDEP       - MAXIMUM RECORDED TEMPERATURE
RMT .C        13                   : MDTP         - TEMPERATURE OF MUD
MUDD.KG/M     1120                 : MWT          - MUD DENSITY
NEUT.         1                    : NEUTRON      - NEUTRON TYPE
RESI.         0                    : RESIST       - RESISTIVITY TYPE
RM  .OHMM     0.84                 : RM           - RESISTIVITY OF MUD
RMC .OHMM     0.84                 : RMC          - RESISTIVITY OF MUD CAKE
RMF .OHMM     0.88                 : RMF          - RESISTIVITY OF MUD FILTRATE
SUFT.C        4                    : SUFT         - SURFACE TEMPERATURE
~A  DEPTH      CAL       GR     PHIN     PHID     RESD
# ...
  359.000  169.200   62.686    0.271    0.278   62.165
  359.250  169.231   60.370    0.267    0.272   67.117
  359.500  170.343   56.294    0.277    0.263   67.255
  359.750  171.516   52.792    0.275    0.269   67.359
  360.000  171.578   41.602    0.299    0.290   61.519
  360.250  171.732   41.694    0.314    0.288   57.215
  360.500  171.917   40.582    0.338    0.268   52.228
  360.750  170.991   36.488    0.322    0.270   50.393
  361.000  171.114   24.093    0.223    0.282   48.673
  361.250  170.249   21.202    0.236    0.299   48.773
  361.500  170.342   22.480    0.246    0.323   50.705
  361.750  169.477   24.315    0.286    0.310   53.760
  362.000  168.643   27.965    0.325    0.313   54.885
  362.250  168.736   32.800    0.357    0.322   54.997
  362.500  168.921   35.246    0.385    0.314   55.139
  362.750  169.013   35.913    0.404    0.305   53.229
  363.000  170.156   37.766    0.432    0.306   51.359
  363.250  170.249   40.211    0.454    0.308   46.883
  363.500  171.360   41.471    0.446    0.304   42.006
  363.750  172.503   40.952    0.420    0.306   34.931
  364.000  173.645   42.824    0.431    0.304   32.470
  364.250  173.707   42.898    0.438    0.332   31.345
  364.500  173.830   43.565    0.441    0.327   33.842
  364.750  173.984   44.231    0.446    0.301   48.357
  365.000  174.139   44.306    0.449    0.283   64.098
  365.250  174.231   43.175    0.404    0.275   95.070
  365.500  174.324   35.542    0.366    0.255  116.957
  365.750  174.509   17.811    0.314    0.262  136.054
  366.000  173.613   14.920    0.312    0.281  164.368
  366.250  172.749   14.401    0.320    0.290  171.053
  366.500  171.884   15.068    0.323    0.291  156.225
  366.750  172.038   16.939    0.326    0.283  147.952
  367.000  172.131   18.181    0.328    0.277  140.117
  367.250  171.235   20.645    0.328    0.279  127.970
  367.500  171.389   23.109    0.328    0.284  119.015
  367.750  171.482   24.943    0.348    0.292  114.835
  368.000  170.617   26.777    0.378    0.300  115.071
  368.250  170.802   29.242    0.383    0.291  115.307
  368.500  170.926   33.466    0.386    0.293  115.603
  368.750  171.018   38.283    0.389    0.295  109.482
  369.000  172.192   43.693    0.392    0.288   96.281
  369.250  173.242   50.900    0.397    0.276   77.093
  369.500  173.365   50.400    0.383    0.285   62.924
  369.750  173.519   47.491    0.360    0.296   50.410
  370.000  173.643   45.194    0.355    0.302   41.898
  370.250  174.785   48.825    0.360    0.289   32.337
  370.500  174.847   51.271    0.378    0.259   24.496
  370.750  175.989   54.328    0.375    0.248   21.144
  371.000  177.132   56.181    0.365    0.234   19.665
  371.250  177.224   59.219    0.353    0.261   18.279
  371.500  178.336   62.276    0.377    0.283   17.000
  371.750  178.459   64.722    0.386    0.279   15.247
  372.000  178.614   63.591    0.404    0.277   14.704
  372.250  178.675   61.887    0.417    0.274   14.734
  372.500  178.799   60.182    0.427    0.276   15.630
  372.750  178.984   59.663    0.426    0.283   16.572
  373.000  178.088   60.923    0.421    0.288   16.901
  373.250  177.285   62.183    0.420    0.283   14.589
  373.500  177.347   62.294    0.417    0.278   13.317
  373.750  176.513   62.331    0.418    0.276   12.612
  374.000  175.648   62.424    0.425    0.277   11.736
  374.250  175.741   61.905    0.430    0.280   10.920
  374.500  173.888   61.960    0.431    0.291   10.735
  374.750  171.047   60.849    0.421    0.299   10.177
  375.000  169.194   59.737    0.413    0.299    9.999
  375.250  168.329   57.439    0.403    0.298    9.834
  375.500  166.507   55.753    0.388    0.300    9.682
  375.750  165.704   54.623    0.381    0.296    9.692
  376.000  164.809   54.104    0.394    0.294    9.362
  376.250  164.871   54.178    0.402    0.300    9.207
  376.500  165.056   54.864    0.409    0.283    8.884
  376.750  165.148   54.938    0.413    0.281    8.581
  377.000  165.241   53.808    0.398    0.281    7.684
  377.250  165.364   50.343    0.397    0.284    6.510
  377.500  165.488   51.603    0.398    0.290    6.169
  377.750  165.642   57.031    0.400    0.291    6.298
  378.000  165.796   60.051    0.407    0.271    6.799
  378.250  165.858   66.647    0.441    0.250    7.914
  378.500  166.970   78.597    0.455    0.234    8.549
  378.750  168.143   78.671    0.460    0.227    9.230
  379.000  169.193   74.595    0.435    0.222    9.776
  379.250  171.292   67.555    0.413    0.217   10.753
  379.500  175.430   53.974    0.400    0.220   12.284
  379.750  174.566   49.305    0.382    0.223   14.566
  380.000  173.670   49.379    0.378    0.231   17.255
  380.250  174.843   50.046    0.376    0.237   22.449
  380.500  175.893   52.491    0.381    0.246   27.631
  380.750  177.036   57.901    0.396    0.255   28.209
  381.000  178.147   59.198    0.406    0.265   26.235
  381.250  181.266   58.050    0.406    0.276   23.949
  381.500  182.316   56.363    0.392    0.278   21.457
  381.750  183.489   57.049    0.385    0.269   19.225
  382.000  184.570   60.069    0.375    0.254   17.880
  382.250  184.693   66.090    0.370    0.241   17.917
  382.500  184.817   70.907    0.379    0.234   18.291
  382.750  184.940   75.706    0.388    0.229   18.693
  383.000  184.075   74.020    0.391    0.232   19.065
  383.250  182.253   75.280    0.389    0.239   18.761
  383.500  181.327   77.725    0.387    0.241   17.776
  383.750  179.505   81.357    0.385    0.236   16.843
  384.000  178.609   89.139    0.383    0.230   15.649
  384.250  176.756   91.010    0.381    0.224   14.554
  384.500  175.922   88.731    0.386    0.209   14.050
  384.750  174.070   86.415    0.400    0.199   13.563
  385.000  173.236   84.710    0.408    0.193   13.347
  385.250  173.297   83.006    0.409    0.195   13.374
  385.500  172.464   80.689    0.403    0.199   13.402
  385.750  171.568   77.225    0.401    0.203   13.188
  386.000  170.734   74.909    0.389    0.207   12.971
  386.250  169.931   72.611    0.386    0.226   12.991
  386.500  169.036   67.942    0.389    0.260   12.322
  386.750  169.128   66.849    0.389    0.263   11.883
  387.000  168.294   68.702    0.384    0.267   10.853
  387.250  167.430   67.590    0.398    0.256   10.466
  387.500  167.522   65.274    0.409    0.259    9.734
  387.750  166.719   61.198    0.399    0.272    8.565
  388.000  166.781   61.883    0.388    0.269    7.674
  388.250  165.947   63.717    0.403    0.265    7.005
  388.500  165.113   60.846    0.406    0.254    6.634
  388.750  165.175   55.547    0.402    0.251    6.170
  389.000  165.298   49.710    0.396    0.257    5.741
  389.250  164.495   49.173    0.391    0.268    5.342
  389.500  164.588   44.504    0.387    0.291    5.152
  389.750  164.680   36.277    0.387    0.314    4.884
  390.000  163.816   32.183    0.387    0.317    4.542
  390.250  163.970   28.699    0.394    0.313    4.146
  390.500  164.062   27.606    0.393    0.313    3.856
  390.750  164.186   27.680    0.392    0.324    3.864
  391.000  164.309   25.976    0.390    0.332    3.945
  391.250  164.464   26.050    0.380    0.331    4.103
  391.500  164.556   27.921    0.377    0.322    4.189
  391.750  164.710   30.941    0.376    0.291    4.359
  392.000  164.803   39.316    0.370    0.281    4.446
  392.250  164.957   44.744    0.368    0.251    4.716
  392.500  165.081   47.783    0.364    0.244    4.995
  392.750  165.173   49.061    0.357    0.213    5.291
  393.000  165.328   49.117    0.359    0.163    7.152
  393.250  166.470   50.395    0.354    0.067    8.960
  393.500  167.551   51.655    0.350   -0.004   16.623
  393.750  168.693   51.729    0.344   -0.005   21.238
  394.000  169.774   51.228    0.339    0.001   49.282
  394.250  171.874   50.691    0.330    0.005   61.770
  394.500  173.016   50.172    0.273    0.012   64.249
  394.750  173.139   51.432    0.276    0.011   63.224
  395.000  173.263   52.692    0.276    0.004   59.907
