~VERSION INFORMATION
 VERS.                 2.0:   CWLS LOG ASCII STANDARD -VERSION 2.0
 WRAP.                  NO:   ONE LINE PER DEPTH STEP
~WELL INFORMATION BLOCK
#MNEM.UNIT           DATA                    DESCRIPTION OF MNEMONIC
#---------    -------------------            -------------------------------
# Generated from Intellog Unique Number	CN_94_101/WELL/4988
WELL.         TEXACO                         : Well_name    - WELL
LOC .         AA/07-08-101-12W4/0            : Location     - LOCATION
UWI .         AA/07-08-101-12W400            : Uwi          - UNIQUE WELL ID
ENTR.         TIM                            : Entered      - ENTERED BY
SRVC.         SCHLUMBERGER                   : Scn          - SERVICE COMPANY
DATE.         08/11/92                       : Date         - LOG DATE
STRT.M        380                            : top_depth    - START DEPTH
STOP.M        665                            : bot_depth    - STOP DEPTH
STEP.M        0.25                           : increment    - STEP LENGTH
NULL. -999.2500:NULL Value
~CURVE INFORMATION BLOCK
#MNEM UNIT       ERCB CURVE CODE    CURVE DESCRIPTION
#-----------   ------------------   ----------------------------------
DEPT.M        00 001 00 00         : DEPTH        - DEPTH
GR  .API      00 310 00 00         : GR           - GAMMA RAY
ILD .OHMM     00 120 00 00         : RESD         - DEEP RESISTIVITY (DIL)
NPHI.V/V      00 330 00 00         : PHIN         - NEUTRON POROSITY (SANDSTONE)
DPHI.V/V      00 890 00 00         : PHID         - DENSITY POROSITY (SANDSTONE)
~PARAMETER INFORMATION
#MNEM.UNIT           DATA             DESCRIPTION OF MNEMONIC
#---------         -----------     ------------------------------
GL  .M        814.2                : gl           - GROUND LEVEL ELEVATION
EREF.M        817.6                : kb           - ELEVATION OF DEPTH REFERENCE
DATM.M        817.6                : datum        - DATUM ELEVATION
TDD .M        667                  : tdd          - TOTAL DEPTH DRILLER
RUN .         ONE                  : Run          - RUN NUMBER
ENG .         JO                   : Engineer     - RECORDING ENGINEER
WIT .         TIM                  : Witness      - WITNESSED BY
MUD .         GEL                  : Mud_type     - MUD TYPE
MATR.         SANDSTONE            : Logunit      - NEUTRON MATRIX
TMAX.C        25                   : BHT          - MAXIMUM RECORDED TEMPERATURE
BHTD.M        667                  : BHTDEP       - MAXIMUM RECORDED TEMPERATURE
RMT .C        10                   : MDTP         - TEMPERATURE OF MUD
MUDD.KG/M     1050                 : MWT          - MUD DENSITY
NEUT.         1                    : NEUTRON      - NEUTRON TYPE
RESI.         0                    : RESIST       - RESISTIVITY TYPE
RM  .OHMM     0.84                 : RM           - RESISTIVITY OF MUD
RMC .OHMM     0.84                 : RMC          - RESISTIVITY OF MUD CAKE
RMF .OHMM     0.84                 : RMF          - RESISTIVITY OF MUD FILTRATE
SUFT.C        4                    : SUFT         - SURFACE TEMPERATURE
~A  DEPTH       GR     RESD     PHIN     PHID
# ...
  423.500  109.775    4.414    0.548    0.233
  423.750  112.930    3.801    0.553    0.225
  424.000  114.192    3.736    0.557    0.216
  424.250  116.110    3.740    0.560    0.220
  424.500  116.767    3.820    0.564    0.262
  424.750  116.212    3.896    0.564    0.269
  425.000  115.013    3.900    0.561    0.278
  425.250  112.010    3.980    0.559    0.279
  425.500  110.192    4.144    0.551    0.275
  425.750  108.375    4.228    0.550    0.269
  426.000  105.952    4.396    0.547    0.269
  426.250  102.899    4.488    0.545    0.271
  426.500   98.633    4.408    0.545    0.275
  426.750   96.198    4.251    0.545    0.282
  427.000   91.920    4.099    0.546    0.285
  427.250   87.642    4.028    0.543    0.293
  427.500   83.364    4.033    0.513    0.299
  427.750   77.231    4.195    0.494    0.307
  428.000   70.480    4.798    0.470    0.313
  428.250   64.334    5.804    0.467    0.322
  428.500   58.819    7.437    0.461    0.331
  428.750   55.778    8.668    0.458    0.342
  429.000   54.592    9.364    0.456    0.352
  429.250   54.037    9.739    0.454    0.355
  429.500   53.456    9.936    0.456    0.352
  429.750   53.520   10.543    0.458    0.350
  430.000   53.557   10.756    0.459    0.350
  430.250   53.015   10.768    0.460    0.351
  430.500   53.053   10.787    0.458    0.352
  430.750   52.485   10.799    0.453    0.355
  431.000   51.917   11.243    0.452    0.357
  431.250   51.350   11.252    0.452    0.362
  431.500   51.400   11.479    0.452    0.361
  431.750   51.451   11.504    0.452    0.358
  432.000   51.514   11.516    0.452    0.355
  432.250   51.565   11.312    0.452    0.357
  432.500   52.234   11.124    0.451    0.357
  432.750   52.903   11.136    0.451    0.356
  433.000   53.572   11.152    0.459    0.356
  433.250   53.635   11.164    0.463    0.355
  433.500   54.291   10.975    0.467    0.351
  433.750   54.329   10.986    0.469    0.354
  434.000   55.023   10.796    0.468    0.357
  434.250   55.680   10.613    0.471    0.353
  434.500   55.718   10.624    0.472    0.348
  434.750   56.399   10.643    0.477    0.345
  435.000   57.687   10.462    0.480    0.342
  435.250   59.592   10.088    0.483    0.336
  435.500   63.984    9.727    0.484    0.335
  435.750   65.272    9.204    0.476    0.334
  436.000   64.691    8.708    0.464    0.339
  436.250   63.530    8.721    0.457    0.335
  436.500   63.556    8.733    0.458    0.327
  436.750   63.619    8.743    0.460    0.321
  437.000   64.906    8.932    0.460    0.313
  437.250   66.812    8.932    0.455    0.312
  437.500   68.718    8.305    0.445    0.315
  437.750   70.623    8.308    0.442    0.323
  438.000   72.541    8.320    0.442    0.331
  438.250   74.447    8.334    0.446    0.326
  438.500   75.735    8.190    0.451    0.317
  438.750   79.483    8.199    0.458    0.312
  439.000   80.770    8.057    0.463    0.303
  439.250   83.319    7.769    0.474    0.299
  439.500   84.607    7.782    0.482    0.297
  439.750   87.749    7.648    0.483    0.308
  440.000   90.273    7.236    0.488    0.303
  440.250   92.810    6.846    0.494    0.301
  440.500   94.072    6.354    0.504    0.300
  440.750   97.227    6.127    0.515    0.297
  441.000   99.120    5.799    0.526    0.293
  441.250  100.420    5.696    0.540    0.300
  441.500  101.089    5.290    0.545    0.306
  441.750  100.534    5.005    0.545    0.304
  442.000  100.584    4.919    0.544    0.299
  442.250  100.029    4.833    0.542    0.293
  442.500   99.449    4.839    0.538    0.288
  442.750  100.105    4.847    0.535    0.286
  443.000  100.169    4.858    0.536    0.285
  443.250  100.206    4.861    0.539    0.284
  443.500  100.875    4.868    0.544    0.284
  443.750  100.926    4.877    0.547    0.286
  444.000  100.384    4.882    0.542    0.288
  444.250   99.803    5.082    0.528    0.291
  444.500   97.999    5.085    0.499    0.289
  444.750   98.049    5.289    0.498    0.286
  445.000   99.968    5.398    0.506    0.282
  445.250  101.242    5.511    0.514    0.274
  445.500  103.754    5.622    0.524    0.267
  445.750  105.659    5.421    0.532    0.261
  446.000  108.827    5.129    0.536    0.251
  446.250  110.114    4.762    0.539    0.243
  446.500  111.389    4.592    0.543    0.247
  446.750  112.689    4.345    0.544    0.268
  447.000  113.345    4.036    0.539    0.268
  447.250  114.658    3.889    0.528    0.247
  447.500  115.314    3.753    0.529    0.250
  447.750  115.971    3.685    0.535    0.253
  448.000  115.416    3.555    0.546    0.250
  448.250  114.835    3.558    0.550    0.248
  448.500  113.043    3.565    0.551    0.250
  448.750  112.463    3.570    0.552    0.257
  449.000  111.302    3.576    0.558    0.259
  449.250  110.709    3.650    0.564    0.268
  449.500  110.760    3.654    0.576    0.270
  449.750  110.192    3.729    0.582    0.263
  450.000  109.624    3.881    0.591    0.258
  450.250  109.056    3.884    0.599    0.261
  450.500  108.489    3.964    0.587    0.270
  450.750  107.933    3.970    0.576    0.276
  451.000  106.773    4.053    0.577    0.284
  451.250  106.192    4.057    0.573    0.287
  451.500  106.230    4.142    0.559    0.279
  451.750  108.148    4.147    0.558    0.269
  452.000  110.054    4.154    0.557    0.252
  452.250  111.947    4.159    0.560    0.212
  452.500  114.484    4.246    0.559    0.196
  452.750  116.402    4.255    0.559    0.185
  453.000  117.046    4.260    0.565    0.174
  453.250  118.333    4.267    0.571    0.232
  453.500  118.384    4.270    0.574    0.247
  453.750  118.434    4.196    0.572    0.244
  454.000  117.867    4.046    0.577    0.246
  454.250  116.681    3.830    0.581    0.251
  454.500  114.889    3.489    0.588    0.261
  454.750  113.728    3.301    0.594    0.268
  455.000  113.147    3.243    0.598    0.274
  455.250  112.580    3.070    0.598    0.281
  455.500  112.025    3.016    0.592    0.286
  455.750  111.432    2.962    0.586    0.292
  456.000  110.258    2.859    0.575    0.295
  456.250  109.072    2.861    0.568    0.298
  456.500  108.492    2.811    0.570    0.296
  456.750  107.924    2.816    0.577    0.291
  457.000  110.473    2.821    0.585    0.280
  457.250  111.748    2.824    0.594    0.273
  457.500  113.654    2.829    0.602    0.278
  457.750  114.322    2.831    0.611    0.276
  458.000  114.360    2.837    0.620    0.274
  458.250  114.411    2.841    0.615    0.279
  458.500  113.843    2.846    0.605    0.285
  458.750  112.039    2.848    0.602    0.291
  459.000  109.616    2.907    0.600    0.292
  459.250  106.587    2.967    0.587    0.292
  459.500  104.783    3.145    0.572    0.292
  459.750  102.966    3.398    0.554    0.292
  460.000  101.161    3.670    0.551    0.289
  460.250   99.369    4.359    0.555    0.287
  460.500   96.341    5.077    0.557    0.282
  460.750   93.905    6.508    0.561    0.277
  461.000   91.470    7.162    0.540    0.268
  461.250   87.810    7.884    0.508    0.253
  461.500   83.532    7.895    0.494    0.251
  461.750   78.043    7.330    0.500    0.250
  462.000   77.450    6.430    0.511    0.254
  462.250   78.737    5.750    0.520    0.263
  462.500   81.880    5.438    0.531    0.272
  462.750   87.508    4.954    0.546    0.280
  463.000   91.256    4.600    0.552    0.270
  463.250   93.793    4.520    0.522    0.270
  463.500   95.118    4.526    0.506    0.271
  463.750   95.131    4.619    0.496    0.272
  464.000   95.181    5.085    0.496    0.272
  464.250   95.232    5.709    0.494    0.272
  464.500   94.664    5.823    0.493    0.272
  464.750   94.715    5.833    0.493    0.272
  465.000   93.567    5.734    0.503    0.275
  465.250   93.605    5.633    0.512    0.277
  465.500   92.406    5.535    0.522    0.276
  465.750   89.377    5.543    0.511    0.277
  466.000   86.929    5.987    0.479    0.280
  466.250   82.033    6.846    0.465    0.283
  466.500   75.281    7.979    0.451    0.287
  466.750   71.004    8.952    0.426    0.282
