~VERSION INFORMATION
 VERS.                 2.0:   CWLS LOG ASCII STANDARD -VERSION 2.0
 WRAP.                  NO:   ONE LINE PER DEPTH STEP
~WELL INFORMATION BLOCK
#MNEM.UNIT           DATA                    DESCRIPTION OF MNEMONIC
#---------    -------------------            -------------------------------
# Generated from Intellog Unique Number	CX_WELLS/WELL/3149
WELL.         PETRO-CANADA                   : Well_name    - WELL
LOC .         AA/06-08-083-08W4/0            : Location     - LOCATION
UWI .         AA/06-08-083-08W4/0            : Uwi          - UNIQUE WELL ID
ENTR.         TIM                            : Entered      - ENTERED BY
SRVC.         SCHLUMBERGER                   : Scn          - SERVICE COMPANY
STRT.M        275                            : top_depth    - START DEPTH
STOP.M        500                            : bot_depth    - STOP DEPTH
STEP.M        0.25                           : increment    - STEP LENGTH
 NULL. -999.2500:NULL Value
~CURVE INFORMATION BLOCK
#MNEM UNIT       ERCB CURVE CODE    CURVE DESCRIPTION
#-----------   ------------------   ----------------------------------
DEPT.M        00 001 00 00         : DEPTH        - DEPTH
GR  .API      00 310 00 00         : GR           - GAMMA RAY
NPHI.V/V      00 330 00 00         : PHIN         - NEUTRON POROSITY (SANDSTONE)
DPHI.V/V      00 890 00 00         : PHID         - DENSITY POROSITY (SANDSTONE)
ILD .OHMM     00 120 00 00         : RESD         - DEEP RESISTIVITY (OTHER)
~PARAMETER INFORMATION
#MNEM.UNIT           DATA             DESCRIPTION OF MNEMONIC
#---------         -----------     ------------------------------
GL  .M        726                  : gl           - GROUND LEVEL ELEVATION
EREF.M        730.2                : kb           - ELEVATION OF DEPTH REFERENCE
DATM.M        730.2                : datum        - DATUM ELEVATION
TDD .M        505                  : tdd          - TOTAL DEPTH DRILLER
RUN .         ONE                  : Run          - RUN NUMBER
ENG .         BILL                 : Engineer     - RECORDING ENGINEER
WIT .         JIM                  : Witness      - WITNESSED BY
MUD .         GEL                  : Mud_type     - MUD TYPE
MATR.         SANDSTONE            : Logunit      - NEUTRON MATRIX
TMAX.C        29                   : BHT          - MAXIMUM RECORDED TEMPERATURE
BHTD.M        505.834              : BHTDEP       - MAXIMUM RECORDED TEMPERATURE
MATR.         1                    : LOGUNIT      - NEUTRON MATRIX
RMT .C        20                   : MDTP         - TEMPERATURE OF MUD
NEUT.         1                    : NEUTRON      - NEUTRON TYPE
RESI.         4.78                 : RESIST       - RESISTIVITY TYPE
RMC .OHMM     4.8                  : RMC          - RESISTIVITY OF MUD CAKE
RMF .OHMM     4.8                  : RMF          - RESISTIVITY OF MUD FILTRATE
SUFT.C        3                    : SUFT         - SURFACE TEMPERATURE
~A  DEPTH       GR     PHIN     PHID     RESD
  275.000  105.921    0.400    0.200    5.417
  275.250  105.392    0.397    0.209    5.526
  275.500  105.436    0.394    0.214    5.530
  275.750  104.277    0.392    0.219    6.071
  276.000  101.342    0.388    0.223    6.542
  276.250   97.793    0.386    0.227    7.177
  276.500   95.431    0.381    0.233    8.174
  276.750   97.894    0.380    0.239    9.143
  277.000   99.155    0.375    0.250    9.318
  277.250   99.213    0.368    0.258    9.506
  277.500   96.279    0.361    0.264    9.697
  277.750   93.902    0.353    0.270    9.883
  278.000   89.751    0.347    0.274   10.459
  278.250   98.242    0.344    0.273   11.270
  278.500  104.313    0.343    0.273   12.144
  278.750  103.169    0.340    0.266   12.848
  279.000   96.011    0.339    0.265   11.949
  279.250   92.461    0.337    0.261   10.143
  279.500   96.127    0.340    0.246    8.934
  279.750  104.002    0.352    0.235    8.780
  280.000  108.270    0.375    0.234    9.291
  280.250  109.530    0.395    0.243   10.194
  280.500  101.170    0.404    0.250   12.040
  280.750   94.613    0.411    0.261   23.782
  281.000   92.280    0.413    0.275   29.140
  281.250   89.933    0.414    0.276   33.792
  281.500   85.151    0.401    0.319   37.785
  281.750   70.191    0.345    0.318   39.248
  282.000   65.424    0.339    0.318   40.780
  282.250   61.903    0.338    0.318   41.587
  282.500   61.330    0.337    0.319   41.627
  282.750   61.990    0.337    0.320   41.706
  283.000   63.265    0.332    0.321   41.732
  283.250   65.743    0.334    0.321   41.038
  283.500   66.974    0.337    0.318   41.077
  283.750   71.858    0.339    0.316   41.142
  284.000   73.705    0.344    0.312   41.181
  284.250   76.212    0.347    0.312   41.246
  284.500   76.255    0.341    0.309   41.298
  284.750   76.284    0.335    0.308   41.337
  285.000   74.538    0.333    0.305   40.649
  285.250   69.786    0.333    0.300   39.960
  285.500   69.243    0.336    0.298   38.581
  285.750   71.105    0.334    0.293   37.903
  286.000   70.576    0.329    0.289   36.583
  286.250   70.018    0.327    0.282   35.963
  286.500   69.489    0.328    0.272   34.711
  286.750   70.148    0.329    0.273   34.133
  287.000   72.011    0.331    0.275   32.945
  287.250   74.474    0.338    0.280   32.386
  287.500   78.756    0.344    0.284   32.437
  287.750   81.806    0.348    0.288   32.458
  288.000   86.073    0.348    0.292   32.499
  288.250   88.551    0.348    0.295   33.143
  288.500   86.204    0.350    0.299   33.799
  288.750   76.025    0.351    0.302   34.480
  289.000   78.517    0.353    0.307   34.513
  289.250   81.567    0.356    0.301   32.715
  289.500   84.016    0.353    0.290   31.566
  289.750   89.501    0.349    0.279   28.862
  290.000   92.551    0.347    0.270   27.848
  290.250   97.434    0.346    0.259   27.358
  290.500   99.325    0.343    0.249   26.414
  290.750   98.753    0.334    0.254   26.447
  291.000   95.819    0.335    0.262   27.480
  291.250   92.870    0.341    0.296   29.054
  291.500   90.508    0.346    0.305   31.886
  291.750   85.741    0.355    0.313   34.359
  292.000   83.394    0.360    0.324   35.039
  292.250   78.656    0.355    0.319   35.745
  292.500   81.104    0.359    0.304   35.779
  292.750   84.169    0.361    0.297   33.926
  293.000   86.647    0.362    0.289   32.139
  293.250   90.929    0.365    0.283   30.446
  293.500   96.986    0.368    0.271   27.820
  293.750  101.869    0.368    0.262   25.405
  294.000  103.731    0.370    0.255   22.370
  294.250  104.405    0.370    0.258   17.643
  294.500  105.035    0.370    0.266   13.170
  294.750  104.492    0.374    0.273   11.382
  295.000  103.963    0.378    0.279   10.023
  295.250  104.006    0.384    0.264    9.155
  295.500  105.282    0.390    0.238    8.518
  295.750  109.549    0.400    0.215    7.925
  296.000  117.424    0.406    0.206    7.241
  296.250  121.090    0.411    0.210    6.987
  296.500  124.155    0.413    0.212    6.750
  296.750  125.416    0.415    0.208    6.880
  297.000  126.676    0.412    0.180    7.276
  297.250  123.728    0.414    0.177    8.133
  297.500  120.793    0.414    0.204    9.431
  297.750  119.634    0.405    0.247   14.408
  298.000  113.679    0.392    0.267   17.654
  298.250  106.536    0.345    0.282   23.279
  298.500  109.013    0.334    0.295   30.705
  298.750  110.846    0.339    0.309   31.894
  299.000  115.715    0.349    0.318   32.525
  299.250  115.773    0.364    0.325   32.566
  299.500  110.419    0.375    0.339   31.442
  299.750  100.856    0.375    0.343   30.338
  300.000   77.448    0.363    0.342   24.371
  300.250   70.876    0.356    0.335   23.102
  300.500   66.138    0.355    0.330   22.703
  300.750   64.994    0.360    0.325   21.926
  301.000   64.436    0.362    0.310   21.156
  301.250   63.907    0.347    0.301   20.042
  301.500   65.769    0.341    0.295   17.969
  301.750   67.015    0.342    0.284   14.172
  302.000   72.500    0.342    0.275   12.483
  302.250   77.383    0.340    0.269   11.611
  302.500   81.636    0.349    0.264   10.416
  302.750   94.938    0.365    0.264    9.688
  303.000  100.437    0.378    0.266    9.186
  303.250  100.466    0.372    0.266    9.192
  303.500   98.118    0.363    0.266    9.551
  303.750  101.784    0.352    0.266   10.680
  304.000  103.646    0.340    0.266   11.089
  304.250  105.508    0.348    0.264   11.519
  304.500  103.762    0.357    0.257   11.530
  304.750  101.415    0.354    0.246   11.548
  305.000  106.284    0.347    0.196   11.352
  305.250  119.013    0.343    0.182   12.455
  305.500  120.245    0.340    0.226   19.392
  305.750  117.296    0.332    0.275   20.882
  306.000  111.942    0.334    0.299   24.664
  306.250  108.407    0.344    0.310   29.140
  306.500  113.862    0.352    0.317   30.259
  306.750  126.548    0.361    0.317   27.137
  307.000  130.243    0.351    0.314   24.346
  307.250  129.671    0.349    0.312   22.232
  307.500  125.520    0.348    0.309   19.945
  307.750  117.760    0.352    0.305   18.213
  308.000  105.191    0.354    0.297   17.259
  308.250  106.480    0.359    0.282   16.355
  308.500  107.111    0.361    0.255   16.078
  308.750  108.987    0.367    0.253   15.528
  309.000  109.647    0.374    0.255   15.255
  309.250  110.291    0.378    0.260   15.006
  309.500  110.951    0.369    0.261   14.752
  309.750  111.009    0.365    0.261   14.761
  310.000  109.277    0.365    0.260   13.988
  310.250  108.734    0.354    0.264   13.260
  310.500  110.596    0.342    0.265   12.569
  310.750  110.053    0.337    0.265   12.127
  311.000  108.292    0.329    0.265   12.139
  311.250  104.141    0.335    0.265   11.941
  311.500  103.627    0.355    0.260   11.948
  311.750  104.858    0.374    0.243   12.419
  312.000  106.119    0.367    0.223   12.426
  312.250  105.576    0.357    0.213   12.442
  312.500  103.844    0.347    0.209   12.462
  312.750  103.286    0.338    0.207   12.474
  313.000  102.142    0.333    0.207   12.489
  313.250   97.389    0.333    0.207   12.513
  313.500   93.238    0.340    0.215   12.525
  313.750   93.310    0.333    0.223   12.089
  314.000   95.759    0.333    0.227   11.459
  314.250   99.425    0.336    0.226   11.258
  314.500  105.497    0.340    0.219   10.474
  314.750  110.365    0.346    0.211    9.571
  315.000  117.654    0.351    0.202    9.069
  315.250  121.950    0.358    0.195    8.751
  315.500  123.182    0.367    0.198    8.446
  315.750  125.058    0.378    0.207    8.459
  316.000  126.319    0.386    0.216    8.627
  316.250  127.565    0.389    0.223    8.958
  316.500  125.819    0.379    0.228    9.835
  316.750  120.465    0.361    0.234   10.401
  317.000  115.727    0.359    0.236   11.004
  317.250  115.169    0.366    0.239   11.641
  317.500  115.843    0.372    0.241   11.876
  317.750  116.503    0.367    0.241   12.107
  318.000  119.567    0.368    0.240   12.123
  318.250  120.212    0.376    0.239   12.142
