~VERSION INFORMATION
 VERS.                 2.0:   CWLS LOG ASCII STANDARD -VERSION 2.0
 WRAP.                  NO:   ONE LINE PER DEPTH STEP
~WELL INFORMATION BLOCK
#MNEM.UNIT           DATA                    DESCRIPTION OF MNEMONIC
#---------    -------------------            -------------------------------
# Generated from Intellog Unique Number	CX_WELLS/WELL/3865
WELL.         REGENT HORSE                   : Well_name    - WELL
LOC .         AA/09-19-087-12W4/0            : Location     - LOCATION
UWI .         AA/09-19-087-12W400            : Uwi          - UNIQUE WELL ID
ENTR.         TIM                            : Entered      - ENTERED BY
SRVC.         SCHLUMBERGER                   : Scn          - SERVICE COMPANY
STRT.F        50                             : top_depth    - START DEPTH
STOP.F        589.698                        : bot_depth    - STOP DEPTH
STEP.F        0.8202                         : increment    - STEP LENGTH
 NULL. -999.2500:NULL Value
~CURVE INFORMATION BLOCK
#MNEM UNIT       ERCB CURVE CODE    CURVE DESCRIPTION
#-----------   ------------------   ----------------------------------
DEPT.F        00 001 00 00         : DEPTH        - DEPTH
GR  .API      00 310 00 00         : GR           - GAMMA RAY
NPHI.V/V      00 330 00 00         : PHIN         - NEUTRON POROSITY (SANDSTONE)
ILD .OHMM     00 120 00 00         : RESD         - DEEP RESISTIVITY (DIL)
~PARAMETER INFORMATION
#MNEM.UNIT           DATA             DESCRIPTION OF MNEMONIC
#---------         -----------     ------------------------------
GL  .F        1531                 : gl           - GROUND LEVEL ELEVATION
EREF.F        1531                 : kb           - ELEVATION OF DEPTH REFERENCE
DATM.F        1531                 : datum        - DATUM ELEVATION
TDD .F        588                  : tdd          - TOTAL DEPTH DRILLER
RUN .         ONE                  : Run          - RUN NUMBER
ENG .         BILL                 : Engineer     - RECORDING ENGINEER
WIT .         JIM                  : Witness      - WITNESSED BY
MUD .         GEL                  : Mud_type     - MUD TYPE
MATR.         SANDSTONE            : Logunit      - NEUTRON MATRIX
TMAX.F        50                   : BHT          - MAXIMUM RECORDED TEMPERATURE
BHTD.F        588                  : BHTDEP       - MAXIMUM RECORDED TEMPERATURE
MATR.         1                    : LOGUNIT      - NEUTRON MATRIX
RMT .F        62.6                 : MDTP         - TEMPERATURE OF MUD
NEUT.         1                    : NEUTRON      - NEUTRON TYPE
RESI.         0.4                  : RESIST       - RESISTIVITY TYPE
RMC .OHMM     8                    : RMC          - RESISTIVITY OF MUD CAKE
RMF .OHMM     8                    : RMF          - RESISTIVITY OF MUD FILTRATE
SUFT.F        39.2                 : SUFT         - SURFACE TEMPERATURE
~A  DEPTH       GR     PHIN     RESD
# ...
  405.971   69.306    0.265   18.728
  406.791   71.712    0.335   16.366
  407.612   72.712    0.361   17.125
  408.432   72.807    0.406   19.374
  409.252   72.402    0.443   21.247
  410.072   72.478    0.476   21.829
  410.892   73.035    0.490   21.489
  411.713   73.574    0.490   20.227
  412.533   74.093    0.487   16.020
  413.353   75.112    0.478   15.297
  414.173   76.112    0.471   13.666
  414.993   77.132    0.504   12.595
  415.814   77.670    0.514   12.432
  416.634   77.727    0.523   13.028
  417.454   77.822    0.524   13.603
  418.274   76.955    0.524   14.370
  419.094   76.107    0.522   15.320
  419.915   75.278    0.519   16.456
  420.735   74.892    0.516   18.151
  421.555   74.949    0.511   19.656
  422.375   75.025    0.509   20.607
  423.196   75.101    0.504   22.111
  424.016   73.348    0.501   23.622
  424.836   72.038    0.498   24.396
  425.656   71.652    0.496   24.609
  426.476   72.671    0.491   23.155
  427.297   73.190    0.484   19.672
  428.117   75.115    0.469   15.451
  428.937   77.039    0.455   11.238
  429.757   78.963    0.458    9.599
  430.577   79.983    0.499    7.606
  431.398   80.040    0.520    8.919
  432.218   80.597    0.533   13.935
  433.038   80.673    0.543   18.397
  433.858   80.287    0.541   20.277
  434.678   78.534    0.534   22.157
  435.499   77.705    0.525   23.286
  436.319   77.300    0.518   22.945
  437.139   76.895    0.512   21.683
  437.959   76.528    0.503   20.605
  438.780   76.585    0.498   18.789
  439.600   75.275    0.493   17.158
  440.420   73.541    0.496   16.073
  441.240   73.117    0.503   14.818
  442.060   71.806    0.521   13.562
  442.881   71.421    0.522   13.392
  443.701   70.591    0.525   12.690
  444.521   69.262    0.532   11.790
  445.341   67.490    0.536   10.896
  446.161   66.642    0.539   10.925
  446.982   64.870    0.539   11.507
  447.802   63.079    0.540   12.096
  448.622   62.712    0.540   12.302
  449.442   62.788    0.538   12.699
  450.262   61.940    0.538   12.728
  451.083   60.630    0.538   12.757
  451.903   59.782    0.536   12.608
  452.723   60.801    0.530   12.452
  453.543   62.706    0.518   12.296
  454.364   65.112    0.522   14.539
  455.184   66.574    0.529   20.476
  456.004   68.036    0.532   24.386
  456.824   68.575    0.527   25.890
  457.644   68.670    0.522   27.224
  458.465   68.284    0.512   27.061
  459.285   67.436    0.493   26.543
  460.105   65.663    0.472   26.380
  460.925   64.315    0.460   26.785
  461.745   61.619    0.461   27.920
  462.566   58.923    0.463   32.007
  463.386   65.949    0.462   40.903
  464.206   74.361    0.441   84.524
  465.026   81.830   -0.116   83.446
  465.846   81.001   -0.097   83.666
  466.667   73.203   -0.055   84.624
  467.487   70.507   -0.090   85.384
  468.307   67.349   -0.117   85.043
  469.127   65.095   -0.148   81.014
  469.948   62.418   -0.174   77.524
  470.768   61.108   -0.167   73.488
  471.588   59.798   -0.136   68.537
  472.408   60.336   -0.096   64.685
  473.228   62.703   -0.032   61.018
  474.049   70.192    0.078   56.982
  474.869   74.445    0.111   52.761
  475.689   77.313    0.256   54.088
  476.509   76.927    0.197   57.805
  477.329   75.174    0.173   60.608
  478.150   74.769    0.170   69.320
  478.970   74.364   -0.110   78.954
  479.790   74.016   -0.167   83.600
  480.610   74.054   -0.162   81.969
  481.430   72.744   -0.160   75.166
  482.251   67.275   -0.163   70.392
  483.071   62.249   -0.154   64.143
  483.891   57.705   -0.149   54.006
  484.711   55.933   -0.153   45.543
  485.531   56.471   -0.167   40.953
  486.352   58.395   -0.182   37.655
  487.172   60.319   -0.197   36.761
  487.992   65.035   -0.194   35.691
  488.812   66.979   -0.186   35.535
  489.633   66.612   -0.188   36.124
  490.453   66.669   -0.194   36.876
  491.273   65.840   -0.185   39.679
  492.093   65.416   -0.152   40.814
  492.913   65.511   -0.123   36.778
  493.734   65.568   -0.098   32.926
  494.554   65.220   -0.038   30.003
  495.374   65.277   -0.003   28.372
  496.194   64.910    0.085   27.656
  497.014   64.524    0.186   26.393
  497.835   64.581    0.292   25.869
  498.655   64.657    0.380   25.720
  499.475   65.195    0.402   25.941
  500.295   65.734    0.414   26.324
  501.115   66.734    0.419   27.282
  501.936   67.772    0.416   27.686
  502.756   68.272    0.415   27.524
  503.576   68.848    0.425   27.205
  504.396   68.905    0.432   27.219
  505.217   69.001    0.426   27.439
  506.037   68.634    0.418   27.454
  506.857   68.672    0.415   26.745
  507.677   68.748    0.422   26.404
  508.497   69.767    0.425   26.802
  509.318   69.381    0.417   27.937
  510.138   68.533    0.415   28.349
  510.958   68.609    0.424   27.640
  511.778   70.995    0.436   27.286
  512.598   74.325    0.447   25.654
  513.419   76.230    0.446   25.498
  514.239   75.863    0.436   26.648
  515.059   75.477    0.427   26.677
  515.879   75.591    0.419   26.329
  516.699   75.630    0.415   25.613
  517.520   75.687    0.410   24.535
  518.340   75.763    0.410   24.195
  519.160   75.434    0.418   24.968
  519.980   75.010    0.430   26.288
  520.801   73.700    0.436   27.977
  521.621   74.257    0.431   28.935
  522.441   75.257    0.426   28.786
  523.261   75.814    0.422   28.623
  524.081   75.409    0.411   27.922
  524.902   74.542    0.415   27.198
  525.722   73.251    0.425   26.127
  526.542   72.384    0.392   26.525
  527.362   70.669    0.389   28.213
  528.182   70.245    0.395   29.349
  529.003   69.840    0.418   29.753
  529.823   69.954    0.426   29.966
  530.643   69.992    0.409   29.634
  531.463   70.087    0.410   29.279
  532.283   69.701    0.409   28.570
  533.104   69.296    0.399   28.045
  533.924   68.910    0.378   28.074
  534.744   68.524    0.375   28.663
  535.564   68.138    0.367   29.238
  536.385   67.752    0.348   33.147
  537.205   67.367    0.334   50.542
  538.025   67.000    0.325   52.975
  538.845   66.614    0.302   54.671
  539.665   66.671    0.279   55.246
  540.486   65.861    0.269   55.090
  541.306   65.437    0.201   54.012
  542.126   63.684    0.210   49.238
  542.946   61.449    0.238   40.584
  543.766   59.677    0.254   36.186
  544.587   62.063    0.242   37.328
  545.407   68.146    0.231   40.116
  546.227   76.559    0.230   95.010
  547.047   81.737   -0.104   97.259
  547.867   78.097   -0.105   92.116
  548.688   68.913   -0.122   76.623
  549.508   64.830   -0.134   70.558
  550.328   57.976   -0.097   57.654
  551.148   47.867    0.113   38.480
  551.969   39.607    0.262   33.153
  552.789   37.392    0.423   30.407
  553.609   39.797    0.487   28.961
  554.429   41.241    0.496   28.996
  555.249   43.646    0.487   29.209
  556.070   44.665    0.480   29.976
  556.890   44.703    0.479   30.742
  557.710   44.779    0.474   31.693
  558.530   44.856    0.468   32.275
  559.350   44.951    0.464   33.233
  560.171   45.008    0.460   33.808
  560.991   44.160    0.467   34.390
  561.811   41.945    0.476   35.540
  562.631   40.172    0.471   35.568
  563.451   39.805    0.460   34.114
  564.272   39.843    0.469   30.085
  565.092   39.496    0.476   28.993
  565.912   39.553    0.488   27.362
  566.732   39.629    0.495   25.560
  567.552   39.243    0.487   25.759
  568.373   49.484    0.481   26.710
  569.193   50.060    0.478   28.782
  570.013   49.655    0.478   29.179
  570.833   49.288    0.477   28.846
  571.654   49.346    0.474   28.499
  572.474   51.289    0.474   28.343
  573.294   53.194    0.474   27.442
  574.114   54.675    0.475   26.549
  574.934   54.733    0.473   25.464
  575.755   54.828    0.468   23.832
  576.575   54.442    0.467   21.279
  577.395   54.999    0.465   20.009
  578.215   55.518    0.465   19.116
  579.035   56.980    0.464   18.776
  579.856   59.829    0.464   18.996
  580.676   65.007    0.470   19.202
  581.496   69.241    0.474   20.351
  582.316   71.647    0.484   21.295
  583.136   73.609    0.486   22.615
