~Version : LASO    vs 4.00 - DATA COPYRIGHT - RILEYS DATASHARE INTERNATIONAL
VERS.                2.00:   CWLS Log ASCII Standard -VERSION 2.0
WRAP.                  NO:
~Well Information Block
#MNEM.UNIT       Data                        Description of Mnemonic
#----.----      -------------------------- : -----------------------------
COMP.                                     : COMPANY
FLD .    WILDCAT                          : FIELD NAME
LOC .    03-06-091-07W4                   : WELL LOCATION
UWI .    AA/03-06-091-07W400              : UNIQUE WELL ID
STRT.M             9.0000:
STOP.M           161.0000:
STEP.M             0.1250:
NULL.           -999.2500:
COMP.  MOBIL OIL CANADA:COMPANY
WELL.  MOBIL CLARKE OV 3-6:WELL
FLD.   :FIELD
LOC.   03-06-091-07W4:LOCATION
CTRY.  CANADA:COUNTRY
PROV.  ALBERTA:PROVINCE
SRVC.  DRESSER ATLAS:SERVICE COMPANY
DATE.  08-FEB-81:LOG DATE
UWI.   AA/03-06-091-07W4/0:UNIQUE WELL ID
~Parameter Information Block
#MNEM.UNIT       Data                        Description of Mnemonic
#----.----      -------------------------- : -----------------------------
RUN .                   1                 : Run Number
GL  .M           418.1000                 : Ground Level Elevation
DREF.                  KB                 : Depth Reference
EREF.M           419.1000                 : Elevation of Depth Reference
TDL .M           162.8000                 : Total Depth Logger
TDD .M           160.0000                 : Total Depth Driller
BHT .DEGC         10.0000                 : Bottom Hole Temperature
BS  .MM          171.0000                 : Bit Size
DFD .           1090.0000                 : Mud Weight (Density)
DFV .             85.0000                 : Mud Viscosity
RM  .OHMM          1.9000                 : Mud Resistivity
RMT .DEGC         10.0000                 : Mud Resistivity Temperature
RMF .OHMM          1.1000                 : Mud Filtrate Resistivity
RMFT.DEGC         18.0000                 : RMF Temperature
RMC .OHMM          1.8000                 : Mud Cake Resistivity
RMCT.DEGC         18.0000                 : RMC Temperature
~Curve Information Block
#MNEM.UNIT        API CODE    Curve Description
#---------    ------------    -------------------------------------------
DEPT.M                    :   DEPTH
CALI.MM       42 280  1  1:   3 DENSITY CALIPER
DPHI.V/V                  :   DPHI
DT  .US/M     60 520 32  1:   2 SONIC INTERVAL TRANSIT TIME (COMPENSATED)
GR  .GAPI     42 310  1  1:   4 GAMMA RAY
ILD .OHMM      5 120 46  1:   7 DEEP INDUCTION
NPHI.V/V      42 890  3  1:   5 NEUTRON POROSITY (SANDSTONE)
RHOB.K/M3     42 350  1  1:   6 BULK DENSITY
SFL .OHMM      5 220  6  1:   8 FOCUSSED RESISTIVITY
SP  .MV        5  10  1  1:   9 SPONTANEOUS POTENTIAL
~A  Depth           CALI        DPHI          DT          GR         ILD        NPHI        RHOB         SFL          SP
# ...
126.2500        208.0750      0.3371    414.7600     24.0750     80.1500      0.3018   2076.8999    476.7000    -81.5900
126.3750        207.7500      0.3409    416.4800     23.3400     80.2800      0.3030   2085.3999    353.3000    -81.7100
126.5000        208.0750      0.3413    416.0000     23.5200     81.5000      0.3042   2089.7000    171.1000    -81.7100
126.6250        207.7500      0.3391    413.3200     23.7000     77.2200      0.3065   2091.5000    107.5000    -81.1100
126.7500        207.4500      0.3378    410.1200     23.8950     75.3800      0.3079   2086.6001     81.7600    -80.6300
126.8750        207.4500      0.3354    411.0800     23.5200     72.5600      0.3101   2087.8999     79.0600    -80.1500
127.0000        207.4500      0.3330    411.6000     23.8950     71.7100      0.3136   2089.1001     82.6100    -79.4300
127.1250        207.7500      0.3369    411.6000     24.0750     72.2000      0.3151   2088.5000     92.0400    -78.5900
127.2500        207.7500      0.3406    410.1200     23.7000     72.2000      0.3153   2092.1001    101.8000    -77.1400
127.3750        207.7500      0.3400    407.9200     24.0750     76.2400      0.3153   2093.3000    102.6000    -75.5800
127.5000        208.0750      0.3379    404.2400     24.6300     81.6200      0.3164   2095.2000     99.5100    -74.2600
127.6250        208.0750      0.3334    401.2800     24.9900     92.5200      0.3179   2090.3000    100.2400    -72.9400
127.7500        207.7500      0.3317    401.2800     24.8100    104.3000      0.3178   2089.1001    117.3000    -71.6200
127.8750        208.0750      0.3323    401.0400     24.9900    137.3000      0.3167   2090.8999    131.9999    -69.8100
128.0000        208.0750      0.3365    405.2000     24.9900    168.9999      0.3205   2089.7000    135.6000    -67.5300
128.1250        207.7500      0.3402    410.3600     24.9900    210.6000      0.3242   2073.8999    118.5000    -65.4900
128.2500        207.4500      0.3448    417.2400     25.3650    258.2000      0.3298   2067.8000     91.1800    -64.0400
128.3750        206.5250      0.3496    426.5200     27.3750    400.9999      0.3348   2060.5000     73.4300    -64.0400
128.5000        206.2250      0.3517    433.4000     28.3050    547.6000      0.3407   2068.3999     62.1700    -65.1300
128.6250        206.5250      0.3530    436.0800     29.5950    623.3000      0.3458   2087.8999     65.2300    -66.0900
128.7500        206.5250      0.3504    437.3200     29.5950    651.3000      0.3459   2077.5000     72.2100    -66.9300
128.8750        205.3250      0.3469    435.8400     29.5950    631.8000      0.3440   2049.5000     82.9800    -68.0100
129.0000        204.1000      0.3414    428.2400     29.9550    618.4000      0.3417   2030.1000    105.1000    -69.2100
129.1250        203.7750      0.3392    430.9600     29.5950    575.6000      0.3374   2022.8000    164.9999    -70.6500
129.2500        203.1750      0.3424    432.6800     30.3300    525.6000      0.3364   2025.8000    278.7000    -71.3800
129.3750        203.1750      0.3477    434.4000     30.3300    451.1000      0.3361   2029.5000    397.3000    -71.3800
129.5000        203.1750      0.3536    435.8400     29.7750    430.3000      0.3369   2030.7000    469.4000    -71.3800
129.6250        203.1750      0.3642    437.3200     30.1350    405.9000      0.3380   2025.8000    480.4000    -71.1300
129.7500        203.1750      0.3714    437.5600     30.1350    391.3000      0.3383   2022.2000    482.8000    -70.8900
129.8750        202.5500      0.3743    437.8000     29.2200    372.9999      0.3366   2019.7000    471.8000    -70.4100
130.0000        202.8750      0.3741    437.3200     28.1250    369.3000      0.3352   2017.9000    432.7000    -70.1700
130.1250        202.8750      0.3741    437.5600     27.9300    368.1000      0.3348   2000.3000    369.1000    -69.4500
130.2500        202.5500      0.3741    437.0800     29.2200    353.4000      0.3365   1992.5000    296.9999    -68.8500
130.3750        202.5500      0.3758    435.6000     29.5950    319.2000      0.3352   1990.7000    249.3000    -68.6100
130.5000        202.8750      0.3780    435.3600     29.5950    308.2000      0.3348   1991.9000    276.2000    -68.3700
130.6250        203.1750      0.3804    434.1200     30.8700    304.6000      0.3355   2010.0000    327.6000    -68.9700
130.7500        203.4750      0.3802    431.4400     29.5950    294.8000      0.3357   2028.9000    384.9999    -70.2900
130.8750        203.7750      0.3810    427.2800     29.4000    254.5000      0.3341   2032.5000    380.1000    -71.3800
131.0000        203.7750      0.3863    420.9200     29.0400    245.9999      0.3310   2029.5000    381.4000    -72.4600
131.1250        203.7750      0.3879    417.4800     28.1250    237.4000      0.3276   2055.6001    371.6000    -73.4200
131.2500        203.7750      0.3834    415.0000     27.1950    231.3000      0.3240   2082.3999    371.6000    -74.3800
131.3750        203.7750      0.3779    412.0800     27.5700    221.5000      0.3195   2093.8999    373.9999    -75.1000
131.5000        203.4750      0.3662    408.8800     26.8350    220.3000      0.3147   2101.2000    377.7000    -75.7000
131.6250        203.7750      0.3518    406.4400     26.1000    220.3000      0.3099   2103.7000    384.9999    -76.1800
131.7500        203.4750      0.3432    403.4800     26.6400    220.3000      0.3074   2103.7000    388.7000    -76.6600
131.8750        203.7750      0.3335    403.4800     26.8350    226.4000      0.3026   2109.1001    389.9000    -77.6300
132.0000        203.4750      0.3273    403.4800     27.1950    234.9999      0.3009   2109.7000    369.1000    -78.7100
132.1250        203.4750      0.3235    403.2400     26.8350    250.9000      0.3000   2101.8000    316.6000    -79.5500
132.2500        203.4750      0.3233    403.0000     25.9050    264.3000      0.2999   2100.6001    208.9999    -79.9100
132.3750        203.7750      0.3268    400.8000     25.3650    263.1000      0.3022   2090.8999    149.1000    -80.0300
132.5000        203.4750      0.3339    395.6400     25.5450    260.6000      0.3024   2076.8999    166.2000    -79.9100
132.6250        203.4750      0.3366    391.2400     25.5450    239.9000      0.2989   2073.8999    249.3000    -79.9100
132.7500        203.7750      0.3357    387.8000     25.1700    198.3000      0.2972   2073.8999    397.3000    -80.0300
132.8750        203.7750      0.3333    384.4000     25.5450    136.1000      0.2963   2064.7000    481.6000    -80.0300
133.0000        204.1000      0.3298    382.1600     25.7250    117.8000      0.2984   2061.7000    475.5000    -79.7900
133.1250        203.7750      0.3272    384.4000     26.1000    112.9000      0.3019   2066.0000    459.6000    -79.1900
133.2500        203.7750      0.3269    385.8400     25.5450    112.9000      0.3044   2064.7000    402.2000    -78.7100
133.3750        203.7750      0.3269    386.6000     24.6300    114.1000      0.3025   2062.8999    315.4000    -78.4700
133.5000        203.7750      0.3258    389.0400     24.8100    116.5000      0.3001   2064.1001    261.6000    -78.1100
133.6250        203.4750      0.3256    388.8000     24.6300    115.3000      0.2998   2064.1001    239.6000    -77.3800
133.7500        203.4750      0.3256    387.8000     25.3650    114.1000      0.3008   2054.3999    276.2000    -76.1800
133.8750        203.4750      0.3256    389.2800     25.1700    109.2000      0.3020   2053.2000    349.6000    -74.6200
134.0000        203.7750      0.3256    394.4400     25.1700    101.9000      0.3011   2062.3000    392.4000    -73.4200
134.1250        203.7750      0.3266    395.4000     24.9900    100.4700      0.3010   2083.6001    334.9000    -73.1800
134.2500        203.7750      0.3257    394.9200     24.8100     89.2100      0.3040   2084.8000    248.1000    -73.3000
134.3750        203.7750      0.3245    394.4400     24.8100     73.3000      0.3045   2086.0000    153.9999    -73.4200
134.5000        203.7750      0.3243    385.8400     24.6300     57.7500      0.3026   2087.8999     59.9700    -72.5800
