~VERSION INFORMATION
 VERS.                 2.0:   CWLS LOG ASCII STANDARD -VERSION 2.0
 WRAP.                  NO:   ONE LINE PER DEPTH STEP
~WELL INFORMATION BLOCK
#MNEM.UNIT           DATA                    DESCRIPTION OF MNEMONIC
#---------    -------------------            -------------------------------
# Generated from Intellog Unique Number	CC_84_87/WELL/1164
NULL.         -999.25                        : NULL_VALUE
WELL.         SUN CHEECHAM CH 25             : Well_name    - WELL              
LOC .         07-23-086-07W4                 : Location     - LOCATION          
UWI .         AA/07-23-086-07W400            : Uwi          - UNIQUE WELL ID    
ENTR.         RJA                            : Entered      - ENTERED BY        
SRVC.         SCHLUMBERGER                   : Scn          - SERVICE COMPANY   
DATE.         18 MAR 80                      : Date         - LOG DATE
STRT.M        55                             : top_depth    - START DEPTH       
STOP.M        240.102                        : bot_depth    - STOP DEPTH        
STEP.M        0.3                            : increment    - STEP LENGTH       
~CURVE INFORMATION BLOCK
#MNEM UNIT       ERCB CURVE CODE    CURVE DESCRIPTION
#-----------   ------------------   ----------------------------------
DEPT.M        00 001 00 00         : DEPTH        - DEPTH                       
DPHI.V/V      00 890 00 00         : PHID         - DENSITY POROSITY (LIMESTONE)
NPHI.V/V      00 330 00 00         : PHIN         - NEUTRON POROSITY (LIMESTONE)
GR  .API      00 310 00 00         : GR           - GAMMA RAY                   
ILD .OHMM     00 120 00 00         : RESD         - DEEP RESISTIVITY (DIL)      
~PARAMETER INFORMATION       
#MNEM.UNIT           DATA             DESCRIPTION OF MNEMONIC
#---------         -----------     ------------------------------
GL  .M        481.7                : gl           - GROUND LEVEL ELEVATION      
EREF.M        483.76               : kb           - ELEVATION OF DEPTH REFERENCE
DATM.M        483.76               : datum        - DATUM ELEVATION             
TDD .M        245                  : tdd          - TOTAL DEPTH DRILLER         
RUN .         ONE                  : Run          - RUN NUMBER                  
ENG .         BILL                 : Engineer     - RECORDING ENGINEER          
WIT .         JIM                  : Witness      - WITNESSED BY                
MUD .         GEL                  : Mud_type     - MUD TYPE                    
MATR.         LIMESTONE            : Logunit      - NEUTRON MATRIX              
TMAX.C        18                   : BHT          - MAXIMUM RECORDED TEMPERATURE
BHTD.M        245                  : BHTDEP       - MAXIMUM RECORDED TEMPERATURE
MATR.         1                    : LOGUNIT      - NEUTRON MATRIX              
RMT .C        25                   : MDTP         - TEMPERATURE OF MUD          
NEUT.         1                    : NEUTRON      - NEUTRON TYPE                
RESI.         0                    : RESIST       - RESISTIVITY TYPE            
RMC .OHMM     0.25                 : RMC          - RESISTIVITY OF MUD CAKE     
RMF .OHMM     0.25                 : RMF          - RESISTIVITY OF MUD FILTRATE 
SUFT.C        15                   : SUFT         - SURFACE TEMPERATURE         
~A  DEPTH     PHID     PHIN       GR     RESD
   55.000    0.285    0.506   92.074    7.541
   55.300    0.295    0.486   92.619    8.086
   55.600    0.288    0.491  100.801   11.924
   55.900    0.289    0.498  106.172    7.843
   56.200    0.284    0.488  106.227    7.503
   56.500    0.286    0.502  110.316    7.692
   56.800    0.276    0.494  105.300    6.819
   57.100    0.267    0.533  101.935    7.243
   57.400    0.291    0.546  103.212    6.626
   57.700    0.269    0.533  106.078    6.223
   58.000    0.266    0.513  109.494    6.204
   58.300    0.267    0.515  107.840    6.183
   58.600    0.259    0.515   98.548    6.004
   58.900    0.247    0.486   93.899    5.798
   59.200    0.277    0.471   96.582    5.925
   59.500    0.261    0.466   93.522    6.531
   59.800    0.265    0.485   89.545    7.349
   60.100    0.298    0.498   84.529    7.602
   60.400    0.275    0.483   83.913    7.894
   60.700    0.266    0.458   90.140    7.696
   61.000    0.262    0.486   97.222    8.978
   61.300    0.252    0.477   98.255    9.376
   61.600    0.237    0.471   98.494    9.863
   61.900    0.232    0.475  106.370    9.763
   62.200    0.244    0.487  107.281    8.763
   62.500    0.255    0.503  107.338    8.436
   62.800    0.268    0.518  106.293    7.631
   63.100    0.246    0.537  104.883    6.926
   63.400    0.261    0.513   98.523    6.543
   63.700    0.278    0.503   90.330    6.452
   64.000    0.305    0.478   90.874    6.530
   64.300    0.299    0.448   94.230    6.895
   64.600    0.294    0.448   97.401    7.380
   64.900    0.286    0.466   95.686    8.211
   65.200    0.268    0.491  103.194    8.737
   65.500    0.253    0.494  103.739    8.957
   65.800    0.233    0.483  101.473    8.996
   66.100    0.273    0.462  101.590    8.511
   66.400    0.274    0.459  105.007    8.068
   66.700    0.260    0.470  105.735    7.820
   67.000    0.246    0.491   94.487    7.842
   67.300    0.256    0.507   88.005    7.744
   67.600    0.253    0.513   88.428    7.578
   67.900    0.272    0.498   78.219    7.359
   68.200    0.287    0.471   59.700    7.213
   68.500    0.318    0.448   50.042    7.165
   68.800    0.363    0.437   48.936    8.526
   69.100    0.348    0.439   53.452   11.432
   69.400    0.366    0.435   59.923   15.847
   69.700    0.355    0.434   64.805   18.866
   70.000    0.339    0.445   66.083   23.654
   70.300    0.346    0.451   63.757   23.800
   70.600    0.350    0.484   58.314   21.450
   70.900    0.349    0.494   52.625   19.477
   71.200    0.366    0.460   48.404   18.087
   71.500    0.388    0.449   46.627   17.870
   71.800    0.379    0.477   47.722   19.122
   72.100    0.384    0.470   47.167   21.079
   72.400    0.363    0.457   44.473   23.197
   72.700    0.367    0.439   42.330   25.051
   73.000    0.393    0.428   47.029   26.657
   73.300    0.355    0.439   47.328   27.788
   73.600    0.384    0.445   49.523   28.122
   73.900    0.359    0.438   61.310   27.674
   74.200    0.367    0.467   57.149   25.883
   74.500    0.389    0.486   52.989   23.907
   74.800    0.404    0.482   55.671   21.917
   75.100    0.382    0.485   59.210   19.981
   75.400    0.343    0.467   58.472   19.007
   75.700    0.362    0.443   60.972   19.331
   76.000    0.354    0.446   65.427   19.824
   76.300    0.350    0.457   65.360   21.094
   76.600    0.349    0.458   65.355   21.993
   76.900    0.349    0.467   61.011   22.091
   77.200    0.329    0.459   56.179   21.578
   77.500    0.314    0.467   56.419   20.916
   77.800    0.353    0.433   59.162   20.390
   78.100    0.324    0.418   58.913   20.479
   78.400    0.334    0.426   57.563   20.795
   78.700    0.328    0.437   64.584   21.317
   79.000    0.308    0.449   64.701   21.449
   79.300    0.308    0.453   63.290   20.748
   79.600    0.316    0.446   60.108   19.894
   79.900    0.326    0.423   56.803   18.270
   80.200    0.319    0.446   58.387   17.255
   80.500    0.323    0.457   55.203   17.012
   80.800    0.343    0.452   58.254   17.055
   81.100    0.330    0.461   52.322   17.414
   81.400    0.344    0.443   47.428   18.427
   81.700    0.334    0.434   40.395   18.581
   82.000    0.345    0.441   36.969   19.695
   82.300    0.334    0.455   39.041   21.191
   82.600    0.383    0.508   45.452   22.133
   82.900    0.412    0.556   53.206   22.307
   83.200    0.348    0.464   57.965   21.341
   83.500    0.309    0.420   58.632   20.933
   83.800    0.315    0.440   55.633   21.940
   84.100    0.320    0.426   52.818   23.263
   84.400    0.345    0.420   55.622   24.882
   84.700    0.335    0.439   54.761   24.771
   85.000    0.317    0.463   54.146   24.051
   85.300    0.311    0.482   53.098   23.577
   85.600    0.289    0.439   51.996   23.330
   85.900    0.281    0.403   45.820   23.426
   86.200    0.290    0.418   40.989   23.306
   86.500    0.332    0.402   48.559   23.279
   86.800    0.303    0.388   62.729   22.915
   87.100    0.286    0.411   80.563   22.250
   87.400    0.278    0.451   88.990   20.320
   87.700    0.272    0.493   97.415   18.251
   88.000    0.266    0.489   99.427   15.732
   88.300    0.267    0.502  100.705   13.162
   88.600    0.272    0.502   95.933   10.392
   88.900    0.259    0.499   94.217    8.808
   89.200    0.244    0.500  100.383    7.536
   89.500    0.269    0.537  105.754    6.921
   89.800    0.304    0.567  111.186    6.403
   90.100    0.249    0.559  109.531    6.002
   90.400    0.250    0.563  104.577    5.564
   90.700    0.263    0.542  110.804    5.254
   91.000    0.268    0.533  113.609    5.122
   91.300    0.275    0.523  113.482    5.106
   91.600    0.266    0.540  109.505    5.174
   91.900    0.291    0.553  108.888    5.485
   92.200    0.290    0.535  107.295    5.688
   92.500    0.293    0.543  102.829    5.588
   92.800    0.291    0.550  103.984    5.218
   93.100    0.300    0.491  101.046    4.956
   93.400    0.272    0.476   99.514    4.949
   93.700    0.258    0.484  106.717    5.538
   94.000    0.226    0.521  108.300    6.566
   94.300    0.232    0.547  110.557    7.445
   94.600    0.242    0.560  120.082    7.834
   94.900    0.250    0.542  112.866    7.781
   95.200    0.260    0.548  105.652    6.435
   95.500    0.273    0.565   99.720    5.486
   95.800    0.274    0.544   95.132    4.791
   96.100    0.254    0.508   90.422    4.238
   96.400    0.239    0.486   90.173    4.011
   96.700    0.239    0.492   90.229    4.126
   97.000    0.192    0.491   84.541    5.390
   97.300    0.058    0.444   80.015    6.846
   97.600    0.090    0.390   89.785    8.609
   97.900    0.262    0.440  102.182    8.983
   98.200    0.276    0.508  111.708    9.961
   98.500    0.266    0.541  112.863   10.540
   98.800    0.278    0.577  112.186    9.751
   99.100    0.279    0.587  112.914    8.677
   99.400    0.284    0.565  105.271    6.738
   99.700    0.282    0.556  109.482    5.154
  100.000    0.272    0.584  110.516    4.178
  100.300    0.252    0.589  107.211    3.772
  100.600    0.272    0.570  102.196    3.583
  100.900    0.290    0.535   97.974    3.434
  101.200    0.259    0.495   97.968    3.404
  101.500    0.251    0.465   94.541    3.490
  101.800    0.265    0.440   89.160    3.950
  102.100    0.263    0.365   82.251    4.906
  102.400    0.310    0.359   92.448    5.959
  102.700    0.242    0.499   96.903    7.642
  103.000    0.246    0.518   97.509    9.798
  103.300    0.254    0.505   98.237    9.428
  103.600    0.273    0.477   94.382    7.813
  103.900    0.282    0.449   91.994    6.168
  104.200    0.265    0.466   94.127    5.794
  104.500    0.267    0.517   96.566    5.940
  104.800    0.272    0.537  101.693    6.464
  105.100    0.281    0.531  101.749    6.969
  105.400    0.277    0.491   94.961    7.051
  105.700    0.268    0.490   85.240    6.672
  106.000    0.240    0.457   79.919    6.324
  106.300    0.219    0.381   78.631    6.304
  106.600    0.268    0.350   83.820    6.796
  106.900    0.289    0.343   86.074    9.146
