~VERSION INFORMATION
 VERS.                 2.0:   CWLS LOG ASCII STANDARD -VERSION 2.0
 WRAP.                  NO:   ONE LINE PER DEPTH STEP
~WELL INFORMATION BLOCK
#MNEM.UNIT           DATA                    DESCRIPTION OF MNEMONIC
#---------    -------------------            -------------------------------
# Generated from Intellog Unique Number	CN_91_93/WELL/3662
WELL.         02-08-093-09W4                 : Well_name    - WELL
LOC .         AA/02-08-093-09W4/0            : Location     - LOCATION
UWI .         AA/02-08-093-09W400            : Uwi          - UNIQUE WELL ID
ENTR.         JOETTE                         : Entered      - ENTERED BY
SRVC.         SCHLUMBERGER                   : Scn          - SERVICE COMPANY
DATE.         03/22/92                       : Date         - LOG DATE
STRT.M        3                              : top_depth    - START DEPTH
STOP.M        95                             : bot_depth    - STOP DEPTH
STEP.M        0.25                           : increment    - STEP LENGTH
 NULL. -999.2500:NULL Value
~CURVE INFORMATION BLOCK
#MNEM UNIT       ERCB CURVE CODE    CURVE DESCRIPTION
#-----------   ------------------   ----------------------------------
DEPT.M        00 001 00 00         : DEPTH        - DEPTH
GR  .API      00 310 00 00         : GR           - GAMMA RAY
CALI.MM       00 280 01 00         : CAL          - CALIPER
NPHI.V/V      00 330 00 00         : PHIN         - NEUTRON POROSITY (SANDSTONE)
DPHI.V/V      00 890 00 00         : PHID         - DENSITY POROSITY (SANDSTONE)
ILD .OHMM     00 120 00 00         : RESD         - DEEP RESISTIVITY (DIL)
~PARAMETER INFORMATION
#MNEM.UNIT           DATA             DESCRIPTION OF MNEMONIC
#---------         -----------     ------------------------------
GL  .M        333.6                : gl           - GROUND LEVEL ELEVATION
EREF.M        333.6                : kb           - ELEVATION OF DEPTH REFERENCE
DATM.M        333.6                : datum        - DATUM ELEVATION
TDD .M        97.9                 : tdd          - TOTAL DEPTH DRILLER
RUN .         ONE                  : Run          - RUN NUMBER
ENG .         JO                   : Engineer     - RECORDING ENGINEER
WIT .         TIM                  : Witness      - WITNESSED BY
MUD .         GEL                  : Mud_type     - MUD TYPE
MATR.         SANDSTONE            : Logunit      - NEUTRON MATRIX
TMAX.C        12.6                 : BHT          - MAXIMUM RECORDED TEMPERATURE
BHTD.M        97.9                 : BHTDEP       - MAXIMUM RECORDED TEMPERATURE
RMT .C        12                   : MDTP         - TEMPERATURE OF MUD
MUDD.KG/M     1090                 : MWT          - MUD DENSITY
NEUT.         1                    : NEUTRON      - NEUTRON TYPE
RESI.         0                    : RESIST       - RESISTIVITY TYPE
RM  .OHMM     4.35                 : RM           - RESISTIVITY OF MUD
RMC .OHMM     4.35                 : RMC          - RESISTIVITY OF MUD CAKE
RMF .OHMM     4.35                 : RMF          - RESISTIVITY OF MUD FILTRATE
SUFT.C        4                    : SUFT         - SURFACE TEMPERATURE
~A  DEPTH       GR      CAL     PHIN     PHID     RESD
# ...
   39.500   55.438  137.165    0.540    0.277   81.076
   39.750   48.740  137.176    0.504    0.270  201.695
   40.000   60.395  136.794    0.403    0.270   87.460
   40.250   93.470  136.815    0.473    0.271   66.230
   40.500  102.678  136.842    0.465    0.261   68.788
   40.750   97.815  136.857    0.462    0.295   81.371
   41.000   68.474  136.486    0.370    0.291  109.628
   41.250   56.271  136.491    0.370    0.293  293.821
   41.500   70.380  136.512    0.365    0.286  459.308
   41.750   93.047  136.136    0.421    0.282  178.120
   42.000   82.679  135.744    0.439    0.279  374.930
   42.250   90.663  135.760    0.405    0.274  404.156
   42.500  112.726  135.378    0.479    0.281  478.084
   42.750   92.561  134.584    0.496    0.293  279.148
   43.000   82.805  133.789    0.485    0.294  342.652
   43.250   71.213  132.994    0.419    0.299  506.595
   43.500   68.797  134.647    0.402    0.298  383.627
   43.750   70.052  136.299    0.422    0.290  307.219
   44.000   63.354  137.136    0.451    0.296  296.171
   44.250   52.374  137.157    0.423    0.306  454.539
   44.500   60.970  137.172    0.405    0.304  547.768
   44.750   75.072  136.791    0.397    0.300  265.497
   45.000   52.469  136.806    0.422    0.293  357.759
   45.250   42.712  136.420    0.392    0.289  455.857
   45.500   40.908  136.038    0.394    0.291  447.788
   45.750   48.892  135.243    0.390    0.291  393.450
   46.000   48.924  135.264    0.398    0.291  358.797
   46.250   44.061  136.917    0.400    0.288  333.333
   46.500   47.771  137.351    0.421    0.287  440.898
   46.750   52.085  137.372    0.424    0.287  561.693
   47.000   55.779  137.393    0.402    0.290  402.284
   47.250   63.152  137.006    0.436    0.295  353.532
   47.500   68.697  137.022    0.438    0.302  293.733
   47.750   56.486  137.043    0.432    0.303  347.462
   48.000   47.953  137.477    0.415    0.302  563.832
   48.250   56.549  137.503    0.426    0.300  354.493
   48.500   69.435  137.519    0.450    0.297  354.750
   48.750   59.678  137.540    0.427    0.293  544.441
   49.000   62.769  137.561    0.397    0.290  263.884
   49.250   61.577  137.169    0.427    0.289  219.329
   49.500   53.051  137.195    0.446    0.288  324.268
   49.750   48.800  137.619    0.440    0.294  479.415
   50.000   44.542  138.047    0.406    0.304  453.746
   50.250   40.895  138.476    0.397    0.301  343.606
   50.500   47.664  138.089    0.427    0.303  398.973
   50.750   54.425  137.703    0.441    0.310  399.262
   51.000   44.668  137.321    0.415    0.310  697.761
   51.250   34.299  137.337    0.412    0.309  889.251
   51.500   32.495  137.363    0.441    0.308  110.973
   51.750   39.256  137.384    0.437    0.297  173.507
   52.000   47.853  137.808    0.463    0.302  233.759
   52.250   44.221  137.834    0.484    0.313  365.418
   52.500   39.351  138.263    0.409    0.314  474.351
   52.750   30.214  138.284    0.381    0.299  225.720
   53.000   37.579  138.305    0.429    0.300  287.666
   53.250   38.222  137.918    0.496    0.306  217.799
   53.500   40.700  136.715    0.515    0.314  380.701
   53.750   46.850  135.926    0.464    0.317  388.123
   54.000   40.152  135.131    0.421    0.315  174.641
   54.250   34.677  135.968    0.421    0.300  218.431
   54.500   36.544  137.625    0.472    0.281  354.452
   54.750   32.293  138.044    0.454    0.293  679.768
   55.000   26.827  138.065    0.378    0.303  693.021
   55.250   26.239  137.275    0.390    0.308  505.653
   55.500   30.552  137.291    0.407    0.302  390.096
   55.750   21.408  137.323    0.415    0.300  259.371
   56.000   29.392  137.338    0.423    0.306  269.388
   56.250   32.482  137.762    0.390    0.313  356.253
   56.500   39.251  137.799    0.422    0.315  429.324
   56.750   39.894  137.814    0.445    0.308  600.424
   57.000   33.808  137.830    0.389    0.303  956.204
   57.250   28.326  137.851    0.378    0.300  635.771
   57.500   25.299  137.877    0.400    0.305  357.546
   57.750   32.067  137.888    0.439    0.317  559.026
   58.000   27.205  138.327    0.415    0.323  233.520
   58.250   27.236  137.946    0.472    0.330  386.045
   58.500   27.880  137.956    0.469    0.335  843.218
   58.750   28.523  137.167    0.427    0.323  540.191
   59.000   34.060  136.785    0.524    0.323  769.648
   59.250   32.868  136.796    0.554    0.337  663.680
   59.500   23.723  137.230    0.533    0.337  484.244
   59.750   31.104  138.066    0.478    0.327  677.110
   60.000   36.633  138.082    0.487    0.323  267.558
   60.250   31.771  138.103    0.499    0.326  402.993
   60.500   33.026  137.727    0.484    0.299 1080.090
   60.750   34.892  137.335    0.435    0.309  563.905
   61.000   31.253  137.351    0.514    0.323  443.196
   61.250   24.555  137.790    0.521    0.325  564.825
   61.500   19.089  137.800    0.399    0.334  760.968
   61.750   17.285  138.229    0.377    0.336  668.625
   62.000   14.870  138.250    0.367    0.331  376.091
   62.250   13.066  138.679    0.368    0.330  577.089
   62.500   13.709  138.700    0.439    0.330  657.861
   62.750   18.627  139.129    0.488    0.330  695.959
   63.000   30.282  139.150    0.521    0.325 1087.940
   63.250   28.486  139.171    0.461    0.315 1311.320
   63.500   24.839  139.197    0.421    0.325  871.727
   63.750   42.016  139.218    0.486    0.335  568.931
   64.000   38.369  139.244    0.490    0.323  464.078
   64.250   35.341  139.265    0.479    0.312  364.738
   64.500   35.985  139.281    0.465    0.320  977.561
   64.750   28.675  139.302    0.419    0.318  560.075
   65.000   19.530  139.323    0.454    0.317  797.977
   65.250   31.185  139.349    0.436    0.319  961.648
   65.500   25.099  138.963    0.437    0.320 1056.250
   65.750   18.401  138.984    0.438    0.318 1097.040
   66.000   18.433  139.005    0.424    0.317 1139.410
   66.250   22.134  139.026    0.464    0.317  583.921
   66.500   23.390  139.047    0.410    0.305  418.204
   66.750   24.645  139.073    0.386    0.297  896.804
   67.000   33.860  139.089    0.427    0.308 1080.550
   67.250   25.931  139.104    0.463    0.319  788.407
   67.500   25.963  139.125    0.426    0.322  692.735
   67.750   24.159  139.146    0.478    0.307  586.464
   68.000   21.743  139.167    0.458    0.291  336.064
   68.250   23.610  139.612    0.387    0.279  300.823
   68.500   38.944  139.617    0.400    0.268  420.635
   68.750   42.034  139.638    0.422    0.271  284.922
   69.000   40.842  139.659    0.425    0.264  223.932
   69.250   46.379  139.685    0.372    0.253   80.620
   69.500   56.811  139.706    0.367    0.247  437.830
   69.750   67.854  139.733    0.467    0.253   67.056
   70.000   51.980  139.754    0.559    0.269  112.913
   70.250   53.235  139.775    0.475    0.294  296.999
   70.500   60.607  139.796    0.513    0.250 1032.560
   70.750   50.239  139.817    0.589    0.272 1391.120
   71.000   33.753  139.838    0.541    0.302 1527.690
   71.250   19.102  139.859    0.423    0.299  797.740
   71.500   17.298  139.880    0.386    0.310  173.886
   71.750   36.906  139.901    0.405    0.310  315.453
   72.000   44.890  139.922    0.518    0.308  689.027
   72.250   30.240  139.535    0.489    0.324 1273.430
   72.500   19.267  139.556    0.482    0.324 1161.280
   72.750   19.291  139.572    0.400    0.312  716.674
   73.000   22.381  139.593    0.348    0.294   84.602
   73.250   39.542  139.619    0.355    0.277  273.057
   73.500   56.711  139.635    0.404    0.260 1101.490
   73.750   46.954  139.656    0.479    0.290 1327.650
   74.000   36.578  139.677    0.429    0.257  933.187
   74.250   21.927  139.300    0.268    0.236   98.537
   74.500   35.425  139.311    0.409    0.234   89.858
   74.750   37.904  138.929    0.368    0.233   96.863
   75.000   28.139  138.548    0.304    0.229  104.432
   75.250   23.888  138.563    0.267    0.225   82.063
   75.500   36.163  138.187    0.262    0.232   40.528
   75.750   52.100  137.795    0.279    0.185   26.446
