~VERSION INFORMATION
 VERS.                 2.0:   CWLS LOG ASCII STANDARD -VERSION 2.0
 WRAP.                  NO:   ONE LINE PER DEPTH STEP
~WELL INFORMATION BLOCK
#MNEM.UNIT           DATA                    DESCRIPTION OF MNEMONIC
#---------    -------------------            -------------------------------
# Generated from Intellog Unique Number	CX_WELLS/WELL/1056
WELL.         COSEKA TOTAL LYNTON CTL 10     : Well_name    - WELL
LOC .         AA/05-03-088-07W4/0            : Location     - LOCATION
UWI .         AA/05-03-088-07W400            : Uwi          - UNIQUE WELL ID
ENTR.         DW                             : Entered      - ENTERED BY
SRVC.         SCHLUMBERGER                   : Scn          - SERVICE COMPANY
STRT.M        35                             : top_depth    - START DEPTH
STOP.M        160                            : bot_depth    - STOP DEPTH
STEP.M        0.25                           : increment    - STEP LENGTH
 NULL. -999.2500:NULL Value
~CURVE INFORMATION BLOCK
#MNEM UNIT       ERCB CURVE CODE    CURVE DESCRIPTION
#-----------   ------------------   ----------------------------------
DEPT.M        00 001 00 00         : DEPTH        - DEPTH
GR  .API      00 310 00 00         : GR           - GAMMA RAY
NPHI.V/V      00 330 00 00         : PHIN         - NEUTRON POROSITY (SANDSTONE)
DPHI.V/V      00 890 00 00         : PHID         - DENSITY POROSITY (SANDSTONE)
ILD .OHMM     00 120 00 00         : RESD         - DEEP RESISTIVITY (DIL)
~PARAMETER INFORMATION
#MNEM.UNIT           DATA             DESCRIPTION OF MNEMONIC
#---------         -----------     ------------------------------
GL  .M        402.77               : gl           - GROUND LEVEL ELEVATION
EREF.M        404.27               : kb           - ELEVATION OF DEPTH REFERENCE
DATM.M        404.27               : datum        - DATUM ELEVATION
TDD .M        167                  : tdd          - TOTAL DEPTH DRILLER
RUN .         ONE                  : Run          - RUN NUMBER
ENG .         BILL                 : Engineer     - RECORDING ENGINEER
WIT .         JIM                  : Witness      - WITNESSED BY
MUD .         GEL                  : Mud_type     - MUD TYPE
MATR.         SANDSTONE            : Logunit      - NEUTRON MATRIX
TMAX.C        25                   : BHT          - MAXIMUM RECORDED TEMPERATURE
BHTD.M        167                  : BHTDEP       - MAXIMUM RECORDED TEMPERATURE
MATR.         1                    : LOGUNIT      - NEUTRON MATRIX
RMT .C        25                   : MDTP         - TEMPERATURE OF MUD
NEUT.         1                    : NEUTRON      - NEUTRON TYPE
RESI.         0                    : RESIST       - RESISTIVITY TYPE
RMC .OHMM     0.25                 : RMC          - RESISTIVITY OF MUD CAKE
RMF .OHMM     0.25                 : RMF          - RESISTIVITY OF MUD FILTRATE
SUFT.C        4                    : SUFT         - SURFACE TEMPERATURE
~A  DEPTH       GR     PHIN     PHID     RESD
# ...
  122.000   56.900    0.175    0.399   32.599
  122.250   58.120    0.206    0.396   48.862
  122.500   56.940    0.233    0.388   78.820
  122.750   56.359    0.260    0.377  111.832
  123.000   58.780    0.314    0.363  139.505
  123.250   61.795    0.342    0.347  150.280
  123.500   66.615    0.374    0.328  150.395
  123.750   72.036    0.405    0.317  139.852
  124.000   73.261    0.399    0.303  120.816
  124.250   73.886    0.389    0.291   95.234
  124.500   74.501    0.376    0.283   77.876
  124.750   74.521    0.362    0.283   54.983
  125.000   74.551    0.353    0.282   44.962
  125.250   74.561    0.338    0.282   39.576
  125.500   73.981    0.310    0.288   37.477
  125.750   69.801    0.276    0.301   36.830
  126.000   64.420    0.223    0.327   37.534
  126.250   59.039    0.209    0.360   40.426
  126.500   56.664    0.243    0.378   48.611
  126.750   58.479    0.326    0.368  124.119
  127.000   63.300    0.370    0.345  138.707
  127.250   70.520    0.399    0.315  141.385
  127.500   74.746    0.402    0.298  138.893
  127.750   67.565    0.393    0.292  120.010
  128.000   62.789    0.371    0.308  122.327
  128.250   64.605    0.370    0.333  131.776
  128.500   70.625    0.400    0.330  124.785
  128.750   82.047    0.413    0.316  100.185
  129.000   88.667    0.412    0.292   72.044
  129.250   94.688    0.411    0.290   53.745
  129.500  100.118    0.410    0.291   40.094
  129.750   96.538    0.406    0.296   33.394
  130.000   91.752    0.406    0.301   27.308
  130.250   80.376    0.404    0.306   24.478
  130.500   77.391    0.399    0.314   26.364
  130.750   65.414    0.394    0.321   39.516
  131.000   64.229    0.392    0.325   57.094
  131.250   60.649    0.389    0.320  162.757
  131.500   55.868    0.387    0.312  230.879
  131.750   52.298    0.381    0.294  267.615
  132.000   51.108    0.375    0.289  263.048
  132.250   48.732    0.383    0.293  244.608
  132.500   47.557    0.394    0.309  231.631
  132.750   46.967    0.405    0.309  244.935
  133.000   47.587    0.386    0.289  353.891
  133.250   48.807    0.360    0.271  381.226
  133.500   49.427    0.345    0.275  347.985
  133.750   48.247    0.352    0.283  295.205
  134.000   47.067    0.365    0.291  228.463
  134.250   45.887    0.376    0.283  212.488
  134.500   43.506    0.376    0.276  228.813
  134.750   39.931    0.361    0.264  228.988
  135.000   38.751    0.347    0.247  216.881
  135.250   38.766    0.319    0.242  270.549
  135.500   38.196    0.296    0.249  574.920
  135.750   38.211    0.303    0.258  515.341
  136.000   38.241    0.314    0.259  506.352
  136.250   37.651    0.324    0.254  631.650
  136.500   37.070    0.333    0.250  705.891
  136.750   36.495    0.330    0.244  621.107
  137.000   36.520    0.312    0.246  498.663
  137.250   37.135    0.311    0.254  438.853
  137.500   37.760    0.322    0.266  372.291
  137.750   38.370    0.345    0.277  321.677
  138.000   40.196    0.365    0.287  277.945
  138.250   42.011    0.369    0.282  231.498
  138.500   46.236    0.364    0.277  192.813
  138.750   54.057    0.358    0.270  143.840
  139.000   67.278    0.342    0.261   90.961
  139.250   93.701    0.331    0.263   52.476
  139.500   87.721    0.331    0.275   37.728
  139.750   75.739    0.327    0.292   23.424
  140.000   64.958    0.321    0.311  105.676
  140.250   54.182    0.318    0.313  155.544
  140.500   59.597    0.414    0.313  139.398
  140.750   65.018    0.407    0.318  109.881
  141.000   65.043    0.399    0.320   81.972
  141.250   61.462    0.395    0.319   89.923
  141.500   57.282    0.392    0.319  116.393
  141.750   49.501    0.392    0.316  116.482
  142.000   47.131    0.392    0.315  112.389
  142.250   46.541    0.392    0.313  106.427
  142.500   44.766    0.392    0.315   88.642
  142.750   43.580    0.392    0.317   79.456
  143.000   41.805    0.390    0.322   97.314
  143.250   41.220    0.390    0.327  119.186
  143.500   40.640    0.389    0.333  138.151
  143.750   40.065    0.388    0.339  163.100
  144.000   39.480    0.388    0.339  288.452
  144.250   40.110    0.387    0.338  328.266
  144.500   40.720    0.389    0.336  227.547
  144.750   42.540    0.391    0.333  193.035
  145.000   44.960    0.393    0.319  128.983
  145.250   49.791    0.391    0.290  107.409
  145.500   50.411    0.388    0.270   78.670
  145.750   51.031    0.374    0.270   57.620
  146.000   53.451    0.363    0.265   71.879
  146.250   54.671    0.362    0.249   63.258
  146.500   55.891    0.371    0.225   56.713
  146.750   59.512    0.378    0.230   63.367
  147.000   63.727    0.386    0.271   43.125
  147.250   60.752    0.386    0.288   38.649
  147.500   55.366    0.381    0.294   26.303
  147.750   49.985    0.377    0.299   18.915
  148.000   45.805    0.378    0.301   19.280
  148.250   49.435    0.381    0.300   27.857
  148.500   51.850    0.381    0.295   27.883
  148.750   56.071    0.380    0.287   20.423
  149.000   59.691    0.379    0.282   14.683
  149.250   59.716    0.375    0.276   12.230
  149.500   59.131    0.373    0.266   14.441
  149.750   57.956    0.373    0.260   17.687
  150.000   58.576    0.376    0.250   19.053
  150.250   59.796    0.376    0.244   17.078
  150.500   59.811    0.373    0.240   15.306
  150.750   59.231    0.372    0.240   13.470
  151.000   54.455    0.372    0.243   12.074
  151.250   51.470    0.373    0.243   14.518
  151.500   51.495    0.374    0.241   17.782
  151.750   53.915    0.371    0.233   16.234
  152.000   53.340    0.367    0.214   11.891
  152.250   52.755    0.365    0.169   11.685
  152.500   50.985    0.369    0.150   12.583
  152.750   50.395    0.375    0.166   13.306
  153.000   48.614    0.378    0.202   17.538
  153.250   48.034    0.383    0.238   15.435
  153.500   64.256    0.383    0.221    9.942
  153.750   70.277    0.378    0.115    8.280
  154.000   81.703    0.370    0.071    9.252
  154.250   96.725    0.360    0.024   10.724
  154.500  106.951    0.346    0.012   14.138
  154.750   88.364    0.321    0.015   16.387
  155.000   75.782    0.295    0.027   16.400
  155.250   71.012    0.283    0.041   17.345
  155.500   68.631    0.273    0.034   19.024
  155.750   68.041    0.267    0.029   23.299
  156.000   68.661    0.270    0.029   26.515
  156.250   71.087    0.274    0.038   26.058
  156.500   75.307    0.280    0.040   23.357
  156.750   80.127    0.287    0.039   21.716
  157.000   83.748    0.291    0.036   20.953
  157.250   86.168    0.298    0.036   19.856
  157.500   87.988    0.301    0.041   19.506
  157.750   88.608    0.306    0.046   19.159
  158.000   89.233    0.310    0.052   18.482
  158.250   90.454    0.312    0.054   17.833
  158.500   94.074    0.313    0.059   17.203
  158.750   96.489    0.316    0.061   17.216
  159.000   98.309    0.317    0.056   15.718
  159.250   98.334    0.323    0.046   15.444
  159.500   97.754    0.327    0.035   16.633
  159.750   97.779    0.327    0.023   17.269
  160.000   97.794    0.327    0.017   18.940
