~VERSION INFORMATION
 VERS.                 2.0:   CWLS LOG ASCII STANDARD -VERSION 2.0
 WRAP.                  NO:   ONE LINE PER DEPTH STEP
~WELL INFORMATION BLOCK
#MNEM.UNIT           DATA                    DESCRIPTION OF MNEMONIC
#---------    -------------------            -------------------------------
# Generated from Intellog Unique Number	CW_82_90/WELL/3426
WELL.         UNION SIMON OV                 : Well_name    - WELL
LOC .         AA/07-11-088-19W4/0            : Location     - LOCATION
UWI .         AA/07-11-088-19W400            : Uwi          - UNIQUE WELL ID
ENTR.         MAX                            : Entered      - ENTERED BY
SRVC.         SCHLUMBERGER                   : Scn          - SERVICE COMPANY
STRT.M        140                            : top_depth    - START DEPTH
STOP.M        265                            : bot_depth    - STOP DEPTH
STEP.M        0.25                           : increment    - STEP LENGTH
 NULL. -999.2500:NULL Value
~CURVE INFORMATION BLOCK
#MNEM UNIT       ERCB CURVE CODE    CURVE DESCRIPTION
#-----------   ------------------   ----------------------------------
DEPT.M        00 001 00 00         : DEPTH        - DEPTH
ILD .OHMM     00 120 00 00         : RESD         - DEEP RESISTIVITY (DIL)
NPHI.V/V      00 330 00 00         : PHIN         - NEUTRON POROSITY (SANDSTONE)
DPHI.V/V      00 890 00 00         : PHID         - DENSITY POROSITY (SANDSTONE)
CALI.MM       00 280 01 00         : CAL          - CALIPER
GR  .API      00 310 00 00         : GR           - GAMMA RAY
~PARAMETER INFORMATION
#MNEM.UNIT           DATA             DESCRIPTION OF MNEMONIC
#---------         -----------     ------------------------------
GL  .M        522.76               : gl           - GROUND LEVEL ELEVATION
EREF.M        527.06               : kb           - ELEVATION OF DEPTH REFERENCE
DATM.M        522.76               : datum        - DATUM ELEVATION
TDD .M        353                  : tdd          - TOTAL DEPTH DRILLER
RUN .         ONE                  : Run          - RUN NUMBER
ENG .         BILL                 : Engineer     - RECORDING ENGINEER
WIT .         JIM                  : Witness      - WITNESSED BY
MUD .         GEL                  : Mud_type     - MUD TYPE
MATR.         SANDSTONE            : Logunit      - NEUTRON MATRIX
TMAX.C        26.6                 : BHT          - MAXIMUM RECORDED TEMPERATURE
BHTD.M        353                  : BHTDEP       - MAXIMUM RECORDED TEMPERATURE
MATR.         1                    : LOGUNIT      - NEUTRON MATRIX
RMT .C        13                   : MDTP         - TEMPERATURE OF MUD
NEUT.         1                    : NEUTRON      - NEUTRON TYPE
RESI.         0                    : RESIST       - RESISTIVITY TYPE
RMC .OHMM     1.79                 : RMC          - RESISTIVITY OF MUD CAKE
RMF .OHMM     1.7                  : RMF          - RESISTIVITY OF MUD FILTRATE
SUFT.C        -20                  : SUFT         - SURFACE TEMPERATURE
~A  DEPTH     RESD     PHIN     PHID      CAL       GR
# ...
  213.000   13.172    0.528    0.456  332.592   73.772
  213.250   12.016    0.583    0.519  353.906   69.334
  213.500   12.832    0.582    0.560  376.207   66.676
  213.750   14.086    0.520    0.476  358.416   70.852
  214.000   15.610    0.438    0.300  341.615   75.030
  214.250   15.912    0.455    0.245  332.733   75.933
  214.500   15.923    0.440    0.258  337.215   75.360
  214.750   15.644    0.433    0.282  364.469   74.778
  215.000   14.671    0.445    0.313  342.714   74.211
  215.250   11.977    0.510    0.399  331.852   72.138
  215.500    8.831    0.549    0.487  335.843   64.433
  215.750    7.144    0.589    0.538  349.729   59.997
  216.000    6.825    0.612    0.596  387.377   59.715
  216.250    6.644    0.608    0.610  381.465   59.735
  216.500    6.836    0.606    0.594  385.452   60.346
  216.750    7.434    0.614    0.591  386.968   60.954
  217.000   10.005    0.608    0.603  391.942   61.864
  217.250   11.293    0.604    0.589  395.434   63.363
  217.500   14.647    0.490    0.557  384.572   65.458
  217.750   15.492    0.381    0.516  356.387   68.151
  218.000   17.166    0.446    0.299  343.545   68.760
  218.250   17.500    0.471    0.141  322.788   69.962
  218.500   15.965    0.497    0.238  326.283   73.546
  218.750   11.450    0.522    0.428  330.263   71.482
  219.000    9.789    0.552    0.559  354.544   69.125
  219.250    9.354    0.573    0.482  377.838   67.359
  219.500    9.361    0.593    0.322  394.199   65.891
  219.750    8.780    0.589    0.329  401.655   64.717
  220.000    8.160    0.604    0.378  397.719   63.845
  220.250    7.942    0.578    0.356  401.214   63.265
  220.500    7.802    0.573    0.351  401.245   62.987
  220.750    7.735    0.593    0.390  406.714   62.711
  221.000    7.460    0.606    0.455  411.196   62.721
  221.250    7.261    0.619    0.491  413.210   63.034
  221.500    7.133    0.624    0.534  411.251   63.055
  221.750    7.273    0.627    0.577  400.393   63.370
  222.000    7.413    0.613    0.556  399.430   63.977
  222.250    7.770    0.582    0.525  405.394   65.183
  222.500    8.690    0.555    0.481  407.899   66.385
  222.750   11.268    0.522    0.397  409.917   68.481
  223.000   12.601    0.455    0.291  413.406   71.766
  223.250   14.225    0.386    0.192  411.941   76.239
  223.500   14.909    0.390    0.115  331.788   74.769
  223.750   14.379    0.437    0.243  342.698   73.597
  224.000   13.364    0.472    0.287  358.073   77.474
  224.250   12.768    0.477    0.312  355.127   80.757
  224.500   12.313    0.460    0.287  342.780   84.045
  224.750   12.552    0.446    0.262  336.868   86.734
  225.000   13.034    0.449    0.227  334.923   88.827
  225.250   13.288    0.447    0.261  338.906   89.145
  225.500   13.299    0.436    0.296  336.459   87.971
  225.750   12.591    0.451    0.332  335.991   86.505
  226.000   13.073    0.496    0.378  348.895   85.032
  226.250   15.171    0.472    0.419  364.754   82.081
  226.500   17.935    0.440    0.368  387.553   78.237
  226.750   21.206    0.395    0.207  344.515   76.769
  227.000   23.279    0.304    0.129  328.209   77.082
  227.250   23.298    0.275    0.075  328.240   74.424
  227.500   22.675    0.271    0.069  328.267   70.878
  227.750   21.865    0.312    0.128  326.810   68.519
  228.000   20.134    0.349    0.205  329.811   70.020
  228.250   17.863    0.375    0.217  331.821   75.978
  228.500   14.315    0.402    0.216  332.337   81.934
  228.750   13.552    0.402    0.219  332.371   82.840
  229.000   13.944    0.391    0.225  332.395   84.640
  229.250   14.348    0.403    0.221  332.423   86.436
  229.500   15.040    0.396    0.223  332.447   83.485
  229.750   15.051    0.409    0.228  334.454   79.936
  230.000   12.173    0.432    0.230  339.438   76.987
  230.250    9.755    0.456    0.239  343.421   74.924
  230.500    8.576    0.480    0.265  345.924   73.157
  230.750    8.424    0.505    0.320  355.857   72.878
  231.000    8.354    0.523    0.334  359.841   74.378
  231.250    8.516    0.572    0.360  364.818   76.178
  231.500    9.094    0.589    0.384  373.755   75.303
  231.750   11.683    0.610    0.435  381.702   68.487
  232.000   12.825    0.629    0.606  388.658   59.892
  232.250   15.303    0.670    0.617  393.635   55.453
  232.500   17.114    0.659    0.615  387.228   46.268
  232.750   16.970    0.655    0.603  384.289   41.825
  233.000   16.984    0.670    0.599  386.788   34.714
  233.250   16.994    0.669    0.600  389.792   30.872
  233.500   17.659    0.671    0.587  401.204   29.703
  233.750   17.501    0.677    0.591  409.642   29.123
  234.000   18.176    0.665    0.591  416.603   29.437
  234.250   18.188    0.653    0.583  417.616   30.936
  234.500   17.376    0.641    0.574  414.681   34.815
  234.750   16.451    0.648    0.554  404.802   41.664
  235.000   16.310    0.623    0.538  402.857   47.917
  235.250   15.875    0.589    0.509  413.773   50.307
  235.500   14.349    0.535    0.439  419.737   54.778
  235.750    9.735    0.473    0.298  406.404   59.547
  236.000    7.178    0.469    0.430  335.645   66.099
  236.250    5.859    0.512    0.476  345.572   70.570
  236.500    5.151    0.539    0.506  343.128   76.231
  236.750    4.922    0.552    0.541  342.162   75.057
  237.000    4.747    0.557    0.544  345.661   73.591
  237.250    4.884    0.570    0.528  349.648   72.122
  237.500    5.263    0.573    0.498  379.369   71.545
  237.750    5.568    0.559    0.433  383.852   72.155
  238.000    5.624    0.537    0.382  379.424   74.251
  238.250    5.787    0.523    0.346  357.178   77.538
  238.500    5.844    0.517    0.326  371.068   77.847
  238.750    6.126    0.503    0.359  381.985   77.868
  239.000    6.851    0.481    0.368  394.881   76.692
  239.250    8.250    0.459    0.340  399.858   73.444
  239.500   13.361    0.437    0.324  366.228   70.786
  239.750   18.486    0.406    0.309  330.615   64.862
  240.000   23.975    0.391    0.296  325.208   56.568
  240.250   29.410    0.391    0.292  324.737   56.877
  240.500   34.450    0.397    0.271  326.250   58.378
  240.750   39.607    0.395    0.302  327.270   59.884
  241.000   45.967    0.392    0.317  326.304   55.145
  241.250   53.348    0.395    0.312  326.827   49.816
  241.500   55.401    0.396    0.304  327.346   43.001
  241.750   49.152    0.404    0.314  326.882   44.208
  242.000   41.639    0.444    0.280  325.428   46.899
  242.250   33.996    0.478    0.331  325.448   46.621
  242.500   36.295    0.457    0.356  322.018   44.257
  242.750   42.910    0.436    0.344  322.537   40.710
  243.000   62.760    0.432    0.329  322.090   34.787
  243.250   82.144    0.421    0.318  325.561   32.724
  243.500   98.930    0.413    0.325  326.087   32.444
  243.750   95.404    0.400    0.337  327.600   33.353
  244.000   64.718    0.400    0.322  329.112   34.556
  244.250   47.719    0.416    0.309  331.119   37.251
  244.500   38.956    0.400    0.302  330.652   38.746
  244.750   36.203    0.377    0.327  326.716   40.252
  245.000   35.899    0.365    0.311  324.767   41.751
  245.250   38.327    0.409    0.288  325.784   45.038
  245.500   42.864    0.423    0.282  327.792   44.160
  245.750   45.767    0.441    0.271  330.294   42.693
  246.000   45.387    0.441    0.323  332.803   42.712
  246.250   43.362    0.430    0.288  334.308   43.914
  246.500   39.929    0.423    0.273  334.336   46.309
  246.750   37.449    0.408    0.260  333.373   48.998
  247.000   35.455    0.402    0.245  331.916   52.576
  247.250   33.558    0.425    0.239  329.475   53.780
  247.500   30.058    0.433    0.255  325.048   52.611
  247.750   27.419    0.431    0.255  324.082   52.625
  248.000   24.557    0.423    0.254  323.615   55.315
  248.250   23.029    0.425    0.258  324.144   60.085
  248.500   22.208    0.428    0.262  323.175   63.071
  248.750   22.224    0.432    0.247  322.710   63.384
  249.000   22.036    0.433    0.243  323.236   64.294
  249.250   21.853    0.436    0.250  323.755   65.797
