~VERSION INFORMATION
 VERS.                 2.0:   CWLS LOG ASCII STANDARD -VERSION 2.0
 WRAP.                  NO:   ONE LINE PER DEPTH STEP
~WELL INFORMATION BLOCK
#MNEM.UNIT           DATA                    DESCRIPTION OF MNEMONIC
#---------    -------------------            -------------------------------
# Generated from Intellog Unique Number	CS_77_79/WELL/925
WELL.         PEX PCEJ ALGAR OV              : Well_name    - WELL
LOC .         AA/09-11-079-15W4/0            : Location     - LOCATION
UWI .         AA/09-11-079-15W4/0            : Uwi          - UNIQUE WELL ID
ENTR.         JHS                            : Entered      - ENTERED BY
SRVC.         SCHLUMBERGER                   : Scn          - SERVICE COMPANY
STRT.M        225                            : top_depth    - START DEPTH
STOP.M        455                            : bot_depth    - STOP DEPTH
STEP.M        0.25                           : increment    - STEP LENGTH
 NULL. -999.2500:NULL Value
~CURVE INFORMATION BLOCK
#MNEM UNIT       ERCB CURVE CODE    CURVE DESCRIPTION
#-----------   ------------------   ----------------------------------
DEPT.M        00 001 00 00         : DEPTH        - DEPTH
DPHI.V/V      00 890 00 00         : PHID         - DENSITY POROSITY (LIMESTONE)
NPHI.V/V      00 330 00 00         : PHIN         - NEUTRON POROSITY (LIMESTONE)
GR  .API      00 310 00 00         : GR           - GAMMA RAY
ILD .OHMM     00 120 00 00         : RESD         - DEEP RESISTIVITY (DIL)
RHOB.KG/M3    00 350 00 00         : DENS         - BULK DENSITY
~PARAMETER INFORMATION
#MNEM.UNIT           DATA             DESCRIPTION OF MNEMONIC
#---------         -----------     ------------------------------
GL  .M        633.71               : gl           - GROUND LEVEL ELEVATION
EREF.M        637.08               : kb           - ELEVATION OF DEPTH REFERENCE
DATM.M        637.08               : datum        - DATUM ELEVATION
TDD .M        454                  : tdd          - TOTAL DEPTH DRILLER
RUN .         ONE                  : Run          - RUN NUMBER
ENG .         BILL                 : Engineer     - RECORDING ENGINEER
WIT .         JIM                  : Witness      - WITNESSED BY
MUD .         GEL                  : Mud_type     - MUD TYPE
MATR.         LIMESTONE            : Logunit      - NEUTRON MATRIX
TMAX.C        20                   : BHT          - MAXIMUM RECORDED TEMPERATURE
BHTD.M        454                  : BHTDEP       - MAXIMUM RECORDED TEMPERATURE
MATR.         1                    : LOGUNIT      - NEUTRON MATRIX
RMT .C        25                   : MDTP         - TEMPERATURE OF MUD
NEUT.         1                    : NEUTRON      - NEUTRON TYPE
RESI.         0                    : RESIST       - RESISTIVITY TYPE
RMC .OHMM     0.25                 : RMC          - RESISTIVITY OF MUD CAKE
RMF .OHMM     0.25                 : RMF          - RESISTIVITY OF MUD FILTRATE
SUFT.C        15                   : SUFT         - SURFACE TEMPERATURE
~A  DEPTH     PHID     PHIN       GR     RESD     DENS
  225.000    0.263    0.472   93.982    3.678    0.000
  225.250    0.259    0.481   98.975    3.611    0.000
  225.500    0.269    0.481   95.878    3.544    0.000
  225.750    0.274    0.500   99.004    3.414    0.000
  226.000    0.249    0.526   92.173    3.289    0.000
  226.250    0.250    0.506   92.811    3.229    0.000
  226.500    0.264    0.484   92.828    3.170    0.000
  226.750    0.252    0.479   95.332    3.171    0.000
  227.000    0.244    0.473  100.325    3.232    0.000
  227.250    0.234    0.475   98.473    3.358    0.000
  227.500    0.240    0.479   96.621    3.488    0.000
  227.750    0.221    0.500   89.788    3.624    0.000
  228.000    0.207    0.491   91.049    3.765    0.000
  228.250    0.247    0.514   95.421    3.911    0.000
  228.500    0.251    0.493   99.170    3.987    0.000
  228.750    0.228    0.488   92.340    4.065    0.000
  229.000    0.211    0.474   97.332    4.144    0.000
  229.250    0.219    0.471  105.440    4.224    0.000
  229.500    0.230    0.486   99.229    4.226    0.000
  229.750    0.227    0.470   86.797    4.308    0.000
  230.000    0.209    0.487   93.034    4.310    0.000
  230.250    0.214    0.503   95.539    4.312    0.000
  230.500    0.223    0.483   92.442    4.232    0.000
  230.750    0.222    0.467   95.568    4.155    0.000
  231.000    0.228    0.483  105.542    4.003    0.000
  231.250    0.260    0.500  111.783    3.929    0.000
  231.500    0.281    0.517  103.706    3.857    0.000
  231.750    0.262    0.500  103.720    3.787    0.000
  232.000    0.263    0.491   99.378    3.934    0.000
  232.250    0.236    0.473   95.660    4.086    0.000
  232.500    0.229    0.465   91.939    4.245    0.000
  232.750    0.232    0.478  101.290    4.247    0.000
  233.000    0.223    0.477   95.703    4.169    0.000
  233.250    0.227    0.462  101.945    4.016    0.000
  233.500    0.242    0.461  101.957    3.942    0.000
  233.750    0.252    0.487   95.125    3.798    0.000
  234.000    0.246    0.471   92.653    3.728    0.000
  234.250    0.232    0.448   99.513    3.730    0.000
  234.500    0.230    0.443  103.262    3.731    0.000
  234.750    0.227    0.451  100.787    3.803    0.000
  235.000    0.211    0.436   91.467    3.805    0.000
  235.250    0.219    0.441   95.839    3.953    0.000
  235.500    0.256    0.428   88.383    4.185    0.000
  235.750    0.264    0.416   83.425    4.430    0.000
  236.000    0.246    0.411   88.413    5.058    0.000
  236.250    0.215    0.390   97.143    6.466    0.000
  236.500    0.139    0.362   64.792    8.268    0.000
  236.750    0.057    0.353   51.115   11.187    0.000
  237.000    0.187    0.384   63.579   14.035    0.000
  237.250    0.307    0.415   67.326   16.639    0.000
  237.500    0.324    0.402   64.230   17.617    0.000
  237.750    0.318    0.389   67.980   17.623    0.000
  238.000    0.316    0.384   64.882   17.300    0.000
  238.250    0.321    0.396   66.142   16.667    0.000
  238.500    0.319    0.417   73.003   16.056    0.000
  238.750    0.311    0.398   80.488   15.760    0.000
  239.000    0.307    0.391   83.613   15.183    0.000
  239.250    0.291    0.411   87.365   14.354    0.000
  239.500    0.290    0.403   86.135   14.089    0.000
  239.750    0.293    0.397   81.169   13.319    0.000
  240.000    0.295    0.386   83.673   12.355    0.000
  240.250    0.286    0.402   91.158   11.679    0.000
  240.500    0.272    0.418   89.305   10.834    0.000
  240.750    0.270    0.418   81.850    9.861    0.000
  241.000    0.254    0.406   75.644    8.324    0.000
  241.250    0.250    0.423   79.392    6.896    0.000
  241.500    0.244    0.447   91.859    6.276    0.000
  241.750    0.233    0.459   98.092    5.298    0.000
  242.000    0.250    0.470  107.444    4.472    0.000
  242.250    0.239    0.487  112.438    4.148    0.000
  242.500    0.267    0.467  100.626    4.560    0.000
  242.750    0.244    0.447  104.378    5.722    0.000
  243.000    0.210    0.445  100.036    7.316    0.000
  243.250    0.227    0.447   90.713    8.511    0.000
  243.500    0.283    0.434   74.548    9.357    0.000
  243.750    0.305    0.424   69.582    9.186    0.000
  244.000    0.311    0.413   70.219    8.849    0.000
  244.250    0.284    0.413   78.326    8.208    0.000
  244.500    0.266    0.424   78.966    7.760    0.000
  244.750    0.282    0.426   81.468    8.061    0.000
  245.000    0.285    0.421   88.951    8.697    0.000
  245.250    0.268    0.410   93.322    9.036    0.000
  245.500    0.253    0.398   85.869    9.211    0.000
  245.750    0.241    0.402   82.149    8.872    0.000
  246.000    0.231    0.427   85.900    8.230    0.000
  246.250    0.279    0.435   92.759    7.634    0.000
  246.500    0.255    0.421  101.487    7.217    0.000
  246.750    0.230    0.416  103.372    7.641    0.000
  247.000    0.209    0.422  104.630    9.059    0.000
  247.250    0.205    0.416   99.043   10.148    0.000
  247.500    0.234    0.406   89.722   11.369    0.000
  247.750    0.248    0.390   76.044   12.738    0.000
  248.000    0.281    0.376   69.213   13.741    0.000
  248.250    0.217    0.390   64.872   14.008    0.000
  248.500    0.144    0.386   70.493   14.013    0.000
  248.750    0.160    0.387   77.351   13.502    0.000
  249.000    0.280    0.391   86.078   13.254    0.000
  249.250    0.291    0.385   91.695   13.511    0.000
  249.500    0.274    0.382   89.222   14.036    0.000
  249.750    0.269    0.411   87.367   15.143    0.000
  250.000    0.283    0.408   93.606   16.032    0.000
  250.250    0.325    0.395   87.396   16.343    0.000
  250.500    0.328    0.395   84.305   16.349    0.000
  250.750    0.301    0.391   86.184   16.354    0.000
  251.000    0.291    0.419   84.330   15.755    0.000
  251.250    0.293    0.420   91.814   15.466    0.000
  251.500    0.287    0.409   99.296   15.471    0.000
  251.750    0.266    0.413  106.157   15.188    0.000
  252.000    0.262    0.404   96.217   15.194    0.000
  252.250    0.279    0.405   91.251   15.199    0.000
  252.500    0.294    0.397   88.775   15.497    0.000
  252.750    0.303    0.399   89.414   15.499    0.000
  253.000    0.298    0.409   86.940   15.803    0.000
  253.250    0.286    0.414   92.557   16.416    0.000
  253.500    0.278    0.408   93.815   17.053    0.000
  253.750    0.257    0.388   82.627   18.054    0.000
  254.000    0.262    0.372   67.704   19.111    0.000
  254.250    0.304    0.372   30.377   20.232    0.000
  254.500    0.313    0.357   20.433   21.829    0.000
  254.750    0.298    0.350   18.582   22.254    0.000
  255.000    0.308    0.357   13.618   22.262    0.000
  255.250    0.322    0.363   16.122   21.852    0.000
  255.500    0.322    0.357   21.117   21.451    0.000
  255.750    0.314    0.361   25.486   20.278    0.000
  256.000    0.311    0.358   29.862   19.169    0.000
  256.250    0.301    0.365   36.720   18.120    0.000
  256.500    0.273    0.378   55.408   16.809    0.000
  256.750    0.279    0.391   62.891   16.192    0.000
  257.000    0.305    0.405   66.643   15.896    0.000
  257.250    0.300    0.410   64.167   16.206    0.000
  257.500    0.294    0.413   56.711   16.210    0.000
  257.750    0.307    0.400   48.015   15.325    0.000
  258.000    0.326    0.384   55.494   13.950    0.000
  258.250    0.302    0.391   72.938   11.775    0.000
  258.500    0.307    0.412   84.156    9.392    0.000
  258.750    0.301    0.440   91.639    7.780    0.000
  259.000    0.254    0.453   94.764    6.820    0.000
  259.250    0.176    0.450  102.872    5.978    0.000
  259.500    0.140    0.449  107.865    5.340    0.000
  259.750    0.151    0.453  109.127    5.048    0.000
  260.000    0.148    0.460  113.496    5.049    0.000
  260.250    0.164    0.462  107.909    5.148    0.000
  260.500    0.188    0.467  116.639    5.348    0.000
  260.750    0.190    0.460  122.878    5.662    0.000
  261.000    0.192    0.456  130.362    5.664    0.000
  261.250    0.157    0.469  128.508    5.354    0.000
