~VERSION INFORMATION
 VERS.                 2.0:   CWLS LOG ASCII STANDARD -VERSION 2.0
 WRAP.                  NO:   ONE LINE PER DEPTH STEP
~WELL INFORMATION BLOCK
#MNEM.UNIT           DATA                    DESCRIPTION OF MNEMONIC
#---------    -------------------            -------------------------------
# Generated from Intellog Unique Number	CC_88_90/WELL/3140
WELL.         ESSO RESOURCES                 : Well_name    - WELL
LOC .         AA/06-35-089-10W4/0            : Location     - LOCATION
UWI .         AA/06-35-089-10W400            : Uwi          - UNIQUE WELL ID
ENTR.         JOETTE                         : Entered      - ENTERED BY
SRVC.         SCHLUMBERGER                   : Scn          - SERVICE COMPANY
DATE.         03/02/92                       : Date         - LOG DATE
STRT.M        20                             : top_depth    - START DEPTH
STOP.M        120                            : bot_depth    - STOP DEPTH
STEP.M        0.25                           : increment    - STEP LENGTH
 NULL. -999.2500:NULL Value
~CURVE INFORMATION BLOCK
#MNEM UNIT       ERCB CURVE CODE    CURVE DESCRIPTION
#-----------   ------------------   ----------------------------------
DEPT.M        00 001 00 00         : DEPTH        - DEPTH
GR  .API      00 310 00 00         : GR           - GAMMA RAY
CALI.MM       00 280 01 00         : CAL          - CALIPER
NPHI.V/V      00 330 00 00         : PHIN         - NEUTRON POROSITY (SANDSTONE)
DPHI.V/V      00 890 00 00         : PHID         - DENSITY POROSITY (SANDSTONE)
ILD .OHMM     00 120 00 00         : RESD         - DEEP RESISTIVITY (DIL)
~PARAMETER INFORMATION
#MNEM.UNIT           DATA             DESCRIPTION OF MNEMONIC
#---------         -----------     ------------------------------
GL  .M        367.5                : gl           - GROUND LEVEL ELEVATION
EREF.M        367.5                : kb           - ELEVATION OF DEPTH REFERENCE
DATM.M        367.5                : datum        - DATUM ELEVATION
TDD .M        129.7                : tdd          - TOTAL DEPTH DRILLER
RUN .         ONE                  : Run          - RUN NUMBER
ENG .         JO                   : Engineer     - RECORDING ENGINEER
WIT .         TIM                  : Witness      - WITNESSED BY
MUD .         GEL                  : Mud_type     - MUD TYPE
MATR.         SANDSTONE            : Logunit      - NEUTRON MATRIX
TMAX.C        6.7                  : BHT          - MAXIMUM RECORDED TEMPERATURE
BHTD.M        129.7                : BHTDEP       - MAXIMUM RECORDED TEMPERATURE
RMT .C        16                   : MDTP         - TEMPERATURE OF MUD
MUDD.KG/M     1                    : MWT          - MUD DENSITY
NEUT.         1                    : NEUTRON      - NEUTRON TYPE
RESI.         0                    : RESIST       - RESISTIVITY TYPE
RM  .OHMM     36.5                 : RM           - RESISTIVITY OF MUD
RMC .OHMM     9.3                  : RMC          - RESISTIVITY OF MUD CAKE
RMF .OHMM     10                   : RMF          - RESISTIVITY OF MUD FILTRATE
SUFT.C        4                    : SUFT         - SURFACE TEMPERATURE
~A  DEPTH       GR      CAL     PHIN     PHID     RESD
   20.000   85.425  183.634    0.504    0.336   13.589
   20.250   84.199  192.709    0.524    0.333   20.249
   20.500   87.275  199.771    0.532    0.329    3.816
   20.750   96.496  208.847    0.499    0.328   11.916
   21.000  112.478  212.903    0.537    0.317    9.316
   21.250  106.336  218.972    0.535    0.314   16.466
   21.500  105.725  226.090    0.554    0.312   12.632
   21.750  119.863  231.167    0.565    0.302    7.153
   22.000  127.241  236.243    0.614    0.293    2.825
   22.250  113.723  239.306    0.596    0.288    3.617
   22.500  111.268  243.417    0.573    0.285    3.689
   22.750  124.792  244.494    0.557    0.285    3.553
   23.000  121.108  245.599    0.589    0.274    3.358
   23.250  110.048  247.697    0.608    0.279    5.501
   23.500  109.437  252.858    0.577    0.291    5.400
   23.750  105.138  254.900    0.578    0.301    4.222
   24.000  102.683  256.997    0.543    0.314    1.098
   24.250  103.916  257.110    0.572    0.308    0.418
   24.500  112.523  254.243    0.551    0.291    0.535
   24.750  105.765  247.406    0.574    0.284    1.000
   25.000   93.477  237.561    0.590    0.288    1.165
   25.250  100.855  231.717    0.562    0.283    2.737
   25.500   95.942  228.878    0.560    0.288    3.640
   25.750  108.237  226.012    0.523    0.301    2.354
   26.000  115.614  222.153    0.538    0.300    4.321
   26.250  119.920  219.259    0.553    0.300    4.754
   26.500  127.297  212.449    0.560    0.307    5.432
   26.750  112.551  206.576    0.557    0.309    7.792
   27.000  104.565  202.717    0.472    0.273    8.903
   27.250  107.641  196.872    0.504    0.236    6.452
   27.500  118.706  191.992    0.467    0.217    4.675
   27.750  121.168  189.154    0.472    0.251   17.651
   28.000  121.171  188.245    0.481    0.258    7.520
   28.250  109.497  179.422    0.509    0.251    4.259
   28.500   90.449  174.598    0.486    0.227    4.774
   28.750   89.838  172.725    0.484    0.178    4.777
   29.000   93.528  168.865    0.383    0.120    5.888
   29.250   94.760  164.014    0.285    0.074  186.055
   29.500  108.899  162.140    0.325    0.062  287.962
   29.750  120.578  166.196    0.358    0.127  462.977
   30.000  126.727  175.243    0.402    0.224    4.788
   30.250  125.501  179.383    0.506    0.278    4.195
   30.500  106.453  178.474    0.522    0.304    2.375
   30.750   84.331  189.508    0.528    0.294    0.993
   31.000   97.856  200.569    0.532    0.301    0.289
   31.250   89.255  199.689    0.571    0.314    0.027
   31.500   91.102  198.836    0.632    0.314    0.023
   31.750   99.094  203.884    0.658    0.320    0.020
   32.000   99.712  211.939    0.615    0.329    0.019
   32.250  102.173  220.022    0.599    0.325    0.019
   32.500   96.030  223.085    0.618    0.337    0.020
   32.750  102.794  222.204    0.676    0.343    0.022
   33.000  124.307  219.338    0.645    0.327    0.031
   33.250  135.987  221.436    0.655    0.311    0.057
   33.500  129.230  224.527    0.544    0.249    0.090
   33.750  116.941  225.632    0.554    0.250    0.101
   34.000  102.195  224.779    0.560    0.270    1.461
   34.250  112.646  223.870    0.571    0.270    1.329
   34.500  114.493  221.032    0.535    0.277    1.407
   34.750  118.183  219.187    0.532    0.281    1.639
   35.000  121.874  217.285    0.562    0.248    1.735
   35.250  118.189  214.391    0.542    0.261    1.520
   35.500  115.734  209.567    0.537    0.265    2.444
   35.750  118.196  207.666    0.543    0.271    3.070
   36.000  120.043  205.792    0.532    0.266    5.031
   36.250  108.984  203.919    0.528    0.259    4.939
   36.500  100.998  202.045    0.552    0.251    3.381
   36.750  102.229  200.172    0.547    0.234    3.136
   37.000  113.295  198.326    0.510    0.222    3.137
   37.250  102.850  196.425    0.510    0.220    4.948
   37.500  101.625  193.558    0.440    0.229    5.985
   37.750  104.701  188.706    0.449    0.247    6.339
   38.000  110.849  182.890    0.462    0.238    6.463
   38.250  112.082  181.044    0.456    0.224    8.594
   38.500  105.325  181.100    0.431    0.212    5.152
   38.750  109.630  182.234    0.383    0.099    5.354
   39.000  109.633  187.282    0.435    0.163   14.363
   39.250  107.792  195.337    0.506    0.219   20.221
   39.500  108.410  203.392    0.498    0.227    8.452
   39.750   99.809  213.488    0.510    0.246    4.608
   40.000   99.812  216.579    0.507    0.264    4.439
   40.250   97.972  215.699    0.505    0.267    2.764
   40.500   83.225  219.754    0.510    0.262    2.376
   40.750   88.145  226.816    0.517    0.246    1.224
   41.000   94.909  230.956    0.523    0.255    2.005
   41.250   89.380  232.005    0.490    0.274    1.790
   41.500   91.842  234.187    0.503    0.267    1.399
   41.750  101.678  234.271    0.525    0.244    1.323
   42.000  102.296  235.348    0.542    0.227    1.455
   42.250   93.081  235.516    0.566    0.235    3.292
   42.500  105.375  235.600    0.520    0.247    3.906
   42.750  120.742  235.685    0.487    0.241    5.711
   43.000  120.131  234.860    0.482    0.238    6.165
   43.250  117.061  233.923    0.474    0.239    5.101
   43.500  120.137  233.043    0.480    0.231    4.555
   43.750  109.079  233.155    0.521    0.227    5.204
   44.000   99.249  233.295    0.539    0.227    4.646
   44.250   94.949  233.379    0.552    0.201    2.631
   44.500   98.640  233.492    0.506    0.219    2.840
   44.750   99.258  233.632    0.461    0.229    2.634
   45.000  100.490  232.723    0.478    0.231    3.185
   45.250   98.650  230.850    0.514    0.225    3.010
   45.500   91.892  226.991    0.500    0.236    3.188
   45.750   96.197  223.131    0.484    0.231    2.493
   46.000  108.492  220.265    0.526    0.239    1.772
   46.250   94.975  221.398    0.495    0.253    3.075
   46.500   95.593  223.524    0.506    0.249    3.076
   46.750  102.356  224.601    0.527    0.267    0.880
   47.000   92.526  226.727    0.556    0.284    0.208
   47.250  101.747  226.811    0.535    0.294    0.085
   47.500  100.522  226.895    0.580    0.303    0.035
   47.750   89.463  224.085    0.618    0.307    0.042
   48.000   88.852  222.156    0.646    0.280    0.052
   48.250   94.386  215.346    0.580    0.262    0.079
   48.500   98.691  213.445    0.532    0.242    0.086
   48.750   95.621  210.634    0.521    0.234    0.154
   49.000   88.864  210.719    0.552    0.230    0.550
   49.250   91.325  210.859    0.540    0.224    2.037
   49.500  118.369  211.936    0.435    0.207    2.511
   49.750  104.852  212.020    0.448    0.204    5.573
   50.000   93.178  212.160    0.476    0.218    6.740
   50.250   90.723  211.308    0.483    0.248    3.965
   50.500   89.498  210.399    0.488    0.238    3.219
   50.750  112.239  209.490    0.470    0.242    3.346
   51.000  123.919  209.631    0.483    0.242    2.769
   51.250  113.475  209.715    0.553    0.201    2.007
   51.500  114.708  209.827    0.524    0.180    2.719
   51.750  114.710  211.925    0.459    0.190    5.922
   52.000  104.266  212.093    0.514    0.228    7.162
   52.250   98.738  208.206    0.574    0.295    3.051
   52.500   97.512  207.325    0.602    0.353    0.048
   52.750  109.806  209.423    0.590    0.327    0.024
   53.000  120.258  217.478    0.565    0.310    0.013
   53.250  110.427  228.540    0.571    0.300    0.014
   53.500  107.357  218.724    0.561    0.273    0.021
   53.750  109.819  223.772    0.561    0.266    0.026
   54.000  108.593  232.820    0.578    0.282    0.026
   54.250  108.597  231.939    0.599    0.294    0.025
   54.500  116.589  230.066    0.531    0.309    0.024
   54.750  112.290  214.292    0.520    0.324    0.022
   55.000   93.241  206.462    0.495    0.299    0.021
   55.250   87.099  200.645    0.506    0.294    0.023
   55.500   82.800  203.736    0.458    0.292    0.038
   55.750   80.960  205.834    0.473    0.269    6.687
   56.000   72.974  201.947    0.446    0.222    2.184
   56.250   64.987  196.102    0.502    0.147    1.309
