~VERSION INFORMATION
 VERS.                 2.0:   CWLS LOG ASCII STANDARD -VERSION 2.0
 WRAP.                  NO:   ONE LINE PER DEPTH STEP
~WELL INFORMATION BLOCK
#MNEM.UNIT           DATA                    DESCRIPTION OF MNEMONIC
#---------    -------------------            -------------------------------
# Generated from Intellog Unique Number	CX_WELLS/WELL/3847
WELL.         HORSE CREEK                    : Well_name    - WELL
LOC .         AA/05-14-087-10W4/0            : Location     - LOCATION
UWI .         AA/05-14-087-10W400            : Uwi          - UNIQUE WELL ID
ENTR.         T                              : Entered      - ENTERED BY
SRVC.         SCHLUMBERGER                   : Scn          - SERVICE COMPANY
STRT.F        50                             : top_depth    - START DEPTH
STOP.F        579.856                        : bot_depth    - STOP DEPTH
STEP.F        0.8202                         : increment    - STEP LENGTH
 NULL. -999.2500:NULL Value
~CURVE INFORMATION BLOCK
#MNEM UNIT       ERCB CURVE CODE    CURVE DESCRIPTION
#-----------   ------------------   ----------------------------------
DEPT.F        00 001 00 00         : DEPTH        - DEPTH
GR  .API      00 310 00 00         : GR           - GAMMA RAY
NPHI.V/V      00 330 00 00         : PHIN         - NEUTRON POROSITY (SANDSTONE)
ILD .OHMM     00 120 00 00         : RESD         - DEEP RESISTIVITY (DIL)
~PARAMETER INFORMATION
#MNEM.UNIT           DATA             DESCRIPTION OF MNEMONIC
#---------         -----------     ------------------------------
GL  .F        1390                 : gl           - GROUND LEVEL ELEVATION
EREF.F        1398                 : kb           - ELEVATION OF DEPTH REFERENCE
DATM.F        1398                 : datum        - DATUM ELEVATION
TDD .F        583                  : tdd          - TOTAL DEPTH DRILLER
RUN .         ONE                  : Run          - RUN NUMBER
ENG .         BILL                 : Engineer     - RECORDING ENGINEER
WIT .         JIM                  : Witness      - WITNESSED BY
MUD .         GEL                  : Mud_type     - MUD TYPE
MATR.         SANDSTONE            : Logunit      - NEUTRON MATRIX
TMAX.F        52                   : BHT          - MAXIMUM RECORDED TEMPERATURE
BHTD.F        583                  : BHTDEP       - MAXIMUM RECORDED TEMPERATURE
MATR.         1                    : LOGUNIT      - NEUTRON MATRIX
RMT .F        52                   : MDTP         - TEMPERATURE OF MUD
NEUT.         1                    : NEUTRON      - NEUTRON TYPE
RESI.         8                    : RESIST       - RESISTIVITY TYPE
RMC .OHMM     8                    : RMC          - RESISTIVITY OF MUD CAKE
RMF .OHMM     8                    : RMF          - RESISTIVITY OF MUD FILTRATE
SUFT.F        32                   : SUFT         - SURFACE TEMPERATURE
~A  DEPTH       GR     PHIN     RESD
# ...
  227.986   72.664    0.301    9.181
  228.806   83.925    0.319    9.202
  229.626   91.764    0.337    7.969
  230.446   91.811    0.348    7.089
  231.266   90.894    0.357    5.867
  232.087   91.914    0.363    5.698
  232.907   95.857    0.358    5.550
  233.727   97.852    0.363    5.566
  234.547   99.846    0.370    5.581
  235.367  101.841    0.379    5.612
  236.188  103.870    0.380    5.627
  237.008  104.380    0.366    5.648
  237.828  104.426    0.359    5.674
  238.648  104.959    0.343    5.868
  239.469  102.570    0.332    6.063
  240.289   94.823    0.324    6.805
  241.109   84.142    0.330    7.005
  241.929   90.531    0.338    7.215
  242.749   95.448    0.261    7.046
  243.570   83.318    0.234    7.072
  244.390   63.869    0.248    7.803
  245.210   59.056    0.267    9.794
  246.030   63.961    0.286   11.068
  246.850   94.218    0.299    9.298
  247.671  104.504    0.293    7.349
  248.491   97.244    0.287    8.096
  249.311   90.959    0.287    8.643
  250.131   87.108    0.288    8.848
  250.951   86.679    0.292    8.864
  251.772   85.751    0.296    8.884
  252.592   83.849    0.296    8.910
  253.412   83.895    0.300    8.568
  254.232   83.929    0.308    8.051
  255.052   83.975    0.319    7.714
  255.873   82.073    0.326    7.560
  256.693   80.171    0.333    7.581
  257.513   85.575    0.342    7.776
  258.333   89.530    0.350    7.622
  259.154   92.498    0.328    7.285
  259.974   87.674    0.328    6.763
  260.794   81.886    0.342    6.252
  261.614   91.674    0.355    6.278
  262.434   93.170    0.363    6.467
  263.255   87.870    0.357    6.846
  264.075   88.403    0.351    6.698
  264.895   90.397    0.349    6.355
  265.715   90.444    0.355    6.197
  266.535   91.963    0.364    6.033
  267.356   92.983    0.365    6.054
  268.176   94.978    0.356    6.253
  268.996   97.459    0.356    6.458
  269.816   98.479    0.355    6.479
  270.636   99.500    0.355    6.500
  271.457  100.033    0.354    6.167
  272.277  100.566    0.354    5.999
  273.097  100.125    0.353    5.845
  273.917   98.223    0.351    6.224
  274.738   93.885    0.347    6.608
  275.558   90.522    0.342    6.629
  276.378   84.723    0.345    6.470
  277.198   80.386    0.350    6.486
  278.018   76.037    0.348    6.691
  278.839   73.160    0.329    6.890
  279.659   74.204    0.331    7.264
  280.479   75.711    0.339    7.474
  281.299   77.706    0.342    7.484
  282.119   79.689    0.344    7.326
  282.940   80.222    0.343    7.167
  283.760   83.689    0.340    6.830
  284.580   89.580    0.339    6.671
  285.400   89.626    0.342    6.513
  286.220   89.684    0.349    6.539
  287.041   89.719    0.358    6.739
  287.861   90.751    0.362    6.754
  288.681   92.745    0.367    6.775
  289.501   95.227    0.369    6.616
  290.322   99.668    0.373    6.463
  291.142  103.112    0.366    6.484
  291.962  107.554    0.370    6.499
  292.782  104.202    0.376    6.704
  293.602  101.813    0.380    6.725
  294.423  103.332    0.385    6.750
  295.243  104.329    0.384    6.592
  296.063  105.836    0.384    6.602
  296.883  104.908    0.380    6.449
  297.703  104.954    0.359    6.296
  298.524  105.975    0.356    6.485
  299.344  102.611    0.357    6.506
  300.164   96.824    0.363    6.527
  300.984  103.689    0.364    6.557
  301.804  104.721    0.365    6.578
  302.625  103.306    0.369    6.594
  303.445  104.326    0.353    6.619
  304.265  104.860    0.343    6.640
  305.085  104.906    0.342    6.476
  305.906  105.428    0.348    6.502
  306.726  106.471    0.355    6.523
  307.546  105.543    0.362    6.717
  308.366  107.537    0.370    6.917
  309.186  110.019    0.364    7.475
  310.007  111.039    0.354    7.680
  310.827  111.086    0.342    7.347
  311.647  109.670    0.340    7.179
  312.467  107.270    0.340    6.841
  313.287  104.892    0.347    7.578
  314.108  107.362    0.355    8.315
  314.928  107.420    0.355    8.694
  315.748  107.489    0.348    8.540
  316.568  107.025    0.337    8.377
  317.388  106.584    0.334    8.039
  318.209  105.656    0.339    7.702
  319.029  105.702    0.355    7.191
  319.849  106.723    0.362    6.858
  320.669  107.267    0.372    6.874
  321.490  109.273    0.370    6.900
  322.310  111.256    0.361    7.094
  323.130  112.277    0.351    7.294
  323.950  100.146    0.347    7.509
  324.770   95.797    0.344    7.525
  325.591   96.817    0.342    7.540
  326.411  100.783    0.343    7.740
  327.231   99.855    0.348    8.118
  328.051   99.889    0.352    8.850
  328.871   98.486    0.333    8.871
  329.692   97.071    0.323    8.723
  330.512   93.209    0.311    8.554
  331.332   87.909    0.310    8.759
  332.152   88.442    0.315    9.675
  332.972   89.462    0.322   10.406
  333.793   93.881    0.327   10.790
  334.613   99.296    0.344   11.348
  335.433  103.251    0.345   11.190
  336.253  106.208    0.351   10.673
  337.073  109.176    0.357    9.799
  337.894  107.761    0.357    9.098
  338.714  107.332    0.353    8.581
  339.534  105.928    0.349    8.065
  340.354  104.026    0.344    7.553
  341.175  102.611    0.339    7.748
  341.995  100.210    0.346    7.958
  342.815   96.360    0.360    7.968
  343.635   95.919    0.371    8.347
  344.455   96.951    0.377    9.089
  345.276   97.484    0.380    9.289
  346.096   99.467    0.382    8.772
  346.916  103.897    0.378    8.435
  347.736  107.851    0.368    7.923
  348.556  108.872    0.363    7.576
  349.377  109.405    0.362    7.069
  350.197  110.425    0.361    7.080
  351.017  110.483    0.356    7.100
  351.837  108.082    0.352    7.121
  352.657  100.335    0.349    7.326
  353.478   95.023    0.350    7.531
  354.298   95.069    0.356    7.725
  355.118   96.600    0.362    7.751
  355.938   97.122    0.364    7.956
  356.759   97.643    0.362    8.151
  357.579   97.713    0.357    8.171
  358.399   97.260    0.352    8.187
  359.219   96.819    0.346    8.218
  360.039   88.585    0.343    8.049
  360.860   91.055    0.341    7.890
  361.680   93.061    0.339    8.269
  362.500   93.107    0.346   10.259
  363.320   94.626    0.352   12.439
  364.140   95.647    0.359   11.564
  364.961   95.206    0.368   10.679
  365.781   92.816    0.383    9.447
  366.601   89.928    0.391    9.288
  367.421   85.591    0.400    9.667
  368.241   81.253    0.378    8.798
  369.062   77.890    0.373    8.281
  369.882   77.449    0.371    8.302
  370.702   77.982    0.369    7.606
  371.522   78.516    0.369    6.547
  372.343   78.562    0.369    6.036
  373.163   78.619    0.367    6.594
  373.983   78.190    0.363    6.967
  374.803   77.749    0.360    7.704
  375.623   76.323    0.355    7.909
  376.444   74.919    0.349    7.756
  377.264   76.913    0.342    7.587
  378.084   78.896    0.340    7.608
  378.904   83.813    0.336    7.634
  379.724   88.742    0.334    7.659
  380.545   84.891    0.341    8.038
  381.365   90.782    0.356    8.780
  382.185   96.187    0.372    8.969
  383.005  100.628    0.379    9.348
  383.825  100.210    0.383   11.159
  384.646   99.758    0.374   14.229
  385.466   98.818    0.373    9.952
  386.286   97.890    0.373    8.715
  387.106   98.910    0.372    7.303
  387.927   98.957    0.374    6.965
  388.747   99.014    0.375    6.817
  389.567   99.061    0.375    6.828
  390.387   99.605    0.376    6.853
  391.207   99.663    0.376    6.869
  392.028   99.686    0.373    6.710
  392.848  100.231    0.372    6.736
  393.668  101.251    0.371    6.762
  394.488  101.784    0.371    6.778
  395.308  102.793    0.371    6.798
  396.129  103.326    0.370    6.814
  396.949  103.871    0.367    7.013
  397.769  106.353    0.363    7.044
  398.589  105.425    0.359    7.055
  399.409   99.626    0.356    7.260
  400.230   89.432    0.341    7.464
  401.050   80.722    0.330    7.480
  401.870   81.731    0.319    7.680
  402.690   81.302    0.316    7.874
  403.510   79.887    0.316    8.258
  404.331   79.434    0.317    9.711
  405.151   80.466    0.319   10.811
