~Version Information Block
VERS .                 2.00:  CWLS LOG ASCII STANDARD - VERSION 2.00
WRAP .                   NO:  One line per depth step
~Well Information Block
#MNEM.UNIT        Data Type   Information
#---------- ----------------  -----------
STRT .M               30.48:  START DEPTH
STOP .M              130.76:  STOP DEPTH
STEP .M                .305:  STEP
NULL .              -999.25:  NULL VALUE
COMP . UNOCAL              :  COMPANY
WELL .                     :  WELL
FLD  . BLACK DIAMOND       :  FIELD
LOC  . 03-01-092-09W4      :  LOCATION
PROV . ALBERTA             :  PROVINCE
SRVC . BPB                 :  SERVICE COMPANY
DATE . 28 JAN 89           :  LOG DATE
UWI  . AA/03-01-092-09W400 :  UNIQUE WELL ID
~Curve Information Block
#MNEM.UNIT         API CODE   Curve Description
#---------- ----------------  -----------------
DEPTH.M                    :  Transferred from LOGMATE/ESP.
DENS .KG/M3                 :  Loaded from 920717.113006
GR   .API                  :  Loaded from 920717.113006
PHIN .FRAC                 :  Loaded from 920717.113006
RESD .OHMM                 :  Loaded from 920717.113006
~Parameter Information Block
#MNEM.UNIT            Value   Description
#---------- ----------------  -----------
PROJECT.             MOS_92_9:
SET  .                  RAW:
~A        DEPTH           DENS             GR           PHIN         RESD
# ...
        64.0100      2186.7000        16.7100         0.3675       863.2
        64.3100      2164.7000        25.6700         0.3404       930.3
        64.6200      2111.8000        28.3000         0.3548       486.8
        64.9200      2085.3000        29.5000         0.2679       143.5
        65.2300      2092.5000        30.7700         0.3002       305.6
        65.5300      2121.7000        28.1500         0.3399       197.5
        65.8400      2112.0000        33.4600         0.3605       257.7
        66.1400      2143.8999        43.6200         0.4013       220.0
        66.4500      2131.1001        36.9400         0.3876       172.4
        66.7500      2143.8000        26.3800         0.3705       391.9
        67.0600      2157.5000        20.0000         0.3873       356.6
        67.3600      2142.1001        25.3200         0.3628       521.7
        67.6700      2133.3999        25.3800         0.3554       456.9
        67.9700      2144.8999        23.0100         0.3399       556.3
        68.2800      2167.0000        21.5800         0.3109       725.7
        68.5800      2187.6001        25.5200         0.3010       829.0
        68.8800      2221.8000        27.5600         0.3010       975.0
        69.1900      2234.7000        23.5100         0.2990      1169.9
        69.4900      2220.3000        21.0100         0.3136      1204.7
        69.8000      2193.8999        21.7300         0.3174      1153.5
        70.1000      2168.8000        31.4100         0.3599       717.5
        70.4100      2207.3000        40.1300         0.4011       113.5
        70.7100      2209.5000        35.8300         0.3650       337.9
        71.0200      2148.5000        28.5600         0.3673       898.1
        71.3200      2139.3999        24.4500         0.3582       839.8
        71.6300      2165.0000        25.2300         0.3777       847.7
        71.9300      2155.8999        30.4400         0.3692       782.6
        72.2400      2132.8999        25.6700         0.3636       792.8
        72.5400      2193.6001        23.2200         0.3569       881.2
        72.8500      2208.8000        25.9100         0.3284       936.0
        73.1500      2183.0000        22.9400         0.3176       868.9
        73.4600      2199.1001        31.3000         0.3667       177.1
        73.7600      2289.0000        45.3900         0.3704        93.2
        74.0700      2247.3999        61.4600         0.3303        67.1
        74.3700      2203.8000        60.3300         0.3210       519.6
        74.6800      2179.8000        44.5100         0.3427       195.9
        74.9800      2156.3000        29.4800         0.3877       271.9
        75.2900      2157.7000        30.9800         0.3689       821.0
        75.5900      2139.3000        34.0900         0.3552       797.6
        75.9000      2165.3000        55.2300         0.3636        66.7
        76.2000      2229.6001        61.0900         0.4068        80.5
        76.5000      2206.3999        60.8500         0.3950       119.3
        76.8100      2192.2000        41.4600         0.4062       171.8
        77.1100      2219.0000        48.7400         0.3992        77.4
        77.4200      2187.1001        70.9000         0.4267        31.9
        77.7200      2213.5000        76.8200         0.4120        53.6
        78.0300      2218.8999        86.9700         0.4230        42.6
        78.3300      2216.7000        78.5000         0.4288        54.8
        78.6400      2202.7000        57.0800         0.3796        54.8
        78.9400      2250.7000        41.2600         0.3884        79.9
        79.2500      2160.5000        25.4500         0.3704       314.9
        79.5500      2107.8000        24.8000         0.3704       868.2
        79.8600      2150.7000        20.4500         0.4089       845.0
        80.1600      2106.8999        24.2800         0.4149       889.3
        80.4700      2129.8999        30.4900         0.4303       700.8
        80.7700      2097.3999        30.0200         0.4514       286.8
        81.0800      2078.6001        23.7600         0.4611       239.6
        81.3800      2058.7000        21.2600         0.4143       666.5
        81.6900      2124.3000        23.8300         0.4272       632.3
        81.9900      2094.3999        28.2000         0.4590       330.9
        82.3000      2078.8000        26.6600         0.4120       666.9
        82.6000      2092.5000        24.9900         0.4290       622.5
        82.9100      2106.8000        32.2800         0.4340       143.1
        83.2100      2130.0000        36.8200         0.3782       204.4
        83.5200      2056.3000        17.7800         0.4129       178.4
        83.8200      2111.3000        19.8800         0.3902       331.3
        84.1200      2097.7000        25.2600         0.4063       449.1
        84.4300      2083.2000        22.6300         0.3950       524.3
        84.7300      2095.5000        22.7600         0.4293       495.7
        85.0400      2075.3000        27.3100         0.4351       339.5
        85.3400      2085.3000        25.7600         0.4050       599.2
        85.6500      2082.8999        33.4100         0.4882       193.6
        85.9500      2038.6000        33.4100         0.4946        73.8
        86.2600      2049.5000        35.3300         0.4490       110.3
        86.5600      2075.1001        34.5100         0.4253       300.3
        86.8700      2092.8000        41.5500         0.3948       436.3
        87.1700      2110.1001        52.7200         0.4151       651.2
        87.4800      2111.5000        49.7400         0.3741       764.5
        87.7800      2117.1001        54.4600         0.3883       352.2
        88.0900      2131.0000        32.1400         0.3880       403.0
        88.3900      2117.3999        25.0000         0.3938       712.6
        88.7000      2097.3999        24.9400         0.3844       707.6
        89.0000      2108.1001        27.0900         0.4028       243.2
        89.3100      2125.8000        33.6600         0.3715        89.7
        89.6100      2123.1001        28.9600         0.3836       322.0
        89.9200      2132.8000        24.4200         0.3971       687.9
        90.2200      2141.2000        28.1400         0.4004       448.6
        90.5300      2117.0000        27.5500         0.4115       384.4
        90.8300      2096.8000        32.9800         0.4109       133.0
        91.1400      2087.6001        28.9900         0.4144       253.9
        91.4400      2097.3000        25.6500         0.4029       539.6
        91.7400      2116.3999        23.9300         0.3865       584.7
        92.0500      2122.7000        21.0100         0.3670       638.2
        92.3500      2141.0000        24.7700         0.3941       902.1
        92.6600      2096.3999        17.4400         0.4072       669.5
        92.9600      2095.8999        23.0500         0.4198       502.3
        93.2700      2092.0000        18.1700         0.4101       943.0
        93.5700      2063.8000        23.6100         0.3945       756.8
        93.8800      2120.3999        38.8400         0.4344       133.8
        94.1800      2095.0000        40.6900         0.3914       286.5
        94.4900      2088.5000        29.5900         0.4232       546.7
        94.7900      2086.0000        26.4400         0.4158       636.0
        95.1000      2085.0000        20.8400         0.3748       857.4
        95.4000      2128.8999        20.7800         0.3877       812.1
        95.7100      2113.8999        30.3400         0.3881       614.8
        96.0100      2133.8999        35.9600         0.4123       427.3
        96.3200      2124.3000        29.3300         0.4430       210.5
        96.6200      2079.8999        24.2700         0.4179       815.7
        96.9300      2073.0000        30.8400         0.4113       779.6
        97.2300      2086.8999        27.7400         0.4087       798.5
