~VERSION INFORMATION
 VERS.                 2.0:   CWLS LOG ASCII STANDARD -VERSION 2.0
 WRAP.                  NO:   ONE LINE PER DEPTH STEP
~WELL INFORMATION BLOCK
#MNEM.UNIT           DATA                    DESCRIPTION OF MNEMONIC
#---------    -------------------            -------------------------------
# Generated from Intellog Unique Number	CN_91_93/WELL/2951
WELL.         01-24-092-12W4                 : Well_name    - WELL
LOC .         AA/01-24-092-12W4/0            : Location     - LOCATION
UWI .         AA/01-24-092-12W400            : Uwi          - UNIQUE WELL ID
ENTR.         JOETTE                         : Entered      - ENTERED BY
SRVC.         SCHLUMBERGER                   : Scn          - SERVICE COMPANY
DATE.         03/31/92                       : Date         - LOG DATE
STRT.F        0                              : top_depth    - START DEPTH
STOP.F        379.757                        : bot_depth    - STOP DEPTH
STEP.F        0.82021                        : increment    - STEP LENGTH
 NULL. -999.2500:NULL Value
~CURVE INFORMATION BLOCK
#MNEM UNIT       ERCB CURVE CODE    CURVE DESCRIPTION
#-----------   ------------------   ----------------------------------
DEPT.F        00 001 00 00         : DEPTH        - DEPTH
CALI.IN       00 280 01 00         : CAL          - CALIPER
GR  .API      00 310 00 00         : GR           - GAMMA RAY
NPHI.V/V      00 330 00 00         : PHIN         - NEUTRON POROSITY (SANDSTONE)
DPHI.V/V      00 890 00 00         : PHID         - DENSITY POROSITY (SANDSTONE)
ILD .OHMM     00 120 00 00         : RESD         - DEEP RESISTIVITY (DIL)
~PARAMETER INFORMATION
#MNEM.UNIT           DATA             DESCRIPTION OF MNEMONIC
#---------         -----------     ------------------------------
GL  .M        370.881              : gl           - GROUND LEVEL ELEVATION
EREF.M        370.881              : kb           - ELEVATION OF DEPTH REFERENCE
DATM.M        370.881              : datum        - DATUM ELEVATION
TDD .M        120.396              : tdd          - TOTAL DEPTH DRILLER
RUN .         ONE                  : Run          - RUN NUMBER
ENG .         BILL                 : Engineer     - RECORDING ENGINEER
WIT .         JIM                  : Witness      - WITNESSED BY
MUD .         GEL                  : Mud_type     - MUD TYPE
MATR.         SANDSTONE            : Logunit      - NEUTRON MATRIX
TMAX.F        55                   : BHT          - MAXIMUM RECORDED TEMPERATURE
BHTD.F        395                  : BHTDEP       - MAXIMUM RECORDED TEMPERATURE
RMT .F        55                   : MDTP         - TEMPERATURE OF MUD
MUDD.LB/G     1.1                  : MWT          - MUD DENSITY
NEUT.         1                    : NEUTRON      - NEUTRON TYPE
RESI.         0                    : RESIST       - RESISTIVITY TYPE
RM  .OHMM     6.49                 : RM           - RESISTIVITY OF MUD
RMC .OHMM     6.49                 : RMC          - RESISTIVITY OF MUD CAKE
RMF .OHMM     6.49                 : RMF          - RESISTIVITY OF MUD FILTRATE
SUFT.F        4                    : SUFT         - SURFACE TEMPERATURE
~A  DEPTH      CAL       GR     PHIN     PHID     RESD
# ...
  119.751    5.999   87.523    0.460    0.271   10.115
  120.571    5.970   87.580    0.477    0.253   10.975
  121.391    5.957   88.822    0.481    0.242   17.178
  122.211    5.960   87.984    0.470    0.227   12.249
  123.031    5.962   90.695    0.465    0.233   14.029
  123.852    5.965   86.596    0.452    0.277   15.633
  124.672    5.968   86.363    0.450    0.274   14.447
  125.492    5.971   88.778    0.458    0.282   13.466
  126.312    5.990   93.281    0.438    0.255   10.882
  127.133    5.990   98.081    0.443    0.242    9.967
  127.953    5.996   93.987    0.467    0.246   10.069
  128.773    5.998   91.667    0.454    0.223   17.856
  129.593    6.048   91.723    0.422    0.195   16.352
  130.413    6.067   94.435    0.409    0.173    9.842
  131.234    6.054   99.531    0.463    0.239    7.540
  132.054    6.057  102.848    0.489    0.269    8.328
  132.874    6.076  103.788    0.484    0.284    8.341
  133.694    6.078  100.578    0.473    0.274    7.916
  134.514    6.082   97.671    0.465    0.284    7.120
  135.335    6.082   98.913    0.468    0.275    6.016
  136.155    6.072   99.563    0.487    0.259    5.611
  136.975    6.058   99.026    0.516    0.293    5.470
  137.795    6.077   97.582    0.538    0.296    5.237
  138.615    6.111   99.714    0.558    0.297    4.586
  139.436    6.146  102.735    0.572    0.293    4.276
  140.256    6.212  101.902    0.574    0.297    4.681
  141.076    6.262   98.389    0.570    0.281    4.403
  141.896    6.265   95.186    0.568    0.257    8.166
  142.717    6.205   93.457    0.534    0.247   10.594
  143.537    6.128   94.694    0.499    0.216    9.530
  144.357    6.115   99.790    0.488    0.172    7.565
  145.177    6.149   99.253    0.515    0.209    7.711
  145.997    6.184   98.717    0.530    0.245    7.320
  146.818    6.202   99.651    0.527    0.243    8.158
  147.638    6.174  101.486    0.486    0.250   11.367
  148.458    6.113   99.758    0.474    0.243   13.368
  149.278    6.116   94.775    0.481    0.263   11.097
  150.098    6.182   96.901    0.474    0.271    9.461
  150.919    6.233   99.329    0.472    0.261    8.587
  151.739    6.204  100.559    0.448    0.259    9.832
  152.559    6.175  105.068    0.435    0.253   12.645
  153.379    6.130  105.718    0.422    0.247   12.772
  154.199    6.101  104.280    0.422    0.239   12.454
  155.020    6.104  105.219    0.411    0.239   13.040
  155.840    6.076  104.980    0.406    0.227   11.833
  156.660    6.063  101.183    0.416    0.214   15.769
  157.480    6.050   97.967    0.418    0.194   22.569
  158.301    6.037   93.274    0.369    0.151   14.332
  159.121    6.024   92.732    0.346    0.094   13.971
  159.941    6.026   97.538    0.408    0.169   23.694
  160.761    6.029   99.070    0.372    0.162   11.307
  161.581    6.032  102.085    0.415    0.213    9.301
  162.402    6.067  101.252    0.466    0.210    8.750
  163.222    6.164  104.866    0.464    0.222    9.326
  164.042    6.278  106.695    0.460    0.212    9.174
  164.862    6.328  110.902    0.453    0.238    8.181
  165.682    6.363  108.883    0.451    0.251    7.764
  166.503    6.350  105.371    0.473    0.226    9.981
  167.323    6.416  102.167    0.472    0.208   12.165
  168.143    6.498  103.996    0.416    0.248    9.833
  168.963    6.501  106.714    0.432    0.193   11.255
  169.783    6.440  105.295    0.447    0.235    9.684
  170.604    6.395  106.235    0.456    0.220    9.274
  171.424    6.399  107.471    0.449    0.188    9.885
  172.244    6.449  106.928    0.466    0.203    9.380
  173.064    6.483  106.386    0.476    0.197    9.477
  173.885    6.518  102.293    0.461    0.217    9.924
  174.705    6.536  104.134    0.449    0.228   10.026
  175.525    6.539  107.149    0.441    0.231    9.100
  176.345    6.526  106.916    0.450    0.226    9.030
  177.165    6.513  106.651    0.469    0.230    9.541
  177.986    6.531  107.597    0.452    0.231    8.894
  178.806    6.566  107.647    0.433    0.221    9.567
  179.626    6.569  104.141    0.441    0.208   16.224
  180.446    6.525   99.455    0.428    0.188   10.120
  181.266    6.480   94.466    0.405    0.169    8.325
  182.087    6.451   94.819    0.419    0.176    6.911
  182.907    6.485   95.456    0.500    0.233    5.486
  183.727    6.472   96.408    0.513    0.248    4.554
  184.547    6.396   98.830    0.508    0.282    4.361
  185.367    6.257  101.857    0.521    0.287    3.819
  186.188    6.243  101.012    0.553    0.273    6.086
  187.008    6.389  100.773    0.541    0.287    8.108
  187.828    6.439  102.892    0.497    0.261    9.284
  188.648    6.410  102.652    0.470    0.243    5.842
  189.469    6.476  103.894    0.454    0.246    7.249
  190.289    6.527  106.613    0.473    0.242    9.238
  191.109    6.530  102.810    0.476    0.225   13.581
  191.929    6.501   96.043    0.445    0.213   21.830
  192.749    6.440   86.910    0.426    0.196   10.892
  193.570    6.395   86.065    0.404    0.171    4.970
  194.390    6.335   88.197    0.436    0.141    3.706
  195.210    6.338   84.987    0.502    0.233    3.023
  196.030    6.530   79.998    0.563    0.294    3.369
  196.850    6.518   75.905    0.598    0.321    3.255
  197.671    6.410   76.252    0.633    0.335    3.408
  198.491    6.318   76.895    0.644    0.346    4.080
  199.311    6.384   76.655    0.621    0.314    7.108
  200.131    6.418   77.595    0.500    0.288    6.060
  200.951    6.405   82.691    0.435    0.271    4.768
  201.772    6.455   85.113    0.419    0.266    7.330
  202.592    6.522   81.606    0.436    0.257    9.341
  203.412    6.461   78.100    0.445    0.251    8.786
  204.232    6.353   74.606    0.430    0.250   15.305
  205.052    6.324   76.731    0.431    0.253    7.368
  205.873    6.391   80.338    0.422    0.216    4.357
  206.693    6.615   88.998    0.419    0.183    4.686
  207.513    6.760   92.605    0.466    0.231    3.856
  208.333    6.858   95.039    0.526    0.266    4.533
  209.154    6.512   96.269    0.531    0.281    4.499
  209.974    6.310   96.616    0.530    0.284    4.505
  210.794    6.186   98.464    0.536    0.274    4.717
  211.614    6.237  100.583    0.531    0.264    4.599
  212.434    6.271   99.442    0.495    0.271    5.217
  213.255    6.290   93.570    0.479    0.257    6.302
  214.075    6.292   89.471    0.479    0.248    5.231
  214.895    6.292   88.928    0.481    0.236    4.834
  215.715    6.283   93.734    0.499    0.251    7.564
  216.535    6.317   96.458    0.500    0.246   10.262
  217.356    6.320   95.916    0.458    0.233    4.059
  218.176    6.322   98.035    0.455    0.221    4.565
  218.996    6.325  104.909    0.511    0.282    4.824
  219.816    6.328  103.200    0.537    0.278    5.095
  220.636    6.331   99.681    0.500    0.250   11.604
  221.457    6.318   89.350    0.472    0.226   14.524
  222.277    6.305   76.951    0.410    0.203   10.359
  223.097    6.292   61.285    0.398    0.179   12.515
  223.917    6.279   45.619    0.423    0.196   23.414
  224.738    6.250   34.999    0.413    0.307   78.979
  225.558    6.190   19.629    0.378    0.331  179.861
  226.378    6.129   16.728    0.358    0.332  163.269
  227.198    6.053   18.847    0.361    0.328  180.376
  228.018    6.009   17.119    0.348    0.338   99.266
  228.839    5.980   17.472    0.372    0.325  112.643
  229.659    5.982   21.376    0.385    0.318   40.024
  230.479    5.985   25.879    0.368    0.330   31.773
  231.299    5.988   33.050    0.354    0.316   28.581
  232.119    5.975   42.302    0.363    0.303   24.373
  232.940    5.978   45.026    0.368    0.302   22.520
  233.760    5.965   50.709    0.369    0.307   16.205
  234.580    5.936   61.733    0.367    0.306   15.379
  235.400    5.939   68.904    0.369    0.282   22.610
  236.220    5.974   75.185    0.386    0.227   18.936
  237.041    6.008   77.020    0.364    0.180   12.240
  237.861    5.995   79.442    0.342    0.122   10.723
  238.681    5.997   86.613    0.383    0.222    9.907
