~VERSION INFORMATION
 VERS.                 2.0:   CWLS LOG ASCII STANDARD -VERSION 2.0
 WRAP.                  NO:   ONE LINE PER DEPTH STEP
~WELL INFORMATION BLOCK
#MNEM.UNIT           DATA                    DESCRIPTION OF MNEMONIC
#---------    -------------------            -------------------------------
# Generated from Intellog Unique Number	CC_80_83/WELL/2302
NULL.         -999.25                        : NULL_VALUE
WELL.         PEX PCEJ CHARD OV              : Well_name    - WELL              
LOC .         07-26-080-08W4                 : Location     - LOCATION          
UWI .         AA/07-26-080-08W400            : Uwi          - UNIQUE WELL ID    
ENTR.         DW                             : Entered      - ENTERED BY        
SRVC.         SCHLUMBERGER                   : Scn          - SERVICE COMPANY   
DATE.         05 feb 80                      : Date         - LOG DATE
STRT.M        220                            : top_depth    - START DEPTH       
STOP.M        450.092                        : bot_depth    - STOP DEPTH        
STEP.M        0.3                            : increment    - STEP LENGTH       
~CURVE INFORMATION BLOCK
#MNEM UNIT       ERCB CURVE CODE    CURVE DESCRIPTION
#-----------   ------------------   ----------------------------------
DEPT.M        00 001 00 00         : DEPTH        - DEPTH                       
DPHI.V/V      00 890 00 00         : PHID         - DENSITY POROSITY (LIMESTONE)
NPHI.V/V      00 330 00 00         : PHIN         - NEUTRON POROSITY (LIMESTONE)
GR  .API      00 310 00 00         : GR           - GAMMA RAY                   
ILD .OHMM     00 120 00 00         : RESD         - DEEP RESISTIVITY (DIL)      
~PARAMETER INFORMATION       
#MNEM.UNIT           DATA             DESCRIPTION OF MNEMONIC
#---------         -----------     ------------------------------
GL  .M        666.9                : gl           - GROUND LEVEL ELEVATION      
EREF.M        670.55               : kb           - ELEVATION OF DEPTH REFERENCE
DATM.M        670.55               : datum        - DATUM ELEVATION             
TDD .M        455                  : tdd          - TOTAL DEPTH DRILLER         
RUN .         ONE                  : Run          - RUN NUMBER                  
ENG .         BILL                 : Engineer     - RECORDING ENGINEER          
WIT .         JIM                  : Witness      - WITNESSED BY                
MUD .         GEL                  : Mud_type     - MUD TYPE                    
MATR.         LIMESTONE            : Logunit      - NEUTRON MATRIX              
TMAX.C        15                   : BHT          - MAXIMUM RECORDED TEMPERATURE
BHTD.M        455                  : BHTDEP       - MAXIMUM RECORDED TEMPERATURE
MATR.         1                    : LOGUNIT      - NEUTRON MATRIX              
RMT .C        25                   : MDTP         - TEMPERATURE OF MUD          
NEUT.         1                    : NEUTRON      - NEUTRON TYPE                
RESI.         0                    : RESIST       - RESISTIVITY TYPE            
RMC .OHMM     0.25                 : RMC          - RESISTIVITY OF MUD CAKE     
RMF .OHMM     0.25                 : RMF          - RESISTIVITY OF MUD FILTRATE 
SUFT.C        4                    : SUFT         - SURFACE TEMPERATURE         
~A  DEPTH     PHID     PHIN       GR     RESD
# ...
  324.398    0.248    0.390   87.490    6.003
  324.698    0.212    0.382   81.965    6.469
  324.998    0.191    0.377   83.811    6.715
  325.298    0.197    0.396   98.562    7.102
  325.598    0.219    0.418   86.892    6.469
  325.898    0.184    0.414   80.752    5.676
  326.198    0.240    0.388   87.515    4.889
  326.497    0.276    0.440   92.434    4.290
  326.797    0.250    0.451   84.451    3.626
  327.097    0.254    0.435   80.154    3.429
  327.397    0.245    0.434   89.375    3.303
  327.697    0.247    0.446   94.909    3.365
  327.997    0.256    0.458   83.853    3.429
  328.297    0.267    0.473   90.003    3.695
  328.597    0.284    0.477   80.175    3.907
  328.897    0.280    0.440   81.409    4.290
  329.197    0.270    0.463   89.400    4.798
  329.497    0.252    0.439   85.104    5.367
  329.797    0.249    0.403   85.723    5.783
  330.097    0.234    0.396   77.124    6.232
  330.397    0.201    0.384   80.201    6.715
  330.697    0.187    0.352   83.892    7.235
  330.997    0.213    0.309   86.354    7.943
  331.297    0.206    0.331   86.358    9.052
  331.597    0.188    0.362   80.833    9.223
  331.897    0.170    0.366   78.379    8.720
  332.197    0.166    0.368   82.069    8.401
  332.497    0.175    0.355   87.603    8.245
  332.797    0.182    0.334   80.234    8.401
  333.097    0.180    0.348   82.696    8.720
  333.397    0.173    0.357   82.086    9.052
  333.697    0.169    0.333   77.175    9.052
  333.997    0.169    0.335   84.552    9.397
  334.297    0.174    0.344   79.027    9.574
  334.597    0.180    0.355   77.802    9.574
  334.897    0.181    0.353   82.108    9.574
  335.197    0.176    0.331   77.196    9.754
  335.497    0.166    0.323   73.514    9.938
  335.797    0.160    0.331   72.289   10.511
  336.097    0.155    0.331   74.137   11.539
  336.397    0.143    0.305   75.369   13.907
  336.697    0.025    0.251   72.916   14.169
  336.997    0.029    0.197   58.788   12.907
  337.297    0.154    0.307   66.780   11.116
  337.597    0.169    0.356   80.917    8.885
  337.897    0.174    0.370   85.222    6.591
  338.197    0.185    0.403   80.925    5.571
  338.497    0.196    0.394   82.159    5.268
  338.797    0.236    0.400   81.548    5.268
  339.097    0.199    0.385   84.010    5.367
  339.397    0.250    0.383   82.785    5.571
  339.697    0.328    0.420   77.874    5.468
  339.997    0.253    0.408   79.721    5.367
  340.297    0.313    0.395   85.255    5.676
  340.597    0.308    0.428   79.731    5.892
  340.897    0.250    0.412   80.348    6.469
  341.197    0.254    0.393   81.581    6.970
  341.497    0.300    0.391   78.514    7.235
  341.797    0.327    0.403   77.290    7.235
  342.097    0.355    0.413   68.691    6.715
  342.397    0.336    0.431   73.611    6.116
  342.697    0.320    0.434   77.302    6.003
  342.997    0.304    0.417   80.993    5.783
  343.297    0.293    0.407   79.153    5.571
  343.597    0.276    0.408   77.929    5.170
  343.897    0.250    0.418   80.390    4.453
  344.197    0.249    0.437   92.069    3.907
  344.497    0.294    0.435  100.061    3.493
  344.797    0.297    0.424   87.776    3.493
  345.097    0.301    0.413   91.468    3.626
  345.397    0.281    0.397   98.844    4.056
  345.697    0.209    0.353  108.680    5.571
  345.997    0.204    0.346   91.480    7.235
  346.297    0.190    0.335   79.810    8.245
  346.597    0.108    0.328   83.501    9.223
  346.897    0.088    0.239   78.590   11.116
  347.197    0.029    0.204   55.860   11.539
  347.497    0.139    0.331   64.466   10.709
  347.797    0.168    0.356   74.301    9.754
  348.097    0.168    0.380   90.281    8.559
  348.397    0.159    0.381   93.357    7.102
  348.697    0.166    0.380   96.434    6.970
  348.997    0.176    0.379   92.751    7.102
  349.297    0.171    0.371   84.768    7.235
  349.597    0.183    0.380   83.543    6.970
  349.897    0.199    0.409   98.908    6.469
  350.197    0.203    0.417   93.997    5.783
  350.497    0.218    0.430   87.857    4.889
  350.797    0.242    0.467   93.391    4.133
  351.096    0.253    0.488   87.865    3.242
  351.396    0.257    0.497   82.954    2.591
  351.696    0.259    0.492   84.187    2.150
  351.996    0.257    0.504   82.963    2.033
  352.296    0.265    0.481   86.653    2.071
  352.596    0.262    0.454   84.200    2.190
  352.896    0.263    0.431   87.276    2.591
  353.196    0.261    0.419   83.594    3.009
  353.496    0.235    0.399   89.128    3.835
  353.796    0.170    0.374   96.505    4.798
  354.096    0.159    0.357   91.595    5.468
  354.396    0.161    0.359   93.441    6.349
  354.696    0.176    0.343   92.831    6.970
  354.996    0.205    0.337   87.920    7.652
  355.296    0.212    0.336   84.852    8.401
  355.596    0.204    0.318   76.254    9.397
  355.896    0.161    0.331   70.729    9.754
  356.196    0.211    0.341   81.178    9.397
  356.496    0.218    0.355   83.026    9.052
  356.796    0.211    0.341   82.416    8.401
  357.096    0.167    0.331   81.806    8.245
  357.396    0.167    0.344   84.881    8.401
  357.696    0.172    0.355   87.958    8.720
  357.996    0.163    0.352   89.806    9.052
  358.296    0.141    0.326   94.111    8.885
  358.596    0.122    0.329   94.115    8.885
  358.896    0.158    0.332   91.047    8.401
  359.196    0.174    0.348   94.124    7.372
  359.496    0.194    0.369  100.886    6.970
  359.796    0.205    0.369   90.445    6.469
  360.096    0.199    0.370   87.992    6.116
  360.396    0.201    0.359   91.683    6.003
  360.696    0.244    0.390   92.915    6.003
  360.996    0.249    0.401   90.462    6.349
  361.296    0.158    0.352   93.538    6.970
  361.596    0.175    0.343   99.073    7.652
  361.896    0.189    0.336   86.174    8.401
  362.196    0.192    0.329   91.093    8.720
  362.496    0.196    0.333   86.797    8.720
  362.796    0.199    0.363   81.885    8.559
  363.096    0.190    0.368   84.348    8.401
  363.396    0.191    0.354   89.881    7.511
  363.696    0.268    0.372   91.115    6.591
  363.996    0.256    0.382   83.745    6.232
  364.296    0.262    0.380   80.678    6.116
  364.596    0.319    0.409   80.067    6.003
  364.896    0.317    0.430   81.301    6.116
  365.196    0.268    0.381   87.449    6.116
  365.496    0.270    0.410   84.382    5.676
  365.796    0.328    0.438   83.156    5.268
  366.096    0.341    0.408   76.402    5.075
  366.396    0.374    0.392   78.864    5.268
  366.696    0.322    0.369   77.640    5.783
  366.996    0.190    0.361   77.644    6.970
  367.296    0.190    0.361   77.647    7.511
  367.596    0.194    0.357   78.882    8.093
  367.896    0.197    0.364   83.186    7.796
  368.196    0.198    0.364   84.420    7.235
  368.496    0.206    0.360   78.894    6.116
  368.796    0.230    0.380   77.669    4.622
  369.096    0.269    0.414   75.830    4.133
  369.396    0.301    0.433   81.978    3.835
  369.696    0.286    0.410   83.211    3.907
  369.996    0.328    0.405   78.915    4.537
  370.296    0.309    0.380   78.304    4.889
  370.596    0.198    0.356   86.297    6.003
  370.896    0.189    0.338   84.457    8.093
  371.196    0.146    0.320   75.245    8.885
  371.496    0.075    0.285   61.731    9.223
  371.796    0.189    0.303   55.591    9.397
  372.096    0.191    0.350   67.885    9.223
  372.396    0.173    0.352   69.118    8.720
  372.696    0.169    0.353   64.206    8.093
  372.996    0.196    0.358   60.524    7.652
  373.296    0.207    0.354   72.817    7.372
  373.596    0.201    0.369   75.894    7.511
  373.896    0.196    0.352   77.741    7.652
  374.196    0.195    0.350   76.516    7.652
  374.496    0.193    0.348   71.605    8.093
  374.796    0.182    0.341   67.308    8.093
  375.096    0.110    0.353   64.854    6.608
  375.396    0.123    0.347   67.931    6.236
  375.695    0.199    0.380   74.079    5.994
  375.995    0.180    0.369   83.300    5.762
  376.295    0.225    0.400   80.233    5.646
