~VERSION INFORMATION
 VERS.                 2.0:   CWLS LOG ASCII STANDARD -VERSION 2.0
 WRAP.                  NO:   ONE LINE PER DEPTH STEP
~WELL INFORMATION BLOCK
#MNEM.UNIT           DATA                    DESCRIPTION OF MNEMONIC
#---------    -------------------            -------------------------------
# Generated from Intellog Unique Number	CN_94_101/WELL/2824
WELL.         06-25-096-14W4                 : Well_name    - WELL
LOC .         AA/06-25-096-14W4/0            : Location     - LOCATION
UWI .         AA/06-25-096-14W400            : Uwi          - UNIQUE WELL ID
ENTR.         JOETTE                         : Entered      - ENTERED BY
SRVC.         SCHLUMBERGER                   : Scn          - SERVICE COMPANY
DATE.         07/07/92                       : Date         - LOG DATE
STRT.M        160                            : top_depth    - START DEPTH
STOP.M        280                            : bot_depth    - STOP DEPTH
STEP.M        0.25                           : increment    - STEP LENGTH
 NULL. -999.2500:NULL Value
~CURVE INFORMATION BLOCK
#MNEM UNIT       ERCB CURVE CODE    CURVE DESCRIPTION
#-----------   ------------------   ----------------------------------
DEPT.M        00 001 00 00         : DEPTH        - DEPTH
CALI.MM       00 280 01 00         : CAL          - CALIPER
GR  .API      00 310 00 00         : GR           - GAMMA RAY
NPHI.V/V      00 330 00 00         : PHIN         - NEUTRON POROSITY (SANDSTONE)
DPHI.V/V      00 890 00 00         : PHID         - DENSITY POROSITY (SANDSTONE)
ILD .OHMM     00 120 00 00         : RESD         - DEEP RESISTIVITY (DIL)
~PARAMETER INFORMATION
#MNEM.UNIT           DATA             DESCRIPTION OF MNEMONIC
#---------         -----------     ------------------------------
GL  .M        524.9                : gl           - GROUND LEVEL ELEVATION
EREF.M        527.9                : kb           - ELEVATION OF DEPTH REFERENCE
DATM.M        527.9                : datum        - DATUM ELEVATION
TDD .M        287                  : tdd          - TOTAL DEPTH DRILLER
RUN .         ONE                  : Run          - RUN NUMBER
ENG .         JO                   : Engineer     - RECORDING ENGINEER
WIT .         TIM                  : Witness      - WITNESSED BY
MUD .         GEL                  : Mud_type     - MUD TYPE
MATR.         SANDSTONE            : Logunit      - NEUTRON MATRIX
TMAX.C        30                   : BHT          - MAXIMUM RECORDED TEMPERATURE
BHTD.M        287                  : BHTDEP       - MAXIMUM RECORDED TEMPERATURE
RMT .C        10                   : MDTP         - TEMPERATURE OF MUD
MUDD.KG/M     1115                 : MWT          - MUD DENSITY
NEUT.         1                    : NEUTRON      - NEUTRON TYPE
RESI.         0                    : RESIST       - RESISTIVITY TYPE
RM  .OHMM     0.979                : RM           - RESISTIVITY OF MUD
RMC .OHMM     0.979                : RMC          - RESISTIVITY OF MUD CAKE
RMF .OHMM     0.979                : RMF          - RESISTIVITY OF MUD FILTRATE
SUFT.C        4                    : SUFT         - SURFACE TEMPERATURE
~A  DEPTH      CAL       GR     PHIN     PHID     RESD
  160.000  178.613   48.839    0.400    0.366   30.539
  160.250  178.814   53.322    0.406    0.347   29.531
  160.500  184.262   60.872    0.458    0.337   16.774
  160.750  189.609   77.087    0.516    0.307   10.063
  161.000  200.168  102.584    0.552    0.272    6.500
  161.250  209.698  100.872    0.526    0.257    5.840
  161.500  214.050   97.926    0.511    0.264    5.865
  161.750  215.347  103.007    0.516    0.256    6.110
  162.000  218.703  101.913    0.535    0.256    6.129
  162.250  220.929  105.779    0.560    0.259    6.272
  162.500  225.348  107.792    0.567    0.263    6.180
  162.750  228.704  104.229    0.541    0.254    5.874
  163.000  229.901  100.027    0.513    0.257    5.892
  163.250  231.198   97.719    0.521    0.243    6.245
  163.500  231.467  103.437    0.531    0.262    5.827
  163.750  231.702   98.638    0.494    0.257    5.336
  164.000  232.933  101.229    0.492    0.260    5.258
  164.250  233.201   99.518    0.527    0.263    5.277
  164.500  232.374   97.827    0.558    0.271    5.296
  164.750  231.647  103.545    0.571    0.298    4.766
  165.000  229.790  105.538    0.505    0.283    4.963
  165.250  228.996  104.424    0.514    0.254    5.266
  165.500  228.202  103.948    0.533    0.262    5.480
  165.750  226.446  102.257    0.553    0.272    5.302
  166.000  224.623   96.223    0.540    0.284    5.036
  166.250  223.829   93.894    0.546    0.268    4.875
  166.500  223.035   92.780    0.491    0.269    5.167
  166.750  223.236   91.109    0.480    0.266    5.687
  167.000  224.501   93.083    0.465    0.266    5.714
  167.250  225.765   97.586    0.489    0.278    5.422
  167.500  226.033   95.237    0.531    0.262    4.965
  167.750  226.268   97.251    0.530    0.258    4.716
  168.000  227.566   96.754    0.543    0.259    4.565
  168.250  226.739   96.278    0.546    0.268    4.182
  168.500  223.954  101.399    0.530    0.261    4.195
  168.750  220.039   97.815    0.515    0.273    6.082
  169.000  216.124   91.164    0.458    0.249    7.754
  169.250  205.039   97.500    0.485    0.256    7.227
  169.500  212.545   98.855    0.520    0.256    5.933
  169.750  211.717   96.547    0.544    0.257    5.530
  170.000  210.923   91.151    0.483    0.278    5.865
  170.250  211.158   88.782    0.468    0.266    6.822
  170.500  210.364   86.453    0.458    0.301    7.238
  170.750  207.512   87.869    0.459    0.291    6.624
  171.000  200.544   91.098    0.476    0.236    5.336
  171.250  205.958   91.856    0.477    0.202    5.163
  171.500  202.144   90.762    0.474    0.228    5.179
  171.750  200.253   94.628    0.526    0.281    4.919
  172.000  199.527   94.769    0.557    0.295    4.185
  172.250  198.699   89.951    0.569    0.272    3.561
  172.500  191.697   80.213    0.443    0.265    4.457
  172.750  190.936   72.307    0.362    0.263    7.908
  173.000  182.939   63.803    0.349    0.320   14.564
  173.250  178.029   57.770    0.319    0.345   14.351
  173.500  177.235   52.971    0.314    0.372   15.789
  173.750  176.441   48.193    0.257    0.398   27.004
  174.000  176.709   45.247    0.274    0.309   42.134
  174.250  174.853   46.005    0.311    0.295   49.914
  174.500  174.059   49.831    0.357    0.358   44.032
  174.750  176.452   52.482    0.400    0.371   35.453
  175.000  176.620   50.751    0.393    0.366   30.754
  175.250  176.855   53.361    0.380    0.353   29.182
  175.500  177.158   56.013    0.385    0.357   25.770
  175.750  177.393   57.368    0.389    0.338   20.738
  176.000  177.628   60.617    0.412    0.345   11.355
  176.250  176.800   53.946    0.396    0.346   17.395
  176.500  177.069   48.550    0.422    0.342   22.166
  176.750  177.337   51.161    0.428    0.343   27.746
  177.000  177.573   51.899    0.435    0.338   28.364
  177.250  177.808   53.913    0.425    0.334   23.692
  177.500  178.043   57.778    0.399    0.306   18.730
  177.750  178.278   62.859    0.404    0.318   16.837
  178.000  178.513   65.470    0.433    0.333   14.590
  178.250  178.748   67.463    0.452    0.319   11.324
  178.500  178.983   56.510    0.425    0.310   13.164
  178.750  179.252   51.712    0.429    0.336   27.067
  179.000  179.453   45.061    0.400    0.349   30.893
  179.250  179.688   40.880    0.399    0.355   33.369
  179.500  179.957   42.853    0.397    0.330   28.916
  179.750  180.225   47.954    0.393    0.335   23.295
  180.000  180.494   52.417    0.395    0.341   21.318
  180.250  180.662   55.048    0.409    0.342   26.212
  180.500  180.931   49.652    0.414    0.337   21.884
  180.750  181.166   48.558    0.429    0.350   20.419
  181.000  180.439   49.276    0.415    0.342   20.505
  181.250  180.607   55.652    0.401    0.314   20.580
  181.500  180.842   56.988    0.452    0.346   21.428
  181.750  181.110   53.445    0.411    0.368   22.737
  182.000  180.316   51.733    0.418    0.367   23.649
  182.250  179.556   56.814    0.427    0.370   23.760
  182.500  179.791   64.982    0.402    0.349   19.121
  182.750  180.060   72.552    0.433    0.330   13.532
  183.000  180.261   77.653    0.457    0.311   10.124
  183.250  180.463   77.177    0.468    0.313    8.312
  183.500  180.698   72.398    0.469    0.332    7.887
  183.750  180.966   71.284    0.447    0.323    7.920
  184.000  181.201   75.150    0.415    0.308    9.913
  184.250  181.436   77.143    0.424    0.320   14.380
  184.500  181.671   77.284    0.420    0.332   15.812
  184.750  180.877   79.915    0.397    0.313   19.422
  185.000  181.146   83.124    0.423    0.294   20.597
  185.250  181.415   91.311    0.439    0.278   17.524
  185.500  180.621   88.983    0.458    0.265   13.853
  185.750  180.889   93.486    0.471    0.287   12.460
  186.000  181.091   92.372    0.454    0.281   12.731
  186.250  181.359   89.426    0.447    0.275   12.777
  186.500  181.594   92.077    0.465    0.291   12.831
  186.750  181.796   94.648    0.464    0.278   12.420
  187.000  184.123   94.809    0.461    0.277   12.016
  187.250  188.508   94.970    0.479    0.277   11.414
  187.500  194.951   96.366    0.476    0.288   10.644
  187.750  198.240   97.722    0.467    0.299    9.224
  188.000  201.562  100.970    0.487    0.289    7.159
  188.250  205.913  105.433    0.519    0.301    5.868
  188.500  211.327  109.876    0.567    0.308    4.725
  188.750  219.862  110.038    0.555    0.287    4.252
  189.000  226.238  108.944    0.558    0.283    4.509
  189.250  231.685  106.615    0.535    0.249    4.961
  189.500  232.882  101.199    0.524    0.257    5.165
  189.750  235.209  101.978    0.535    0.279    5.283
  190.000  235.411   98.394    0.528    0.288    5.109
  190.250  232.592   96.065    0.515    0.282    4.680
  190.500  226.619   95.629    0.554    0.306    4.870
  190.750  219.651   95.730    0.558    0.304    5.261
  191.000  212.682   95.891    0.570    0.312    5.002
  191.250  204.685   92.945    0.559    0.325    4.332
  191.500  194.663   86.314    0.535    0.318    3.756
  191.750  186.632   80.240    0.453    0.304    6.077
  192.000  180.726   66.180    0.435    0.321   10.782
  192.250  180.927   54.570    0.414    0.256   18.441
  192.500  180.133   56.583    0.406    0.256   23.083
  192.750  180.469   59.831    0.442    0.345   24.480
  193.000  178.579   66.764    0.444    0.340   22.006
  193.250  176.789   71.865    0.455    0.330   13.695
  193.500  176.991   71.369    0.446    0.332   12.088
  193.750  177.259   70.275    0.465    0.348   14.592
  194.000  177.494   64.241    0.452    0.331   16.046
  194.250  178.792   70.597    0.432    0.322   15.257
  194.500  178.994   68.866    0.444    0.335   15.321
  194.750  179.262   61.597    0.438    0.356   17.468
  195.000  179.464   64.826    0.426    0.352   19.228
  195.250  179.799   68.712    0.459    0.330   16.351
  195.500  178.938   69.470    0.456    0.336   12.017
  195.750  179.241   70.846    0.478    0.339    9.855
  196.000  179.408   72.202    0.459    0.310    8.544
  196.250  179.644   77.323    0.478    0.299    8.730
