~VERSION INFORMATION
 VERS.                 2.0:   CWLS LOG ASCII STANDARD -VERSION 2.0
 WRAP.                  NO:   ONE LINE PER DEPTH STEP
~WELL INFORMATION BLOCK
#MNEM.UNIT           DATA                    DESCRIPTION OF MNEMONIC
#---------    -------------------            -------------------------------
# Generated from Intellog Unique Number	CN_91_93/WELL/3709
WELL.         IMPERIAL OIL LTD.              : Well_name    - WELL
LOC .         AA/01-28-093-15W4/0            : Location     - LOCATION
UWI .         AA/01-28-093-15W400            : Uwi          - UNIQUE WELL ID
ENTR.         JOETTE                         : Entered      - ENTERED BY
SRVC.         SCHLUMBERGER                   : Scn          - SERVICE COMPANY
DATE.         03/22/92                       : Date         - LOG DATE
STRT.F        100                            : top_depth    - START DEPTH
STOP.F        529.79                         : bot_depth    - STOP DEPTH
STEP.F        0.82                           : increment    - STEP LENGTH
 NULL. -999.2500:NULL Value
~CURVE INFORMATION BLOCK
#MNEM UNIT       ERCB CURVE CODE    CURVE DESCRIPTION
#-----------   ------------------   ----------------------------------
DEPT.F        00 001 00 00         : DEPTH        - DEPTH
GR  .API      00 310 00 00         : GR           - GAMMA RAY
NPHI.V/V      00 330 00 00         : PHIN         - NEUTRON POROSITY (SANDSTONE)
ILD .OHMM     00 120 00 00         : RESD         - DEEP RESISTIVITY (DIL)
~PARAMETER INFORMATION
#MNEM.UNIT           DATA             DESCRIPTION OF MNEMONIC
#---------         -----------     ------------------------------
GL  .F        1456.9               : gl           - GROUND LEVEL ELEVATION
EREF.F        1456.9               : kb           - ELEVATION OF DEPTH REFERENCE
DATM.F        1456.9               : datum        - DATUM ELEVATION
TDD .F        530                  : tdd          - TOTAL DEPTH DRILLER
RUN .         ONE                  : Run          - RUN NUMBER
ENG .         JO                   : Engineer     - RECORDING ENGINEER
WIT .         TIM                  : Witness      - WITNESSED BY
MUD .         GEL                  : Mud_type     - MUD TYPE
MATR.         SANDSTONE            : Logunit      - NEUTRON MATRIX
TMAX.F        42                   : BHT          - MAXIMUM RECORDED TEMPERATURE
BHTD.F        530                  : BHTDEP       - MAXIMUM RECORDED TEMPERATURE
RMT .F        44                   : MDTP         - TEMPERATURE OF MUD
MUDD.LB/G     1.01                 : MWT          - MUD DENSITY
NEUT.         1                    : NEUTRON      - NEUTRON TYPE
RESI.         0                    : RESIST       - RESISTIVITY TYPE
RM  .OHMM     11.8                 : RM           - RESISTIVITY OF MUD
RMC .OHMM     11.8                 : RMC          - RESISTIVITY OF MUD CAKE
RMF .OHMM     11.8                 : RMF          - RESISTIVITY OF MUD FILTRATE
SUFT.F        39.2                 : SUFT         - SURFACE TEMPERATURE
~A  DEPTH       GR     PHIN     RESD
# ...
  277.986   53.062    0.420   10.821
  278.806   50.209    0.412   12.921
  279.626   47.013    0.434   13.212
  280.446   45.606    0.459   13.576
  281.266   45.989    0.451   12.854
  282.087   53.214    0.436   15.894
  282.907   56.490    0.435   11.628
  283.727   55.811    0.442   10.761
  284.547   57.273    0.452    9.244
  285.367   55.507    0.439    9.825
  286.188   54.460    0.422   11.274
  287.008   53.053    0.439   10.553
  287.828   55.962    0.454   10.626
  288.648   59.239    0.472   11.424
  289.469   53.516    0.462    9.472
  290.289   46.707    0.412    8.389
  291.109   42.064    0.384    8.246
  291.929   38.867    0.408   10.418
  292.749   42.847    0.421   11.071
  293.570   56.912    0.466   13.388
  294.390   62.706    0.524   15.271
  295.210   63.098    0.522   19.180
  296.030   58.455    0.532    5.147
  296.850   62.802    0.523    5.222
  297.671   65.351    0.483    5.440
  298.491   59.989    0.442    5.659
  299.311   52.109    0.424    6.384
  300.131   48.544    0.425    7.688
  300.951   52.892    0.447   11.741
  301.772   56.895    0.471   13.407
  302.592   58.358    0.463   10.370
  303.412   62.705    0.470    9.432
  304.232   63.816    0.473    9.795
  305.052   69.985    0.470   10.014
  305.873   68.203    0.446   10.016
  306.693   63.560    0.424   10.307
  307.513   59.644    0.406   11.322
  308.333   58.597    0.405   12.337
  309.154   56.822    0.412   13.930
  309.974   54.337    0.409   14.655
  310.794   52.579    0.416   15.236
  311.614   54.760    0.429   16.396
  312.434   55.879    0.431   14.806
  313.255   55.543    0.422   14.880
  314.075   55.215    0.417   15.750
  314.895   57.773    0.412   17.488
  315.715   57.445    0.417   17.706
  316.535   57.836    0.409   16.189
  317.356   60.026    0.411   15.612
  318.176   58.260    0.415   15.035
  318.996   54.336    0.394   14.241
  319.816   56.166    0.405   14.678
  320.636   57.292    0.430   15.258
  321.457   55.878    0.394   16.056
  322.277   55.550    0.382   16.203
  323.097   53.432    0.409   16.349
  323.917   53.816    0.419   16.134
  324.738   57.084    0.424   16.497
  325.558   54.247    0.398   16.499
  326.378   52.113    0.391   15.271
  327.198   50.347    0.396   14.477
  328.018   48.581    0.353   15.998
  328.839   46.455    0.411   17.375
  329.659   50.091    0.439   18.751
  330.479   53.008    0.431   21.068
  331.299   50.514    0.324   20.274
  332.119   45.511    0.193   21.723
  332.940   40.149    0.088   22.810
  333.760   35.857    0.066   15.577
  334.580   31.214    0.131   17.460
  335.400   27.649    0.281   18.402
  336.220   38.838    0.375   21.008
  337.041   52.543    0.399   24.193
  337.861   50.777    0.320   26.944
  338.681   46.853    0.256   16.674
  339.501   42.569    0.304   17.616
  340.322   36.847    0.349   21.018
  341.142   35.441    0.375   25.867
  341.962   40.867    0.369   34.911
  342.782   41.626    0.380   32.453
  343.602   43.088    0.401   18.855
  344.423   49.961    0.417   17.844
  345.243   52.510    0.425   17.267
  346.063   51.104    0.418   15.967
  346.883   48.978    0.397   15.751
  347.703   45.054    0.334   15.826
  348.524   39.331    0.282   19.083
  349.344   34.329    0.333   24.294
  350.164   45.157    0.406   21.619
  350.984   49.864    0.442   13.518
  351.804   59.254    0.457   11.278
  352.625   61.812    0.452   10.484
  353.445   63.634    0.457   10.848
  354.265   65.823    0.473   11.138
  355.085   62.978    0.470   10.996
  355.906   58.694    0.445   10.708
  356.726   54.770    0.445   10.710
  357.546   56.249    0.448   11.652
  358.366   59.517    0.457   10.569
  359.186   61.715    0.470    9.124
  360.007   58.862    0.458    9.126
  360.827   56.376    0.466    9.851
  361.647   58.925    0.475   10.287
  362.467   65.439    0.469   11.012
  363.287   77.346    0.453   11.014
  364.108   81.693    0.451   10.654
  364.928   69.490    0.435   11.814
  365.748   60.531    0.418   11.165
  366.568   59.492    0.446   11.022
  367.388   58.805    0.449   11.313
  368.209   59.548    0.456   11.822
  369.029   71.096    0.460   12.763
  369.849   70.408    0.470   14.646
  370.669   66.844    0.471   12.406
  371.490   59.324    0.474   10.961
  372.310   54.681    0.464   11.469
  373.130   50.397    0.439   11.833
  373.950   51.508    0.452   11.400
  374.770   61.609    0.477   10.968
  375.591   68.482    0.483   12.633
  376.411   67.794    0.493   14.806
  377.231   66.028    0.503   12.420
  378.051   62.112    0.475    9.095
  378.871   67.530    0.477    8.662
  379.692   70.807    0.499    8.230
  380.512   72.996    0.485    8.087
  381.332   69.792    0.488    9.247
  382.152   68.385    0.495   10.334
  382.972   69.855    0.486    9.974
  383.793   68.089    0.465    9.470
  384.613   65.963    0.445    9.038
  385.433   62.399    0.456    8.894
  386.253   61.711    0.450    8.823
  387.073   66.426    0.452    9.839
  387.894   70.414    0.459   10.491
  388.714   72.244    0.449   11.289
  389.534   63.645    0.414   10.350
  390.354   60.800    0.399    9.701
  391.175   58.322    0.424   10.498
  391.995   60.504    0.435   11.441
  392.815   62.334    0.439   13.179
  393.635   61.654    0.427   14.845
  394.455   66.721    0.431   16.076
  395.276   79.348    0.439   15.427
  396.096  102.763    0.436   12.608
  396.916  113.592    0.430   12.610
  397.736  109.668    0.427   11.165
  398.556   96.745    0.426   10.805
  399.377   84.190    0.423   12.399
  400.197   82.432    0.416   11.966
  401.017   83.535    0.433   11.317
  401.837   83.207    0.447   10.957
  402.657   79.642    0.460   10.959
  403.478   70.684    0.471   10.743
  404.298   58.488    0.485    8.937
  405.118   55.276    0.491    7.347
  405.938   79.051    0.474    7.277
  406.759   76.925    0.439    8.147
  407.579   70.124    0.414    7.931
  408.399   56.842    0.414    7.644
  409.219   52.198    0.423    9.021
  410.039   50.440    0.418   11.121
  410.860   49.025    0.404   11.701
  411.680   45.461    0.390   13.945
  412.500   36.502    0.393   14.454
  413.320   31.859    0.385   13.587
  414.140   29.381    0.367   13.444
  414.961   32.282    0.392   15.182
  415.781   34.112    0.402   15.691
  416.601   35.942    0.409   15.982
  417.421   38.499    0.398   16.201
  418.241   37.452    0.388   16.131
  419.062   40.002    0.394   16.711
  419.882   43.630    0.406   17.003
  420.702   44.029    0.418   16.715
  421.522   44.429    0.422   16.861
  422.343   43.374    0.411   17.731
  423.163   46.283    0.403   17.950
  423.983   48.480    0.407   17.662
  424.803   51.029    0.398   18.605
  425.623   52.859    0.435   19.692
  426.444   52.532    0.457   22.443
  427.264   64.799    0.459   18.249
  428.084   71.663    0.460   15.140
  428.904   79.975    0.454   15.793
  429.724   99.083    0.443   12.612
  430.545   96.949    0.449    9.937
  431.365   90.867    0.459    8.492
  432.185   81.557    0.466    8.061
  433.005   81.588    0.471    8.496
  433.825   79.455    0.474    8.280
  434.646   71.207    0.435    7.703
  435.466   59.731    0.404    7.199
  436.286   56.886    0.379    6.768
  437.106   47.919    0.392    6.913
  437.927   30.321    0.391    8.217
  438.747   35.036    0.395    9.666
  439.567   40.103    0.421   12.344
  440.387   39.783    0.429   15.602
  441.207   39.463    0.386   15.604
  442.028   41.293    0.243   11.844
  442.848   39.887    0.301   12.207
  443.668   41.349    0.348   11.920
  444.488   42.108    0.380   10.981
  445.308   38.895    0.396   10.694
  446.129   34.260    0.351   12.649
  446.949   36.082    0.344   14.748
  447.769   36.482    0.348   22.129
  448.589   35.802    0.355   16.199
  449.409   37.632    0.377   13.669
  450.230   37.304    0.380   15.045
  451.050   35.898    0.384   15.915
  451.870   34.483    0.377   17.870
  452.690   35.234    0.352   28.796
  453.510   37.791    0.344   37.840
  454.331   39.629    0.182   44.137
  455.151   39.653    0.210   42.837
