~VERSION INFORMATION
 VERS.                 2.0:   CWLS LOG ASCII STANDARD -VERSION 2.0
 WRAP.                  NO:   ONE LINE PER DEPTH STEP
~WELL INFORMATION BLOCK
#MNEM.UNIT           DATA                    DESCRIPTION OF MNEMONIC
#---------    -------------------            -------------------------------
# Generated from Intellog Unique Number	CX_WELLS/WELL/3923
WELL.         04-08-098-12W4                 : Well_name    - WELL
LOC .         AA/04-08-098-12W4/0            : Location     - LOCATION
UWI .         AA/04-08-098-12W400            : Uwi          - UNIQUE WELL ID
ENTR.         JOETTE                         : Entered      - ENTERED BY
SRVC.         SCHLUMBERGER                   : Scn          - SERVICE COMPANY
DATE.         08/28/92                       : Date         - LOG DATE
STRT.M        75                             : top_depth    - START DEPTH
STOP.M        270                            : bot_depth    - STOP DEPTH
STEP.M        0.25                           : increment    - STEP LENGTH
 NULL. -999.2500:NULL Value
~CURVE INFORMATION BLOCK
#MNEM UNIT       ERCB CURVE CODE    CURVE DESCRIPTION
#-----------   ------------------   ----------------------------------
DEPT.M        00 001 00 00         : DEPTH        - DEPTH
GR  .API      00 310 00 00         : GR           - GAMMA RAY
NPHI.V/V      00 330 00 00         : PHIN         - NEUTRON POROSITY (SANDSTONE)
DPHI.V/V      00 890 00 00         : PHID         - DENSITY POROSITY (SANDSTONE)
ILD .OHMM     00 120 00 00         : RESD         - DEEP RESISTIVITY (DIL)
~PARAMETER INFORMATION
#MNEM.UNIT           DATA             DESCRIPTION OF MNEMONIC
#---------         -----------     ------------------------------
GL  .M        513.25               : gl           - GROUND LEVEL ELEVATION
EREF.M        516.5                : kb           - ELEVATION OF DEPTH REFERENCE
DATM.M        516.5                : datum        - DATUM ELEVATION
TDD .M        275                  : tdd          - TOTAL DEPTH DRILLER
RUN .         ONE                  : Run          - RUN NUMBER
ENG .         JO                   : Engineer     - RECORDING ENGINEER
WIT .         TIM                  : Witness      - WITNESSED BY
MUD .         GEL                  : Mud_type     - MUD TYPE
MATR.         SANDSTONE            : Logunit      - NEUTRON MATRIX
TMAX.C        17                   : BHT          - MAXIMUM RECORDED TEMPERATURE
BHTD.M        275                  : BHTDEP       - MAXIMUM RECORDED TEMPERATURE
RMT .C        17                   : MDTP         - TEMPERATURE OF MUD
MUDD.KG/M     1080                 : MWT          - MUD DENSITY
NEUT.         1                    : NEUTRON      - NEUTRON TYPE
RESI.         0                    : RESIST       - RESISTIVITY TYPE
RM  .OHMM     4.35                 : RM           - RESISTIVITY OF MUD
RMC .OHMM     3.95                 : RMC          - RESISTIVITY OF MUD CAKE
RMF .OHMM     2.85                 : RMF          - RESISTIVITY OF MUD FILTRATE
SUFT.C        4                    : SUFT         - SURFACE TEMPERATURE
~A  DEPTH       GR     PHIN     PHID     RESD
# ...
  162.000  111.019    0.542    0.298    4.413
  162.250  110.546    0.526    0.289    4.765
  162.500  107.678    0.518    0.288    5.047
  162.750  109.619    0.512    0.311    5.346
  163.000  109.153    0.507    0.305    5.771
  163.250  106.762    0.511    0.294    6.114
  163.500  103.414    0.517    0.287    6.478
  163.750  100.066    0.521    0.278    6.732
  164.000  100.569    0.518    0.262    7.549
  164.250  101.541    0.519    0.223    8.462
  164.500  102.517    0.514    0.227    9.309
  164.750  103.012    0.511    0.227   10.839
  165.000   99.668    0.503    0.217   15.540
  165.250   96.797    0.503    0.211   19.890
  165.500   93.929    0.508    0.221   25.462
  165.750   89.627    0.508    0.244   33.211
  166.000   88.681    0.503    0.254   40.161
  166.250   89.650    0.509    0.259   47.655
  166.500   91.590    0.535    0.270   54.448
  166.750   93.046    0.548    0.289   31.483
  167.000   93.542    0.541    0.299   25.109
  167.250   93.553    0.530    0.297   21.196
  167.500   95.974    0.523    0.303   19.299
  167.750   95.512    0.498    0.304   20.064
  168.000   92.648    0.504    0.292   20.459
  168.250   91.218    0.494    0.279   20.876
  168.500   89.788    0.488    0.279   20.885
  168.750   88.366    0.499    0.279   20.902
  169.000   87.420    0.503    0.274   20.527
  169.250   87.435    0.506    0.272   20.164
  169.500   87.453    0.468    0.261   19.435
  169.750   87.461    0.452    0.236   18.729
  170.000   87.956    0.441    0.238   18.393
  170.250   88.932    0.436    0.235   18.408
  170.500   90.392    0.447    0.226   23.556
  170.750   91.368    0.454    0.225   37.832
  171.000   92.344    0.463    0.231   36.458
  171.250   94.284    0.476    0.246   31.962
  171.500   97.182    0.491    0.244   36.526
  171.750   98.634    0.511    0.243   30.833
  172.000   98.649    0.524    0.241   23.230
  172.250   96.743    0.529    0.256   18.527
  172.500   92.437    0.528    0.272   15.639
  172.750   89.570    0.524    0.283   13.204
  173.000   88.147    0.534    0.287   12.486
  173.250   87.674    0.549    0.326   13.479
  173.500   89.611    0.556    0.362   15.994
  173.750   92.989    0.561    0.357   17.270
  174.000   97.812    0.564    0.322   16.327
  174.250   97.350    0.562    0.322   15.149
  174.500   94.959    0.557    0.305   13.281
  174.750   92.576    0.546    0.295   12.095
  175.000   91.153    0.537    0.294   11.012
  175.250   90.684    0.536    0.307   10.218
  175.500   91.179    0.541    0.321    9.663
  175.750   91.671    0.547    0.332    9.855
  176.000   94.572    0.547    0.327   10.052
  176.250   96.025    0.550    0.336   10.250
  176.500   98.442    0.558    0.360   11.065
  176.750   99.418    0.566    0.361   12.408
  177.000   99.436    0.568    0.355   12.186
  177.250   98.978    0.563    0.350   10.887
  177.500   98.509    0.565    0.356    9.727
  177.750   97.559    0.559    0.356    7.759
  178.000   95.172    0.550    0.332    6.800
  178.250   93.266    0.543    0.327    4.841
  178.500   88.960    0.542    0.328    3.789
  178.750   89.456    0.556    0.328    4.329
  179.000   92.353    0.570    0.323    5.337
  179.250   94.770    0.586    0.341    5.046
  179.500   96.703    0.598    0.352    3.394
  179.750   96.242    0.610    0.333    3.091
  180.000   95.296    0.608    0.328    2.868
  180.250   94.346    0.574    0.330    2.816
  180.500   92.439    0.566    0.324    4.116
  180.750   95.821    0.546    0.330    4.614
  181.000   98.722    0.526    0.337    6.133
  181.250   98.734    0.482    0.320    6.876
  181.500   97.311    0.461    0.289    8.474
  181.750   95.888    0.450    0.283   10.643
  182.000   95.415    0.425    0.269   12.392
  182.250   94.469    0.433    0.250   14.985
  182.500   94.492    0.468    0.218   18.467
  182.750   94.499    0.508    0.188   30.809
  183.000   96.436    0.515    0.220   47.655
  183.250  100.295    0.521    0.242   54.437
  183.500  105.118    0.527    0.247   40.252
  183.750  105.136    0.530    0.254   28.122
  184.000  103.706    0.534    0.257   24.192
  184.250  103.241    0.537    0.248   20.811
  184.500  102.302    0.534    0.270   18.949
  184.750  102.310    0.524    0.264   17.925
  185.000  102.325    0.516    0.260   17.933
  185.250  104.742    0.510    0.260   18.291
  185.500  106.679    0.499    0.252   18.306
  185.750  106.217    0.494    0.234   18.325
  186.000  103.833    0.485    0.212   18.336
  186.250  103.364    0.478    0.249   18.355
  186.500  103.860    0.477    0.256   17.696
  186.750  107.238    0.481    0.266   17.375
  187.000  106.772    0.486    0.310   17.389
  187.250  103.912    0.493    0.319   18.071
  187.500  103.443    0.502    0.323   18.783
  187.750  103.458    0.520    0.316   20.281
  188.000  105.875    0.513    0.315   21.488
  188.250  107.808    0.503    0.314   21.907
  188.500  107.827    0.498    0.310   22.344
  188.750  107.361    0.504    0.344   22.367
  189.000  106.415    0.507    0.346   21.550
  189.250  104.993    0.506    0.342   20.382
  189.500  104.520    0.503    0.333   19.641
  189.750  102.136    0.466    0.326   18.924
  190.000   99.268    0.435    0.278   18.588
  190.250  100.728    0.426    0.250   18.612
  190.500  100.743    0.429    0.250   18.623
  190.750   98.356    0.453    0.256   18.639
  191.000   96.930    0.464    0.261   18.301
  191.250   98.386    0.473    0.265   17.980
  191.500  100.803    0.480    0.262   17.988
  191.750  102.260    0.478    0.270   17.013
  192.000  100.353    0.475    0.267   16.391
  192.250   97.481    0.458    0.238   16.405
  192.500   88.368    0.381    0.161   18.743
  192.750   77.333    0.300    0.120   21.824
  193.000   72.543    0.249    0.018   35.058
  193.250   72.078    0.245    0.029   53.199
  193.500   77.378    0.290    0.055   93.919
  193.750   82.201    0.303    0.110  139.877
  194.000   86.540    0.330    0.164   88.921
  194.250   90.882    0.418    0.197   60.959
  194.500   93.776    0.464    0.212   43.393
  194.750   98.115    0.471    0.213   29.754
  195.000  107.258    0.510    0.207   27.597
  195.250  108.234    0.504    0.203   16.892
  195.500  107.769    0.502    0.208   13.989
  195.750  107.307    0.510    0.212    8.561
  196.000  109.728    0.523    0.220    7.505
  196.250  109.739    0.536    0.251    7.512
  196.500  107.832    0.535    0.253    7.377
  196.750  104.484    0.533    0.252    7.385
  197.000  101.617    0.527    0.241    7.530
  197.250  102.592    0.520    0.232    7.682
  197.500  109.814    0.526    0.221    8.614
  197.750  114.153    0.541    0.241    9.654
  198.000  118.492    0.544    0.252    7.414
  198.250  121.870    0.548    0.276    5.278
  198.500  125.255    0.554    0.287    4.210
  198.750  122.872    0.551    0.287    3.422
  199.000  121.442    0.547    0.276    3.057
  199.250  118.570    0.543    0.266    2.732
  199.500  114.742    0.538    0.242    3.005
  199.750  107.550    0.534    0.222    3.433
  200.000  102.280    0.524    0.210    5.837
  200.250  105.658    0.517    0.209    7.471
  200.500  109.517    0.520    0.211    9.386
  200.750  113.375    0.514    0.217    8.545
  201.000  113.878    0.509    0.213    7.927
  201.250  113.409    0.502    0.218    8.887
  201.500  112.940    0.495    0.281   11.377
  201.750  112.478    0.487    0.275   12.757
  202.000   99.998    0.466    0.260   14.035
  202.250  101.462    0.471    0.259   15.150
  202.500  101.949    0.469    0.220   16.667
  202.750  103.413    0.459    0.208   17.652
  203.000  103.909    0.455    0.295   20.557
  203.250  101.518    0.475    0.294   19.810
  203.500   96.248    0.468    0.276   16.098
  203.750   92.900    0.454    0.276   11.681
  204.000   90.993    0.460    0.235    9.496
  204.250   96.773    0.477    0.214   10.847
  204.500  108.799    0.496    0.241   19.520
  204.750  113.618    0.519    0.214   22.302
  205.000  115.075    0.533    0.229   13.909
  205.250  104.524    0.527    0.262   10.092
