~VERSION INFORMATION
 VERS.                 2.0:   CWLS LOG ASCII STANDARD -VERSION 2.0
 WRAP.                  NO:   ONE LINE PER DEPTH STEP
~WELL INFORMATION BLOCK
#MNEM.UNIT           DATA                    DESCRIPTION OF MNEMONIC
#---------    -------------------            -------------------------------
# Generated from Intellog Unique Number	CX_WELLS/WELL/3778
LOC .         AA/07-04-086-15W4/0            : Location     - LOCATION
UWI .         AA/07-04-086-15W400            : Uwi          - UNIQUE WELL ID
ENTR.         T                              : Entered      - ENTERED BY
SRVC.         SCHLUMBERGER                   : Scn          - SERVICE COMPANY
STRT.F        200                            : top_depth    - START DEPTH
STOP.F        750.361                        : bot_depth    - STOP DEPTH
STEP.F        0.82                           : increment    - STEP LENGTH
 NULL. -999.2500:NULL Value
~CURVE INFORMATION BLOCK
#MNEM UNIT       ERCB CURVE CODE    CURVE DESCRIPTION
#-----------   ------------------   ----------------------------------
DEPT.F        00 001 00 00         : DEPTH        - DEPTH
GR  .API      00 310 00 00         : GR           - GAMMA RAY
NPHI.V/V      00 330 00 00         : PHIN         - NEUTRON POROSITY (SANDSTONE)
ILD .OHMM     00 120 00 00         : RESD         - DEEP RESISTIVITY (DIL)
~PARAMETER INFORMATION
#MNEM.UNIT           DATA             DESCRIPTION OF MNEMONIC
#---------         -----------     ------------------------------
GL  .F        1711                 : gl           - GROUND LEVEL ELEVATION
EREF.F        1711                 : kb           - ELEVATION OF DEPTH REFERENCE
DATM.F        1711                 : datum        - DATUM ELEVATION
TDD .F        753                  : tdd          - TOTAL DEPTH DRILLER
RUN .         ONE                  : Run          - RUN NUMBER
ENG .         BILL                 : Engineer     - RECORDING ENGINEER
WIT .         JIM                  : Witness      - WITNESSED BY
MUD .         GEL                  : Mud_type     - MUD TYPE
MATR.         SANDSTONE            : Logunit      - NEUTRON MATRIX
TMAX.F        55                   : BHT          - MAXIMUM RECORDED TEMPERATURE
BHTD.F        753                  : BHTDEP       - MAXIMUM RECORDED TEMPERATURE
MATR.         1                    : LOGUNIT      - NEUTRON MATRIX
RMT .F        65                   : MDTP         - TEMPERATURE OF MUD
NEUT.         1                    : NEUTRON      - NEUTRON TYPE
RESI.         7.1                  : RESIST       - RESISTIVITY TYPE
RMC .OHMM     6.5                  : RMC          - RESISTIVITY OF MUD CAKE
RMF .OHMM     5                    : RMF          - RESISTIVITY OF MUD FILTRATE
SUFT.F        35                   : SUFT         - SURFACE TEMPERATURE
~A  DEPTH       GR     PHIN     RESD
  200.000   88.662    0.410   13.652
  200.820   86.943    0.410   11.940
  201.640   85.908    0.415    9.202
  202.461   87.616    0.421    8.852
  203.281   91.038    0.428    9.700
  204.101   94.802    0.429   11.571
  204.921   95.823    0.425   19.073
  205.741   86.908    0.411   24.869
  206.562   81.419    0.404   28.103
  207.382   72.846    0.395   28.269
  208.202   67.699    0.385   28.431
  209.022   65.638    0.377   29.277
  209.843   63.916    0.376   30.122
  210.663   64.596    0.379   30.289
  211.483   64.935    0.380   30.794
  212.303   65.613    0.377   31.299
  213.123   66.635    0.374   32.483
  213.944   67.317    0.370   32.819
  214.764   66.623    0.367   33.835
  215.584   64.905    0.363   34.171
  216.404   62.843    0.359   34.505
  217.224   63.865    0.353   35.008
  218.045   64.201    0.347   35.172
  218.865   65.224    0.343   35.167
  219.685   66.589    0.343   34.989
  220.505   67.952    0.343   34.638
  221.325   68.291    0.342   34.634
  222.146   68.285    0.341   33.431
  222.966   67.937    0.346   32.743
  223.786   66.218    0.359   32.732
  224.606   63.128    0.369   31.870
  225.427   62.094    0.379   31.696
  226.247   66.201    0.383   31.689
  227.067   68.251    0.378   31.853
  227.887   68.587    0.376   32.015
  228.707   68.239    0.371   32.008
  229.528   66.862    0.366   31.830
  230.348   65.486    0.366   31.482
  231.168   65.138    0.363   30.963
  231.988   65.132    0.363   29.079
  232.808   65.126    0.364   28.729
  233.629   65.119    0.365   29.577
  234.449   65.114    0.365   29.058
  235.269   65.451    0.371   28.197
  236.089   66.132    0.381   27.335
  236.909   69.209    0.389   26.304
  237.730   71.946    0.389   25.101
  238.550   74.338    0.385   24.923
  239.370   75.702    0.384   24.744
  240.190   76.383    0.382   24.741
  241.010   75.690    0.381   25.246
  241.831   73.973    0.379   25.921
  242.651   71.567    0.378   27.280
  243.471   69.504    0.377   29.491
  244.291   68.129    0.377   31.191
  245.112   68.121    0.377   33.062
  245.932   69.144    0.377   35.273
  246.752   70.168    0.377   34.413
  247.572   71.533    0.376   30.138
  248.392   73.239    0.375   27.912
  249.213   74.262    0.371   28.758
  250.033   74.599    0.370   29.946
  250.853   73.222    0.367   30.451
  251.673   71.505    0.359   30.273
  252.493   72.183    0.365   31.461
  253.314   72.177    0.375   32.820
  254.134   72.857    0.383   32.301
  254.954   72.509    0.383   30.413
  255.774   72.159    0.378   30.920
  256.594   72.155    0.373   32.449
  257.415   70.434    0.370   32.781
  258.235   69.059    0.364   32.945
  259.055   69.736    0.358   32.766
  259.875   70.075    0.344   32.419
  260.696   69.726    0.331   31.559
  261.516   67.665    0.316   31.041
  262.336   64.575    0.291   26.425
  263.156   64.226    0.246   23.858
  263.976   66.959    0.215   32.214
  264.797   68.327    0.261   37.328
  265.617   70.721    0.375   33.565
  266.437   71.056    0.400   14.271
  267.257   72.079    0.414   11.704
  268.077   73.100    0.417   11.697
  268.898   73.779    0.418   12.372
  269.718   74.802    0.415   13.731
  270.538   76.165    0.413   16.113
  271.358   76.163    0.411   19.690
  272.178   76.157    0.409   21.049
  272.999   75.123    0.409   20.359
  273.819   73.060    0.413   18.473
  274.639   70.311    0.418   15.565
  275.459   68.250    0.417   14.192
  276.280   68.588    0.418   12.479
  277.100   72.008    0.420   10.251
  277.920   73.373    0.423   10.586
  278.740   73.369    0.425   11.260
  279.560   73.363    0.425   11.254
  280.381   74.043    0.423   10.734
  281.201   75.064    0.418   10.385
  282.021   74.369    0.413   10.210
  282.841   74.023    0.407   10.032
  283.661   73.334    0.399   10.878
  284.482   72.298    0.388   11.895
  285.302   70.922    0.380   12.230
  286.122   69.890    0.377   13.586
  286.942   68.513    0.378   14.603
  287.762   66.450    0.380   16.986
  288.583   65.074    0.381   16.125
  289.403   70.894    0.382   14.924
  290.223   76.028    0.392   13.722
  291.043   74.651    0.393   13.886
  291.864   72.590    0.392   16.098
  292.684   70.871    0.383   18.651
  293.504   72.236    0.380   19.156
  294.324   72.231    0.381   17.784
  295.144   71.195    0.381   16.923
  295.965   70.504    0.378   15.206
  296.785   71.527    0.378   16.052
  297.605   74.604    0.378   16.728
  298.425   76.313    0.373   17.064
  299.245   74.250    0.364   17.057
  300.066   72.190    0.353   17.562
  300.886   70.471    0.339   17.897
  301.706   69.093    0.308   19.255
  302.526   67.715    0.262   19.929
  303.346   66.681    0.232   19.581
  304.167   65.992    0.174   19.574
  304.987   63.245   -0.007   20.593
  305.807   57.756   -0.044   22.975
  306.627   59.464   -0.066   27.576
  307.448   63.227   -0.058   26.033
  308.268   66.305   -0.031   21.585
  309.088   68.013    0.351   18.848
  309.908   68.350    0.368   17.648
  310.728   67.314    0.377   17.468
  311.549   65.938    0.375   17.801
  312.369   65.588    0.375   17.966
  313.189   65.928    0.376   18.128
  314.009   66.949    0.374   18.292
  314.829   68.314    0.371   18.287
  315.650   70.363    0.377   18.451
  316.470   70.700    0.387   18.783
  317.290   70.352    0.394   18.945
  318.110   70.004    0.398   19.111
  318.930   71.370    0.395   19.274
  319.751   74.106    0.394   19.435
  320.571   76.157    0.393   19.431
  321.391   77.522    0.391   19.081
  322.211   77.859    0.389   18.904
  323.031   78.196    0.387   18.726
  323.852   78.187    0.382   18.548
  324.672   77.152    0.380   18.541
  325.492   76.463    0.379   19.046
  326.312   75.427    0.377   19.895
  327.133   74.738    0.379   24.154
  327.953   74.048    0.382   26.195
  328.773   71.987    0.386   26.188
  329.593   68.210    0.392   25.837
  330.413   65.804    0.395   25.833
  331.234   63.399    0.395   25.655
  332.054   61.338    0.392   24.792
  332.874   62.360    0.386   24.273
  333.694   63.041    0.383   24.435
  334.514   64.062    0.380   25.114
  335.335   64.058    0.376   25.619
  336.155   63.023    0.375   25.100
  336.975   60.961    0.375   24.752
  337.795   58.898    0.379   25.253
  338.615   58.550    0.385   25.420
  339.436   57.173    0.388   25.925
  340.256   55.113    0.385   26.601
  341.076   53.050    0.378   27.613
  341.896   53.044    0.372   27.951
  342.717   53.724    0.375   27.773
  343.537   54.745    0.378   27.253
  344.357   55.426    0.380   27.077
  345.177   56.789    0.382   26.897
  345.997   56.784    0.385   26.549
  346.818   55.749    0.384   26.030
  347.638   55.060    0.382   25.854
  348.458   54.712    0.381   25.845
  349.278   52.990    0.382   26.009
  350.098   53.327    0.384   26.171
  350.919   53.664    0.384   26.333
  351.739   53.660    0.379   26.498
  352.559   53.312    0.370   26.833
  353.379   53.305    0.364   26.997
  354.199   52.270    0.362   27.162
  355.020   51.237    0.358   27.324
  355.840   50.204    0.356   27.319
  356.660   49.855    0.357   27.308
  357.480   49.850    0.361   27.984
  358.301   49.844    0.366   28.319
  359.121   49.838    0.380   27.629
  359.941   50.175    0.387   26.598
  360.761   50.510    0.393   26.934
  361.581   50.849    0.388   28.292
  362.402   51.528    0.385   28.968
  363.222   53.236    0.382   28.279
  364.042   55.629    0.381   28.099
  364.862   59.050    0.376   28.604
  365.682   63.157    0.369   29.623
  366.503   67.606    0.355   30.126
  367.323   70.340    0.326   30.631
  368.143   68.964    0.270   31.478
  368.963   67.589    0.226   40.177
  369.783   64.842    0.184   55.020
  370.604   61.067    0.219   93.246
  371.424   63.458    0.263   97.847
  372.244   67.908    0.285   88.452
  373.064   72.014    0.325   21.704
  373.885   74.750    0.354   22.039
  374.705   78.857    0.380   21.861
  375.525   82.278    0.413   19.808
  376.345   85.699    0.461   16.215
  377.165   90.149    0.467   11.941
