~VERSION INFORMATION
 VERS.                 2.0:   CWLS LOG ASCII STANDARD -VERSION 2.0
 WRAP.                  NO:   ONE LINE PER DEPTH STEP
~WELL INFORMATION BLOCK
#MNEM.UNIT           DATA                    DESCRIPTION OF MNEMONIC
#---------    -------------------            -------------------------------
# Generated from Intellog Unique Number	CN_94_101/WELL/3271
WELL.         CDC OIL & GAS LTD.             : Well_name    - WELL
LOC .         AA/01-01-095-07W4/0            : Location     - LOCATION
UWI .         AA/01-01-095-07W400            : Uwi          - UNIQUE WELL ID
ENTR.         TIM                            : Entered      - ENTERED BY
SRVC.         SCHLUMBERGER                   : Scn          - SERVICE COMPANY
DATE.         07/22/92                       : Date         - LOG DATE
STRT.M        90                             : top_depth    - START DEPTH
STOP.M        300                            : bot_depth    - STOP DEPTH
STEP.M        0.25                           : increment    - STEP LENGTH
 NULL. -999.2500:NULL Value
~CURVE INFORMATION BLOCK
#MNEM UNIT       ERCB CURVE CODE    CURVE DESCRIPTION
#-----------   ------------------   ----------------------------------
DEPT.M        00 001 00 00         : DEPTH        - DEPTH
GR  .API      00 310 00 00         : GR           - GAMMA RAY
ILD .OHMM     00 120 00 00         : RESD         - DEEP RESISTIVITY (DIL)
NPHI.V/V      00 330 00 00         : PHIN         - NEUTRON POROSITY (SANDSTONE)
DPHI.V/V      00 890 00 00         : PHID         - DENSITY POROSITY (SANDSTONE)
~PARAMETER INFORMATION
#MNEM.UNIT           DATA             DESCRIPTION OF MNEMONIC
#---------         -----------     ------------------------------
GL  .M        530.35               : gl           - GROUND LEVEL ELEVATION
EREF.M        531.35               : kb           - ELEVATION OF DEPTH REFERENCE
DATM.M        531.35               : datum        - DATUM ELEVATION
TDD .M        298                  : tdd          - TOTAL DEPTH DRILLER
RUN .         0.000000             : Run          - RUN NUMBER
MUD .         GEL                  : Mud_type     - MUD TYPE
MATR.         SANDSTONE            : Logunit      - NEUTRON MATRIX
TMAX.C        18                   : BHT          - MAXIMUM RECORDED TEMPERATURE
BHTD.M        298.5                : BHTDEP       - MAXIMUM RECORDED TEMPERATURE
RMT .C        18                   : MDTP         - TEMPERATURE OF MUD
MUDD.KG/M     1140                 : MWT          - MUD DENSITY
NEUT.         1                    : NEUTRON      - NEUTRON TYPE
RESI.         0                    : RESIST       - RESISTIVITY TYPE
RM  .OHMM     5.88                 : RM           - RESISTIVITY OF MUD
RMC .OHMM     5.88                 : RMC          - RESISTIVITY OF MUD CAKE
RMF .OHMM     6.6                  : RMF          - RESISTIVITY OF MUD FILTRATE
SUFT.C        4                    : SUFT         - SURFACE TEMPERATURE
BTZC.MM       0                    : BITZC        - BIT SIZE CONSTANT
MDW .KG/M     1120                 : MDW          - MUD WEIGHT
~A  DEPTH       GR     RESD     PHIN     PHID
# ...
  133.500   41.665   48.173    0.480    0.343
  133.750   41.039   50.029    0.472    0.344
  134.000   41.007   50.067    0.464    0.346
  134.250   42.220   47.419    0.460    0.347
  134.500   44.049   45.720    0.455    0.348
  134.750   47.092   42.502    0.455    0.349
  135.000   48.927   38.081    0.461    0.349
  135.250   51.360   32.885    0.481    0.349
  135.500   53.189   28.926    0.502    0.349
  135.750   55.628   25.918    0.503    0.345
  136.000   56.836   24.094    0.511    0.327
  136.250   57.429   23.676    0.516    0.327
  136.500   55.562   24.139    0.509    0.330
  136.750   53.080   24.598    0.488    0.334
  137.000   51.212   26.015    0.495    0.344
  137.250   50.570   28.027    0.502    0.356
  137.500   51.169   30.194    0.485    0.372
  137.750   51.141   30.217    0.493    0.379
  138.000   49.274   27.583    0.500    0.378
  138.250   48.632   25.647    0.493    0.366
  138.500   49.834   25.188    0.473    0.352
  138.750   50.439   25.676    0.485    0.356
  139.000   51.026   27.166    0.492    0.364
  139.250   50.384   27.682    0.484    0.369
  139.500   49.752   28.743    0.466    0.366
  139.750   49.725   27.729    0.461    0.361
  140.000   49.703   26.745    0.470    0.361
  140.250   50.302   25.321    0.468    0.364
  140.500   50.901   24.432    0.462    0.364
  140.750   51.483   23.566    0.457    0.353
  141.000   52.087   23.579    0.450    0.337
  141.250   52.060   23.166    0.445    0.339
  141.500   51.417   23.624    0.440    0.342
  141.750   51.406   23.633    0.443    0.343
  142.000   52.000   24.095    0.447    0.344
  142.250   53.203   21.593    0.458    0.339
  142.500   54.411   20.069    0.465    0.331
  142.750   58.080   17.650    0.477    0.317
  143.000   62.985   14.963    0.481    0.307
  143.250   74.036   10.171    0.486    0.291
  143.500   84.471    9.279    0.499    0.278
  143.750   93.061    7.866    0.519    0.267
  144.000   99.795    6.794    0.532    0.261
  144.250   99.784    6.200    0.543    0.250
  144.500   99.757    6.205    0.548    0.226
  144.750   99.735    6.209    0.553    0.205
  145.000  102.174    6.447    0.555    0.231
  145.250  103.997    6.820    0.554    0.243
  145.500  103.970    7.213    0.548    0.260
  145.750  103.959    7.218    0.538    0.250
  146.000  104.547    7.093    0.527    0.240
  146.250  105.761    7.097    0.519    0.239
  146.500  108.200    6.847    0.520    0.235
  146.750  110.018    6.851    0.529    0.233
  147.000  109.996    6.488    0.538    0.242
  147.250  109.968    6.373    0.543    0.254
  147.500  109.952    6.036    0.541    0.263
  147.750  109.936    5.929    0.532    0.266
  148.000  111.139    5.616    0.546    0.270
  148.250  112.352    5.417    0.573    0.265
  148.500  113.555    5.321    0.579    0.258
  148.750  114.764    5.227    0.573    0.264
  149.000  115.357    5.232    0.568    0.278
  149.250  115.335    5.235    0.571    0.264
  149.500  115.313    5.340    0.573    0.243
  149.750  114.676    5.341    0.580    0.231
  150.000  113.424    5.444    0.580    0.215
  150.250  111.557    5.654    0.580    0.212
  150.500  110.305    5.762    0.581    0.222
  150.750  108.432    5.874    0.580    0.233
  151.000  107.800    5.879    0.571    0.238
  151.250  106.543    5.992    0.558    0.221
  151.500  106.515    5.998    0.548    0.220
  151.750  106.504    5.894    0.549    0.226
  152.000  107.098    5.685    0.553    0.237
  152.250  111.376    5.585    0.557    0.244
  152.500  111.970    5.290    0.558    0.257
  152.750  111.327    5.101    0.562    0.256
  153.000  110.701    4.832    0.569    0.260
  153.250  108.213    4.745    0.573    0.267
  153.500  107.582    4.577    0.567    0.267
  153.750  105.099    4.415    0.564    0.272
  154.000  103.232    4.337    0.568    0.275
  154.250  101.969    4.262    0.573    0.281
  154.500  101.332    4.265    0.579    0.280
  154.750  101.304    4.268    0.584    0.262
  155.000  100.673    4.272    0.588    0.270
  155.250  100.656    4.275    0.564    0.277
  155.500  100.019    4.358    0.561    0.279
  155.750   99.997    4.361    0.560    0.268
  156.000   99.360    4.445    0.557    0.268
  156.250   99.333    4.616    0.555    0.279
  156.500   97.471    4.792    0.555    0.292
  156.750   91.913    5.258    0.554    0.280
  157.000   91.886    5.665    0.541    0.275
  157.250   93.709    6.333    0.536    0.270
  157.500   90.612    7.081    0.546    0.262
  157.750   88.135    7.628    0.551    0.253
  158.000   82.576    8.371    0.520    0.249
  158.250   77.628    8.692    0.513    0.256
  158.500   73.300    9.193    0.503    0.268
  158.750   70.817    9.369    0.498    0.278
  159.000   72.026    9.205    0.503    0.289
  159.250   75.684    8.401    0.508    0.289
  159.500   77.513    7.529    0.513    0.287
  159.750   79.952    6.999    0.517    0.288
  160.000   81.775    6.507    0.523    0.289
  160.250   84.219    6.274    0.524    0.292
  160.500   86.658    5.834    0.526    0.293
  160.750   89.712    5.732    0.515    0.287
  161.000   89.075    6.289    0.506    0.279
  161.250   85.972    7.031    0.493    0.268
  161.500   84.725    7.167    0.494    0.256
  161.750   83.468    7.042    0.496    0.251
  162.000   84.681    7.045    0.505    0.251
  162.250   87.120    6.671    0.512    0.249
  162.500   88.944    6.088    0.524    0.251
  162.750   90.152    5.660    0.535    0.258
  163.000   90.130    5.562    0.550    0.265
  163.250   85.182    5.775    0.516    0.270
  163.500   83.314    6.109    0.508    0.274
  163.750   85.138    6.115    0.520    0.277
  164.000   85.737    6.006    0.531    0.281
  164.250   86.330    5.688    0.545    0.285
  164.500   86.308    5.287    0.549    0.287
  164.750   87.511    5.007    0.545    0.290
  165.000   88.105    4.828    0.540    0.285
  165.250   88.703    4.657    0.539    0.279
  165.500   90.521    4.576    0.546    0.273
  165.750   91.115    4.495    0.561    0.275
  166.000   92.933    4.500    0.573    0.281
  166.250   93.526    4.588    0.580    0.286
  166.500   92.889    4.589    0.550    0.280
  166.750   91.016    4.767    0.532    0.268
  167.000   89.154    4.949    0.530    0.273
  167.250   86.057    5.139    0.539    0.283
  167.500   82.959    5.335    0.534    0.295
  167.750   79.861    5.963    0.495    0.304
  168.000   77.384    7.044    0.491    0.303
  168.250   77.363    7.589    0.481    0.301
  168.500   81.026    7.056    0.476    0.299
  168.750   84.080    6.439    0.523    0.298
  169.000   87.749    5.459    0.553    0.300
  169.250   90.808    4.714    0.580    0.303
  169.500   92.632    4.146    0.590    0.307
  169.750   92.610    3.647    0.624    0.307
  170.000   92.588    3.929    0.637    0.302
  170.250   93.176    4.816    0.620    0.291
  170.500   93.769    5.797    0.600    0.277
  170.750   91.292    6.019    0.573    0.272
  171.000   89.425    6.366    0.529    0.269
  171.250   89.397    6.732    0.515    0.260
  171.500   89.381    7.388    0.482    0.260
  171.750   89.969    7.814    0.460    0.259
  172.000   91.166    8.736    0.439    0.258
  172.250   91.771    9.070    0.444    0.255
  172.500   91.743    9.244    0.449    0.257
  172.750   91.727    9.427    0.446    0.259
  173.000   91.694    9.432    0.444    0.255
  173.250   91.683    9.100    0.445    0.242
  173.500   91.661    8.775    0.448    0.246
  173.750   92.249    8.308    0.449    0.253
  174.000   92.837    7.582    0.454    0.252
  174.250   92.826    6.920    0.455    0.248
  174.500   92.793    6.553    0.464    0.245
  174.750   92.162    6.557    0.471    0.246
  175.000   91.530    6.564    0.479    0.243
  175.250   90.278    7.073    0.490    0.242
  175.500   88.410    7.342    0.498    0.243
  175.750   84.698    7.912    0.501    0.243
  176.000   80.985    8.682    0.505    0.230
  176.250   76.042    9.704    0.478    0.154
  176.500   69.863   11.047    0.407    0.108
  176.750   70.456   11.265    0.398    0.143
