~VERSION INFORMATION
 VERS.                 2.0:   CWLS LOG ASCII STANDARD -VERSION 2.0
 WRAP.                  NO:   ONE LINE PER DEPTH STEP
~WELL INFORMATION BLOCK
#MNEM.UNIT           DATA                    DESCRIPTION OF MNEMONIC
#---------    -------------------            -------------------------------
# Generated from Intellog Unique Number	CN_94_101/WELL/4986
WELL.         06-31-101-12W4                 : Well_name    - WELL
LOC .         AA/06-31-101-12W4/0            : Location     - LOCATION
UWI .         AA/06-31-101-12W400            : Uwi          - UNIQUE WELL ID
ENTR.         TIM                            : Entered      - ENTERED BY
SRVC.         SCHLUMBERGER                   : Scn          - SERVICE COMPANY
DATE.         08/13/92                       : Date         - LOG DATE
STRT.M        350                            : top_depth    - START DEPTH
STOP.M        580                            : bot_depth    - STOP DEPTH
STEP.M        0.25                           : increment    - STEP LENGTH
NULL. -999.2500:NULL Value
~CURVE INFORMATION BLOCK
#MNEM UNIT       ERCB CURVE CODE    CURVE DESCRIPTION
#-----------   ------------------   ----------------------------------
DEPT.M        00 001 00 00         : DEPTH        - DEPTH
GR  .API      00 310 00 00         : GR           - GAMMA RAY
ILD .OHMM     00 120 00 00         : RESD         - DEEP RESISTIVITY (DIL)
NPHI.V/V      00 330 00 00         : PHIN         - NEUTRON POROSITY (SANDSTONE)
DPHI.V/V      00 890 00 00         : PHID         - DENSITY POROSITY (SANDSTONE)
~PARAMETER INFORMATION
#MNEM.UNIT           DATA             DESCRIPTION OF MNEMONIC
#---------         -----------     ------------------------------
GL  .M        788.8                : gl           - GROUND LEVEL ELEVATION
EREF.M        792.2                : kb           - ELEVATION OF DEPTH REFERENCE
DATM.M        792.2                : datum        - DATUM ELEVATION
TDD .M        586                  : tdd          - TOTAL DEPTH DRILLER
RUN .         ONE                  : Run          - RUN NUMBER
ENG .         JO                   : Engineer     - RECORDING ENGINEER
WIT .         TIM                  : Witness      - WITNESSED BY
MUD .         GEL                  : Mud_type     - MUD TYPE
MATR.         SANDSTONE            : Logunit      - NEUTRON MATRIX
TMAX.C        17                   : BHT          - MAXIMUM RECORDED TEMPERATURE
BHTD.M        586                  : BHTDEP       - MAXIMUM RECORDED TEMPERATURE
RMT .C        15                   : MDTP         - TEMPERATURE OF MUD
MUDD.KG/M     1040                 : MWT          - MUD DENSITY
NEUT.         1                    : NEUTRON      - NEUTRON TYPE
RESI.         0                    : RESIST       - RESISTIVITY TYPE
RM  .OHMM     0.75                 : RM           - RESISTIVITY OF MUD
RMC .OHMM     0.75                 : RMC          - RESISTIVITY OF MUD CAKE
RMF .OHMM     0.75                 : RMF          - RESISTIVITY OF MUD FILTRATE
SUFT.C        4                    : SUFT         - SURFACE TEMPERATURE
~A  DEPTH       GR     RESD     PHIN     PHID
# ...
  480.500   98.578    2.479    0.581    0.380
  480.750   99.249    3.109    0.590    0.396
  481.000   98.059    3.421    0.595    0.393
  481.250   96.233    3.762    0.594    0.384
  481.500   94.406    4.062    0.587    0.377
  481.750   96.350    4.300    0.552    0.368
  482.000   96.999    4.821    0.532    0.358
  482.250   97.670    5.205    0.538    0.350
  482.500   98.330    5.412    0.522    0.343
  482.750   98.377    5.526    0.507    0.332
  483.000   97.175    5.532    0.501    0.319
  483.250   94.736    5.643    0.500    0.303
  483.500   94.147    5.653    0.498    0.290
  483.750   92.332    5.771    0.489    0.280
  484.000   88.632    5.780    0.478    0.264
  484.250   86.181    5.789    0.463    0.236
  484.500   83.719    5.796    0.435    0.218
  484.750   88.137    5.810    0.435    0.203
  485.000   91.931    5.710    0.459    0.231
  485.250   95.100    5.719    0.491    0.267
  485.500   97.021    5.622    0.503    0.302
  485.750   97.704    5.527    0.496    0.299
  486.000   96.514    5.433    0.489    0.295
  486.250   94.688    5.244    0.489    0.293
  486.500   92.861    5.058    0.495    0.289
  486.750   95.418    4.884    0.520    0.289
  487.000   96.691    4.801    0.531    0.303
  487.250   99.247    4.716    0.541    0.320
  487.500   99.907    4.550    0.510    0.322
  487.750   99.978    4.391    0.506    0.322
  488.000  100.013    4.236    0.501    0.322
  488.250  100.048    4.164    0.503    0.322
  488.500   99.483    4.094    0.542    0.322
  488.750   99.530    4.025    0.563    0.327
  489.000   99.577    3.958    0.574    0.332
  489.250   99.624    3.891    0.571    0.336
  489.500   99.659    3.754    0.570    0.343
  489.750   99.105    3.692    0.565    0.346
  490.000   99.129    3.628    0.550    0.346
  490.250   98.563    3.632    0.541    0.345
  490.500   97.997    3.508    0.526    0.345
  490.750   98.021    3.445    0.511    0.346
  491.000   96.831    3.388    0.509    0.349
  491.250   94.380    3.331    0.515    0.353
  491.500   93.178    3.335    0.542    0.353
  491.750   92.600    3.342    0.551    0.354
  492.000   93.272    3.410    0.547    0.356
  492.250   93.979    3.479    0.522    0.356
  492.500   94.002    3.552    0.514    0.359
  492.750   94.037    3.693    0.510    0.359
  493.000   94.096    3.769    0.504    0.357
  493.250   94.132    3.919    0.500    0.349
  493.500   94.179    4.076    0.501    0.342
  493.750   94.226    4.158    0.505    0.324
  494.000   94.284    3.938    0.505    0.290
  494.250   93.707    3.271    0.507    0.305
  494.500   91.869    2.876    0.554    0.337
  494.750   90.054    2.672    0.580    0.353
  495.000   88.852    2.438    0.590    0.365
  495.250   86.401    2.396    0.590    0.370
  495.500   84.575    2.312    0.590    0.382
  495.750   82.749    2.273    0.594    0.389
  496.000   82.784    2.276    0.592    0.396
  496.250   82.843    2.280    0.589    0.396
  496.500   83.502    2.328    0.584    0.387
  496.750   83.550    2.331    0.576    0.378
  497.000   81.099    2.378    0.577    0.376
  497.250   79.272    2.382    0.579    0.378
  497.500   77.458    2.525    0.584    0.385
  497.750   76.267    2.624    0.590    0.388
  498.000   75.666    2.728    0.592    0.390
  498.250   74.476    2.892    0.587    0.391
  498.500   74.523    3.183    0.582    0.397
  498.750   74.559    3.308    0.552    0.401
  499.000   75.878    3.503    0.555    0.406
  499.250   76.526    3.714    0.546    0.405
  499.500   77.198    3.860    0.513    0.372
  499.750   75.371    3.865    0.498    0.352
  500.000   73.557    3.874    0.488    0.322
  500.250   72.355    3.879    0.470    0.287
  500.500   73.651    3.815    0.455    0.276
  500.750   74.947    3.819    0.485    0.300
  501.000   73.121    3.755    0.497    0.326
  501.250   69.421    3.761    0.506    0.326
  501.500   66.345    3.698    0.475    0.327
  501.750   67.017    3.502    0.457    0.327
  502.000   72.696    3.195    0.448    0.326
  502.250   78.363    2.969    0.459    0.326
  502.500   81.521    2.866    0.490    0.327
  502.750   79.070    2.817    0.543    0.327
  503.000   77.255    2.874    0.537    0.329
  503.250   78.563    2.933    0.526    0.330
  503.500   79.847    2.993    0.522    0.332
  503.750   81.780    2.998    0.522    0.338
  504.000   82.428    3.059    0.522    0.368
  504.250   83.111    3.065    0.525    0.373
  504.500   82.534    3.070    0.528    0.374
  504.750   80.731    3.075    0.534    0.364
  505.000   80.754    3.139    0.540    0.358
  505.250   80.813    3.201    0.548    0.358
  505.500   80.236    3.328    0.543    0.355
  505.750   78.409    3.594    0.531    0.349
  506.000   74.698    4.027    0.518    0.334
  506.250   69.761    4.954    0.509    0.330
  506.500   66.674    5.872    0.490    0.321
  506.750   57.966    7.363    0.373    0.312
  507.000   45.523    8.565    0.356    0.321
  507.250   34.341    9.419    0.375    0.329
  507.500   35.626    9.438    0.389    0.348
  507.750   38.171    9.106    0.403    0.354
  508.000   40.091    8.786    0.414    0.344
  508.250   42.023    8.474    0.409    0.336
  508.500   42.059    8.025    0.411    0.330
  508.750   42.117    7.320    0.416    0.320
  509.000   42.165    6.314    0.408    0.310
  509.250   42.824    5.548    0.406    0.301
  509.500   43.496    4.969    0.429    0.334
  509.750   44.167    4.619    0.428    0.341
  510.000   46.724    4.374    0.419    0.342
  510.250   49.269    4.144    0.413    0.341
  510.500   53.688    3.995    0.406    0.339
  510.750   58.118    3.854    0.411    0.337
  511.000   61.276    3.585    0.452    0.335
  511.250   67.579    3.456    0.460    0.332
  511.500   71.986    3.336    0.483    0.324
  511.750   80.787    3.405    0.510    0.314
  512.000   84.581    3.746    0.524    0.305
  512.250   79.644    3.892    0.502    0.268
  512.500   72.810    6.343    0.474    0.204
  512.750   67.862    7.514    0.428    0.187
  513.000   66.659    8.741    0.432    0.271
  513.250   66.094   10.559    0.455    0.332
  513.500   66.141   10.776    0.451    0.348
  513.750   64.314    9.648    0.434    0.343
  514.000   61.852    9.136    0.432    0.330
  514.250   55.654    9.324    0.442    0.319
  514.500   43.200    9.877    0.453    0.363
  514.750   28.884    9.893    0.453    0.395
  515.000   20.200    8.540    0.454    0.446
  515.250   15.239    8.233    0.577    0.490
  515.500   14.650    7.943    0.592    0.550
  515.750   14.096    8.259    0.615    0.592
  516.000   16.641    8.915    0.684    0.622
  516.250   19.799    9.804    0.680    0.611
  516.500   23.593   10.783    0.658    0.583
  516.750   28.636   12.542    0.655    0.533
  517.000   33.678   15.443    0.639    0.500
  517.250   40.606   16.663    0.580    0.450
  517.500   45.649   19.031    0.478    0.399
  517.750   50.068   18.701    0.442    0.345
  518.000   52.613   17.066    0.394    0.344
  518.250   56.419   16.155    0.378    0.340
  518.500   58.964   13.933    0.381    0.344
  518.750   58.398   12.710    0.388    0.344
  519.000   57.196   10.962    0.394    0.337
  519.250   57.231    9.637    0.413    0.335
  519.500   57.903    9.122    0.410    0.347
  519.750   58.574    8.485    0.412    0.353
  520.000   59.870    8.335    0.419    0.346
  520.250   61.791    8.833    0.424    0.335
  520.500   62.462    9.531    0.412    0.329
  520.750   60.035   11.300    0.401    0.319
  521.000   59.446   11.745    0.392    0.307
  521.250   58.868   11.122    0.387    0.304
  521.500   60.789    9.418    0.390    0.303
  521.750   62.085    8.433    0.414    0.306
  522.000   63.381    7.982    0.421    0.319
  522.250   65.301    7.422    0.427    0.321
  522.500   67.222    7.161    0.420    0.313
  522.750   67.882    6.909    0.419    0.315
  523.000   68.565    6.664    0.420    0.318
  523.250   69.248    6.430    0.423    0.319
  523.500   69.295    6.321    0.425    0.322
  523.750   69.354    6.219    0.424    0.327
