~Version : LASO    vs 4.00
VERS.                2.00:   CWLS Log ASCII Standard -VERSION 2.0
WRAP.                  NO:
~Well Information Block
#MNEM.UNIT       Data                        Description of Mnemonic
#----.----      -------------------------- : -----------------------------
STRT.M            15.0000:
STOP.M           186.3750:
STEP.M             0.1250:
NULL.           -999.2500:
COMP.  MOBIL OIL OF CANADA                :COMPANY
WELL.  MOBIL CLARKE OV 2-19               :WELL
FLD.                                      :FIELD
LOC.   02-19-090-07W4                     :LOCATION
CTRY.  CANADA                             :COUNTRY
PROV.  ALBERTA                            :PROVINCE
SRVC.  DRESSER ATLAS                      :SERVICE COMPANY
DATE.  24-FEB-81                          :LOG DATE
UWI.   AA/02-19-090-07W400                :UNIQUE WELL ID
~Parameter Information Block
#MNEM.UNIT       Data                        Description of Mnemonic
#----.----      -------------------------- : -----------------------------
RUN .                   1                 : Run Number
GL  .M           444.6000                 : Ground Level Elevation
DREF.                  KB                 : Depth Reference
EREF.M           444.6000                 : Elevation of Depth Reference
TDL .M           186.3000                 : Total Depth Logger
TDD .M           185.0000                 : Total Depth Driller
CSGL.M            14.7000                 : Casing Bottom Logger
CSGD.M            14.7000                 : Casing Bottom Driller
CSGS.MM          219.0000                 : Casing Size
CSGW.KG/M          0.0000                 : Casing Weight
BHT .DEGC         20.0000                 : Bottom Hole Temperature
BS  .MM          159.0000                 : Bit Size
DFD .           9999.0000                 : Mud Weight (Density)
DFV .             90.0000                 : Mud Viscosity
RM  .OHMM          2.5000                 : Mud Resistivity
RMT .DEGC         20.0000                 : Mud Resistivity Temperature
~Curve Information Block
#MNEM.UNIT        API CODE    Curve Description
#---------    ------------    -------------------------------------------
DEPT.M                    :   DEPTH
CALI.MM       42 280  1  1:   3 DENSITY CALIPER
DPHI.V/V                  :   DPHI
DT  .US/M     60 520 32  1:   2 SONIC INTERVAL TRANSIT TIME (COMPENSATED)
GR  .GAPI     42 310  1  1:   4 GAMMA RAY
ILD .OHMM      5 120 45  1:   7 DEEP INDUCTION
NPHI.V/V      42 890  3  1:   5 NEUTRON POROSITY (SANDSTONE)
RHOB.K/M3     42 350  1  1:   6 BULK DENSITY
SN  .OHMM      5  40 16  1:   8 SHORT NORMAL
SP  .MV        5  10  1  1:   9 SPONTANEOUS POTENTIAL
~A  Depth           CALI        DPHI          DT          GR         ILD        NPHI        RHOB          SN          SP
# ...
23.3750         233.1500      0.2655    346.3200     62.0250     20.7450      0.4268   2203.7000     23.6950    -56.8500
23.5000         233.7750      0.2692    341.5600     62.9100     20.9400      0.4280   2202.5000     24.4400    -57.3150
23.6250         234.0750      0.2742    355.7200     63.4050     21.1950      0.4358   2194.0000     24.2300    -57.5250
23.7500         234.3750      0.2847    359.7200     63.9000     21.7800      0.4422   2185.3999     23.8200    -57.9000
23.8750         234.6750      0.3263    349.6000     64.3950     22.5550      0.4538   2167.1001     24.1450    -57.7050
24.0000         233.4750      0.3437    322.4400     64.7400     23.3300      0.4538   2137.2000     26.8000    -58.2150
24.1250         229.2500      0.3491    282.9600     63.1200     24.1650      0.4325   2075.7000     26.8000    -58.2450
24.2500         225.9250      0.3545    269.5600     61.8750     24.6200      0.4171   2059.2000     28.7450    -58.2900
24.3750         230.7500      0.3532    259.3200     60.6750     25.3950      0.4156   2061.6001     31.1700    -58.3200
24.5000         230.1500      0.3433    256.6800     59.4750     25.9100      0.4115   2071.3999     31.1600    -58.3500
24.6250         232.8500      0.2915    255.1600     58.4250     26.4250      0.4017   2101.3000     31.1000    -58.3800
24.7500         234.6750      0.2678    258.6000     58.3950     26.5550      0.3976   2173.8000     30.7650    -58.4100
24.8750         232.8500      0.2577    226.2000     58.3650     26.3000      0.3878   2245.8000     30.3250    -58.4400
25.0000         231.0500      0.2501    221.7200     58.3350     25.8450      0.3882   2247.6001     30.2650    -58.4700
25.1250         233.4750      0.2492    222.4800     58.3050     25.0700      0.3859   2256.2000     31.8750    -57.9000
25.2500         231.6500      0.2515    223.7600     58.5600     24.4250      0.3949   2247.6001     32.0950    -57.3300
25.3750         231.3500      0.2537    234.4000     58.9650     24.0400      0.3964   2241.5000     31.9000    -56.7600
25.5000         228.9500      0.2543    239.1600     59.4000     23.7800      0.3814   2236.6001     29.6250    -56.8050
25.6250         224.7250      0.2546    232.8400     58.7400     23.8450      0.3803   2233.0000     27.5550    -56.8350
25.7500         221.1250      0.2556    172.3600     58.0350     23.7800      0.3773   2228.7000     26.1000    -57.4650
25.8750         221.7250      0.2627    167.4400     57.2400     23.5850      0.3766   2225.1001     25.6450    -57.4950
26.0000         222.0250      0.2638    198.6800     56.3850     23.2000      0.3728   2220.8000     26.5950    -57.5250
26.1250         223.2250      0.2598    226.6800     55.6350     22.6800      0.3691   2211.6001     29.7050    -57.5550
26.2500         226.2250      0.2559    263.4800     56.2800     21.9100      0.3642   2208.6001     31.0150    -58.0050
26.3750         227.4500      0.2531    307.8000     56.8500     20.9400      0.3676   2213.5000     30.8050    -58.2300
26.5000         228.6500      0.2505    330.9200     57.4200     19.5850      0.3743   2231.2000     31.1600    -58.8600
26.6250         231.0500      0.2530    355.8000     59.1150     18.2900      0.3769   2236.0000     31.6650    -58.8900
26.7500         232.2500      0.2553    390.6800     61.1400     17.4550      0.3781   2237.8999     31.6850    -58.9200
26.8750         229.8500      0.2562    398.2000     62.1450     16.6800      0.3754   2230.5000     30.0900    -58.3500
27.0000         229.2500      0.2602    433.7600     62.8200     16.0300      0.3612   2229.8999     27.1000    -58.9650
27.1250         225.3250      0.2678    499.5200     63.3600     15.4500      0.3597   2222.0000     23.0950    -59.6250
27.2500         223.8250      0.2771    499.6000     63.9000     15.3200      0.3668   2225.1001     18.6100    -59.6550
27.3750         224.4250      0.3048    499.6400     66.8550     15.1300      0.3747   2228.1001     19.1200    -59.6850
27.5000         228.9500      0.3383    499.7200     70.5600     15.0000      0.3893   2233.6001     19.1100    -59.5500
27.6250         234.3750      0.3580    499.7600     72.2700     15.2600      0.4051   2231.8000     20.9000    -59.1600
27.7500         235.8750      0.3721    499.0400     73.3650     15.8400      0.4403   2190.3000     21.6900    -58.3800
27.8750         234.9750      0.3934    499.4800     72.7350     16.3550      0.4602   2149.3999     23.9850    -57.6000
28.0000         233.4750      0.4013    499.9600     71.5350     17.1950      0.5101   2098.8000     26.4700    -57.4350
28.1250         232.8500      0.4063    489.2400     70.3350     18.2250      0.5300   2037.3000     26.9600    -57.9300
28.2500         233.4750      0.4063    484.2000     69.1350     19.8400      0.5296   1977.5000     27.4500    -57.5100
28.3750         235.5750      0.4014    497.2000     67.9350     21.0050      0.5199   1965.9000     26.7150    -57.5400
28.5000         236.7750      0.3952    499.4000     66.8400     21.5850      0.5026   1975.7000     26.4900    -57.5700
28.6250         237.9750      0.3867    499.4400     65.7900     22.2950      0.5034   1996.5000     26.7600    -56.8050
28.7500         239.4750      0.3806    499.5200     64.7400     22.8750      0.5041   2014.7000     27.1450    -56.4300
28.8750         241.0000      0.3762    499.5600     63.8700     23.7150      0.5023   2019.6000     28.0000    -56.4600
29.0000         243.7000      0.3711    499.6400     63.0000     24.3600      0.5003   2029.3000     28.0000    -56.4900
29.1250         245.8000      0.3680    499.6800     62.1300     25.5250      0.4913   2046.4000     29.6450    -56.5200
29.2500         247.9250      0.3673    499.7200     61.2600     27.0750      0.4838   2051.8999     31.6000    -55.3950
29.3750         250.9250      0.3707    499.8000     60.5850     29.3300      0.4820   2055.5000     33.6100    -54.7800
29.5000         252.4250      0.3723    499.8400     60.0150     31.6550      0.4823   2052.5000     33.0000    -54.8100
29.6250         256.0500      0.3719    499.9200     59.4450     32.4300      0.4745   2046.4000     31.9050    -55.4550
29.7500         260.5500      0.3699    499.9600     58.7850     32.8850      0.4628   2038.5000     31.7800    -55.5450
29.8750         264.7750      0.3675    499.6400     57.2700     33.6600      0.4591   2032.4000     36.2300    -56.1150
30.0000         270.2000      0.3667    467.4800     54.4500     33.8700      0.4561   2037.3000     41.7200    -55.5450
30.1250         274.4000      0.3700    474.3600     50.4000     35.0350      0.4463   2048.8000     44.7100    -55.5300
30.2500         275.3000      0.3722    490.9200     48.9750     36.1300      0.4370   2050.7000     44.4650    -55.1400
30.3750         281.6250      0.3745    499.4800     47.4900     35.9400      0.4265   2036.6000     42.0850    -54.4350
30.5000         297.9000      0.3583    761.3600     48.2850     34.7750      0.4163   2023.2000     41.4750    -54.4650
30.6250         318.6750      0.3383    655.0400     49.2900     34.0650      0.4088   2034.8000     44.1600    -54.5100
30.7500         312.6500      0.3179    562.8000     51.0000     33.5500      0.4058   2133.6001     45.3800    -54.5400
30.8750         319.2750      0.2861    499.3200     52.7100     33.1600      0.3998   2308.0000     45.6250    -54.5700
31.0000         318.0750      0.2475    460.2400     54.4200     33.0350      0.3983   2330.5000     46.3550    -54.2400
31.1250         313.8500      0.2284    455.7200     55.7700     33.2900      0.3923   2312.2000     43.8550    -54.5400
31.2500         287.6500      0.2152    452.7200     56.7450     33.8100      0.3942   2301.3000     41.9650    -54.0600
31.3750         258.7500      0.2455    449.8800     57.6900     34.1300      0.3878   2243.3000     42.0250    -54.6900
31.5000         232.5500      0.2729    451.8400     56.6700     34.4550      0.3762   2161.0000     43.3050    -55.2450
31.6250         215.7000      0.2902    455.4000     55.6950     34.3250      0.3698   2087.2000     45.0750    -55.3650
