~VERSION INFORMATION
 VERS.                 2.0:   CWLS LOG ASCII STANDARD -VERSION 2.0
 WRAP.                  NO:   ONE LINE PER DEPTH STEP
~WELL INFORMATION BLOCK
#MNEM.UNIT           DATA                    DESCRIPTION OF MNEMONIC
#---------    -------------------            -------------------------------
# Generated from Intellog Unique Number	CX_WELLS/WELL/3969
WELL.         CANSTAR                        : Well_name    - WELL
LOC .         AA/07-24-098-12W4/0            : Location     - LOCATION
UWI .         AA/07-24-098-12W400            : Uwi          - UNIQUE WELL ID
ENTR.         T                              : Entered      - ENTERED BY
SRVC.         SCHLUMBERGER                   : Scn          - SERVICE COMPANY
STRT.F        0                              : top_depth    - START DEPTH
STOP.F        419.948                        : bot_depth    - STOP DEPTH
STEP.F        0.82021                        : increment    - STEP LENGTH
 NULL. -999.2500:NULL Value
~CURVE INFORMATION BLOCK
#MNEM UNIT       ERCB CURVE CODE    CURVE DESCRIPTION
#-----------   ------------------   ----------------------------------
DEPT.F        00 001 00 00         : DEPTH        - DEPTH
GR  .API      00 310 00 00         : GR           - GAMMA RAY
NPHI.V/V      00 330 00 00         : PHIN         - NEUTRON POROSITY (SANDSTONE)
DPHI.V/V      00 890 00 00         : PHID         - DENSITY POROSITY (SANDSTONE)
ILD .OHMM     00 120 00 00         : RESD         - DEEP RESISTIVITY (DIL)
~PARAMETER INFORMATION
#MNEM.UNIT           DATA             DESCRIPTION OF MNEMONIC
#---------         -----------     ------------------------------
GL  .F        1163.7               : gl           - GROUND LEVEL ELEVATION
EREF.F        1163.7               : kb           - ELEVATION OF DEPTH REFERENCE
DATM.F        1163.7               : datum        - DATUM ELEVATION
TDD .F        426                  : tdd          - TOTAL DEPTH DRILLER
RUN .         ONE                  : Run          - RUN NUMBER
ENG .         BILL                 : Engineer     - RECORDING ENGINEER
WIT .         JIM                  : Witness      - WITNESSED BY
MUD .         GEL                  : Mud_type     - MUD TYPE
MATR.         SANDSTONE            : Logunit      - NEUTRON MATRIX
TMAX.F        66.2                 : BHT          - MAXIMUM RECORDED TEMPERATURE
BHTD.F        426                  : BHTDEP       - MAXIMUM RECORDED TEMPERATURE
MATR.         1                    : LOGUNIT      - NEUTRON MATRIX
RMT .F        62.6                 : MDTP         - TEMPERATURE OF MUD
NEUT.         1                    : NEUTRON      - NEUTRON TYPE
RESI.         4                    : RESIST       - RESISTIVITY TYPE
RMC .OHMM     6.36                 : RMC          - RESISTIVITY OF MUD CAKE
RMF .OHMM     6.36                 : RMF          - RESISTIVITY OF MUD FILTRATE
SUFT.F        39.2                 : SUFT         - SURFACE TEMPERATURE
~A  DEPTH       GR     PHIN     PHID     RESD
    0.000   50.676    0.166    0.198    4.838
    0.820   46.013    0.164    0.211    4.841
    1.640   43.942    0.166    0.223    4.844
    2.461   46.037    0.164    0.219    4.748
    3.281   49.165    0.161    0.203    4.656
    4.101   55.416    0.157    0.167    4.659
    4.921   59.587    0.161    0.130    4.661
    5.741   59.602    0.170    0.118    4.665
    6.562   61.694    0.177    0.122    4.666
    7.382   64.302    0.184    0.129    4.670
    8.202   68.474    0.188    0.137    4.672
    9.022   73.171    0.183    0.152    4.675
    9.843   73.700    0.179    0.175    4.583
   10.663   73.712    0.177    0.182    4.495
   11.483   73.204    0.165    0.181    4.497
   12.303   71.137    0.152    0.171    4.410
   13.123   69.072    0.147    0.154    4.323
   13.944   65.442    0.201    0.077    4.325
   14.764   61.295    0.251    0.061    4.328
   15.584   55.069    0.438    0.062    4.331
   16.404   49.882    0.439    0.057    4.332
   17.224   45.215    0.444    0.048    4.335
   18.045   44.190    0.446    0.038    4.251
   18.865   46.279    0.446    0.027    4.252
   19.685   49.410    0.446    0.028    4.255
   20.505   55.664    0.446    0.030    4.257
   21.326   56.713    0.446    0.038    4.175
   22.146   58.808    0.447    0.045    4.177
   22.966   59.856    0.449    0.052    4.013
   23.786   60.908    0.450    0.052    4.015
   24.606   60.920    0.451    0.051    3.858
   25.427   56.773    0.451    0.051    3.782
   26.247   53.666    0.451    0.053    3.709
   27.067   55.241    0.451    0.057    3.712
   27.887   56.290    0.452    0.063    3.638
   28.707   57.862    0.452    0.069    3.641
   29.528   55.794    0.452    0.079    3.643
   30.348   54.767    0.451    0.091    3.645
   31.168   58.944    0.448    0.102    3.722
   31.988   56.353    0.446    0.108    3.724
   32.808   52.726    0.445    0.108    3.801
   33.629   56.901    0.442    0.107    3.804
   34.449   61.069    0.440    0.102    3.884
   35.269   65.240    0.440    0.096    3.887
   36.089   59.013    0.440    0.089    3.967
   36.910   51.747    0.439    0.081    4.051
   37.730   53.842    0.439    0.057    4.054
   38.550   54.894    0.439    0.048    4.055
   39.370   55.426    0.439    0.050    4.226
   40.190   58.040    0.439    0.052    4.228
   41.011   59.609    0.440    0.052    4.317
   41.831   61.181    0.441    0.052    4.409
   42.651   60.673    0.442    0.051    4.501
   43.471   60.685    0.443    0.051    4.689
   44.291   60.697    0.442    0.051    4.787
   45.111   60.189    0.440    0.053    5.196
   45.932   59.159    0.439    0.062    5.524
   46.752   56.571    0.439    0.078    5.994
   47.572   52.944    0.439    0.085    6.503
   48.392   48.797    0.440    0.092    6.915
   49.213   48.289    0.439    0.112    7.656
   50.033   46.225    0.439    0.118    9.194
   50.853   44.154    0.439    0.108   10.601
   51.673   42.087    0.437    0.090   11.272
   52.493   54.580    0.436    0.033   11.509
   53.314   61.350    0.432    0.043   11.751
   54.134   70.200    0.429    0.200   11.758
   54.954   74.372    0.427    0.229   12.252
   55.774   78.543    0.428    0.300   12.508
   56.594   75.436    0.427    0.352   12.771
   57.415   69.729    0.424    0.511   13.040
   58.235   72.340    0.424    0.526   13.316
   59.055   77.551    0.428    0.513   13.320
   59.875   79.643    0.431    0.502   13.329
   60.696   76.536    0.432    0.501   13.335
   61.516   74.471    0.430    0.497   13.342
   62.336   73.967    0.427    0.486   13.350
   63.156   74.496    0.425    0.500   13.089
   63.976   75.031    0.424    0.516   13.096
   64.797   74.000    0.424    0.501   13.104
   65.617   71.410    0.424    0.492   12.848
   66.437   68.302    0.424    0.525   12.855
   67.257   67.278    0.425    0.527   12.606
   68.077   68.853    0.427    0.517   12.611
   68.898   70.941    0.427    0.464   12.365
   69.718   73.036    0.427    0.493   12.375
   70.538   70.965    0.427    0.481   12.382
   71.358   66.818    0.427    0.458   12.643
   72.178   61.635    0.428    0.438   12.650
   72.999   65.803    0.429    0.414   12.655
   73.819   71.534    0.429    0.448   12.408
   74.639   75.705    0.429    0.493   12.417
   75.459   77.280    0.428    0.509   12.174
   76.279   78.332    0.425    0.469   11.937
   77.100   80.420    0.422    0.381   11.705
   77.920   82.512    0.421    0.382   11.710
   78.740   82.004    0.421    0.386   11.715
   79.560   79.417    0.421    0.384   12.210
   80.381   76.832    0.421    0.382   12.720
   81.201   76.844    0.421    0.388   13.806
   82.021   75.814    0.421    0.392   14.090
   82.841   72.190    0.420    0.398   14.981
   83.661   69.602    0.418    0.437   15.610
   84.482   67.532    0.416    0.447   16.602
   85.302   67.547    0.413    0.454   16.949
   86.122   69.119    0.409    0.334   17.305
   86.942   71.736    0.406    0.334   17.315
   87.763   73.825    0.406    0.323   17.327
   88.583   76.953    0.409    0.309   16.984
   89.403   80.605    0.411    0.298   16.998
   90.223   85.819    0.410    0.290   16.664
   91.043   95.189    0.407    0.281   16.673
   91.864   97.278    0.406    0.275   17.022
   92.684   97.812    0.406    0.270   17.738
   93.504   96.262    0.408    0.264   18.111
   94.324   93.675    0.407    0.257   18.490
   95.144   93.687    0.406    0.249   18.500
   95.965   93.699    0.405    0.244   18.139
   96.785   92.671    0.406    0.248   17.787
   97.605   93.203    0.405    0.276   17.438
   98.425   89.056    0.402    0.280   17.448
   99.245   85.429    0.401    0.260   17.814
  100.066   80.242    0.400    0.260   18.561
  100.886   74.535    0.400    0.260   18.952
  101.706   72.471    0.400    0.259   20.159
  102.526   75.083    0.403    0.259   21.002
  103.346   77.174    0.406    0.259   22.788
  104.167   77.183    0.408    0.260   25.751
  104.987   76.162    0.408    0.259   26.824
  105.807   74.091    0.408    0.252   32.208
  106.627   69.424    0.405    0.204   41.096
  107.448   64.757    0.396    0.176   50.362
  108.268   59.571    0.323    0.220   41.984
  109.088   59.583    0.351    0.297   27.449
  109.908   71.552    0.387    0.303   14.654
  110.728   83.522    0.407    0.287    9.581
  111.549   94.452    0.416    0.280    7.670
  112.369  102.262    0.425    0.281    6.526
  113.189   94.476    0.426    0.274    6.399
  114.009   89.289    0.423    0.269    6.533
  114.829   93.983    0.417    0.265    6.808
  115.650   92.956    0.417    0.260    7.093
  116.470   89.845    0.414    0.253    7.243
  117.290   85.698    0.410    0.136    6.288
  118.110   84.674    0.412    0.272    5.243
  118.930   90.401    0.416    0.303    4.740
  119.751   95.093    0.424    0.329    4.115
  120.571   97.187    0.430    0.348    3.721
  121.391   87.319    0.431    0.366    3.575
  122.211   85.774    0.433    0.381    3.651
  123.031   90.985    0.434    0.411    3.883
  123.852   95.159    0.436    0.413    3.964
  124.672   93.609    0.436    0.353    4.130
  125.492   89.465    0.434    0.325    4.761
  126.312   87.394    0.429    0.308    5.834
  127.133   86.889    0.424    0.284    6.592
  127.953   89.498    0.420    0.265    7.154
  128.773   93.149    0.415    0.295    7.015
  129.593   96.803    0.415    0.279    7.018
  130.413   99.935    0.417    0.263    7.021
  131.234  102.543    0.418    0.262    7.170
  132.054  105.155    0.416    0.259    7.320
  132.874  105.170    0.412    0.254    7.474
  133.694  105.182    0.410    0.243    7.632
  134.514  104.674    0.409    0.239    7.635
  135.335  102.087    0.405    0.238    7.641
  136.155  101.059    0.403    0.236    7.801
  136.975   98.992    0.402    0.234    7.805
  137.795   97.445    0.404    0.228    8.469
  138.615   94.340    0.406    0.208    9.569
  139.436   91.750    0.401    0.136   10.810
  140.256   87.600    0.389    0.111   10.388
  141.076   87.095    0.379    0.182    9.018
  141.896   92.826    0.379    0.212    7.830
