~VERSION INFORMATION
 VERS.                 2.0:   CWLS LOG ASCII STANDARD -VERSION 2.0
 WRAP.                  NO:   ONE LINE PER DEPTH STEP
~WELL INFORMATION BLOCK
#MNEM.UNIT           DATA                    DESCRIPTION OF MNEMONIC
#---------    -------------------            -------------------------------
# Generated from Intellog Unique Number	CN_94_101/WELL/1066
WELL.         09-10-094-07W4                 : Well_name    - WELL
LOC .         AA/09-10-094-07W4/0            : Location     - LOCATION
UWI .         AA/09-10-094-07W400            : Uwi          - UNIQUE WELL ID
ENTR.         JOETTE                         : Entered      - ENTERED BY
SRVC.         WESTERN ATLAS                  : Scn          - SERVICE COMPANY
DATE.         04/12/92                       : Date         - LOG DATE
STRT.M        30.48                          : top_depth    - START DEPTH
STOP.M        246.98                         : bot_depth    - STOP DEPTH
STEP.M        0.25                           : increment    - STEP LENGTH
 NULL. -999.2500:NULL Value
~CURVE INFORMATION BLOCK
#MNEM UNIT       ERCB CURVE CODE    CURVE DESCRIPTION
#-----------   ------------------   ----------------------------------
DEPT.M        00 001 00 00         : DEPTH        - DEPTH
DPHI.V/V      00 890 00 00         : PHID         - DENSITY POROSITY (SANDSTONE)
ILD .OHMM     00 120 00 00         : RESD         - DEEP RESISTIVITY (DIL)
GR  .API      00 310 00 00         : GR           - GAMMA RAY
CALI.MM       00 280 01 00         : CAL          - CALIPER
~PARAMETER INFORMATION
#MNEM.UNIT           DATA             DESCRIPTION OF MNEMONIC
#---------         -----------     ------------------------------
GL  .M        524.134              : gl           - GROUND LEVEL ELEVATION
EREF.M        525.658              : kb           - ELEVATION OF DEPTH REFERENCE
DATM.M        525.658              : datum        - DATUM ELEVATION
TDD .M        249.326              : tdd          - TOTAL DEPTH DRILLER
RUN .         ONE                  : Run          - RUN NUMBER
ENG .         BILL                 : Engineer     - RECORDING ENGINEER
WIT .         JIM                  : Witness      - WITNESSED BY
MUD .         GEL                  : Mud_type     - MUD TYPE
MATR.         SANDSTONE            : Logunit      - NEUTRON MATRIX
TMAX.C        7.77778              : BHT          - MAXIMUM RECORDED TEMPERATURE
BHTD.M        249.326              : BHTDEP       - MAXIMUM RECORDED TEMPERATURE
RMT .C        5.55556              : MDTP         - TEMPERATURE OF MUD
MUDD.KG/M     1100                 : MWT          - MUD DENSITY
NEUT.         1                    : NEUTRON      - NEUTRON TYPE
RESI.         0                    : RESIST       - RESISTIVITY TYPE
RM  .OHMM     9                    : RM           - RESISTIVITY OF MUD
RMC .OHMM     9                    : RMC          - RESISTIVITY OF MUD CAKE
RMF .OHMM     9                    : RMF          - RESISTIVITY OF MUD FILTRATE
SUFT.C        -15                  : SUFT         - SURFACE TEMPERATURE
~A  DEPTH     PHID     RESD       GR      CAL
# ...
  117.480    0.242    8.866  109.004  181.527
  117.730    0.239    9.008  109.565  181.480
  117.980    0.237    9.009  109.551  181.433
  118.230    0.235    9.154  110.118  182.370
  118.480    0.240    9.300  110.679  182.347
  118.730    0.244    9.302  110.651  184.304
  118.980    0.244    9.451  110.021  185.277
  119.230    0.239    9.453  108.802  187.234
  119.480    0.238    9.454  109.965  187.175
  119.730    0.237    9.163  112.325  187.128
  119.980    0.239    8.607  115.267  188.089
  120.230    0.244    8.475  116.430  188.042
  120.480    0.244    8.476  116.998  187.983
  120.730    0.240    8.478  116.970  187.960
  120.980    0.236    8.347  115.751  186.869
  121.230    0.236    8.348  114.526  186.869
  121.480    0.240    8.219  114.505  182.731
  121.730    0.244    8.093  115.066  182.707
  121.980    0.246    8.094  115.633  181.652
  122.230    0.244    8.096  115.010  181.617
  122.480    0.239    8.097  113.196  181.534
  122.730    0.229    8.490  110.192  181.499
  122.980    0.180    8.625  107.783  181.440
  123.230    0.194    8.763  106.557  180.396
  123.480    0.215    8.765  112.476  180.338
  123.730    0.240    8.766  113.645  180.290
  123.980    0.252    8.497  115.403  180.243
  124.230    0.264    7.981  113.590  180.184
  124.480    0.264    7.858  109.990  181.169
  124.730    0.264    7.380  105.193  181.122
  124.980    0.263    7.042  103.379  181.051
  125.230    0.261    6.825  103.946  181.028
  125.480    0.261    6.616  105.698  180.957
  125.730    0.262    6.514  105.074  180.898
  125.980    0.265    6.413  103.856  180.863
  126.230    0.267    6.315  102.042  180.827
  126.480    0.268    6.316   99.633  180.780
  126.730    0.267    6.416   99.010  181.741
  126.980    0.267    6.520  101.363  181.694
  127.230    0.269    6.521  103.717  181.635
  127.480    0.273    6.625  101.308  181.588
  127.730    0.273    6.731   97.694  181.529
  127.980    0.270    6.947   97.659  180.462
  128.230    0.267    7.284   97.638  180.439
  128.480    0.264    7.400   97.604  179.383
  128.730    0.265    7.882   97.583  178.316
  128.980    0.268    8.007   96.364  177.261
  129.230    0.267    8.529   92.758  174.178
  129.480    0.269    8.802   89.158  173.135
  129.730    0.269    9.228   84.374  172.080
  129.980    0.268    9.984   79.584  171.024
  130.230    0.267   11.503   71.803  169.957
  130.480    0.261   12.250   69.996  169.898
  130.730    0.258   12.845   73.534  170.859
  130.980    0.253   13.050   75.894  170.801
  131.230    0.253   13.052   79.438  170.777
  131.480    0.249   12.454   78.815  170.718
  131.730    0.233   11.882   81.161  170.659
  131.980    0.215   10.647   85.287  171.620
  132.230    0.227   10.319   87.059  173.589
  132.480    0.263    9.542   90.603  174.562
  132.730    0.261    8.686   94.742  175.499
  132.980    0.255    8.551   89.357  175.476
  133.230    0.253    8.688   86.941  174.421
  133.480    0.254    9.253   86.324  171.337
  133.730    0.256   10.011   85.092  174.291
  133.980    0.259   10.332   84.469  176.272
  134.230    0.261   10.498   84.434  177.244
  134.480    0.261   10.017   84.420  178.194
  134.730    0.260    9.708   85.583  178.146
  134.980    0.259    9.263   88.532  177.068
  135.230    0.256    8.978   90.290  176.036
  135.480    0.255    8.980   87.278  174.969
  135.730    0.257    8.981   84.869  173.902
  135.980    0.263    9.269   83.651  172.859
  136.230    0.263    9.418   83.616  172.812
  136.480    0.263    9.569   84.184  176.809
  136.730    0.262    9.570   88.316  179.762
  136.980    0.261    9.131   91.867  179.715
  137.230    0.261    8.990   90.649  177.652
  137.480    0.264    8.578   91.209  176.585
  137.730    0.272    8.580   93.570  176.549
  137.980    0.280    8.447   97.114  176.514
  138.230    0.279    8.060   92.316  175.447
  138.480    0.276    7.812   91.084  175.388
  138.730    0.273    7.454   90.475  173.313
  138.980    0.277    7.225   89.249  172.270
  139.230    0.280    7.226   87.436  170.195
  139.480    0.281    7.696   84.438  169.163
  139.730    0.281    8.326   81.434  168.096
  139.980    0.281    9.008   78.415  167.029
  140.230    0.281   10.057   77.792  166.994
  140.480    0.284   11.053   78.955  166.935
  140.730    0.288   11.408   80.125  168.892
  140.980    0.293   10.548   82.471  171.881
  141.230    0.299    8.875   85.427  175.866
  141.480    0.304    7.829   88.376  177.835
  141.730    0.305    6.692   92.508  177.776
  141.980    0.304    5.811   96.052  176.733
  142.230    0.297    5.046   98.994  176.686
  142.480    0.290    4.890  101.950  176.627
  142.730    0.282    4.969  100.724  176.592
  142.980    0.272    5.292   98.308  177.529
  143.230    0.270    5.816   96.501  179.486
  143.480    0.270    6.493   96.460  179.463
  143.730    0.272    7.480   96.446  179.404
  143.980    0.276    8.221   95.823  178.360
  144.230    0.277    9.035   94.009  173.261
  144.480    0.262    9.623   94.576  172.206
  144.730    0.250   10.411   96.335  173.155
  144.980    0.238   11.623   98.688  173.108
  145.230    0.233   12.774   95.677  174.057
  145.480    0.233   13.392   92.665  175.042
  145.730    0.234   13.396   92.644  178.007
  145.980    0.234   12.781   93.212  180.996
  146.230    0.234   12.006   94.970  183.961
  146.480    0.241   11.635   96.133  184.922
  146.730    0.246   11.278   96.098  185.871
  146.980    0.247   10.931   95.461  186.844
  147.230    0.247   10.762   94.249  183.761
  147.480    0.247   10.765   91.840  178.685
  147.730    0.247   10.936   89.438  172.554
  147.980    0.249   11.288   87.015  171.523
  148.230    0.253   11.469   86.987  171.476
  148.480    0.256   12.024   86.960  170.420
  148.730    0.264   12.216   84.557  170.361
  148.980    0.268   13.011   79.172  169.318
  149.230    0.275   14.077   73.772  169.247
  149.480    0.281   14.992   71.370  168.180
  149.730    0.279   16.477   70.747  168.145
  149.980    0.273   17.826   73.696  168.110
  150.230    0.255   18.689   78.423  168.051
  150.480    0.236   17.282   80.777  168.004
  150.730    0.249   16.488   81.940  167.945
  150.980    0.251   15.008   83.102  167.898
  151.230    0.251   13.660   81.877  167.862
  151.480    0.251   12.630   80.070  167.803
  151.730    0.252   12.242   74.684  167.756
  151.980    0.258   12.053   72.871  167.721
  152.230    0.263   12.838   72.227  167.662
  152.480    0.270   13.889   72.206  166.583
  152.730    0.272   15.026   72.773  165.552
  152.980    0.271   16.003   74.525  165.493
  153.230    0.270   16.260   75.106  165.446
  153.480    0.260   15.761   78.055  166.407
  153.730    0.259   15.275   80.408  167.379
  153.980    0.260   13.905   82.166  168.317
  154.230    0.262   13.477   82.727  168.281
  154.480    0.263   13.268   81.501  169.219
  154.730    0.264   12.660   80.885  169.183
  154.980    0.263   12.863   79.667  169.148
  155.230    0.262   13.068   82.609  169.101
  155.480    0.256   13.701   81.397  170.050
  155.730    0.249   14.593   76.593  169.991
  155.980    0.240   15.542   72.993  169.944
  156.230    0.167   16.042   71.781  169.885
  156.480    0.187   16.043   78.295  169.862
  156.730    0.242   15.550   83.632  170.799
  156.980    0.273   14.605   90.146  171.772
  157.230    0.274   12.683   93.102  172.721
  157.480    0.273   11.544   95.455  173.682
  157.730    0.272   10.344   93.039  175.663
  157.980    0.271    9.715   89.439  177.632
  158.230    0.269    9.565   87.023  180.597
  158.480    0.266    9.567   85.812  183.574
  158.730    0.266    9.874   87.563  182.531
  158.980    0.268    9.722   90.512  181.452
  159.230    0.275    9.276   93.460  180.397
  159.480    0.283    8.443   96.998  179.353
  159.730    0.296    7.566   98.756  178.298
  159.980    0.309    6.995   99.323  177.231
  160.230    0.311    6.468   99.891  177.196
  160.480    0.312    5.980   99.870  177.137
  160.730    0.310    5.193  100.437  177.090
