~VERSION INFORMATION
 VERS.                 2.0:   CWLS LOG ASCII STANDARD -VERSION 2.0
 WRAP.                  NO:   ONE LINE PER DEPTH STEP
~WELL INFORMATION BLOCK
#MNEM.UNIT           DATA                    DESCRIPTION OF MNEMONIC
#---------    -------------------            -------------------------------
# Generated from Intellog Unique Number	CN_91_93/WELL/3624
WELL.         02-21-093-07W4                 : Well_name    - WELL
LOC .         AA/02-21-093-07W4/0            : Location     - LOCATION
UWI .         AA/02-21-093-07W400            : Uwi          - UNIQUE WELL ID
ENTR.         JOETTE                         : Entered      - ENTERED BY
SRVC.         WESTERN ATLAS                  : Scn          - SERVICE COMPANY
DATE.         03/18/92                       : Date         - LOG DATE
STRT.F        50                             : top_depth    - START DEPTH
STOP.F        820.177                        : bot_depth    - STOP DEPTH
STEP.F        0.8202                         : increment    - STEP LENGTH
 NULL. -999.2500:NULL Value
~CURVE INFORMATION BLOCK
#MNEM UNIT       ERCB CURVE CODE    CURVE DESCRIPTION
#-----------   ------------------   ----------------------------------
DEPT.F        00 001 00 00         : DEPTH        - DEPTH
ILD .OHMM     00 120 00 00         : RESD         - DEEP RESISTIVITY (DIL)
CALI.IN       00 280 01 00         : CAL          - CALIPER
GR  .API      00 310 00 00         : GR           - GAMMA RAY
NPHI.V/V      00 330 00 00         : PHIN         - NEUTRON POROSITY (SANDSTONE)
~PARAMETER INFORMATION
#MNEM.UNIT           DATA             DESCRIPTION OF MNEMONIC
#---------         -----------     ------------------------------
GL  .M        506.578              : gl           - GROUND LEVEL ELEVATION
EREF.M        508.102              : kb           - ELEVATION OF DEPTH REFERENCE
DATM.M        508.102              : datum        - DATUM ELEVATION
TDD .M        508.102              : tdd          - TOTAL DEPTH DRILLER
RUN .         ONE                  : Run          - RUN NUMBER
ENG .         JO                   : Engineer     - RECORDING ENGINEER
WIT .         TIM                  : Witness      - WITNESSED BY
MUD .         GEL                  : Mud_type     - MUD TYPE
MATR.         SANDSTONE            : Logunit      - NEUTRON MATRIX
TMAX.F        47                   : BHT          - MAXIMUM RECORDED TEMPERATURE
BHTD.F        832                  : BHTDEP       - MAXIMUM RECORDED TEMPERATURE
RMT .F        40                   : MDTP         - TEMPERATURE OF MUD
MUDD.LB/G     0.541666             : MWT          - MUD DENSITY
NEUT.         1                    : NEUTRON      - NEUTRON TYPE
RESI.         0                    : RESIST       - RESISTIVITY TYPE
RM  .OHMM     9                    : RM           - RESISTIVITY OF MUD
RMC .OHMM     9                    : RMC          - RESISTIVITY OF MUD CAKE
RMF .OHMM     9                    : RMF          - RESISTIVITY OF MUD FILTRATE
SUFT.F        39.2                 : SUFT         - SURFACE TEMPERATURE
~A  DEPTH     RESD      CAL       GR     PHIN
# ...
  192.717   31.651    7.195   65.724    0.328
  193.537   31.670    7.278   64.578    0.334
  194.357   32.287    7.359   64.001    0.339
  195.177   32.344    7.482   62.856    0.344
  195.997   33.596    7.563   61.105    0.349
  196.818   33.616    7.686   59.942    0.343
  197.638   33.646    7.648   59.392    0.337
  198.458   34.311    7.452   58.834    0.334
  199.278   34.352    7.375   58.871    0.333
  200.098   34.393    7.218   59.504    0.332
  200.919   33.826    7.062   60.137    0.333
  201.739   33.248    6.946   60.780    0.337
  202.559   31.529    6.909   61.413    0.342
  203.379   29.906    6.912   62.642    0.353
  204.199   28.869    6.914   65.091    0.372
  205.020   27.875    6.917   66.311    0.382
  205.840   26.441    6.920   68.126    0.399
  206.660   25.523    6.961   68.750    0.409
  207.480   24.660    6.963   70.603    0.418
  208.301   24.689    6.966   71.227    0.418
  209.121   24.726    6.968   71.255    0.418
  209.941   25.192    6.971   70.110    0.417
  210.761   26.637    6.934   68.946    0.415
  211.581   28.149    6.897   65.427    0.414
  212.402   30.861    6.822   63.657    0.411
  213.222   33.218    6.784   58.350    0.409
  214.042   35.776    6.785   57.177    0.408
  214.862   36.461    6.788   55.427    0.407
  215.682   37.171    6.790   56.060    0.407
  216.503   37.895    6.873   58.481    0.402
  217.323   37.940    6.995   59.729    0.400
  218.143   37.974    7.196   60.362    0.397
  218.963   38.030    7.357   60.390    0.391
  219.783   38.782    7.359   61.023    0.390
  220.604   38.143    7.163   61.060    0.391
  221.424   38.166    7.007   61.097    0.397
  222.244   38.211    6.852   61.740    0.396
  223.064   36.907    6.853   61.787    0.391
  223.885   36.288    6.856   62.420    0.385
  224.705   35.668    6.899   63.053    0.378
  225.525   33.843    6.980   63.677    0.373
  226.345   33.276    7.181   64.906    0.369
  227.165   32.717    7.383   65.558    0.364
  227.986   32.756    7.505   64.990    0.360
  228.806   32.207    7.428   63.835    0.356
  229.626   31.657    7.312   59.701    0.359
  230.446   31.145    7.234   57.355    0.370
  231.266   30.604    7.078   56.806    0.387
  232.087   30.108    6.921   58.053    0.390
  232.907   29.081    6.805   58.668    0.395
  233.727   28.585    6.767   59.897    0.401
  234.547   28.097    6.731   61.126    0.414
  235.367   26.181    6.734   61.750    0.420
  236.188   24.819    6.736   62.998    0.422
  237.008   23.535    6.739   63.631    0.422
  237.828   22.311    6.741   63.659    0.421
  238.648   21.157    6.744   63.724    0.421
  239.469   19.013    6.786   63.733    0.420
  240.289   18.354    6.788   63.771    0.418
  241.109   16.785    6.832   65.000    0.415
  241.929   16.217    6.873   68.035    0.414
  242.749   15.936    6.876   69.264    0.412
  243.570   16.251    6.878   68.110    0.412
  244.390   17.178    6.881   65.763    0.413
  245.210   17.507    6.883   64.600    0.419
  246.030   18.180    6.885   62.849    0.423
  246.850   18.212    6.849   64.674    0.426
  247.671   18.223    6.811   69.488    0.429
  248.491   17.285    6.814   70.717    0.432
  249.311   16.995    6.777   67.179    0.433
  250.131   17.648    6.780   63.641    0.435
  250.951   17.664    6.742   61.900    0.435
  251.772   18.008    6.745   63.129    0.435
  252.592   17.076    6.747   66.732    0.433
  253.412   15.617    6.750   72.142    0.428
  254.232   14.283    6.752   69.200    0.421
  255.052   14.043    6.755   65.662    0.417
  255.873   16.547    6.758   59.144    0.419
  256.693   23.794    6.760   57.989    0.420
  257.513   26.562    6.764   56.835    0.423
  258.333   29.113    6.765   56.276    0.425
  259.154   30.783    6.729   56.332    0.426
  259.974   31.401    6.651   56.360    0.425
  260.794   31.429    6.455   56.397    0.423
  261.614   30.893    6.458   55.848    0.420
  262.434   28.786    6.659   55.289    0.418
  263.255   27.289    6.820   55.327    0.415
  264.075   24.965    6.824   55.364    0.412
  264.895   24.539    6.825   55.392    0.410
  265.715   23.694    6.828   55.439    0.408
  266.535   23.722    6.712   56.072    0.408
  267.356   24.177    6.674   56.714    0.408
  268.176   25.098    6.559   57.338    0.406
  268.996   27.516    6.560   57.376    0.400
  269.816   29.635    6.602   56.826    0.388
  270.636   29.653    6.685   56.873    0.368
  271.457   28.641    6.767   56.891    0.351
  272.277   27.647    6.809   56.938    0.343
  273.097   24.838    6.852   56.966    0.374
  273.917   22.709    6.855   57.618    0.399
  274.738   20.036    6.817   57.646    0.412
  275.558   18.001    6.780   58.288    0.420
  276.378   17.376    6.743   58.326    0.420
  277.198   17.080    6.666   58.353    0.420
  278.018   16.798    6.667   58.400    0.419
  278.839   17.438    6.671   58.428    0.417
  279.659   18.770    6.673   58.475    0.415
  280.479   20.578    6.676   58.531    0.412
  281.299   21.356    6.678   58.549    0.411
  282.119   22.581    6.680   58.596    0.409
  282.940   23.021    6.684   58.633    0.407
  283.760   23.469    6.685   58.670    0.408
  284.580   23.075    6.689   58.717    0.410
  285.400   22.688    6.690   58.736    0.409
  286.220   23.983    6.654   58.773    0.408
  287.041   27.761    6.537   58.820    0.408
  287.861   30.991    6.500   58.857    0.414
  288.681   29.925    6.502   58.894    0.416
  289.501   28.369    6.546   58.931    0.416
  290.322   25.022    6.587   59.565    0.416
  291.142   19.799    6.629   59.602    0.416
  291.962   17.788    6.672   59.648    0.416
  292.782   19.146    6.674   60.282    0.416
  293.602   20.244    6.677   60.319    0.416
  294.423   20.262    6.640   60.952    0.418
  295.243   19.928    6.642   61.585    0.420
  296.063   19.588    6.566   62.814    0.420
  296.883   17.925    6.568   64.043    0.419
  297.703   17.614    6.571   65.868    0.418
  298.524   16.403    6.573   68.895    0.418
  299.344   15.839    6.576   70.133    0.418
  300.164   15.024    6.578   70.170    0.419
  300.984   14.767    6.543   69.006    0.419
  301.804   15.055    6.504   65.487    0.418
  302.625   16.807    6.506   63.131    0.417
  303.445   19.100    6.469   60.189    0.414
  304.265   21.706    6.473   57.247    0.413
  305.085   25.118    6.474   54.901    0.417
  305.906   28.561    6.478   52.554    0.418
  306.726   30.191    6.479   49.621    0.421
  307.546   31.332    6.522   47.871    0.423
  308.366   32.525    6.644   47.312    0.424
  309.186   33.188    6.766   46.148    0.421
  310.007   33.208    6.847   45.590    0.419
  310.827   33.854    6.930   45.031    0.415
  311.647   34.534    6.933   45.078    0.412
  312.467   34.565    6.934   45.115    0.417
  313.287   35.248    6.938   45.153    0.416
  314.108   35.269    6.939   45.199    0.416
  314.928   35.311    6.982   45.246    0.419
  315.748   34.729    7.024   45.264    0.426
  316.568   34.770    6.949   45.320    0.426
  317.388   34.832    6.910   45.339    0.426
  318.209   34.237    6.754   45.395    0.423
  319.029   34.268    6.677   45.413    0.421
  319.849   34.329    6.601   45.460    0.419
  320.669   33.733    6.603   46.698    0.417
  321.490   33.783    6.646   47.332    0.415
  322.310   33.813    6.687   47.965    0.413
  323.130   34.492    6.650   49.194    0.411
  323.950   34.533    6.613   49.827    0.407
  324.770   35.205    6.536   49.874    0.402
  325.591   36.535    6.499   49.902    0.398
  326.411   38.643    6.581   47.555    0.382
  327.231   40.091    6.742   45.218    0.323
  328.051   43.967    6.784   44.064    0.317
  328.871   44.019    6.707   45.889    0.373
  329.692   40.258    6.591   48.310    0.398
  330.512   34.246    6.555   48.934    0.395
  331.332   31.311    6.558   50.172    0.392
  332.152   30.786    6.599   50.218    0.388
  332.972   32.552    6.602   50.246    0.396
  333.793   34.409    6.645   49.101    0.408
  334.613   36.383    6.686   46.764    0.420
