~VERSION INFORMATION
 VERS.                 2.0:   CWLS LOG ASCII STANDARD -VERSION 2.0
 WRAP.                  NO:   ONE LINE PER DEPTH STEP
~WELL INFORMATION BLOCK
#MNEM.UNIT           DATA                    DESCRIPTION OF MNEMONIC
#---------    -------------------            -------------------------------
# Generated from Intellog Unique Number	CX_WELLS/WELL/3847
WELL.         HORSE CREEK                    : Well_name    - WELL
LOC .         AA/05-14-087-10W4/0            : Location     - LOCATION
UWI .         AA/05-14-087-10W400            : Uwi          - UNIQUE WELL ID
ENTR.         T                              : Entered      - ENTERED BY
SRVC.         SCHLUMBERGER                   : Scn          - SERVICE COMPANY
STRT.F        50                             : top_depth    - START DEPTH
STOP.F        579.856                        : bot_depth    - STOP DEPTH
STEP.F        0.8202                         : increment    - STEP LENGTH
 NULL. -999.2500:NULL Value
~CURVE INFORMATION BLOCK
#MNEM UNIT       ERCB CURVE CODE    CURVE DESCRIPTION
#-----------   ------------------   ----------------------------------
DEPT.F        00 001 00 00         : DEPTH        - DEPTH
GR  .API      00 310 00 00         : GR           - GAMMA RAY
NPHI.V/V      00 330 00 00         : PHIN         - NEUTRON POROSITY (SANDSTONE)
ILD .OHMM     00 120 00 00         : RESD         - DEEP RESISTIVITY (DIL)
~PARAMETER INFORMATION
#MNEM.UNIT           DATA             DESCRIPTION OF MNEMONIC
#---------         -----------     ------------------------------
GL  .F        1390                 : gl           - GROUND LEVEL ELEVATION
EREF.F        1398                 : kb           - ELEVATION OF DEPTH REFERENCE
DATM.F        1398                 : datum        - DATUM ELEVATION
TDD .F        583                  : tdd          - TOTAL DEPTH DRILLER
RUN .         ONE                  : Run          - RUN NUMBER
ENG .         BILL                 : Engineer     - RECORDING ENGINEER
WIT .         JIM                  : Witness      - WITNESSED BY
MUD .         GEL                  : Mud_type     - MUD TYPE
MATR.         SANDSTONE            : Logunit      - NEUTRON MATRIX
TMAX.F        52                   : BHT          - MAXIMUM RECORDED TEMPERATURE
BHTD.F        583                  : BHTDEP       - MAXIMUM RECORDED TEMPERATURE
MATR.         1                    : LOGUNIT      - NEUTRON MATRIX
RMT .F        52                   : MDTP         - TEMPERATURE OF MUD
NEUT.         1                    : NEUTRON      - NEUTRON TYPE
RESI.         8                    : RESIST       - RESISTIVITY TYPE
RMC .OHMM     8                    : RMC          - RESISTIVITY OF MUD CAKE
RMF .OHMM     8                    : RMF          - RESISTIVITY OF MUD FILTRATE
SUFT.F        32                   : SUFT         - SURFACE TEMPERATURE
~A  DEPTH       GR     PHIN     RESD
   50.000   63.854    0.277   16.672
   50.820   59.018    0.209   16.693
   51.640   54.205    0.248   17.424
   52.461   62.044    0.287   17.087
   53.281   73.780    0.331   18.545
   54.101   88.450    0.343   21.252
   54.921   92.892    0.333   31.130
   55.742   96.846    0.312   26.132
   56.562   89.087    0.298   21.314
   57.382   53.565    0.283   17.932
   58.202   55.571    0.349   18.674
   59.022   57.055    0.361   17.974
   59.843   60.534    0.367   17.099
   60.663   65.440    0.359   16.045
   61.483   71.331    0.356   15.524
   62.303   72.363    0.355   17.524
   63.123   67.526    0.349   20.046
   63.944   61.728    0.347   19.709
   64.764   62.748    0.353   15.248
   65.584   69.138    0.359   13.657
   66.404   73.081    0.367   14.215
   67.224   74.101    0.377   12.982
   68.045   70.737    0.384   12.466
   68.865   67.374    0.374   15.177
   69.685   66.945    0.365   15.019
   70.505   68.441    0.360   13.423
   71.326   68.487    0.359   14.702
   72.146   65.123    0.354   15.623
   72.966   59.336    0.350   14.206
   73.786   60.356    0.357   13.690
   74.606   69.657    0.381   13.531
   75.427   81.892    0.385    9.966
   76.247   89.244    0.397    8.380
   77.067   91.737    0.400    8.575
   77.887   86.901    0.353   10.386
   78.707   73.309    0.340   20.444
   79.528   63.115    0.335   39.638
   80.348   59.752    0.330   46.288
   81.168   51.517    0.320   52.760
   81.988   49.128    0.311   52.781
   82.808   48.200    0.306   53.338
   83.629   45.811    0.306   54.080
   84.449   42.447    0.306   54.638
   85.269   41.519    0.306   55.554
   86.089   41.090    0.304   56.654
   86.909   41.125    0.303   57.744
   87.730   40.684    0.306   59.376
   88.550   39.767    0.314   61.735
   89.370   40.788    0.320   58.701
   90.190   43.756    0.314   55.320
   91.010   46.736    0.318   51.933
   91.831   48.719    0.321   47.841
   92.651   50.714    0.326   46.240
   93.471   51.247    0.331   44.112
   94.291   51.293    0.335   42.700
   95.112   51.374    0.338   41.826
   95.932   52.371    0.333   40.772
   96.752   57.288    0.329   39.898
   97.572   58.309    0.324   39.018
   98.392   56.894    0.336   37.785
   99.213   57.427    0.335   37.090
  100.033   58.459    0.319   36.394
  100.853   51.674    0.317   35.525
  101.673   45.388    0.334   34.650
  102.493   48.357    0.338   33.949
  103.314   49.400    0.337   33.075
  104.134   48.472    0.329   32.026
  104.954   48.020    0.330   30.972
  105.774   47.092    0.331   30.087
  106.594   45.688    0.333   28.681
  107.415   46.222    0.331   27.622
  108.235   45.294    0.324   26.210
  109.055   42.916    0.321   25.162
  109.875   41.489    0.319   24.466
  110.696   40.561    0.318   23.955
  111.516   45.467    0.318   23.612
  112.336   48.459    0.319   23.449
  113.156   47.531    0.322   22.748
  113.976   45.130    0.321   21.695
  114.797   43.239    0.321   19.925
  115.617   50.093    0.330   17.259
  116.437   68.173    0.358   15.306
  117.257   94.046    0.366   12.819
  118.077   98.487    0.371   10.691
  118.898  105.352    0.370   10.354
  119.718  114.676    0.377   10.017
  120.538  118.607    0.386    9.326
  121.358  121.576    0.382    8.799
  122.178  118.700    0.378    7.756
  122.999  112.414    0.379    7.587
  123.819  111.010    0.383    6.897
  124.639  116.403    0.388    6.554
  125.459  117.933    0.395    6.038
  126.280  115.532    0.400    5.700
  127.100  117.051    0.399    5.368
  127.920  118.060    0.395    5.210
  128.740  119.081    0.394    5.235
  129.560  121.087    0.392    5.246
  130.381  119.671    0.389    5.277
  131.201  116.795    0.384    5.277
  132.021  114.893    0.385    5.676
  132.841  114.452    0.389    5.507
  133.661  114.487    0.388    5.364
  134.482  112.109    0.379    5.201
  135.302  109.720    0.381    5.216
  136.122  106.832    0.386    5.237
  136.942  103.967    0.382    5.258
  137.762  108.884    0.377    5.278
  138.583  112.340    0.380    5.304
  139.403  116.770    0.379    5.320
  140.223  118.776    0.384    5.519
  141.043  114.914    0.388    5.540
  141.864  111.075    0.391    5.745
  142.684  111.133    0.390    5.939
  143.504  110.205    0.383    6.144
  144.324  108.302    0.381    6.160
  145.144  106.864    0.378    6.185
  145.965  106.933    0.375    6.027
  146.785  105.994    0.367    6.043
  147.605  103.605    0.368    5.710
  148.425  104.149    0.369    5.726
  149.245  107.594    0.371    5.757
  150.066  112.024    0.372    5.772
  150.886  113.055    0.373    5.788
  151.706  112.127    0.376    5.813
  152.526  112.174    0.371    5.834
  153.346  110.283    0.375    5.681
  154.167  108.381    0.380    5.696
  154.987  107.453    0.385    5.533
  155.807  107.012    0.384    5.553
  156.627  106.571    0.370    5.405
  157.448  105.156    0.368    5.237
  158.268  103.741    0.367    5.262
  159.088  100.853    0.363    5.467
  159.908   97.002    0.356    5.657
  160.728   93.152    0.335    6.220
  161.549   92.711    0.350    6.777
  162.369   94.706    0.367    7.335
  163.189   96.700    0.370    7.182
  164.009   98.695    0.380    6.492
  164.829   99.251    0.389    6.323
  165.650   99.784    0.384    5.627
  166.470   99.830    0.380    5.648
  167.290  100.352    0.378    5.669
  168.110  101.384    0.377    5.694
  168.930  101.418    0.374    5.710
  169.751  101.465    0.369    5.736
  170.571   99.562    0.365    5.935
  171.391   96.686    0.352    6.135
  172.211   91.862    0.344    6.150
  173.031   87.037    0.341    6.529
  173.852   83.674    0.345    6.913
  174.672   84.218    0.349    7.113
  175.492   84.751    0.351    6.960
  176.312   86.259    0.354    6.448
  177.133   85.319    0.353    6.106
  177.953   77.572    0.355    5.758
  178.773   76.644    0.359    5.778
  179.593   82.547    0.343    5.983
  180.413   80.645    0.108    5.651
  181.234   71.912    0.162    5.303
  182.054   53.438    0.230    5.682
  182.874   43.754    0.322   28.826
  183.694   48.172    0.342   25.797
  184.514   57.484    0.349   22.590
  185.335   63.375    0.356   13.290
  186.155   79.994    0.361    7.581
  186.975   87.845    0.368    5.090
  187.795   89.364    0.375    4.752
  188.615   90.396    0.380    4.957
  189.436   91.393    0.374    5.336
  190.256   96.321    0.361    5.530
  191.076   95.880    0.351    5.556
  191.896   90.082    0.343    5.572
  192.717   86.231    0.342    5.603
  193.537   90.661    0.360    5.807
  194.357   94.117    0.367    6.002
  195.177   97.584    0.369    6.196
  195.997   98.593    0.365    6.217
  196.818   98.662    0.360    6.064
  197.638   98.708    0.360    5.905
  198.458   98.267    0.357    5.752
  199.278   96.354    0.348    5.763
  200.098   90.068    0.345    5.788
  200.919   85.719    0.344    5.988
  201.739   79.433    0.341    6.362
  202.559   81.926    0.346    6.214
  203.379   89.278    0.351    6.050
  204.199   95.680    0.363    5.712
  205.020   94.740    0.371    5.370
  205.840   97.709    0.379    4.327
  206.660  101.651    0.387    4.337
  207.480  103.646    0.385    4.358
  208.301  105.664    0.378    4.573
  209.121  106.174    0.368    4.588
  209.941  106.718    0.369    4.604
  210.761  104.341    0.370    4.619
  211.581  101.952    0.367    4.640
  212.402  102.485    0.366    4.660
  213.222  103.494    0.360    4.686
  214.042  103.540    0.355    4.707
  214.862  103.099    0.351    4.728
  215.682   97.300    0.348    4.927
  216.503   91.026    0.350    5.311
  217.323   93.496    0.349    5.321
  218.143   95.977    0.352    5.347
  218.963   96.522    0.355    5.373
  219.783   96.557    0.358    5.388
  220.604   95.142    0.353    5.593
  221.424   94.214    0.264    6.151
  222.244   92.311    0.268    6.888
  223.064   87.487    0.279    8.336
  223.885   82.175    0.282   12.480
  224.705   71.993    0.279   11.605
  225.525   62.773    0.273   10.188
  226.345   69.649    0.275    9.493
  227.165   69.696    0.282    8.797
