~VERSION INFORMATION
 VERS.                 2.0:   CWLS LOG ASCII STANDARD -VERSION 2.0
 WRAP.                  NO:   ONE LINE PER DEPTH STEP
~WELL INFORMATION BLOCK
#MNEM.UNIT           DATA                    DESCRIPTION OF MNEMONIC
#---------    -------------------            -------------------------------
# Generated from Intellog Unique Number	CW_79_81/WELL/2445
WELL.         04-30-081-19W4                 : Well_name    - WELL
LOC .         AA/04-30-081-19W4/0            : Location     - LOCATION
UWI .         AA/04-30-081-19W400            : Uwi          - UNIQUE WELL ID
ENTR.         MAX                            : Entered      - ENTERED BY
SRVC.         COMPUTALOG                     : Scn          - SERVICE COMPANY
STRT.M        185                            : top_depth    - START DEPTH
STOP.M        374.75                         : bot_depth    - STOP DEPTH
STEP.M        0.25                           : increment    - STEP LENGTH
 NULL. -999.2500:NULL Value
~CURVE INFORMATION BLOCK
#MNEM UNIT       ERCB CURVE CODE    CURVE DESCRIPTION
#-----------   ------------------   ----------------------------------
DEPT.M        00 001 00 00         : DEPTH        - DEPTH
ILD .OHMM     00 120 00 00         : RESD         - DEEP RESISTIVITY (DIL)
NPHI.V/V      00 330 00 00         : PHIN         - NEUTRON POROSITY (SANDSTONE)
DPHI.V/V      00 890 00 00         : PHID         - DENSITY POROSITY (SANDSTONE)
GR  .API      00 310 00 00         : GR           - GAMMA RAY
CALI.MM       00 280 01 00         : CAL          - CALIPER
~PARAMETER INFORMATION
#MNEM.UNIT           DATA             DESCRIPTION OF MNEMONIC
#---------         -----------     ------------------------------
GL  .M        585                  : gl           - GROUND LEVEL ELEVATION
EREF.M        588.2                : kb           - ELEVATION OF DEPTH REFERENCE
DATM.M        585                  : datum        - DATUM ELEVATION
TDD .M        376                  : tdd          - TOTAL DEPTH DRILLER
RUN .         ONE                  : Run          - RUN NUMBER
ENG .         BILL                 : Engineer     - RECORDING ENGINEER
WIT .         JIM                  : Witness      - WITNESSED BY
MUD .         GEL                  : Mud_type     - MUD TYPE
MATR.         SANDSTONE            : Logunit      - NEUTRON MATRIX
TMAX.C        18                   : BHT          - MAXIMUM RECORDED TEMPERATURE
BHTD.M        376                  : BHTDEP       - MAXIMUM RECORDED TEMPERATURE
MATR.         1                    : LOGUNIT      - NEUTRON MATRIX
RMT .C        20                   : MDTP         - TEMPERATURE OF MUD
NEUT.         1                    : NEUTRON      - NEUTRON TYPE
RESI.         0                    : RESIST       - RESISTIVITY TYPE
RMC .OHMM     7                    : RMC          - RESISTIVITY OF MUD CAKE
RMF .OHMM     9                    : RMF          - RESISTIVITY OF MUD FILTRATE
SUFT.C        -15                  : SUFT         - SURFACE TEMPERATURE
~A  DEPTH     RESD     PHIN     PHID       GR      CAL
# ...
  258.000   15.043    0.420    0.342   49.178  250.624
  258.250   15.018    0.422    0.343   49.110  250.646
  258.500   14.902    0.445    0.344   51.142  250.665
  258.750   14.901    0.467    0.343   50.669  250.687
  259.000   14.982    0.455    0.342   51.650  250.701
  259.250   15.146    0.440    0.340   52.509  250.716
  259.500   15.342    0.434    0.338   52.944  250.733
  259.750   15.478    0.441    0.337   54.079  250.839
  260.000   15.596    0.457    0.337   54.846  251.279
  260.250   15.826    0.450    0.323   54.857  251.297
  260.500   15.883    0.436    0.320   54.686  251.315
  260.750   15.941    0.443    0.321   54.818  251.535
  261.000   16.057    0.469    0.320   55.254  251.857
  261.250   16.174    0.481    0.313   55.659  251.880
  261.500   16.173    0.461    0.316   56.428  251.895
  261.750   16.291    0.457    0.313   57.168  251.911
  262.000   16.320    0.466    0.314   59.907  251.932
  262.250   16.258    0.466    0.315   62.221  252.153
  262.500   16.107    0.456    0.313   63.747  252.472
  262.750   15.797    0.467    0.304   66.641  252.574
  263.000   15.436    0.534    0.292   68.926  253.014
  263.250   15.321    0.492    0.290   66.511  253.034
  263.500   15.376    0.443    0.288   68.825  253.051
  263.750   15.546    0.428    0.293   68.108  252.663
  264.000   15.804    0.445    0.303   62.844  251.873
  264.250   16.132    0.438    0.311   58.118  250.921
  264.500   16.007    0.420    0.308   59.898  250.096
  264.750   15.888    0.445    0.311   61.848  249.303
  265.000   15.595    0.436    0.311   63.252  248.208
  265.250   15.252    0.421    0.310   63.869  247.621
  265.500   15.002    0.417    0.310   63.880  247.640
  265.750   14.954    0.424    0.308   63.841  247.659
  266.000   14.725    0.420    0.306   63.600  247.678
  266.250   14.507    0.433    0.310   64.825  247.290
  266.500   14.134    0.432    0.314   66.957  247.210
  266.750   13.723    0.425    0.318   68.907  247.633
  267.000   13.323    0.433    0.321   70.313  248.556
  267.250   12.581    0.495    0.324   72.046  249.873
  267.500   11.059    0.494    0.324   74.581  250.313
  267.750    9.445    0.462    0.210   76.775  250.739
  268.000    8.465    0.393    0.161   74.239  251.159
  268.250    7.842    0.313    0.133   68.549  251.377
  268.500    7.436    0.250    0.106   62.860  251.495
  268.750    6.995    0.242    0.098   63.269  252.007
  269.000    6.242    0.280    0.187   70.100  252.445
  269.250    5.925    0.388    0.219   81.024  252.867
  269.500    5.948    0.433    0.227   84.310  252.985
  269.750    6.255    0.435    0.249   79.348  253.206
  270.000    6.930    0.423    0.284   69.475  253.530
  270.250    8.553    0.432    0.290   61.816  253.465
  270.500   10.074    0.440    0.286   61.069  253.061
  270.750   12.400    0.404    0.282   63.748  253.077
  271.000   13.745    0.385    0.280   66.973  253.095
  271.250   14.321    0.381    0.276   68.924  253.113
  271.500   14.667    0.384    0.268   67.782  253.132
  271.750   15.175    0.383    0.253   61.529  253.155
  272.000   15.528    0.383    0.249   60.530  253.170
  272.250   15.526    0.365    0.248   60.783  252.787
  272.500   15.354    0.341    0.251   61.036  252.702
  272.750   15.184    0.353    0.266   61.774  252.719
  273.000   15.071    0.396    0.283   62.574  252.535
  273.250   14.913    0.408    0.277   62.001  251.579
  273.500   14.684    0.385    0.268   61.505  250.754
  273.750   14.468    0.388    0.276   62.728  249.155
  274.000   14.096    0.409    0.291   64.316  246.951
  274.250   13.788    0.424    0.303   66.026  245.150
  274.500   13.636    0.427    0.306   67.491  243.954
  274.750   13.655    0.438    0.304   68.230  242.509
  275.000   13.759    0.444    0.309   68.241  241.266
  275.250   13.860    0.416    0.301   68.495  240.880
  275.500   13.885    0.404    0.296   69.294  241.401
  275.750   13.883    0.410    0.295   69.669  243.034
  276.000   13.882    0.425    0.298   68.102  245.376
  276.250   13.881    0.425    0.299   62.992  247.502
  276.500   13.879    0.383    0.285   65.276  247.944
  276.750   13.776    0.376    0.285   66.498  247.962
  277.000   13.674    0.392    0.285   66.813  247.979
  277.250   13.572    0.416    0.287   67.430  247.794
  277.500   13.496    0.434    0.291   67.926  247.509
  277.750   13.474    0.431    0.290   65.837  247.530
  278.000   13.370    0.421    0.288   63.825  247.545
  278.250   13.368    0.401    0.280   64.321  247.563
  278.500   13.367    0.407    0.274   66.818  248.190
  278.750   13.415    0.412    0.278   68.648  248.816
  279.000   13.538    0.410    0.277   69.568  249.236
  279.250   13.759    0.413    0.227   70.603  249.744
  279.500   13.864    0.401    0.176   64.802  250.183
  279.750   13.863    0.397    0.205   65.055  250.204
  280.000   13.329    0.387    0.212   68.037  250.221
  280.250   12.218    0.376    0.215   73.626  249.833
  280.500   10.612    0.375    0.218   80.124  249.244
  280.750    8.645    0.404    0.218   84.515  249.264
  281.000    8.194    0.402    0.220   85.788  249.285
  281.250    8.013    0.391    0.238   85.801  249.301
  281.500    7.925    0.405    0.265   84.900  249.622
  281.750    7.895    0.426    0.266   85.031  250.044
  282.000    7.909    0.437    0.245   86.133  250.465
  282.250    7.979    0.422    0.242   85.945  250.807
  282.500    8.040    0.419    0.250   84.946  250.404
  282.750    8.218    0.440    0.267   80.590  251.229
  283.000    8.493    0.430    0.272   78.963  250.539
  283.250    8.812    0.415    0.250   81.035  249.750
  283.500    9.043    0.409    0.216   85.896  249.566
  283.750    8.892    0.409    0.214   90.811  249.989
  284.000    8.492    0.401    0.215   91.075  250.008
  284.250    8.062    0.396    0.217   88.417  250.026
  284.500    7.829    0.399    0.217   88.852  251.257
  284.750    7.657    0.393    0.217   89.590  253.095
  285.000    7.545    0.381    0.218   89.904  255.337
  285.250    7.611    0.387    0.218   91.382  258.858
  285.500    7.669    0.407    0.211   92.657  262.246
  285.750    7.669    0.381    0.180   91.940  262.668
  286.000    7.753    0.377    0.200   90.859  261.575
  286.250    7.867    0.381    0.228   88.686  260.581
  286.500    7.998    0.378    0.248   84.937  260.093
  286.750    8.202    0.365    0.261   78.512  258.549
  287.000    8.328    0.382    0.248   74.227  254.782
  287.250    8.389    0.368    0.228   74.480  253.986
  287.500    8.450    0.340    0.215   77.644  253.196
  287.750    8.512    0.327    0.218   81.172  252.204
  288.000    8.574    0.340    0.233   83.548  251.110
  288.250    8.637    0.375    0.238   84.188  250.151
  288.500    8.636    0.395    0.221   83.695  249.330
  288.750    8.699    0.397    0.239   82.492  248.133
  289.000    8.763    0.399    0.248   81.472  247.241
  289.250    8.827    0.388    0.225   82.210  246.653
  289.500    8.842    0.370    0.189   84.584  246.671
  289.750    8.630    0.374    0.196   86.983  248.074
  290.000    8.243    0.379    0.225   88.003  248.933
  290.250    7.651    0.410    0.208   87.773  247.333
  290.500    7.227    0.419    0.212   87.177  246.339
  290.750    7.175    0.418    0.232   87.794  245.550
  291.000    7.496    0.418    0.253   89.685  244.963
  291.250    8.157    0.412    0.239   90.585  245.068
  291.500    8.951    0.344    0.160   86.553  245.505
  291.750    9.839    0.137    0.040   73.467  247.546
  292.000   11.567    0.087    0.015   61.834  247.160
  292.250   13.925    0.128    0.038   56.387  246.570
  292.500   16.137    0.201    0.091   59.186  246.585
  292.750   15.991    0.272    0.199   70.690  247.113
  293.000   13.054    0.362    0.257   76.009  249.660
  293.250   11.148    0.416    0.259   77.961  250.893
  293.500    9.252    0.417    0.258   79.547  250.909
  293.750    8.148    0.415    0.260   80.891  250.522
  294.000    7.702    0.428    0.271   81.508  250.237
  294.250    7.645    0.451    0.293   79.499  250.257
