~VERSION INFORMATION
 VERS.                 2.0:   CWLS LOG ASCII STANDARD -VERSION 2.0
 WRAP.                  NO:   ONE LINE PER DEPTH STEP
~WELL INFORMATION BLOCK
#MNEM.UNIT           DATA                    DESCRIPTION OF MNEMONIC
#---------    -------------------            -------------------------------
# Generated from Intellog Unique Number	CN_94_101/WELL/4980
WELL.         06-04-097-14W4                 : Well_name    - WELL
LOC .         AA/06-04-097-14W4/0            : Location     - LOCATION
UWI .         AA/06-04-097-14W400            : Uwi          - UNIQUE WELL ID
ENTR.         JOETTE                         : Entered      - ENTERED BY
SRVC.         SCHLUMBERGER                   : Scn          - SERVICE COMPANY
DATE.         08/17/92                       : Date         - LOG DATE
STRT.M        106.68                         : top_depth    - START DEPTH
STOP.M        374.93                         : bot_depth    - STOP DEPTH
STEP.M        0.25                           : increment    - STEP LENGTH
 NULL. -999.2500:NULL Value
~CURVE INFORMATION BLOCK
#MNEM UNIT       ERCB CURVE CODE    CURVE DESCRIPTION
#-----------   ------------------   ----------------------------------
DEPT.M        00 001 00 00         : DEPTH        - DEPTH
ILD .OHMM     00 120 00 00         : RESD         - DEEP RESISTIVITY (DIL)
GR  .API      00 310 00 00         : GR           - GAMMA RAY
NPHI.V/V      00 330 00 00         : PHIN         - NEUTRON POROSITY (SANDSTONE)
~PARAMETER INFORMATION
#MNEM.UNIT           DATA             DESCRIPTION OF MNEMONIC
#---------         -----------     ------------------------------
GL  .M        639.166              : gl           - GROUND LEVEL ELEVATION
EREF.M        639.166              : kb           - ELEVATION OF DEPTH REFERENCE
DATM.M        639.166              : datum        - DATUM ELEVATION
TDD .M        377.647              : tdd          - TOTAL DEPTH DRILLER
RUN .         ONE                  : Run          - RUN NUMBER
ENG .         JO                   : Engineer     - RECORDING ENGINEER
WIT .         TIM                  : Witness      - WITNESSED BY
MUD .         GEL                  : Mud_type     - MUD TYPE
MATR.         SANDSTONE            : Logunit      - NEUTRON MATRIX
TMAX.C        12.2222              : BHT          - MAXIMUM RECORDED TEMPERATURE
BHTD.M        377.647              : BHTDEP       - MAXIMUM RECORDED TEMPERATURE
RMT .C        8.33333              : MDTP         - TEMPERATURE OF MUD
MUDD.KG/M     1200                 : MWT          - MUD DENSITY
NEUT.         1                    : NEUTRON      - NEUTRON TYPE
RESI.         0                    : RESIST       - RESISTIVITY TYPE
RM  .OHMM     6.5                  : RM           - RESISTIVITY OF MUD
RMC .OHMM     6.5                  : RMC          - RESISTIVITY OF MUD CAKE
RMF .OHMM     5.9                  : RMF          - RESISTIVITY OF MUD FILTRATE
SUFT.C        4                    : SUFT         - SURFACE TEMPERATURE
~A  DEPTH     RESD       GR     PHIN
  106.680    6.609   82.942    0.491
  106.930    6.342   84.076    0.485
  107.180    4.796   91.537    0.473
  107.430    4.800   94.902    0.469
  107.680    4.804   90.459    0.471
  107.930    4.806  100.518    0.470
  108.180    4.540  103.516    0.479
  108.430    4.209  100.931    0.480
  108.680    4.278  104.669    0.484
  108.930    4.484  108.034    0.480
  109.180    4.353  111.032    0.492
  109.430    4.559  108.443    0.493
  109.680    4.698   99.909    0.498
  109.930    4.904   95.093    0.497
  110.180    5.042   95.111    0.490
  110.430    4.911   98.477    0.493
  110.680    4.646  101.099    0.492
  110.930    4.447  101.122    0.480
  111.180    4.519  101.512    0.472
  111.430    4.590  105.998    0.477
  111.680    4.729  108.987    0.485
  111.930    4.798  110.121    0.485
  112.180    5.005  111.999    0.489
  112.430    5.009  113.142    0.489
  112.680    4.473  110.553    0.479
  112.930    4.544  110.200    0.480
  113.180    5.020  111.706    0.480
  113.430    4.956  109.493    0.476
  113.680    5.432  110.260    0.468
  113.930    6.514  111.018    0.445
  114.180    6.315   96.910    0.444
  114.430    5.375  100.271    0.460
  114.680    5.244  109.214    0.473
  114.930    5.519  113.324    0.484
  115.180    5.522  103.673    0.491
  115.430    5.323   98.862    0.488
  115.680    5.664  107.806    0.494
  115.930    5.600  111.548    0.492
  116.180    5.200  110.074    0.489
  116.430    5.272  110.465    0.487
  116.680    5.410  110.860    0.481
  116.930    5.547  110.506    0.475
  117.180    5.889  100.852    0.470
  117.430    5.962   90.834    0.470
  117.680    5.896   92.708    0.471
  117.930    5.968   92.354    0.471
  118.180    8.600   78.609    0.471
  118.430   14.672   68.220    0.401
  118.680   18.721   50.012    0.317
  118.930   29.984   50.779    0.300
  119.180   32.887   52.280    0.309
  119.430   34.441   55.274    0.325
  119.680   25.073   56.412    0.330
  119.930   24.470   54.939    0.327
  120.180   36.475   49.379    0.324
  120.430   29.399   43.448    0.297
  120.680   33.853   41.235    0.298
  120.930   28.935   51.671    0.364
  121.180   39.727   61.730    0.387
  121.430   37.505   67.699    0.402
  121.680   36.363   59.169    0.418
  121.930   35.827   58.816    0.416
  122.180   35.899   74.453    0.412
  122.430   35.430   72.612    0.387
  122.680   35.231   57.379    0.348
  122.930   36.584   32.854    0.286
  123.180   39.149   25.063    0.239
  123.430   39.356   33.272    0.226
  123.680   36.528   39.603    0.219
  123.930   30.329   45.205    0.223
  124.180   37.209   56.008    0.250
  124.430   38.697   62.348    0.274
  124.680   37.285   64.226    0.295
  124.930   37.019   65.365    0.333
  125.180   37.090   59.062    0.363
  125.430   39.454   37.879    0.284
  125.680   39.997   28.229    0.214
  125.930   38.517   16.714    0.190
  126.180   38.992   31.984    0.243
  126.430   39.402   36.094    0.284
  126.680   38.731   37.972    0.321
  126.930   38.599   29.814    0.321
  127.180   38.200   30.571    0.313
  127.430   38.271   30.218    0.314
  127.680   38.071   39.166    0.336
  127.930   38.142   42.532    0.358
  128.180   37.810   45.897    0.368
  128.430   37.408   58.936    0.385
  128.680   37.210   59.326    0.397
  128.930   36.944   55.998    0.392
  129.180   37.487   50.810    0.376
  129.430   37.761   49.713    0.374
  129.680   38.304   51.596    0.375
  129.930   26.238   47.891    0.378
  130.180   26.309   49.402    0.379
  130.430   25.841   51.275    0.381
  130.680   19.373   54.273    0.388
  130.930   12.904   54.292    0.399
  131.180   15.537   50.215    0.403
  131.430   19.519   23.831    0.394
  131.680   32.130   16.412    0.356
  131.930   36.045   10.476    0.316
  132.180   40.161    9.750    0.290
  132.430   38.817    7.166    0.168
  132.680   35.786    7.561    0.088
  132.930   25.811    9.067    0.111
  133.180   39.503    7.598    0.147
  133.430   39.506    4.270    0.154
  133.680   39.511    3.545    0.071
  133.930   39.445    3.568    0.058
  134.180   39.247    2.471    0.081
  134.430   39.252    5.088    0.087
  134.680   39.322    4.363    0.067
  134.930   39.395    5.869    0.057
  135.180   39.397   13.329    0.081
  135.430   39.266   17.443    0.126
  135.680   39.204   19.321    0.151
  135.930   39.207   16.365    0.155
  136.180   39.211   17.866    0.157
  136.430   39.216   14.166    0.164
  136.680   39.151    8.979    0.162
  136.930   39.086   16.816    0.139
  137.180   39.158   19.066    0.131
  137.430   39.296   17.592    0.142
  137.680   39.300   10.545    0.149
  137.930   39.170    8.704    0.108
  138.180   39.107    7.607    0.152
  138.430   39.041    8.741    0.155
  138.680   39.045    9.504    0.099
  138.930   38.981   12.869    0.069
  139.180   39.054   14.752    0.067
  139.430   39.124   13.655    0.109
  139.680   39.264   14.040    0.135
  139.930   39.133   24.476    0.163
  140.180   38.798   33.048    0.188
  140.430   38.937   41.629    0.238
  140.680   37.322   44.246    0.291
  140.930   34.359   34.968    0.336
  141.180   37.465   24.197    0.352
  141.430   39.086   11.200    0.191
  141.680   39.697    6.384    0.153
  141.930   39.971   -2.894    0.093
  142.180   40.178    0.100    0.032
  142.430   40.115    2.359   -0.002
  142.680   40.049    0.880    0.007
  142.930   39.852   -1.328    0.020
  143.180   39.922   -1.681    0.039
  143.430   39.926   -0.179    0.004
  143.680   39.929    2.828    0.007
  143.930   39.933    2.837    0.011
  144.180   39.599    1.373    0.010
  144.430   39.537    0.271   -0.009
  144.680   39.473   -1.193   -0.008
  144.930   39.341   -0.431    0.016
  145.180   39.143    1.071    0.051
  145.430   39.148    5.924    0.192
  145.680   39.151    8.550    0.258
  145.930   39.157    4.483    0.295
  146.180   39.157    5.612    0.331
  146.430   39.094    8.234    0.339
  146.680   38.829    6.021    0.338
  146.930   38.968    3.441    0.338
  147.180   39.038    3.837    0.330
  147.430   39.043    4.594    0.313
  147.680   39.046    3.497    0.307
  147.930   39.048    2.767    0.305
  148.180   39.120    3.530    0.304
  148.430   39.124    3.558    0.300
  148.680   39.198    2.456    0.298
  148.930   39.200    1.735    0.293
  149.180   39.204    1.377    0.286
  149.430   39.206    1.772    0.284
  149.680   39.142    1.786    0.284
  149.930   39.080    1.814    0.276
  150.180   39.016    1.828    0.282
  150.430   38.816    2.214    0.292
  150.680   38.755    2.614    0.320
  150.930   38.892    3.000    0.342
  151.180   38.962    6.365    0.360
  151.430   39.036   10.846    0.353
  151.680   39.038   10.865    0.344
  151.930   38.974    3.078    0.322
  152.180   38.911    2.721    0.315
  152.430   38.849    5.714    0.306
  152.680   38.919    5.361    0.307
  152.930   38.921    4.636    0.317
  153.180   38.926    3.539    0.309
  153.430   38.861    2.813    0.298
  153.680   38.797    5.063    0.289
  153.930   38.802    7.318    0.294
  154.180   38.941    9.196    0.320
  154.430   39.215    9.958    0.338
  154.680   39.151    7.745    0.345
  154.930   38.953    5.533    0.347
  155.180   38.888    7.782    0.347
  155.430   38.892   11.892    0.343
  155.680   39.030   11.538    0.346
  155.930   39.236    8.958    0.352
  156.180   39.172   11.952    0.365
  156.430   39.109   11.971    0.374
  156.680   39.045   10.134    0.378
  156.930   39.049   10.525    0.366
  157.180   38.918   16.117    0.361
  157.430   38.787   22.090    0.370
  157.680   38.859   19.501    0.374
  157.930   38.864   12.459    0.379
  158.180   38.866   11.357    0.369
  158.430   38.869   11.380    0.331
  158.680   38.941   11.027    0.329
  158.930   39.011    8.442    0.338
  159.180   39.015    7.717    0.353
  159.430   38.951    9.972    0.355
  159.680   38.348    7.759    0.348
  159.930   35.319    4.798    0.342
  160.180   32.895    4.073    0.352
  160.430   31.954    7.810    0.356
  160.680   32.835   11.175    0.355
