~VERSION INFORMATION
 VERS.                 2.0:   CWLS LOG ASCII STANDARD -VERSION 2.0
 WRAP.                  NO:   ONE LINE PER DEPTH STEP
~WELL INFORMATION BLOCK
#MNEM.UNIT           DATA                    DESCRIPTION OF MNEMONIC
#---------    -------------------            -------------------------------
# Generated from Intellog Unique Number	CN_94_101/WELL/4983
WELL.         06-18-097-15W4                 : Well_name    - WELL
LOC .         AA/06-18-097-15W4/0            : Location     - LOCATION
UWI .         AA/06-18-097-15W400            : Uwi          - UNIQUE WELL ID
ENTR.         JOETTE                         : Entered      - ENTERED BY
SRVC.         SCHLUMBERGER                   : Scn          - SERVICE COMPANY
DATE.         08/17/92                       : Date         - LOG DATE
STRT.M        243.84                         : top_depth    - START DEPTH
STOP.M        502.84                         : bot_depth    - STOP DEPTH
STEP.M        0.25                           : increment    - STEP LENGTH
 NULL. -999.2500:NULL Value
~CURVE INFORMATION BLOCK
#MNEM UNIT       ERCB CURVE CODE    CURVE DESCRIPTION
#-----------   ------------------   ----------------------------------
DEPT.M        00 001 00 00         : DEPTH        - DEPTH
ILD .OHMM     00 120 00 00         : RESD         - DEEP RESISTIVITY (DIL)
GR  .API      00 310 00 00         : GR           - GAMMA RAY
NPHI.V/V      00 330 00 00         : PHIN         - NEUTRON POROSITY (SANDSTONE)
~PARAMETER INFORMATION
#MNEM.UNIT           DATA             DESCRIPTION OF MNEMONIC
#---------         -----------     ------------------------------
GL  .M        734.964              : gl           - GROUND LEVEL ELEVATION
EREF.M        734.964              : kb           - ELEVATION OF DEPTH REFERENCE
DATM.M        734.964              : datum        - DATUM ELEVATION
TDD .M        505.358              : tdd          - TOTAL DEPTH DRILLER
RUN .         ONE                  : Run          - RUN NUMBER
ENG .         JO                   : Engineer     - RECORDING ENGINEER
WIT .         TIM                  : Witness      - WITNESSED BY
MUD .         GEL                  : Mud_type     - MUD TYPE
MATR.         SANDSTONE            : Logunit      - NEUTRON MATRIX
TMAX.C        15                   : BHT          - MAXIMUM RECORDED TEMPERATURE
BHTD.M        505.358              : BHTDEP       - MAXIMUM RECORDED TEMPERATURE
RMT .C        4.44444              : MDTP         - TEMPERATURE OF MUD
MUDD.KG/M     1020                 : MWT          - MUD DENSITY
NEUT.         1                    : NEUTRON      - NEUTRON TYPE
RESI.         0                    : RESIST       - RESISTIVITY TYPE
RM  .OHMM     9.3                  : RM           - RESISTIVITY OF MUD
RMC .OHMM     9.3                  : RMC          - RESISTIVITY OF MUD CAKE
RMF .OHMM     9.3                  : RMF          - RESISTIVITY OF MUD FILTRATE
SUFT.C        4                    : SUFT         - SURFACE TEMPERATURE
~A  DEPTH     RESD       GR     PHIN
# ...
  460.840  116.316   24.657    0.266
  461.090  172.604   18.560    0.243
  461.340  209.910   10.815    0.243
  461.590  239.154   10.286    0.244
  461.840  274.259   10.862    0.241
  462.090  282.339   10.889    0.229
  462.340  264.845   11.479    0.223
  462.590  259.759   11.512    0.249
  462.840  126.108   10.969    0.273
  463.090   77.935   16.008    0.280
  463.340   54.589   14.936    0.304
  463.590   45.129   14.400    0.363
  463.840   52.478   13.870    0.380
  464.090   53.975   20.563    0.380
  464.340   56.932   36.167    0.371
  464.590   65.734   37.862    0.365
  464.840   75.274   36.221    0.358
  465.090   65.814   32.911    0.336
  465.340   90.685   29.045    0.308
  465.590   98.755   25.735    0.303
  465.840   88.574   21.320    0.297
  466.090   89.341   19.116    0.284
  466.340  117.863   15.813    0.278
  466.590  121.551   18.064    0.282
  466.840  120.866   18.654    0.270
  467.090  140.632   16.456    0.253
  467.340  167.694   14.815    0.242
  467.590  133.391   14.286    0.245
  467.840  121.749   13.200    0.241
  468.090  126.889   13.227    0.237
  468.340  126.925   14.373    0.247
  468.590   84.596   15.511    0.242
  468.840   47.371   17.763    0.207
  469.090   61.294   21.682    0.185
  469.340   83.243   26.151    0.273
  469.590   73.053   30.077    0.272
  469.840   54.097   30.110    0.270
  470.090   22.725   28.462    0.303
  470.340   19.839   27.377    0.384
  470.590   25.718   32.964    0.425
  470.840   27.215   40.227    0.424
  471.090   25.790   45.814    0.414
  471.340   19.992   49.178    0.394
  471.590   16.366   50.879    0.391
  471.840   15.681   52.581    0.421
  472.090   14.995   58.162    0.432
  472.340   14.310   57.633    0.441
  472.590   13.597   52.655    0.471
  472.840    9.260   61.579    0.504
  473.090    6.365   73.846    0.509
  473.340    4.940   79.433    0.505
  473.590    4.245   85.577    0.495
  473.840    3.560   88.940    0.487
  474.090    3.596   90.086    0.483
  474.340    3.632   86.220    0.492
  474.590    3.668   79.018    0.516
  474.840    3.722   72.928    0.530
  475.090    3.740   81.296    0.540
  475.340    5.236   86.327    0.537
  475.590   19.168   89.691    0.527
  475.840   22.126   91.955    0.499
  476.090   20.701   89.201    0.471
  476.340   17.815   85.885    0.450
  476.590   16.381   79.239    0.419
  476.840   24.461   69.812    0.390
  477.090   30.358   60.386    0.387
  477.340   28.185   65.417    0.378
  477.590   23.838   66.000    0.403
  477.840   22.413   62.134    0.408
  478.090   28.302   59.388    0.391
  478.340   26.146   59.408    0.391
  478.590   29.113   61.109    0.384
  478.840   28.409   61.136    0.374
  479.090   24.802   57.826    0.361
  479.340   23.377   53.961    0.357
  479.590   25.604   53.431    0.369
  479.840   24.901   67.916    0.399
  480.090   23.485   76.854    0.420
  480.340   22.060   78.542    0.414
  480.590   22.835   78.019    0.404
  480.840   24.332   76.385    0.405
  481.090   22.168   74.730    0.398
  481.340   18.561   74.200    0.396
  481.590   17.136   77.014    0.397
  481.840   15.711   78.716    0.400
  482.090   15.025   78.743    0.407
  482.340   15.061   77.095    0.401
  482.590   15.088   74.904    0.396
  482.840   15.124   75.493    0.409
  483.090   15.160   76.063    0.405
  483.340   13.744   77.215    0.400
  483.590   13.040   75.011    0.398
  483.840   13.076   73.370    0.388
  484.090   20.425   75.064    0.391
  484.340   19.000   79.540    0.402
  484.590   16.115   82.347    0.411
  484.840   14.699   82.387    0.422
  485.090   13.274   81.858    0.435
  485.340   12.570   85.215    0.447
  485.590   11.876   89.134    0.444
  485.840   11.921   90.836    0.424
  486.090   11.957   92.544    0.373
  486.340   23.679   94.232    0.245
  486.590   41.985   88.692    0.217
  486.840   52.986   79.265    0.179
  487.090   50.110   71.507    0.218
  487.340   47.936   61.524    0.230
  487.590   44.320   77.677    0.236
  487.840   40.704   85.489    0.234
  488.090   38.548   90.527    0.231
  488.340   40.045   93.891    0.175
  488.590   47.394   92.256    0.160
  488.840   54.735   88.946    0.219
  489.090   70.840   86.742    0.288
  489.340  108.137   81.764    0.316
  489.590   39.503   76.230    0.365
  489.840   30.774   81.824    0.416
  490.090   24.976   81.851    0.406
  490.340   23.542   77.985    0.382
  490.590   22.856   78.568    0.348
  490.840   26.544   79.151    0.303
  491.090   32.423   77.510    0.296
  491.340   41.225   71.419    0.325
  491.590   52.226   71.446    0.299
  491.840   28.149   79.265    0.294
  492.090   50.837   79.292    0.284
  492.340   49.412   75.982    0.312
  492.590   22.422   71.573    0.382
  492.840   25.380   74.923    0.384
  493.090   35.642   79.399    0.351
  493.340   63.443   82.775    0.292
  493.590   82.470   80.571    0.257
  493.840  107.349   73.925   -0.005
  494.090  125.655   60.606   -0.031
  494.340  140.300   45.612   -0.061
  494.590  158.596   36.742   -0.092
  494.840  199.545   22.310   -0.117
  495.090  181.320   17.339   -0.137
  495.340  205.460   16.254   -0.153
  495.590  193.079   15.718   -0.158
  495.840  171.932   15.758   -0.158
  496.090  153.708   18.002   -0.119
  496.340   64.613   25.265   -0.069
  496.590   54.423   25.285   -0.095
  496.840   44.233   22.531   -0.115
  497.090   69.112   21.446   -0.121
  497.340  101.296   29.265   -0.146
  497.590   85.263   32.078   -0.095
  497.840   84.568   29.318    0.024
  498.090  116.752   20.448    0.002
  498.340  134.318   18.250   -0.011
  498.590  114.633   17.171   -0.085
  498.840   77.408   17.198   -0.102
  499.090   77.444   18.344   -0.078
  499.340   86.984   18.920   -0.045
  499.590   70.942   21.171   -0.019
  499.840   85.595   25.090   -0.000
  500.090  100.970   25.131   -0.018
  500.340  114.893   24.032   -0.036
  500.590  126.616   22.390   -0.041
  500.840   66.017   21.868   -0.061
  501.090   85.784   21.895   -0.063
  501.340   89.472   23.040   -0.035
  501.590   81.473   25.291    0.010
  501.840   74.204   25.867   -0.015
  502.090   97.614   27.013   -0.035
  502.340   80.850   27.596   -0.060
  502.590   59.704   26.511   -0.081
  502.840   32.714   24.869   -0.086
