~VERSION INFORMATION
 VERS.                 2.0:   CWLS LOG ASCII STANDARD -VERSION 2.0
 WRAP.                  NO:   ONE LINE PER DEPTH STEP
~WELL INFORMATION BLOCK
#MNEM.UNIT           DATA                    DESCRIPTION OF MNEMONIC
#---------    -------------------            -------------------------------
# Generated from Intellog Unique Number	CN_94_101/WELL/3216
WELL.         01-01-096-07W4                 : Well_name    - WELL
LOC .         AA/01-01-096-07W4/0            : Location     - LOCATION
UWI .         AA/01-01-096-07W400            : Uwi          - UNIQUE WELL ID
ENTR.         JOETTE                         : Entered      - ENTERED BY
SRVC.         SCHLUMBERGER                   : Scn          - SERVICE COMPANY
DATE.         07/20/92                       : Date         - LOG DATE
STRT.M        25                             : top_depth    - START DEPTH
STOP.M        205                            : bot_depth    - STOP DEPTH
STEP.M        0.25                           : increment    - STEP LENGTH
 NULL. -999.2500:NULL Value
~CURVE INFORMATION BLOCK
#MNEM UNIT       ERCB CURVE CODE    CURVE DESCRIPTION
#-----------   ------------------   ----------------------------------
DEPT.M        00 001 00 00         : DEPTH        - DEPTH
ILD .OHMM     00 120 00 00         : RESD         - DEEP RESISTIVITY (DIL)
GR  .API      00 310 00 00         : GR           - GAMMA RAY
NPHI.V/V      00 330 00 00         : PHIN         - NEUTRON POROSITY (SANDSTONE)
DPHI.V/V      00 890 00 00         : PHID         - DENSITY POROSITY (SANDSTONE)
~PARAMETER INFORMATION
#MNEM.UNIT           DATA             DESCRIPTION OF MNEMONIC
#---------         -----------     ------------------------------
GL  .M        488.01               : gl           - GROUND LEVEL ELEVATION
EREF.M        490.01               : kb           - ELEVATION OF DEPTH REFERENCE
DATM.M        490.01               : datum        - DATUM ELEVATION
TDD .M        205                  : tdd          - TOTAL DEPTH DRILLER
RUN .         ONE                  : Run          - RUN NUMBER
ENG .         JO                   : Engineer     - RECORDING ENGINEER
WIT .         TIM                  : Witness      - WITNESSED BY
MUD .         GEL                  : Mud_type     - MUD TYPE
MATR.         SANDSTONE            : Logunit      - NEUTRON MATRIX
TMAX.C        13                   : BHT          - MAXIMUM RECORDED TEMPERATURE
BHTD.M        205                  : BHTDEP       - MAXIMUM RECORDED TEMPERATURE
RMT .C        13                   : MDTP         - TEMPERATURE OF MUD
MUDD.KG/M     1110                 : MWT          - MUD DENSITY
NEUT.         1                    : NEUTRON      - NEUTRON TYPE
RESI.         0                    : RESIST       - RESISTIVITY TYPE
RM  .OHMM     4.23                 : RM           - RESISTIVITY OF MUD
RMC .OHMM     4.23                 : RMC          - RESISTIVITY OF MUD CAKE
RMF .OHMM     4.23                 : RMF          - RESISTIVITY OF MUD FILTRATE
SUFT.C        4                    : SUFT         - SURFACE TEMPERATURE
~A  DEPTH     RESD       GR     PHIN     PHID
# ...
  155.500   35.338  111.671    0.395    0.226
  155.750   36.098  115.445    0.401    0.251
  156.000   36.874  119.808    0.405    0.259
  156.250   38.379  122.971    0.402    0.266
  156.500   38.475  123.080    0.401    0.268
  156.750   38.572  123.124    0.397    0.257
  157.000   37.903  123.211    0.389    0.240
  157.250   37.998  124.542    0.378    0.236
  157.500   38.093  125.262    0.375    0.230
  157.750   38.189  122.295    0.384    0.242
  158.000   38.309  118.674    0.377    0.258
  158.250   38.405  120.637    0.370    0.266
  158.500   39.230  122.557    0.370    0.250
  158.750   39.329  122.033    0.378    0.246
  159.000   40.935  121.510    0.380    0.251
  159.250   43.413  119.764    0.388    0.237
  159.500   41.115  116.776    0.379    0.231
  159.750   34.816  116.863    0.380    0.235
  160.000   34.925  118.194    0.387    0.246
  160.250   37.717  120.724    0.401    0.244
  160.500   41.529  123.233    0.396    0.231
  160.750   42.422  127.007    0.383    0.236
  161.000   44.989  130.148    0.393    0.240
  161.250   46.826  129.014    0.394    0.239
  161.500   46.072  132.155    0.391    0.252
  161.750   42.849  136.518    0.396    0.261
  162.000   41.375  136.627    0.403    0.250
  162.250   39.210  132.439    0.403    0.227
  162.500   38.578  130.672    0.398    0.224
  162.750   38.675  126.505    0.390    0.218
  163.000   39.506  124.127    0.383    0.221
  163.250   40.329  122.993    0.377    0.231
  163.500   40.481  124.913    0.371    0.229
  163.750   40.558  127.443    0.375    0.231
  164.000   40.659  126.920    0.386    0.234
  164.250   41.533  121.510    0.387    0.229
  164.500   43.229  121.030    0.383    0.216
  164.750   43.337  124.149    0.381    0.216
  165.000   41.044  126.047    0.378    0.264
  165.250   36.767  126.745    0.401    0.268
  165.500   35.503  120.724    0.406    0.274
  165.750   36.243  114.703    0.407    0.281
  166.000   36.334  108.072    0.409    0.246
  166.250   37.115  103.883    0.404    0.241
  166.500   39.386  105.214    0.401    0.259
  166.750   43.367  104.690    0.416    0.257
  167.000   45.166  106.588    0.407    0.259
  167.250   38.199  114.005    0.398    0.281
  167.500   34.219  121.444    0.399    0.286
  167.750   33.667  128.861    0.409    0.273
  168.000   36.381  136.322    0.407    0.265
  168.250   38.584  132.723    0.403    0.264
  168.500   35.907  126.069    0.409    0.267
  168.750   35.998  113.940    0.415    0.259
  169.000   36.748  109.729    0.421    0.249
  169.250   42.831  104.930    0.416    0.238
  169.500   46.254  100.742    0.408    0.234
  169.750   52.909   96.553    0.400    0.292
  170.000   55.069   98.473    0.393    0.301
  170.250   50.234   96.728    0.390    0.289
  170.500   53.275   97.448    0.382    0.280
  170.750   58.660  100.589    0.403    0.281
  171.000   63.428  102.487    0.406    0.294
  171.250   58.954  101.963    0.397    0.291
  171.500   47.191   99.607    0.393    0.283
  171.750   39.195   96.052    0.395    0.268
  172.000   35.133   91.841    0.391    0.268
  172.250   32.656   85.253    0.387    0.288
  172.500   32.737   85.907    0.388    0.290
  172.750   36.046   90.270    0.393    0.286
  173.000   53.613   90.358    0.394    0.282
  173.250   66.062   88.002    0.394    0.291
  173.500   79.890   90.532    0.390    0.306
  173.750   89.630   92.452    0.388    0.301
  174.000   96.916   85.209    0.390    0.299
  174.250   97.159   73.669    0.399    0.300
  174.500  129.047   59.708    0.402    0.300
  174.750  144.780   53.054    0.397    0.300
  175.000  178.399   48.277    0.389    0.302
  175.250  178.847   48.364    0.388    0.316
  175.500  102.081   48.473    0.389    0.344
  175.750   86.497   49.127    0.385    0.346
  176.000   93.411   48.626    0.382    0.340
  176.250  110.865   47.491    0.386    0.342
  176.500  119.801   46.357    0.396    0.337
  176.750  105.326   44.612    0.405    0.335
  177.000  107.657   43.477    0.399    0.339
  177.250  114.102   46.619    0.393    0.335
  177.500  116.627   50.982    0.395    0.349
  177.750   98.637   53.534    0.397    0.349
  178.000   86.718   51.789    0.387    0.340
  178.250   90.316   50.044    0.351    0.326
  178.500   95.723   48.909    0.345    0.320
  178.750  103.439   49.607    0.341    0.319
  179.000  107.662   51.505    0.335    0.313
  179.250  107.932   52.836    0.343    0.309
  179.500  112.339   52.923    0.356    0.311
  179.750  114.825   57.308    0.371    0.305
  180.000  119.513   56.785    0.377    0.317
  180.250  122.005   55.039    0.361    0.333
  180.500  134.420   52.683    0.349    0.334
  180.750  145.256   51.505    0.355    0.322
  181.000  156.965   49.804    0.351    0.324
  181.250  169.831   50.502    0.349    0.329
  181.500  176.543   50.589    0.347    0.326
  181.750  187.230   50.654    0.351    0.326
  182.000  206.153   50.153    0.346    0.326
  182.250  244.672   50.851    0.333    0.315
  182.500  295.887   55.214    0.321    0.296
  182.750  189.118   58.944    0.337    0.289
  183.000  148.478   64.551    0.348    0.303
  183.250  148.851   70.157    0.360    0.316
  183.500  157.861   73.887    0.378    0.324
  183.750  161.253   79.494    0.399    0.310
  184.000  147.188   81.435    0.407    0.300
  184.250  136.979   79.058    0.404    0.282
  184.500  142.571   74.869    0.409    0.281
  184.750  145.635   69.437    0.410    0.290
  185.000  154.451   54.254    0.412    0.303
  185.250  160.757   49.455    0.412    0.316
  185.500  167.320   48.931    0.397    0.332
  185.750  184.116   50.851    0.396    0.350
  186.000  202.724   52.770    0.405    0.352
  186.250  227.724   54.079    0.416    0.350
  186.500  232.327   54.167    0.430    0.344
  186.750  204.383   53.032    0.438    0.341
  187.000  208.775   53.120    0.440    0.347
  187.250  225.604   53.207    0.432    0.362
  187.500  187.258   51.462    0.432    0.358
  187.750   93.732   47.273    0.439    0.353
  188.000   79.423   42.474    0.438    0.352
  188.250   79.622   40.707    0.432    0.355
  188.500   75.407   42.038    0.427    0.349
  188.750   67.509   42.736    0.423    0.355
  189.000   80.173   45.266    0.421    0.348
  189.250   98.790   50.851    0.413    0.341
  189.500  128.775   63.176    0.407    0.347
  189.750  158.778   74.913    0.402    0.352
  190.000  178.135   72.535    0.409    0.333
  190.250  245.644   66.514    0.412    0.307
  190.500  241.685   63.525    0.417    0.304
  190.750  189.868   59.337    0.418    0.336
  191.000  213.015   53.316    0.412    0.340
  191.250  335.162   47.295    0.412    0.346
  191.500  470.929   42.474    0.412    0.359
  191.750  569.502   43.172    0.400    0.344
  192.000 1515.910   45.724    0.385    0.343
  192.250 1799.160   50.109    0.370    0.345
  192.500 2059.290   53.839    0.360    0.337
  192.750 1914.060   60.057    0.372    0.327
  193.000 1779.060   58.333    0.396    0.307
  193.250  924.547   56.566    0.413    0.302
  193.500  489.567   58.486    0.429    0.308
  193.750  414.307   61.627    0.430    0.325
  194.000  337.921   66.012    0.426    0.340
  194.250  250.790   68.521    0.422    0.346
  194.500  166.421   66.798    0.422    0.341
  194.750  247.368   64.463    0.420    0.330
  195.000  460.779   63.307    0.418    0.321
  195.250 1017.400   64.027    0.413    0.332
  195.500 1229.590   65.292    0.409    0.338
  195.750 1602.810   66.645    0.411    0.343
  196.000 2130.190   63.045    0.411    0.345
  196.250 2301.910   61.889    0.412    0.338
  196.500 2181.430   63.874    0.411    0.333
  196.750 1745.080   63.918    0.405    0.327
  197.000 1093.970   62.173    0.403    0.327
  197.250  998.548   62.260    0.406    0.330
  197.500 1099.470   63.569    0.425    0.343
  197.750 1144.360   61.213    0.418    0.342
  198.000 1105.000   60.689    0.414    0.334
  198.250  596.197   61.409    0.423    0.325
  198.500  459.671   62.107    0.430    0.320
  198.750  469.549   62.195    0.428    0.328
