~VERSION INFORMATION
 VERS.                 2.0:   CWLS LOG ASCII STANDARD -VERSION 2.0
 WRAP.                  NO:   ONE LINE PER DEPTH STEP
~WELL INFORMATION BLOCK
#MNEM.UNIT           DATA                    DESCRIPTION OF MNEMONIC
#---------    -------------------            -------------------------------
# Generated from Intellog Unique Number	CN_94_101/WELL/3250
WELL.         06-31-096-10W4                 : Well_name    - WELL
LOC .         AA/06-31-096-10W4/0            : Location     - LOCATION
UWI .         AA/06-31-096-10W400            : Uwi          - UNIQUE WELL ID
ENTR.         JOETTE                         : Entered      - ENTERED BY
SRVC.         SCHLUMBERGER                   : Scn          - SERVICE COMPANY
DATE.         07/20/92                       : Date         - LOG DATE
STRT.M        10                             : top_depth    - START DEPTH
STOP.M        130                            : bot_depth    - STOP DEPTH
STEP.M        0.25                           : increment    - STEP LENGTH
 NULL. -999.2500:NULL Value
~CURVE INFORMATION BLOCK
#MNEM UNIT       ERCB CURVE CODE    CURVE DESCRIPTION
#-----------   ------------------   ----------------------------------
DEPT.M        00 001 00 00         : DEPTH        - DEPTH
GR  .API      00 310 00 00         : GR           - GAMMA RAY
ILD .OHMM     00 120 00 00         : RESD         - DEEP RESISTIVITY (DIL)
NPHI.V/V      00 330 00 00         : PHIN         - NEUTRON POROSITY (SANDSTONE)
DPHI.V/V      00 890 00 00         : PHID         - DENSITY POROSITY (SANDSTONE)
~PARAMETER INFORMATION
#MNEM.UNIT           DATA             DESCRIPTION OF MNEMONIC
#---------         -----------     ------------------------------
GL  .M        0                    : gl           - GROUND LEVEL ELEVATION
EREF.M        0                    : kb           - ELEVATION OF DEPTH REFERENCE
DATM.M        0                    : datum        - DATUM ELEVATION
TDD .M        134                  : tdd          - TOTAL DEPTH DRILLER
RUN .         ONE                  : Run          - RUN NUMBER
ENG .         JO                   : Engineer     - RECORDING ENGINEER
WIT .         TIM                  : Witness      - WITNESSED BY
MUD .         GEL                  : Mud_type     - MUD TYPE
MATR.         SANDSTONE            : Logunit      - NEUTRON MATRIX
TMAX.C        0                    : BHT          - MAXIMUM RECORDED TEMPERATURE
BHTD.M        134                  : BHTDEP       - MAXIMUM RECORDED TEMPERATURE
RMT .C        0                    : MDTP         - TEMPERATURE OF MUD
MUDD.KG/M     1000                 : MWT          - MUD DENSITY
NEUT.         1                    : NEUTRON      - NEUTRON TYPE
RESI.         0                    : RESIST       - RESISTIVITY TYPE
RM  .OHMM     5.2                  : RM           - RESISTIVITY OF MUD
RMC .OHMM     5.2                  : RMC          - RESISTIVITY OF MUD CAKE
RMF .OHMM     5.2                  : RMF          - RESISTIVITY OF MUD FILTRATE
SUFT.C        4                    : SUFT         - SURFACE TEMPERATURE
~A  DEPTH       GR     RESD     PHIN     PHID
# ...
   97.000   42.758  188.117    0.472    0.255
   97.250   42.823  207.177    0.462    0.303
   97.500   33.820  261.083    0.476    0.314
   97.750   32.072  348.907    0.478    0.327
   98.000   23.674  399.416    0.458    0.333
   98.250   21.909  423.564    0.411    0.320
   98.500   30.453  671.764    0.395    0.302
   98.750   28.720  504.904    0.435    0.299
   99.000   23.933  307.631    0.470    0.306
   99.250   82.665  359.123    0.400    0.309
   99.500   88.791   80.870    0.354    0.311
   99.750   72.519    8.642    0.391    0.271
  100.000   66.538    9.893    0.433    0.210
  100.250   79.297   11.554    0.435    0.194
  100.500  101.745    9.022    0.411    0.211
  100.750  116.333    6.784    0.433    0.205
  101.000  112.183    5.722    0.463    0.204
  101.250   96.499    5.307    0.463    0.212
  101.500   88.705    4.308    0.480    0.220
  101.750   76.059    3.302    0.473    0.236
  102.000   78.558    4.757    0.497    0.244
  102.250   82.250    6.857    0.548    0.245
  102.500   78.688    4.339    0.588    0.254
  102.750   53.952    4.346    0.513    0.269
  103.000   43.724   72.544    0.519    0.257
  103.250   32.908   38.645    0.576    0.251
  103.500   29.346   19.439    0.552    0.256
  103.750   31.224   30.829    0.474    0.271
  104.000   40.961   38.851    0.465    0.293
  104.250   53.736   48.053    0.428    0.294
  104.500   59.846   19.214    0.455    0.299
  104.750   38.133   16.829    0.513    0.336
  105.000   30.976   29.382    0.608    0.312
  105.250   31.613   29.421    0.411    0.228
  105.500   30.485   35.685    0.397    0.216
  105.750   23.884   49.504    0.381    0.242
  106.000   26.366   42.556    0.413    0.267
  106.250   27.640   38.010    0.406    0.287
  106.500   33.162   39.562    0.389    0.278
  106.750   32.606   33.365    0.394    0.252
  107.000   34.484   41.250    0.395    0.249
  107.250   32.131   54.010    0.408    0.238
  107.500   36.443   51.089    0.398    0.250
  107.750   31.051   65.654    0.409    0.271
  108.000   22.653  207.284    0.420    0.278
  108.250   26.965  228.487    0.457    0.288
  108.500   27.619  136.577    0.440    0.304
  108.750   28.908   75.592    0.424    0.313
  109.000   32.600   86.574    0.461    0.324
  109.250   29.642  160.004    0.462    0.320
  109.500   33.939  209.497    0.455    0.315
  109.750   44.884  113.806    0.461    0.321
  110.000   55.258   83.917    0.467    0.326
  110.250   53.509   79.379    0.478    0.334
  110.500   38.445   30.549    0.447    0.324
  110.750   28.822   25.276    0.432    0.309
  111.000   22.858   63.437    0.505    0.317
  111.250   22.318   95.000    0.479    0.306
  111.500   19.949  185.944    0.492    0.313
  111.750   16.387  523.419    0.451    0.320
  112.000   20.683  433.074    0.431    0.326
  112.250   29.815  134.989    0.440    0.332
  112.500   26.253   95.844    0.425    0.303
  112.750   14.832   33.522    0.448    0.319
  113.000   19.749  133.197    0.488    0.319
  113.250   20.402  133.432    0.458    0.309
  113.500   18.653  261.053    0.445    0.304
  113.750   13.882  390.940    0.451    0.304
  114.000   10.925  131.602    0.471    0.311
  114.250   18.848  257.586    0.433    0.317
  114.500   23.765  331.022    0.428    0.319
  114.750   23.209   41.184    0.439    0.300
  115.000   25.691   50.917    0.421    0.303
  115.250   32.438  235.760    0.432    0.314
  115.500   28.255  603.127    0.449    0.311
  115.750   24.088  774.733    0.447    0.291
  116.000   22.944  821.936    0.460    0.292
  116.250   20.591  856.254    0.475    0.307
  116.500   18.221  925.554    0.360    0.309
  116.750   16.489  765.459    0.355    0.257
  117.000   22.010  484.567    0.357    0.257
  117.250   25.081   53.752    0.359    0.283
  117.500   36.027  987.176    0.379    0.329
  117.750   42.757 1932.210    0.446    0.355
  118.000   38.591   77.750    0.452    0.337
  118.250   38.655   54.158    0.458    0.311
  118.500   30.241   54.254    0.393    0.303
  118.750   24.882  119.103    0.433    0.289
  119.000   21.319  348.340    0.481    0.310
  119.250   14.114  311.127    0.439    0.321
  119.500   17.822  200.671    0.389    0.314
  119.750   19.079  415.969    0.397    0.299
  120.000   18.540  193.911    0.435    0.294
  120.250   21.039  274.078    0.388    0.303
  120.500   20.499  460.350    0.380    0.316
  120.750   18.750  626.250    0.415    0.304
  121.000   15.172  592.379    0.422    0.303
  121.250   14.632  539.312    0.433    0.314
  121.500   21.951  361.568    0.440    0.319
  121.750   25.659  131.391    0.444    0.313
  122.000   26.328  121.930    0.433    0.306
  122.250   22.782  193.379    0.446    0.315
  122.500   23.451  205.070    0.474    0.322
  122.750   24.120  319.076    0.430    0.328
  123.000   22.960  198.075    0.420    0.323
  123.250   21.227  116.155    0.415    0.317
  123.500   21.897   68.086    0.392    0.310
  123.750   18.318   70.866    0.422    0.318
  124.000   14.136   54.316    0.440    0.323
  124.250   24.493   22.138    0.445    0.314
  124.500   33.625   18.325    0.425    0.295
  124.750   45.191   37.952    0.440    0.290
  125.000  113.612    2.560    0.435    0.274
  125.250  122.156    0.485    0.389    0.238
  125.500  108.301    0.214    0.364    0.213
  125.750  107.173    0.352    0.397    0.162
  126.000  109.051    2.090    0.428    0.109
  126.250  107.891    1.051    0.457    0.087
  126.500   83.155    5.056    0.447    0.097
  126.750   69.301    7.718    0.460    0.080
  127.000   63.925   11.781    0.357    0.053
  127.250   65.819   11.808    0.299    0.004
  127.500   60.427   12.533    0.273    0.057
  127.750   62.910   13.802    0.282    0.069
  128.000   59.953   17.394    0.285    0.062
  128.250   60.017   20.305    0.264    0.032
  128.500   58.269   22.845    0.258    0.012
  128.750   51.700   23.756    0.272    0.002
  129.000   55.980   24.258    0.271    0.038
  129.250   61.485   24.301    0.264    0.008
  129.500   55.505   22.987    0.258    0.004
  129.750   46.502   23.936    0.249    0.037
  130.000   41.764   34.484    0.250    0.028
