~VERSION INFORMATION
 VERS.                 2.0:   CWLS LOG ASCII STANDARD -VERSION 2.0
 WRAP.                  NO:   ONE LINE PER DEPTH STEP
~WELL INFORMATION BLOCK
#MNEM.UNIT           DATA                    DESCRIPTION OF MNEMONIC
#---------    -------------------            -------------------------------
# Generated from Intellog Unique Number	CC_88_90/WELL/1076
WELL.         09-08-090-15W4                 : Well_name    - WELL
LOC .         AA/09-08-090-15W4/0            : Location     - LOCATION
UWI .         AA/09-08-090-15W400            : Uwi          - UNIQUE WELL ID
ENTR.         DW                             : Entered      - ENTERED BY
SRVC.         SCHLUMBERGER                   : Scn          - SERVICE COMPANY
STRT.M        75                             : top_depth    - START DEPTH
STOP.M        194.75                         : bot_depth    - STOP DEPTH
STEP.M        0.25                           : increment    - STEP LENGTH
 NULL. -999.2500:NULL Value
~CURVE INFORMATION BLOCK
#MNEM UNIT       ERCB CURVE CODE    CURVE DESCRIPTION
#-----------   ------------------   ----------------------------------
DEPT.M        00 001 00 00         : DEPTH        - DEPTH
GR  .API      00 310 00 00         : GR           - GAMMA RAY
DPHI.V/V      00 890 00 00         : PHID         - DENSITY POROSITY (SANDSTONE)
NPHI.V/V      00 330 00 00         : PHIN         - NEUTRON POROSITY (SANDSTONE)
ILD .OHMM     00 120 00 00         : RESD         - DEEP RESISTIVITY (DIL)
~PARAMETER INFORMATION
#MNEM.UNIT           DATA             DESCRIPTION OF MNEMONIC
#---------         -----------     ------------------------------
GL  .M        467.77               : gl           - GROUND LEVEL ELEVATION
EREF.M        470.97               : kb           - ELEVATION OF DEPTH REFERENCE
DATM.M        470.97               : datum        - DATUM ELEVATION
TDD .M        205                  : tdd          - TOTAL DEPTH DRILLER
RUN .         ONE                  : Run          - RUN NUMBER
ENG .         BILL                 : Engineer     - RECORDING ENGINEER
WIT .         JIM                  : Witness      - WITNESSED BY
MUD .         GEL                  : Mud_type     - MUD TYPE
MATR.         SANDSTONE            : Logunit      - NEUTRON MATRIX
TMAX.C        25                   : BHT          - MAXIMUM RECORDED TEMPERATURE
BHTD.M        205                  : BHTDEP       - MAXIMUM RECORDED TEMPERATURE
MATR.         1                    : LOGUNIT      - NEUTRON MATRIX
RMT .C        25                   : MDTP         - TEMPERATURE OF MUD
NEUT.         1                    : NEUTRON      - NEUTRON TYPE
RESI.         0                    : RESIST       - RESISTIVITY TYPE
RMC .OHMM     0.25                 : RMC          - RESISTIVITY OF MUD CAKE
RMF .OHMM     0.25                 : RMF          - RESISTIVITY OF MUD FILTRATE
SUFT.C        15                   : SUFT         - SURFACE TEMPERATURE
~A  DEPTH       GR     PHID     PHIN     RESD
# ...
  162.000   46.966    0.304    0.471   36.895
  162.250   47.181    0.309    0.452   33.503
  162.500   50.379    0.313    0.444   31.522
  162.750   56.046    0.323    0.436   28.059
  163.000   60.600    0.318    0.424   23.962
  163.250   62.682    0.296    0.428   21.794
  163.500   64.132    0.288    0.440   20.179
  163.750   63.969    0.281    0.433   19.491
  164.000   66.060    0.287    0.429   19.228
  164.250   68.432    0.301    0.430   18.660
  164.500   72.339    0.285    0.432   17.482
  164.750   77.857    0.237    0.437   15.694
  165.000   83.117    0.208    0.445   12.848
  165.250   95.407    0.223    0.458    8.579
  165.500  104.489    0.281    0.541    6.181
  165.750  105.756    0.299    0.593    5.004
  166.000  102.656    0.291    0.603    3.857
  166.250  100.999    0.291    0.603    3.077
  166.500  103.388    0.269    0.567    2.837
  166.750  106.432    0.260    0.564    2.652
  167.000  109.304    0.248    0.547    2.642
  167.250  108.040    0.235    0.527    2.752
  167.500  103.246    0.226    0.520    3.045
  167.750   98.988    0.214    0.549    3.517
  168.000   99.040    0.195    0.594    3.984
  168.250  107.191    0.177    0.534    4.499
  168.500  112.414    0.234    0.500    4.483
  168.750  108.323    0.272    0.526    4.288
  169.000   97.310    0.264    0.550    4.391
  169.250   85.105    0.246    0.552    5.129
  169.500   75.692    0.198    0.518    6.888
  169.750   71.223    0.154    0.384    9.395
  170.000   74.941    0.178    0.369   11.360
  170.250   77.745    0.243    0.406   12.604
  170.500   75.868    0.267    0.405   13.339
  170.750   72.390    0.240    0.394   13.249
  171.000   68.263    0.222    0.407   13.608
  171.250   63.668    0.216    0.437   17.867
  171.500   54.013    0.235    0.425   21.007
  171.750   50.359    0.242    0.401   21.126
  172.000   52.184    0.264    0.402   15.765
  172.250   63.146    0.299    0.410    8.106
  172.500   87.207    0.282    0.422    5.942
  172.750   87.936    0.279    0.499    5.061
  173.000   82.865    0.291    0.536    4.629
  173.250   75.106    0.297    0.535    5.272
  173.500   66.787    0.309    0.456    6.634
  173.750   64.455    0.316    0.348   10.593
  174.000   64.491    0.289    0.360   20.224
  174.250   60.493    0.267    0.368   34.918
  174.500   57.043    0.264    0.358   59.525
  174.750   56.511    0.262    0.347   73.298
  175.000   59.089    0.258    0.356   71.964
  175.250   62.441    0.268    0.381   64.551
  175.500   63.212    0.289    0.392   52.177
  175.750   63.228    0.284    0.386   43.624
  176.000   63.126    0.292    0.392   38.423
  176.250   63.521    0.286    0.402   36.128
  176.500   63.818    0.269    0.407   35.607
  176.750   63.871    0.272    0.404   35.955
  177.000   63.797    0.281    0.386   37.138
  177.250   60.906    0.277    0.373   37.516
  177.500   56.830    0.277    0.393   40.426
  177.750   52.980    0.266    0.407   42.217
  178.000   52.730    0.249    0.403   42.849
  178.250   57.561    0.245    0.396   44.223
  178.500   63.730    0.258    0.387   44.050
  178.750   67.706    0.281    0.384   42.654
  179.000   67.918    0.277    0.387   41.941
  179.250   66.769    0.271    0.385   40.705
  179.500   65.826    0.271    0.393   38.356
  179.750   65.688    0.271    0.412   36.127
  180.000   67.394    0.278    0.419   35.144
  180.250   69.986    0.270    0.416   35.647
  180.500   72.057    0.264    0.409   36.347
  180.750   74.485    0.268    0.405   36.583
  181.000   76.663    0.264    0.412   36.398
  181.250   77.187    0.256    0.421   35.589
  181.500   75.979    0.263    0.424   33.873
  181.750   72.947    0.256    0.424   32.206
  182.000   70.563    0.257    0.402   31.845
  182.250   73.915    0.261    0.392   32.339
  182.500   78.258    0.272    0.403   32.715
  182.750   79.279    0.287    0.408   32.545
  183.000   82.064    0.278    0.395   30.277
  183.250   86.961    0.237    0.364   23.614
  183.500   93.091    0.223    0.360   19.549
  183.750   93.594    0.174    0.379   18.198
  184.000   89.913    0.091    0.391   17.833
  184.250   86.993    0.115    0.401   18.875
  184.500   84.505    0.264    0.421   21.144
  184.750   84.714    0.287    0.414   22.977
  185.000   87.598    0.277    0.407   24.119
  185.250   92.605    0.269    0.407   25.487
  185.500   98.418    0.258    0.410   25.936
  185.750  102.014    0.258    0.419   24.120
  186.000  101.677    0.262    0.431   21.578
  186.250   98.573    0.263    0.436   21.189
  186.500   85.315    0.258    0.423   24.287
  186.750   74.263    0.251    0.408   26.543
  187.000   71.791    0.251    0.404   28.965
  187.250   72.234    0.268    0.403   33.553
  187.500   71.524    0.296    0.398   37.304
  187.750   68.378    0.286    0.398   40.506
  188.000   66.405    0.283    0.422   42.562
  188.250   62.480    0.287    0.428   45.664
  188.500   55.984    0.283    0.418   58.095
  188.750   52.205    0.289    0.417   74.599
  189.000   53.642    0.313    0.412   80.950
  189.250   56.216    0.305    0.425   83.321
  189.500   64.695    0.287    0.454   59.735
  189.750   77.861    0.277    0.405   32.129
  190.000   99.167    0.268    0.338   18.361
  190.250  120.143    0.237    0.342   13.481
  190.500  123.080    0.192    0.371   12.504
  190.750  119.710    0.214    0.417   12.444
  191.000  108.810    0.231    0.429   13.117
  191.250   96.435    0.209    0.441   15.013
  191.500   89.812    0.172    0.372   16.362
  191.750   71.742    0.103    0.202   27.502
  192.000   34.003    0.000    0.102   38.907
  192.250   27.747    0.006    0.092   73.005
  192.500   28.011    0.024    0.098  475.962
  192.750   26.348    0.032    0.115  720.049
  193.000   25.503    0.035    0.138  821.088
  193.250   24.492    0.041    0.147 1057.380
  193.500   24.030    0.061    0.150 1161.920
  193.750   23.969    0.069    0.156 1139.280
  194.000   24.423    0.073    0.165 1003.920
  194.250   24.840    0.075    0.159  879.755
  194.500   25.743    0.050    0.133  790.621
  194.750   27.375    0.006    0.108  671.707
