~VERSION INFORMATION
 VERS.                 2.0:   CWLS LOG ASCII STANDARD -VERSION 2.0
 WRAP.                  NO:   ONE LINE PER DEPTH STEP
~WELL INFORMATION BLOCK
#MNEM.UNIT           DATA                    DESCRIPTION OF MNEMONIC
#---------    -------------------            -------------------------------
# Generated from Intellog Unique Number	CC_88_90/WELL/1077
WELL.         09-09-089-15W4                 : Well_name    - WELL
LOC .         AA/09-09-089-15W4/0            : Location     - LOCATION
UWI .         AA/09-09-089-15W400            : Uwi          - UNIQUE WELL ID
ENTR.         DW                             : Entered      - ENTERED BY
SRVC.         SCHLUMBERGER                   : Scn          - SERVICE COMPANY
STRT.M        70                             : top_depth    - START DEPTH
STOP.M        259.75                         : bot_depth    - STOP DEPTH
STEP.M        0.25                           : increment    - STEP LENGTH
 NULL. -999.2500:NULL Value
~CURVE INFORMATION BLOCK
#MNEM UNIT       ERCB CURVE CODE    CURVE DESCRIPTION
#-----------   ------------------   ----------------------------------
DEPT.M        00 001 00 00         : DEPTH        - DEPTH
GR  .API      00 310 00 00         : GR           - GAMMA RAY
DPHI.V/V      00 890 00 00         : PHID         - DENSITY POROSITY (SANDSTONE)
NPHI.V/V      00 330 00 00         : PHIN         - NEUTRON POROSITY (SANDSTONE)
ILD .OHMM     00 120 00 00         : RESD         - DEEP RESISTIVITY (DIL)
~PARAMETER INFORMATION
#MNEM.UNIT           DATA             DESCRIPTION OF MNEMONIC
#---------         -----------     ------------------------------
GL  .M        505.38               : gl           - GROUND LEVEL ELEVATION
EREF.M        508.58               : kb           - ELEVATION OF DEPTH REFERENCE
DATM.M        508.58               : datum        - DATUM ELEVATION
TDD .M        265                  : tdd          - TOTAL DEPTH DRILLER
RUN .         ONE                  : Run          - RUN NUMBER
ENG .         BILL                 : Engineer     - RECORDING ENGINEER
WIT .         JIM                  : Witness      - WITNESSED BY
MUD .         GEL                  : Mud_type     - MUD TYPE
MATR.         SANDSTONE            : Logunit      - NEUTRON MATRIX
TMAX.C        25                   : BHT          - MAXIMUM RECORDED TEMPERATURE
BHTD.M        265                  : BHTDEP       - MAXIMUM RECORDED TEMPERATURE
MATR.         1                    : LOGUNIT      - NEUTRON MATRIX
RMT .C        25                   : MDTP         - TEMPERATURE OF MUD
NEUT.         1                    : NEUTRON      - NEUTRON TYPE
RESI.         0                    : RESIST       - RESISTIVITY TYPE
RMC .OHMM     0.25                 : RMC          - RESISTIVITY OF MUD CAKE
RMF .OHMM     0.25                 : RMF          - RESISTIVITY OF MUD FILTRATE
SUFT.C        15                   : SUFT         - SURFACE TEMPERATURE
~A  DEPTH       GR     PHID     PHIN     RESD
   70.000  100.598    0.242    0.489   11.025
   70.250  106.838    0.235    0.534    9.350
   70.500  112.028    0.236    0.550    8.076
   70.750  114.970    0.236    0.579    6.847
   71.000  113.558    0.217    0.606    5.914
   71.250  109.961    0.180    0.614    5.109
   71.500  108.603    0.160    0.622    4.664
   71.750  106.408    0.178    0.623    4.501
   72.000  106.093    0.205    0.617    4.593
   72.250  105.725    0.199    0.615    4.769
   72.500  107.519    0.175    0.617    5.240
   72.750  111.616    0.183    0.609    5.442
   73.000  112.286    0.217    0.593    5.656
   73.250  112.897    0.210    0.603    5.661
   73.500  117.582    0.194    0.612    5.671
   73.750  119.000    0.169    0.617    5.573
   74.000  117.426    0.162    0.588    5.478
   74.250  116.077    0.187    0.535    5.483
   74.500  112.883    0.205    0.520    5.594
   74.750  112.246    0.203    0.515    5.705
   75.000  111.981    0.181    0.525    5.712
   75.250  110.971    0.177    0.546    5.413
   75.500  110.260    0.207    0.571    5.125
   75.750  111.492    0.240    0.593    4.679
   76.000  114.715    0.251    0.611    4.117
   76.250  116.965    0.257    0.619    3.493
   76.500  116.969    0.286    0.621    3.369
   76.750  113.205    0.287    0.623    3.133
   77.000  109.177    0.283    0.624    2.915
   77.250  106.641    0.301    0.618    2.762
   77.500  102.971    0.301    0.603    2.617
   77.750  102.048    0.307    0.593    2.620
   78.000  104.395    0.295    0.576    2.622
   78.250  103.588    0.278    0.554    2.625
   78.500  101.044    0.276    0.552    2.678
   78.750   99.294    0.274    0.569    2.782
   79.000   98.630    0.254    0.588    2.891
   79.250  107.574    0.238    0.605    3.060
   79.500  110.308    0.232    0.585    3.178
   79.750  104.105    0.182    0.560    3.364
   80.000   98.088    0.122    0.576    3.430
   80.250   92.626    0.146    0.578    3.498
   80.500   80.720    0.238    0.512    3.503
   80.750   72.633    0.272    0.496    3.443
   81.000   84.037    0.285    0.527    3.385
   81.250   91.422    0.289    0.558    3.583
   81.500   87.695    0.285    0.570    3.721
   81.750   82.458    0.280    0.553    4.162
   82.000   76.375    0.234    0.516    5.918
   82.250   76.249    0.104    0.496    8.414
   82.500   75.102    0.111    0.361   12.189
   82.750   69.119    0.184    0.305   17.013
   83.000   60.572    0.238    0.362   20.493
   83.250   52.706    0.278    0.413   19.408
   83.500   47.349    0.286    0.461   19.083
   83.750   45.653    0.281    0.490   19.113
   84.000   44.505    0.283    0.502   19.487
   84.250   41.880    0.286    0.521   20.622
   84.500   40.405    0.294    0.523   22.237
   84.750   41.362    0.309    0.491   23.963
   85.000   43.622    0.314    0.465   25.831
   85.250   49.532    0.305    0.459   27.845
   85.500   51.099    0.317    0.459   31.164
   85.750   49.006    0.323    0.465   32.969
   86.000   46.097    0.321    0.475   34.251
   86.250   44.037    0.329    0.479   36.258
   86.500   44.840    0.339    0.480   37.680
   86.750   47.046    0.347    0.475   37.703
   87.000   47.149    0.323    0.469   37.786
   87.250   45.988    0.310    0.469   37.798
   87.500   45.236    0.310    0.486   37.845
   87.750   45.665    0.306    0.500   37.211
   88.000   46.673    0.316    0.493   36.588
   88.250   45.654    0.323    0.506   36.622
   88.500   45.244    0.321    0.532   36.668
   88.750   45.891    0.305    0.595   38.094
   89.000   47.394    0.295    0.563   38.142
   89.250   49.550    0.308    0.447   38.901
   89.500   51.590    0.335    0.445   38.962
   89.750   52.948    0.350    0.430   39.011
   90.000   50.987    0.322    0.448   39.059
   90.250   50.843    0.304    0.470   38.405
   90.500   51.324    0.304    0.478   38.429
   90.750   49.353    0.301    0.476   37.773
   91.000   49.102    0.315    0.454   37.833
   91.250   52.133    0.335    0.439   37.868
   91.500   54.336    0.339    0.434   37.234
   91.750   52.067    0.325    0.442   37.280
   92.000   48.726    0.319    0.459   36.633
   92.250   47.712    0.326    0.469   35.361
   92.500   48.465    0.318    0.459   32.885
   92.750   53.839    0.309    0.457   29.466
   93.000   60.662    0.302    0.467   25.927
   93.250   63.906    0.300    0.495   20.422
   93.500   60.382    0.312    0.530   15.503
   93.750   54.415    0.331    0.559   13.396
   94.000   53.384    0.338    0.562   13.163
   94.250   54.786    0.348    0.482   16.146
   94.500   57.124    0.334    0.452   18.402
   94.750   57.715    0.322    0.452   19.111
   95.000   58.205    0.322    0.458   19.498
   95.250   60.697    0.322    0.477   19.165
   95.500   63.238    0.318    0.482   17.172
   95.750   64.960    0.299    0.468   15.115
   96.000   64.624    0.315    0.451   14.319
   96.250   62.234    0.327    0.458   14.604
   96.500   60.206    0.315    0.471   14.894
   96.750   59.284    0.307    0.473   14.645
   97.000   58.282    0.308    0.479   14.123
   97.250   59.964    0.300    0.492   13.383
   97.500   64.726    0.295    0.508   12.682
   97.750   67.098    0.303    0.503   12.458
   98.000   66.840    0.314    0.504   11.809
   98.250   67.935    0.314    0.522   11.183
   98.500   70.605    0.310    0.519   10.407
   98.750   72.278    0.302    0.505   10.039
   99.000   73.049    0.290    0.498    9.169
   99.250   75.502    0.294    0.495    8.683
   99.500   79.751    0.293    0.486    7.783
   99.750   82.566    0.261    0.494    7.508
  100.000   81.081    0.223    0.529    6.729
  100.250   75.711    0.201    0.528    6.863
  100.500   68.412    0.194    0.506    8.735
  100.750   64.812    0.211    0.434   10.518
  101.000   62.408    0.237    0.387   12.902
  101.250   59.089    0.272    0.413   16.732
  101.500   56.375    0.323    0.422   21.692
  101.750   47.270    0.312    0.397   28.131
  102.000   44.450    0.314    0.406   30.325
  102.250   44.031    0.332    0.425   32.081
  102.500   41.990    0.342    0.419   34.593
  102.750   39.806    0.345    0.403   37.290
  103.000   39.075    0.340    0.394   36.654
  103.250   44.279    0.329    0.392   35.370
  103.500   46.679    0.335    0.401   33.527
  103.750   45.757    0.332    0.412   32.945
  104.000   43.646    0.319    0.419   32.373
  104.250   42.046    0.320    0.432   31.821
  104.500   42.758    0.331    0.465   31.288
  104.750   43.365    0.328    0.507   31.317
  105.000   43.217    0.309    0.549   31.376
  105.250   44.204    0.317    0.492   31.990
  105.500   45.670    0.332    0.429   32.030
  105.750   46.727    0.327    0.451   32.060
  106.000   48.294    0.325    0.460   32.100
  106.250   48.884    0.319    0.463   32.151
  106.500   48.913    0.329    0.451   31.602
  106.750   48.914    0.334    0.443   31.063
  107.000   48.832    0.332    0.441   29.436
  107.250   48.006    0.338    0.436   28.934
  107.500   46.421    0.342    0.435   27.920
  107.750   45.816    0.340    0.439   27.435
  108.000   46.014    0.333    0.446   26.474
  108.250   47.494    0.319    0.456   25.555
  108.500   49.804    0.310    0.471   25.119
  108.750   51.625    0.307    0.491   24.683
  109.000   52.575    0.294    0.510   24.269
  109.250   53.171    0.283    0.522   23.855
  109.500   52.840    0.302    0.465   23.448
  109.750   52.233    0.319    0.444   23.470
  110.000   51.770    0.318    0.461   23.500
  110.250   52.197    0.317    0.466   23.967
  110.500   54.407    0.325    0.476   24.452
  110.750   56.252    0.326    0.440   24.931
  111.000   55.160    0.300    0.447   25.909
  111.250   56.457    0.304    0.478   27.418
  111.500   59.925    0.303    0.485   29.564
  111.750   61.255    0.270    0.498   31.860
  112.000   60.560    0.217    0.468   36.298
  112.250   59.017    0.027    0.196   42.126
  112.500   57.709   -0.015    0.130   53.616
  112.750   57.462    0.005    0.169   86.770
  113.000   57.270    0.009    0.178  145.659
  113.250   57.848    0.022    0.191  249.148
