~VERSION INFORMATION
 VERS.                 2.0:   CWLS LOG ASCII STANDARD -VERSION 2.0
 WRAP.                  NO:   ONE LINE PER DEPTH STEP
~WELL INFORMATION BLOCK
#MNEM.UNIT           DATA                    DESCRIPTION OF MNEMONIC
#---------    -------------------            -------------------------------
# Generated from Intellog Unique Number	CN_94_101/WELL/3734
WELL.         PEX/NOVA                       : Well_name    - WELL
LOC .         AA/06-31-096-09W4/0            : Location     - LOCATION
UWI .         AA/06-31-096-09W400            : Uwi          - UNIQUE WELL ID
ENTR.         JOETTE                         : Entered      - ENTERED BY
SRVC.         SCHLUMBERGER                   : Scn          - SERVICE COMPANY
DATE.         08/10/92                       : Date         - LOG DATE
STRT.M        65                             : top_depth    - START DEPTH
STOP.M        180                            : bot_depth    - STOP DEPTH
STEP.M        0.25                           : increment    - STEP LENGTH
 NULL. -999.2500:NULL Value
~CURVE INFORMATION BLOCK
#MNEM UNIT       ERCB CURVE CODE    CURVE DESCRIPTION
#-----------   ------------------   ----------------------------------
DEPT.M        00 001 00 00         : DEPTH        - DEPTH
GR  .API      00 310 00 00         : GR           - GAMMA RAY
ILD .OHMM     00 120 00 00         : RESD         - DEEP RESISTIVITY (DIL)
NPHI.V/V      00 330 00 00         : PHIN         - NEUTRON POROSITY (SANDSTONE)
DPHI.V/V      00 890 00 00         : PHID         - DENSITY POROSITY (SANDSTONE)
~PARAMETER INFORMATION
#MNEM.UNIT           DATA             DESCRIPTION OF MNEMONIC
#---------         -----------     ------------------------------
GL  .M        336.8                : gl           - GROUND LEVEL ELEVATION
EREF.M        336.8                : kb           - ELEVATION OF DEPTH REFERENCE
DATM.M        336.8                : datum        - DATUM ELEVATION
TDD .M        183.2                : tdd          - TOTAL DEPTH DRILLER
RUN .         ONE                  : Run          - RUN NUMBER
ENG .         JO                   : Engineer     - RECORDING ENGINEER
WIT .         TIM                  : Witness      - WITNESSED BY
MUD .         GEL                  : Mud_type     - MUD TYPE
MATR.         SANDSTONE            : Logunit      - NEUTRON MATRIX
TMAX.C        18                   : BHT          - MAXIMUM RECORDED TEMPERATURE
BHTD.M        183.2                : BHTDEP       - MAXIMUM RECORDED TEMPERATURE
RMT .C        18                   : MDTP         - TEMPERATURE OF MUD
MUDD.KG/M     1010                 : MWT          - MUD DENSITY
NEUT.         1                    : NEUTRON      - NEUTRON TYPE
RESI.         0                    : RESIST       - RESISTIVITY TYPE
RM  .OHMM     9.5                  : RM           - RESISTIVITY OF MUD
RMC .OHMM     9.5                  : RMC          - RESISTIVITY OF MUD CAKE
RMF .OHMM     9.5                  : RMF          - RESISTIVITY OF MUD FILTRATE
SUFT.C        4                    : SUFT         - SURFACE TEMPERATURE
~A  DEPTH       GR     RESD     PHIN     PHID
# ...
  108.500   21.459   81.504    0.429    0.350
  108.750   20.334   72.950    0.418    0.341
  109.000   23.356   66.234    0.423    0.331
  109.250   25.771   62.712    0.413    0.327
  109.500   21.691   59.387    0.409    0.306
  109.750   18.801   60.300    0.409    0.286
  110.000   24.186   71.404    0.399    0.299
  110.250   23.062   74.557    0.398    0.306
  110.500   20.157   68.646    0.401    0.299
  110.750   21.989   69.690    0.394    0.299
  111.000   23.229   71.780    0.382    0.307
  111.250   21.514   77.075    0.378    0.306
  111.500   19.799   83.926    0.383    0.302
  111.750   15.726   79.450    0.401    0.307
  112.000   17.558   73.151    0.402    0.301
  112.250   25.892   76.382    0.400    0.301
  112.500   30.088   69.350    0.395    0.286
  112.750   31.328   68.474    0.408    0.307
  113.000   30.802   70.517    0.411    0.340
  113.250   28.489   67.718    0.416    0.340
  113.500   22.044   64.097    0.425    0.322
  113.750   23.285   71.784    0.410    0.332
  114.000   25.707   70.866    0.405    0.330
  114.250   29.903   66.166    0.395    0.305
  114.500   20.518   72.059    0.400    0.287
  114.750   27.064   69.188    0.422    0.271
  115.000   52.548   63.702    0.417    0.282
  115.250   38.419   41.346    0.414    0.300
  115.500   23.100   62.114    0.391    0.300
  115.750   23.166   63.059    0.395    0.295
  116.000   26.778   65.843    0.418    0.284
  116.250   30.376   72.716    0.426    0.290
  116.500   49.949   68.850    0.416    0.283
  116.750   37.586   55.112    0.394    0.275
  117.000   16.953   57.546    0.398    0.280
  117.250   25.886   69.113    0.401    0.275
  117.500   21.208   64.530    0.399    0.282
  117.750   23.631   64.623    0.406    0.297
  118.000   26.644   45.621    0.395    0.311
  118.250   43.853   50.367    0.405    0.260
  118.500   55.150   54.843    0.424    0.222
  118.750   66.447   48.422    0.454    0.194
  119.000   75.365   37.174    0.447    0.206
  119.250   80.160   23.463    0.459    0.224
  119.500   72.526   25.548    0.461    0.239
  119.750   82.633   27.437    0.436    0.252
  120.000   51.361   19.919    0.428    0.267
  120.250   35.451   32.989    0.418    0.275
  120.500   21.321   37.993    0.433    0.270
  120.750   30.254   33.073    0.438    0.250
  121.000   42.726   42.006    0.482    0.217
  121.250   82.989   34.098    0.462    0.220
  121.500  115.560   15.826    0.442    0.230
  121.750  101.438   16.758    0.396    0.187
  122.000  113.910   12.687    0.429    0.171
  122.250  102.729   23.179    0.470    0.179
  122.500  107.524   24.885    0.488    0.192
  122.750  126.499   20.203    0.490    0.195
  123.000  147.254   17.343    0.462    0.187
  123.250  135.489   15.971    0.443    0.180
  123.500  138.510   16.444    0.435    0.180
  123.750  123.775   15.787    0.430    0.172
  124.000  115.557   17.680    0.455    0.182
  124.250  126.855   20.648    0.446    0.184
  124.500  129.868   19.822    0.451    0.179
  124.750  137.611   17.258    0.458    0.189
  125.000  123.482   16.804    0.451    0.193
  125.250  121.774   18.297    0.445    0.197
  125.500  102.317   19.647    0.446    0.198
  125.750  102.375   19.672    0.450    0.200
  126.000  108.345   20.833    0.436    0.205
  126.250   93.033   20.003    0.430    0.206
  126.500   94.865   20.887    0.421    0.195
  126.750  102.615   22.431    0.412    0.172
  127.000   91.434   24.768    0.426    0.142
  127.250   95.039   20.105    0.422    0.159
  127.500   96.878   18.001    0.438    0.177
  127.750  105.796   20.157    0.439    0.183
  128.000  117.684   21.948    0.430    0.177
  128.250  104.737   20.208    0.412    0.162
  128.500  106.568   21.104    0.402    0.165
  128.750  125.543   19.979    0.413    0.155
  129.000   93.088   23.658    0.410    0.168
  129.250  120.930   21.782    0.403    0.162
  129.500   97.934   23.392    0.416    0.162
  129.750   89.132   25.472    0.433    0.183
  130.000   93.321   26.227    0.415    0.206
  130.250   79.191   19.580    0.395    0.231
  130.500   53.823   34.293    0.389    0.242
  130.750   34.373   60.918    0.367    0.239
  131.000   45.079   68.213    0.371    0.235
  131.250   54.603   57.761    0.365    0.240
  131.500   60.565   53.922    0.366    0.257
  131.750   38.744   61.249    0.386    0.270
  132.000   27.570   62.171    0.386    0.283
  132.250   25.855   47.067    0.381    0.304
  132.500   15.280   53.454    0.399    0.314
  132.750   21.833   54.267    0.413    0.295
  133.000   27.817   66.093    0.376    0.275
  133.250   19.592   62.578    0.345    0.275
  133.500   20.832   56.037    0.377    0.250
  133.750   32.129   66.346    0.467    0.369
  134.000   37.501   41.882    0.507    0.413
  134.250   64.758   35.958    0.474    0.392
  134.500   49.447   22.070    0.430    0.350
  134.750   32.946   47.017    0.426    0.321
  135.000   13.496   47.747    0.405    0.304
  135.250   17.108   62.342    0.387    0.281
  135.500   16.568   45.903    0.437    0.289
  135.750   26.092   49.991    0.495    0.307
  136.000   71.675   42.913    0.540    0.330
  136.250  125.535   34.835    0.505    0.446
  136.500  130.322   17.583    0.408    0.447
  136.750  119.156   22.018    0.289    0.263
  137.000   91.415   25.002    0.375    0.213
  137.250   54.231   48.978    0.413    0.279
  137.500   33.001   95.932    0.401    0.319
  137.750   21.827   50.495    0.406    0.332
  138.000   17.163   47.154    0.418    0.350
  138.250   16.032   48.553    0.401    0.348
  138.500   14.908   49.291    0.411    0.322
  138.750   15.557   46.670    0.413    0.312
  139.000   14.440   47.388    0.413    0.297
  139.250   18.636   48.801    0.418    0.299
  139.500   19.877   49.551    0.399    0.294
  139.750   18.169   42.543    0.409    0.289
  140.000   14.673   38.626    0.398    0.285
  140.250   20.649   44.478    0.399    0.287
  140.500   31.932   47.096    0.406    0.275
  140.750   29.035   32.331    0.392    0.293
  141.000   30.282   41.056    0.396    0.272
  141.250   23.239   41.109    0.405    0.249
  141.500   32.763   30.690    0.413    0.242
  141.750   43.462   40.642    0.392    0.257
  142.000   40.564   30.768    0.397    0.278
  142.250   36.484   43.695    0.401    0.298
  142.500   43.045   45.632    0.404    0.306
  142.750   28.915   45.690    0.409    0.298
  143.000   23.069   55.638    0.403    0.295
  143.250   18.398   31.848    0.391    0.306
  143.500   22.003   23.117    0.395    0.319
  143.750   24.426   49.942    0.394    0.300
  144.000   22.703   47.960    0.367    0.257
  144.250   21.587   40.598    0.357    0.245
  144.500   25.199   50.133    0.378    0.255
  144.750   24.067   60.201    0.406    0.267
  145.000   26.497   31.248    0.411    0.278
  145.250   27.738   37.002    0.390    0.285
  145.500   21.293   42.016    0.401    0.266
  145.750   19.570   43.879    0.391    0.247
  146.000   19.045   42.130    0.386    0.242
  146.250   17.921   39.336    0.381    0.235
  146.500   15.607   41.658    0.395    0.232
  146.750   16.847   43.498    0.359    0.209
  147.000   15.723   37.865    0.359    0.187
  147.250   15.197   26.360    0.318    0.212
  147.500   16.438   19.406    0.336    0.217
  147.750   18.276   31.694    0.368    0.215
  148.000   20.692   47.598    0.401    0.220
  148.250   23.122   68.559    0.397    0.217
  148.500   27.318   10.396    0.475    0.195
  148.750   68.756   22.460    0.506    0.180
  149.000  143.904   10.423    0.494    0.198
  149.250  136.278   12.173    0.453    0.185
  149.500  109.727   15.032    0.436    0.169
  149.750  102.100   21.956    0.426    0.212
  150.000   77.921   21.981    0.428    0.291
  150.250   60.245   29.523    0.434    0.323
  150.500   59.114   36.970    0.432    0.333
  150.750   34.343   42.571    0.418    0.318
  151.000   30.855   49.711    0.427    0.320
  151.250   37.416   49.782    0.412    0.320
  151.500   28.606   54.215    0.407    0.305
  151.750   31.620   47.859    0.400    0.302
