~VERSION INFORMATION
 VERS.                 2.0:   CWLS LOG ASCII STANDARD -VERSION 2.0
 WRAP.                  NO:   ONE LINE PER DEPTH STEP
~WELL INFORMATION BLOCK
#MNEM.UNIT           DATA                    DESCRIPTION OF MNEMONIC
#---------    -------------------            -------------------------------
# Generated from Intellog Unique Number	CN_94_101/WELL/3325
WELL.         08-17-095-09W4                 : Well_name    - WELL
LOC .         AA/08-17-095-09W4/0            : Location     - LOCATION
UWI .         AA/08-17-095-09W400            : Uwi          - UNIQUE WELL ID
ENTR.         T                              : Entered      - ENTERED BY
SRVC.         COMPUTALOG                     : Scn          - SERVICE COMPANY
DATE.         06/18/92                       : Date         - LOG DATE
STRT.M        5                              : top_depth    - START DEPTH
STOP.M        125                            : bot_depth    - STOP DEPTH
STEP.M        0.25                           : increment    - STEP LENGTH
 NULL. -999.2500:NULL Value
~CURVE INFORMATION BLOCK
#MNEM UNIT       ERCB CURVE CODE    CURVE DESCRIPTION
#-----------   ------------------   ----------------------------------
DEPT.M        00 001 00 00         : DEPTH        - DEPTH
GR  .API      00 310 00 00         : GR           - GAMMA RAY
NPHI.V/V      00 330 00 00         : PHIN         - NEUTRON POROSITY (SANDSTONE)
RHOB.KG/M3    00 350 00 00         : DENS         - BULK DENSITY
ILD .OHMM     00 120 00 00         : RESD         - DEEP RESISTIVITY (DIL)
~PARAMETER INFORMATION
#MNEM.UNIT           DATA             DESCRIPTION OF MNEMONIC
#---------         -----------     ------------------------------
GL  .M        302.6                : gl           - GROUND LEVEL ELEVATION
EREF.M        302.6                : kb           - ELEVATION OF DEPTH REFERENCE
DATM.M        302.6                : datum        - DATUM ELEVATION
TDD .M        129                  : tdd          - TOTAL DEPTH DRILLER
RUN .         ONE                  : Run          - RUN NUMBER
ENG .         JO                   : Engineer     - RECORDING ENGINEER
WIT .         TIM                  : Witness      - WITNESSED BY
MUD .         GEL                  : Mud_type     - MUD TYPE
MATR.         SANDSTONE            : Logunit      - NEUTRON MATRIX
TMAX.C        8                    : BHT          - MAXIMUM RECORDED TEMPERATURE
BHTD.M        129                  : BHTDEP       - MAXIMUM RECORDED TEMPERATURE
RMT .C        8                    : MDTP         - TEMPERATURE OF MUD
MUDD.KG/M     1240                 : MWT          - MUD DENSITY
NEUT.         1                    : NEUTRON      - NEUTRON TYPE
RESI.         0                    : RESIST       - RESISTIVITY TYPE
RM  .OHMM     10.7                 : RM           - RESISTIVITY OF MUD
RMC .OHMM     6.8                  : RMC          - RESISTIVITY OF MUD CAKE
RMF .OHMM     15.9                 : RMF          - RESISTIVITY OF MUD FILTRATE
SUFT.C        4                    : SUFT         - SURFACE TEMPERATURE
~A  DEPTH       GR     PHIN     DENS     RESD
# ...
   92.000   32.248    0.407 2124.850   18.202
   92.250   30.468    0.402 2090.360   18.232
   92.500   26.836    0.391 2100.710   18.261
   92.750   33.635    0.366 2133.480   18.638
   93.000   37.992    0.360 2145.870   18.675
   93.250   44.165    0.427 2129.730   18.363
   93.500   70.613    0.497 2101.350   17.396
   93.750   97.060    0.573 2052.600   11.607
   94.000  103.859    0.538 2011.960   10.217
   94.250  105.136    0.484 2187.480    8.829
   94.500   89.844    0.467 2281.430    9.878
   94.750   84.985    0.424 2330.580   12.581
   95.000   70.921    0.389 2291.980   15.154
   95.250   53.162    0.370 2281.910   18.600
   95.500   30.507    0.352 2186.280   21.198
   95.750   26.863    0.338 2125.250   21.232
   96.000   28.164    0.347 2117.260   20.496
   96.250   25.758    0.382 2113.350   20.520
   96.500   24.580    0.388 2099.240   19.809
   96.750   27.084    0.387 2085.170   19.848
   97.000   28.361    0.379 2079.180   19.517
   97.250   27.170    0.362 2085.450   19.920
   97.500   24.777    0.352 2108.030   21.087
   97.750   23.599    0.350 2124.540   23.153
   98.000   24.876    0.349 2134.890   24.976
   98.250   23.698    0.348 2151.350   25.945
   98.500   21.293    0.337 2167.860   27.477
   98.750   20.115    0.330 2176.170   27.521
   99.000   20.151    0.331 2176.330   27.554
   99.250   21.440    0.337 2172.410   26.598
   99.500   22.717    0.350 2164.420   26.154
   99.750   25.221    0.370 2156.430   25.247
  100.000   28.964    0.396 2142.320   24.845
  100.250   33.296    0.409 2124.140   24.875
  100.500   38.255    0.421 2106.000   24.460
  100.750   50.589    0.376 2095.930   23.630
  101.000   60.456    0.402 2089.970   23.659
  101.250   61.733    0.406 2147.200   23.254
  101.500   53.191    0.386 2173.850   23.291
  101.750   52.639    0.355 2176.090   23.338
  102.000   55.143    0.355 2159.910   23.376
  102.250   59.487    0.360 2137.650   23.413
  102.500   58.309    0.372 2129.700   23.451
  102.750   60.825    0.395 2135.930   23.059
  103.000   45.522    0.393 2148.360   23.087
  103.250   36.968    0.388 2144.440   23.124
  103.500   33.335    0.388 2128.340   22.737
  103.750   29.101    0.385 2116.230   23.198
  104.000   24.229    0.379 2108.240   23.235
  104.250   21.210    0.371 2104.320   23.715
  104.500   23.101    0.364 2108.560   24.205
  104.750   25.604    0.355 2120.950   24.695
  105.000   28.734    0.343 2141.490   24.735
  105.250   31.250    0.359 2157.950   25.236
  105.500   28.832    0.387 2170.420   25.276
  105.750   28.268    0.355 2178.730   25.317
  106.000   30.772    0.345 2184.970   25.357
  106.250   32.048    0.338 2189.250   25.398
  106.500   32.098    0.340 2191.440   25.912
  106.750   27.250    0.342 2181.370   25.954
  107.000   23.605    0.346 2157.080   25.995
  107.250   21.826    0.348 2157.280   26.511
  107.500   22.501    0.345 2157.440   26.554
  107.750   23.140    0.339 2155.560   26.607
  108.000   24.428    0.339 2157.760   27.146
  108.250   25.717    0.334 2172.180   27.695
  108.500   25.766    0.329 2180.500   29.330
  108.750   26.429    0.321 2182.690   29.912
  109.000   28.933    0.311 2188.970   30.518
  109.250   31.437    0.323 2199.320   30.008
  109.500   32.713    0.345 2205.630   27.918
  109.750   32.763    0.346 2183.330   26.468
  110.000   32.198    0.343 2146.810   25.550
  110.250   31.646    0.342 2128.670   25.591
  110.500   29.854    0.335 2132.900   26.099
  110.750   29.891    0.343 2141.210   26.162
  111.000   33.635    0.354 2149.530   26.681
  111.250   29.990    0.358 2153.760   26.713
  111.500   31.880    0.343 2147.770   27.276
  111.750   36.225    0.343 2127.550   27.297
  112.000   39.342    0.359 2113.480   27.341
  112.250   37.550    0.349 2125.830   27.385
  112.500   33.930    0.338 2152.530   27.451
  112.750   34.605    0.330 2164.950   27.484
  113.000   35.870    0.329 2165.110   27.528
  113.250   37.772    0.332 2167.310   27.583
  113.500   37.821    0.341 2171.510   28.131
  113.750   37.870    0.348 2169.630   28.187
  114.000   36.079    0.355 2161.640   28.243
  114.250   33.048    0.353 2147.530   28.277
  114.500   30.642    0.344 2137.540   28.334
  114.750   28.237    0.332 2145.810   28.368
  115.000   27.072    0.340 2148.050   28.413
  115.250   26.507    0.352 2140.020   28.448
  115.500   26.544    0.362 2127.950   28.493
  115.750   26.593    0.355 2122.000   28.539
  116.000   25.428    0.355 2109.930   28.585
  116.250   24.851    0.361 2128.470   28.630
  116.500   24.913    0.375 2140.860   28.699
  116.750   26.803    0.362 2151.210   28.734
  117.000   31.147    0.354 2159.520   28.791
  117.250   31.197    0.368 2149.490   28.849
  117.500   30.018    0.377 2135.390   28.884
  117.750   29.454    0.360 2109.050   28.919
  118.000   30.731    0.362 2115.330   28.976
  118.250   32.007    0.359 2133.830   29.035
  118.500   32.670    0.349 2140.140   29.058
  118.750   36.413    0.327 2156.610   28.595
  119.000   42.599    0.333 2173.070   28.630
  119.250   77.024    0.379 2201.770   27.142
  119.500  110.221    0.362 2271.260   25.702
  119.750  100.452    0.332 2483.470   22.624
  120.000   78.399    0.309 2526.470   19.916
  120.250   68.016    0.272 2534.780   17.531
  120.500   65.611    0.260 2557.400   27.339
  120.750   65.071    0.252 2571.830   43.445
  121.000   65.709    0.255 2578.100   54.297
  121.250   66.372    0.255 2541.540   49.612
  121.500   68.901    0.246 2529.470   44.467
  121.750   70.165    0.242 2558.200   42.141
  122.000   72.669    0.247 2588.930   50.759
  122.250   74.583    0.248 2578.900   60.046
  122.500   74.608    0.236 2560.720   50.942
  122.750   74.657    0.226 2564.960   44.005
  123.000   73.479    0.211 2581.420   56.044
  123.250   68.620    0.196 2616.310   78.240
  123.500   59.464    0.184 2612.350   97.823
  123.750   47.855    0.189 2608.440  115.675
  124.000   38.700    0.201 2610.640  136.786
  124.250   41.203    0.211 2608.760  134.554
  124.500   51.071    0.226 2602.800  132.254
  124.750   65.246    0.242 2586.700  123.092
  125.000   73.886    0.256 2572.550   52.728
