~VERSION INFORMATION
 VERS.                 2.0:   CWLS LOG ASCII STANDARD -VERSION 2.0
 WRAP.                  NO:   ONE LINE PER DEPTH STEP
~WELL INFORMATION BLOCK
#MNEM.UNIT           DATA                    DESCRIPTION OF MNEMONIC
#---------    -------------------            -------------------------------
# Generated from Intellog Unique Number	CN_94_101/WELL/4994
WELL.         09-05-098-13W4                 : Well_name    - WELL
LOC .         00/09-05-098-13W4/0            : Location     - LOCATION
UWI .         00/09-05-098-13W400            : Uwi          - UNIQUE WELL ID
ENTR.         JOETTE                         : Entered      - ENTERED BY
SRVC.         WESTERN ATLAS                  : Scn          - SERVICE COMPANY
DATE.         08/28/92                       : Date         - LOG DATE
STRT.M        275                            : top_depth    - START DEPTH
STOP.M        480                            : bot_depth    - STOP DEPTH
STEP.M        0.25                           : increment    - STEP LENGTH
 NULL. -999.2500:NULL Value
~CURVE INFORMATION BLOCK
#MNEM UNIT       ERCB CURVE CODE    CURVE DESCRIPTION
#-----------   ------------------   ----------------------------------
DEPT.M        00 001 00 00         : DEPTH        - DEPTH
ILD .OHMM     00 120 00 00         : RESD         - DEEP RESISTIVITY (DIL)
GR  .API      00 310 00 00         : GR           - GAMMA RAY
NPHI.V/V      00 330 00 00         : PHIN         - NEUTRON POROSITY (SANDSTONE)
DPHI.V/V      00 890 00 00         : PHID         - DENSITY POROSITY (SANDSTONE)
~PARAMETER INFORMATION
#MNEM.UNIT           DATA             DESCRIPTION OF MNEMONIC
#---------         -----------     ------------------------------
GL  .M        723.4                : gl           - GROUND LEVEL ELEVATION
EREF.M        726.65               : kb           - ELEVATION OF DEPTH REFERENCE
DATM.M        726.65               : datum        - DATUM ELEVATION
TDD .M        491                  : tdd          - TOTAL DEPTH DRILLER
RUN .         ONE                  : Run          - RUN NUMBER
ENG .         JO                   : Engineer     - RECORDING ENGINEER
WIT .         TIM                  : Witness      - WITNESSED BY
MUD .         GEL                  : Mud_type     - MUD TYPE
MATR.         SANDSTONE            : Logunit      - NEUTRON MATRIX
TMAX.C        20                   : BHT          - MAXIMUM RECORDED TEMPERATURE
BHTD.M        491                  : BHTDEP       - MAXIMUM RECORDED TEMPERATURE
RMT .C        15                   : MDTP         - TEMPERATURE OF MUD
MUDD.KG/M     1150                 : MWT          - MUD DENSITY
NEUT.         1                    : NEUTRON      - NEUTRON TYPE
RESI.         0                    : RESIST       - RESISTIVITY TYPE
RM  .OHMM     6.17                 : RM           - RESISTIVITY OF MUD
RMC .OHMM     5.2                  : RMC          - RESISTIVITY OF MUD CAKE
RMF .OHMM     5.01                 : RMF          - RESISTIVITY OF MUD FILTRATE
SUFT.C        4                    : SUFT         - SURFACE TEMPERATURE
~A  DEPTH     RESD       GR     PHIN     PHID
# ...
  405.500   19.781   99.691    0.368    0.197
  405.750   23.501   96.888    0.343    0.180
  406.000   28.969   90.262    0.316    0.151
  406.250   45.606   86.960    0.284    0.133
  406.500 1625.000   83.657    0.258    0.119
  406.750 1629.450   80.854    0.256    0.110
  407.000 1379.990   82.374    0.261    0.115
  407.250  677.260   86.295    0.287    0.141
  407.500  219.952   93.118    0.316    0.159
  407.750   27.912  103.323    0.323    0.171
  408.000    7.112  106.265    0.339    0.189
  408.250    6.860  112.627    0.373    0.201
  408.500    6.625  114.627    0.401    0.211
  408.750    6.515  115.187    0.448    0.214
  409.000    6.180  116.226    0.466    0.213
  409.250    5.857  117.746    0.482    0.215
  409.500    5.445  118.786    0.491    0.218
  409.750    5.065  117.904    0.493    0.220
  410.000    4.991  117.023    0.501    0.226
  410.250    4.998  118.523    0.506    0.227
  410.500    5.207  117.181    0.506    0.211
  410.750    5.735  110.996    0.499    0.195
  411.000    6.558  109.174    0.484    0.174
  411.250    7.365  110.674    0.487    0.169
  411.500    7.385  113.155    0.493    0.170
  411.750    6.865  116.596    0.499    0.186
  412.000    4.223  121.998    0.516    0.200
  412.250    3.318  121.577    0.534    0.230
  412.500    2.970  120.215    0.545    0.250
  412.750    2.517  119.814    0.543    0.256
  413.000    2.430  118.952    0.547    0.261
  413.250    2.438  119.491    0.539    0.261
  413.500    2.683  119.090    0.534    0.261
  413.750    3.127  116.807    0.528    0.255
  414.000    4.656  115.406    0.522    0.242
  414.250    4.942  114.024    0.519    0.230
  414.500    5.142  113.642    0.515    0.230
  414.750    5.667  113.721    0.511    0.230
  415.000    6.008  115.722    0.506    0.222
  415.250    6.255  118.683    0.502    0.213
  415.500    6.391  121.163    0.496    0.213
  415.750    6.538  118.380    0.484    0.217
  416.000    6.426  115.558    0.462    0.207
  416.250    6.323  112.735    0.442    0.194
  416.500    7.231  110.413    0.417    0.162
  416.750    8.591  108.090    0.410    0.158
  417.000    9.113  105.307    0.403    0.156
  417.250    9.311  107.768    0.402    0.148
  417.500    8.993  116.992    0.402    0.144
  417.750    8.371  118.532    0.404    0.154
  418.000    8.079  120.532    0.418    0.164
  418.250    7.521  121.092    0.448    0.197
  418.500    7.258  120.230    0.472    0.197
  418.750    7.138  119.789    0.480    0.197
  419.000    6.894  120.349    0.474    0.199
  419.250    6.663  121.888    0.469    0.206
  419.500    6.430  123.408    0.467    0.206
  419.750    5.557  123.948    0.469    0.205
  420.000    5.263  124.987    0.468    0.208
  420.250    4.992  124.106    0.465    0.211
  420.500    4.999  120.862    0.464    0.214
  420.750    5.020  119.481    0.466    0.216
  421.000    5.033  117.158    0.475    0.217
  421.250    5.044  118.658    0.483    0.217
  421.500    4.960  121.639    0.489    0.217
  421.750    4.794  120.738    0.494    0.225
  422.000    4.462  117.474    0.499    0.232
  422.250    4.224  116.112    0.502    0.231
  422.500    3.714  115.211    0.504    0.228
  422.750    3.388  114.329    0.509    0.227
  423.000    3.093  112.968    0.512    0.216
  423.250    2.934  111.125    0.506    0.220
  423.500    2.940  113.145    0.501    0.221
  423.750    2.954  114.646    0.503    0.223
  424.000    3.014  116.646    0.512    0.226
  424.250    3.078  119.126    0.512    0.230
  424.500    3.078  121.607    0.511    0.235
  424.750    3.274  122.666    0.509    0.239
  425.000    2.056  121.305    0.512    0.230
  425.250    2.022  119.962    0.511    0.224
  425.500    2.026  119.041    0.509    0.233
  425.750    1.995  117.679    0.511    0.256
  426.000    1.891  114.896    0.524    0.261
  426.250    1.790  110.633    0.536    0.269
  426.500    1.488  104.928    0.546    0.281
  426.750    1.285   97.803    0.550    0.288
  427.000    1.288   92.098    0.545    0.294
  427.250    1.418   85.933    0.535    0.298
  427.500    1.622   82.170    0.473    0.292
  427.750    2.415   79.387    0.445    0.287
  428.000    2.812   77.545    0.434    0.282
  428.250    4.426   77.124    0.408    0.270
  428.500    5.165   77.183    0.403    0.267
  428.750    7.260   75.360    0.396    0.272
  429.000    7.701   70.617    0.394    0.283
  429.250    8.807   56.727    0.380    0.296
  429.500   10.856   45.739    0.358    0.302
  429.750   18.784   39.574    0.350    0.308
  430.000   21.480   35.311    0.332    0.312
  430.250   25.502   33.988    0.317    0.312
  430.500   26.074   34.028    0.301    0.306
  430.750   24.714   34.127    0.298    0.306
  431.000   28.242   34.206    0.302    0.312
  431.250   42.056   34.745    0.316    0.321
  431.500   42.941   36.285    0.345    0.331
  431.750   43.904   34.943    0.368    0.343
  432.000   42.374   33.541    0.378    0.336
  432.250   42.490   31.719    0.392    0.332
  432.500   45.991   30.337    0.398    0.327
  432.750   47.815   33.338    0.395    0.319
  433.000   47.054   35.799    0.390    0.303
  433.250   45.445   38.779    0.384    0.301
  433.500   47.345   40.760    0.385    0.306
  433.750   46.592   43.721    0.394    0.311
  434.000   46.720   55.867    0.404    0.307
  434.250   46.847   56.867    0.413    0.302
  434.500   44.404   60.328    0.411    0.298
  434.750   29.445   70.053    0.413    0.290
  435.000   14.724   78.277    0.461    0.271
  435.250    5.155   81.738    0.463    0.228
  435.500    4.287   89.022    0.474    0.202
  435.750    3.767   97.766    0.499    0.202
  436.000    3.437  104.589    0.516    0.198
  436.250    3.079  108.531    0.524    0.210
  436.500    2.759  110.531    0.526    0.227
  436.750    2.381  112.031    0.527    0.245
  437.000    2.175  115.032    0.525    0.247
  437.250    2.101  116.532    0.522    0.242
  437.500    2.106  119.993    0.521    0.228
  437.750    2.151  120.072    0.521    0.216
  438.000    2.325  112.907    0.508    0.216
  438.250    2.658   96.655    0.446    0.215
  438.500    3.097   93.372    0.409    0.219
  438.750    3.893   88.128    0.371    0.225
  439.000    6.023   68.514    0.347    0.228
  439.250    6.385   66.172    0.327    0.238
  439.500    7.037   64.790    0.324    0.241
  439.750    7.316   66.830    0.328    0.241
  440.000    7.914   68.850    0.330    0.241
  440.250    7.941   69.850    0.339    0.236
  440.500    7.516   71.851    0.364    0.251
  440.750    6.486   68.087    0.367    0.239
  441.000   11.224   63.824    0.357    0.247
  441.250   12.826   53.816    0.341    0.258
  441.500   64.772   49.072    0.326    0.273
  441.750 1584.570   49.671    0.308    0.287
  442.000 1317.030   50.672    0.304    0.297
  442.250  825.522   53.672    0.310    0.309
  442.500   16.921   53.251    0.317    0.319
  442.750   17.962   52.369    0.323    0.333
  443.000   19.415   52.448    0.365    0.356
  443.250   20.986   62.153    0.385    0.371
  443.500   25.388   66.075    0.400    0.386
  443.750   51.012   76.280    0.407    0.306
  444.000   35.144   77.800    0.407    0.303
  444.250   30.307   80.761    0.405    0.300
  444.500   18.309   82.761    0.399    0.293
  444.750   30.494   80.419    0.396    0.289
  445.000   34.269   79.077    0.393    0.281
  445.250   34.990   78.675    0.389    0.268
  445.500   33.187   79.715    0.385    0.263
  445.750   30.850   80.735    0.385    0.262
  446.000   29.201   82.275    0.392    0.257
  446.250   30.998   83.795    0.388    0.249
  446.500   35.471   82.433    0.366    0.253
  446.750   39.068   80.610    0.365    0.255
  447.000   43.029   79.209    0.366    0.256
  447.250   47.391   74.985    0.373    0.257
  447.500   47.521   73.603    0.373    0.259
  447.750   43.353   73.702    0.368    0.264
  448.000   49.609   75.242    0.362    0.260
  448.250   52.626   75.761    0.363    0.255
  448.500   42.898   78.722    0.365    0.253
  448.750   31.266   84.144    0.370    0.251
