~VERSION INFORMATION
 VERS.                 2.0:   CWLS LOG ASCII STANDARD -VERSION 2.0
 WRAP.                  NO:   ONE LINE PER DEPTH STEP
~WELL INFORMATION BLOCK
#MNEM.UNIT           DATA                    DESCRIPTION OF MNEMONIC
#---------    -------------------            -------------------------------
# Generated from Intellog Unique Number	CC_80_83/WELL/2483
WELL.         PEX PCEJ HANGST                : Well_name    - WELL
LOC .         AA/09-31-083-11W4/0            : Location     - LOCATION
UWI .         AA/09-31-083-11W400            : Uwi          - UNIQUE WELL ID
ENTR.         DW                             : Entered      - ENTERED BY
SRVC.         SCHLUMBERGER                   : Scn          - SERVICE COMPANY
STRT.M        150                            : top_depth    - START DEPTH
STOP.M        379.75                         : bot_depth    - STOP DEPTH
STEP.M        0.25                           : increment    - STEP LENGTH
 NULL. -999.2500:NULL Value
~CURVE INFORMATION BLOCK
#MNEM UNIT       ERCB CURVE CODE    CURVE DESCRIPTION
#-----------   ------------------   ----------------------------------
DEPT.M        00 001 00 00         : DEPTH        - DEPTH
DPHI.V/V      00 890 00 00         : PHID         - DENSITY POROSITY (SANDSTONE)
GR  .API      00 310 00 00         : GR           - GAMMA RAY
ILD .OHMM     00 120 00 00         : RESD         - DEEP RESISTIVITY (DIL)
NPHI.V/V      00 330 00 00         : PHIN         - NEUTRON POROSITY (SANDSTONE)
~PARAMETER INFORMATION
#MNEM.UNIT           DATA             DESCRIPTION OF MNEMONIC
#---------         -----------     ------------------------------
GL  .M        615.5                : gl           - GROUND LEVEL ELEVATION
EREF.M        619.15               : kb           - ELEVATION OF DEPTH REFERENCE
DATM.M        619.15               : datum        - DATUM ELEVATION
TDD .M        382                  : tdd          - TOTAL DEPTH DRILLER
RUN .         ONE                  : Run          - RUN NUMBER
ENG .         BILL                 : Engineer     - RECORDING ENGINEER
WIT .         JIM                  : Witness      - WITNESSED BY
MUD .         GEL                  : Mud_type     - MUD TYPE
MATR.         SANDSTONE            : Logunit      - NEUTRON MATRIX
TMAX.C        16                   : BHT          - MAXIMUM RECORDED TEMPERATURE
BHTD.M        382                  : BHTDEP       - MAXIMUM RECORDED TEMPERATURE
MATR.         1                    : LOGUNIT      - NEUTRON MATRIX
RMT .C        25                   : MDTP         - TEMPERATURE OF MUD
NEUT.         1                    : NEUTRON      - NEUTRON TYPE
RESI.         0                    : RESIST       - RESISTIVITY TYPE
RMC .OHMM     0.25                 : RMC          - RESISTIVITY OF MUD CAKE
RMF .OHMM     0.25                 : RMF          - RESISTIVITY OF MUD FILTRATE
SUFT.C        15                   : SUFT         - SURFACE TEMPERATURE
~A  DEPTH     PHID       GR     RESD     PHIN
# ...
  193.500    0.256   90.913   10.085    0.327
  193.750    0.260   99.409   13.131    0.326
  194.000    0.258  105.573   16.931    0.332
  194.250    0.257  107.505   18.902    0.346
  194.500    0.271  108.253   19.207    0.343
  194.750    0.292  106.458   18.994    0.321
  195.000    0.286  101.464   17.734    0.316
  195.250    0.243   93.030   16.089    0.309
  195.500    0.225   88.107   15.328    0.310
  195.750    0.225   86.536   15.223    0.309
  196.000    0.226   87.140   15.319    0.302
  196.250    0.243   80.719   16.107    0.294
  196.500    0.279   65.666   18.412    0.289
  196.750    0.285   70.007   21.687    0.289
  197.000    0.248   66.237   23.556    0.313
  197.250    0.196   66.972   24.584    0.325
  197.500    0.162   67.472   25.894    0.327
  197.750    0.177   64.108   23.780    0.341
  198.000    0.235   75.599   16.444    0.359
  198.250    0.257   79.759   13.998    0.370
  198.500    0.266   81.390   13.325    0.367
  198.750    0.272   86.124   13.055    0.345
  199.000    0.286   79.500   13.138    0.341
  199.250    0.277   71.696   13.518    0.360
  199.500    0.221   84.893   14.410    0.350
  199.750    0.212   78.341   14.607    0.334
  200.000    0.204   72.164   15.408    0.317
  200.250    0.180   65.117   16.269    0.301
  200.500    0.181   68.427   16.410    0.268
  200.750    0.210   83.962   16.047    0.259
  201.000    0.233   85.590   15.539    0.321
  201.250    0.262   81.847   14.847    0.341
  201.500    0.272   80.355   13.988    0.344
  201.750    0.270   79.448   13.057    0.353
  202.000    0.272   86.605   11.879    0.362
  202.250    0.288   97.819   10.671    0.356
  202.500    0.299  101.034    9.892    0.344
  202.750    0.242  115.612    9.002    0.364
  203.000    0.198  118.306    8.290    0.373
  203.250    0.192  117.889    7.648    0.374
  203.500    0.197  121.651    7.181    0.383
  203.750    0.197  124.527    7.023    0.396
  204.000    0.195  124.617    6.915    0.401
  204.250    0.189  118.997    6.960    0.390
  204.500    0.185  125.071    7.718    0.371
  204.750    0.193  123.693    9.009    0.359
  205.000    0.219  112.570   11.442    0.356
  205.250    0.244  104.577   14.299    0.356
  205.500    0.248   96.865   15.527    0.358
  205.750    0.245   91.169   16.308    0.355
  206.000    0.242   91.099   16.729    0.356
  206.250    0.230   92.570   16.569    0.361
  206.500    0.214   90.587   15.685    0.368
  206.750    0.210   87.212   14.453    0.377
  207.000    0.217   87.606   13.362    0.382
  207.250    0.231   90.781   12.115    0.372
  207.500    0.240   97.534   11.590    0.379
  207.750    0.246   99.407   11.255    0.392
  208.000    0.252  100.976   11.061    0.385
  208.250    0.255  103.231   11.347    0.364
  208.500    0.256   96.333   11.926    0.349
  208.750    0.254   93.965   13.087    0.347
  209.000    0.252   98.736   14.313    0.349
  209.250    0.251  104.166   14.994    0.345
  209.500    0.251  107.230   15.438    0.341
  209.750    0.251  106.956   15.867    0.341
  210.000    0.251  101.937   15.820    0.338
  210.250    0.249   96.993   15.558    0.336
  210.500    0.246   94.958   15.591    0.334
  210.750    0.255   90.640   16.413    0.337
  211.000    0.271   80.803   17.345    0.342
  211.250    0.280   70.830   17.787    0.348
  211.500    0.281   66.746   18.383    0.355
  211.750    0.284   65.219   19.326    0.357
  212.000    0.294   68.931   19.535    0.357
  212.250    0.296   72.919   19.332    0.360
  212.500    0.282   65.625   18.800    0.347
  212.750    0.268   58.816   17.860    0.325
  213.000    0.268   69.841   17.054    0.336
  213.250    0.270   68.346   16.483    0.352
  213.500    0.268   66.522   16.378    0.364
  213.750    0.270   69.742   16.507    0.353
  214.000    0.249   75.446   16.983    0.336
  214.250    0.215   82.473   16.837    0.340
  214.500    0.218   87.828   14.951    0.356
  214.750    0.220   87.560   13.440    0.363
  215.000    0.213   92.607   11.444    0.362
  215.250    0.205  102.610    9.827    0.355
  215.500    0.205  107.980    9.115    0.354
  215.750    0.195  108.698    8.503    0.372
  216.000    0.170  112.588    7.734    0.387
  216.250    0.180  113.620    7.602    0.365
  216.500    0.188  110.313    7.399    0.377
  216.750    0.185  108.187    7.278    0.396
  217.000    0.183  111.625    7.314    0.407
  217.250    0.186  118.117    7.308    0.415
  217.500    0.188  122.519    7.307    0.400
  217.750    0.188  123.515    7.285    0.391
  218.000    0.182  115.472    7.500    0.388
  218.250    0.177  115.181    7.614    0.379
  218.500    0.178  119.496    7.581    0.373
  218.750    0.185  115.060    7.583    0.371
  219.000    0.193  109.606    7.446    0.368
  219.250    0.183  111.669    7.087    0.385
  219.500    0.177  111.936    6.966    0.407
  219.750    0.179  116.841    6.673    0.411
  220.000    0.184  124.276    6.289    0.397
  220.250    0.192  126.497    6.142    0.377
  220.500    0.195  126.335    6.052    0.357
  220.750    0.192  123.550    6.134    0.339
  221.000    0.183  110.841    6.313    0.323
  221.250    0.160   85.078    6.577    0.307
  221.500    0.138   73.819    7.301    0.290
  221.750    0.102   79.983   10.785    0.258
  222.000    0.034   69.574   17.339    0.218
  222.250    0.026   59.617   20.083    0.228
  222.500    0.145   60.857   19.823    0.255
  222.750    0.257   56.622   18.898    0.329
  223.000    0.294   53.851   17.985    0.370
  223.250    0.298   58.569   16.758    0.343
  223.500    0.300   54.136   15.507    0.347
  223.750    0.296   52.100   15.234    0.337
  224.000    0.294   53.797   15.017    0.330
  224.250    0.297   53.157   14.953    0.340
  224.500    0.306   51.196   15.519    0.353
  224.750    0.315   51.035   16.158    0.357
  225.000    0.315   51.070   16.097    0.359
  225.250    0.313   51.451   16.083    0.356
  225.500    0.303   48.103   16.131    0.368
  225.750    0.299   49.035   15.952    0.383
  226.000    0.297   52.594   15.746    0.388
  226.250    0.291   50.061   15.832    0.382
  226.500    0.289   46.166   16.094    0.359
  226.750    0.292   52.443   16.343    0.331
  227.000    0.302   54.552   16.634    0.330
  227.250    0.298   57.052   16.728    0.347
  227.500    0.288   57.590   16.724    0.361
  227.750    0.289   54.997   16.673    0.368
  228.000    0.295   59.181   16.399    0.377
  228.250    0.302   61.343   16.367    0.377
  228.500    0.304   63.271   16.594    0.353
  228.750    0.302   62.410   16.863    0.337
  229.000    0.295   57.797   17.149    0.340
  229.250    0.285   55.829   17.369    0.348
  229.500    0.280   61.071   17.348    0.355
  229.750    0.279   64.594   17.345    0.358
  230.000    0.275   59.285   17.349    0.352
  230.250    0.243   58.267   17.346    0.342
  230.500    0.235   62.549   17.347    0.339
  230.750    0.270   65.541   17.346    0.346
  231.000    0.278   67.329   17.346    0.350
  231.250    0.278   61.306   17.350    0.343
  231.500    0.278   56.801   17.325    0.342
  231.750    0.277   58.769   17.417    0.352
  232.000    0.276   63.571   17.164    0.349
  232.250    0.266   64.472   18.210    0.329
  232.500    0.242   59.966   22.138    0.323
  232.750    0.207   56.433   24.162    0.318
  233.000    0.141   52.645   24.572    0.280
  233.250    0.193   58.204   23.471    0.317
  233.500    0.280   68.118   21.156    0.378
  233.750    0.278   72.277   18.553    0.371
  234.000    0.281   72.977   16.093    0.359
  234.250    0.274   69.821   13.608    0.332
  234.500    0.264   69.000   11.035    0.351
  234.750    0.260   72.099    9.558    0.370
  235.000    0.261   74.974    8.828    0.370
  235.250    0.264   74.592    8.042    0.369
  235.500    0.267   75.465    7.719    0.357
  235.750    0.266   82.540    7.815    0.360
  236.000    0.259   77.810    8.170    0.369
  236.250    0.239   71.428    9.268    0.375
  236.500    0.209   67.052   11.854    0.369
  236.750    0.198   61.083   14.382    0.353
