~Version : LASO    vs 4.00 
VERS.                2.00:   CWLS Log ASCII Standard -VERSION 2.0
WRAP.                  NO:
~Well Information Block
#MNEM.UNIT       Data                        Description of Mnemonic
#----.----      -------------------------- : -----------------------------
STRT.M            15.0000:
STOP.M           207.0000:
STEP.M             0.2000:
NULL.           -999.2500:
COMP.  MOBIL OIL CANADA                   :COMPANY
WELL.  MOBIL CLARKE OV 1-2                :WELL
FLD.                                      :FIELD
LOC.   01-02-090-08W4                     :LOCATION
CTRY.  CANADA                             :COUNTRY
PROV.  ALBERTA                            :PROVINCE
SRVC.  SCHLUMBERGER                       :SERVICE COMPANY
DATE.  05-MAR-81                          :LOG DATE
UWI.   AA/01-02-090-08W400                :UNIQUE WELL ID
~Parameter Information Block
#MNEM.UNIT       Data                        Description of Mnemonic
#----.----      -------------------------- : -----------------------------
RUN .                   1                 : Run Number
GL  .M           444.4000                 : Ground Level Elevation
DREF.                  KB                 : Depth Reference
EREF.M           444.4000                 : Elevation of Depth Reference
TDL .M           207.0000                 : Total Depth Logger
TDD .M           206.0000                 : Total Depth Driller
CSGL.M            27.0000                 : Casing Bottom Logger
CSGD.M            26.4000                 : Casing Bottom Driller
CSGS.MM          219.0000                 : Casing Size
CSGW.KG/M          0.0000                 : Casing Weight
BS  .MM          159.0000                 : Bit Size
DFD .           9999.0000                 : Mud Weight (Density)
~Curve Information Block
#MNEM.UNIT        API CODE    Curve Description
#---------    ------------    -------------------------------------------
DEPT.M                    :   DEPTH
CALI.MM       42 280  1  1:   3 DENSITY CALIPER
DPHI.V/V                  :   DPHI
DT  .US/M     60 520  0  1:   2 SONIC INTERVAL TRANSIT TIME (COMPENSATED)
GR  .GAPI     42 310  1  1:   4 GAMMA RAY
ILD .OHMM      5 120 46  1:   7 DEEP INDUCTION
ILM .OHMM      5 120 44  1:   8 MEDIUM INDUCTION
NPHI.V/V      42 890  3  1:   5 NEUTRON POROSITY (SANDSTONE)
RHOB.K/M3     42 350  1  1:   6 BULK DENSITY
SFLU.OHMM      5 220  1  1:   9 FOCUSSED RESISTIVITY
SP  .MV        5  10  1  1:   10 SPONTANEOUS POTENTIAL
~A  Depth           CALI        DPHI          DT          GR         ILD         ILM        NPHI        RHOB        SFLU          SP
# ...
63.8000         191.1500      0.1211    367.0400     42.0750     29.6367     32.2277      0.2896   2444.0000     30.1877     98.0100
64.0000         203.8500      0.1050    408.2000     47.8800     28.0434     31.9323      0.3058   2408.0000     30.1877     99.7650
64.2000         181.0000      0.0839    409.6800     50.8800     26.0513     31.3495      0.3100   2420.0000     30.1877     89.8500
64.4000         181.0000      0.0932    406.2400     55.3800     22.6898     29.1226      0.2906   2476.0000     30.1877     90.1050
64.6000         193.6750      0.1187    429.8400     61.5900     15.4110     19.4191      0.2856   2428.0000     27.5315     91.1550
64.8000         183.5250      0.1216    431.9600     60.6900     12.9369     13.9389      0.2918   2411.0000     22.0714    100.6050
65.0000         182.2500      0.1254    413.6000     58.9800     11.4770     10.6716      0.3178   2399.0000     13.6719    101.0550
65.2000         189.8750      0.1313    415.5600     59.0850     10.3808      9.2946      0.3532   2246.0000      7.4444     93.7050
65.4000         187.3250      0.1302    438.7200     59.9850      9.5550      8.7949      0.4018   2205.0000      5.5954    105.3150
65.6000         191.1500      0.1610    470.0400     60.2850      8.7949      8.3220      0.4834   2213.0000      5.3436    105.8100
65.8000         188.6000      0.1967    506.6000     60.2850      8.0210      8.0210      0.4748   2226.0000      7.1751     99.0600
66.0000         193.6750      0.2463    504.6400     61.1850      7.9475      7.8746      0.4548   2237.0000      8.0136     91.8150
66.2000         188.6000      0.2625    499.7200     61.9800      8.0210      7.8746      0.4500   2256.0000      8.6264     93.4050
66.4000         193.6750      0.2538    498.5600     62.0850      8.1701      7.7309      0.4552   2257.0000      8.3144    103.7550
66.6000         188.6000      0.2452    498.5600     60.5850      8.0952      7.7309      0.4624   2270.0000      7.7238    106.9650
66.8000         186.0750      0.2383    499.8800     59.5800      7.8746      7.7309      0.4818   2252.0000      7.5828    105.2550
67.0000         189.8750      0.2367    501.4800     59.9850      7.5202      7.5898      0.4800   2250.8999      7.7238     98.8650
67.2000         189.8750      0.2426    503.7600     61.7850      7.0507      6.7956      0.4736   2272.0000      7.4444     97.6650
67.4000         182.2500      0.2391    506.1200     60.6900      6.7956      6.4958      0.4728   2272.8999      6.6655     99.6150
67.6000         183.5250      0.2298    508.4000     59.0850      6.7956      6.2034      0.4796   2270.0000      5.9133    104.9550
67.8000         191.1500      0.2406    506.6000     56.9850      6.8585      6.2608      0.4886   2227.0000      4.6971     98.6550
68.0000         192.4250      0.2495    509.8800     56.8800      7.0507      6.5559      0.4934   2236.0000      5.1503    106.0650
68.2000         188.6000      0.2515    511.5200     57.5850      7.3153      6.8585      0.5152   2227.0000      6.3071     97.7550
68.4000         183.5250      0.2508    512.0000     63.4800      7.7309      7.6600      0.5166   2241.0000      7.8674     92.2050
68.6000         179.7250      0.2517    509.7200     66.5850      7.6600      8.1701      0.5024   2237.0000      8.7868    106.3650
68.8000         178.4500      0.2507    505.6000     67.7850      7.3153      8.3990      0.4870   2250.8999     11.3718     88.2000
69.0000         186.0750      0.2482    507.4400     66.6900      6.4303      6.7956      0.4780   2270.0000     11.9078    101.5650
69.2000         189.8750      0.2432    505.6000     66.5850      6.0846      5.7628      0.4736   2279.0000      7.0442    104.9550
69.4000         191.1500      0.2346    506.7600     66.4950      5.7574      5.1598      0.5048   2264.0000      4.0535    113.0100
69.6000         191.1500      0.2258    513.8000     65.8950      5.0145      4.7058      0.5344   2241.0000      3.2198    110.4150
69.8000         191.1500      0.2309    520.3600     64.6950      4.7449      4.6199      0.5610   2243.0000      3.6294    103.3050
70.0000         191.1500      0.2393    525.1200     63.6900      4.7014      4.6199      0.5728   2246.0000      4.3634     96.0600
70.2000         201.3000      0.2381    523.6400     62.2800      4.7888      4.4940      0.5654   2259.0000      4.9640     95.4150
70.4000         191.1500      0.2345    515.2800     60.0900      5.2509      4.7493      0.5404   2263.0000      3.9430     93.7050
70.6000         189.8750      0.2318    514.6400     60.8850      5.4479      5.1598      0.5294   2269.0000      4.0910    106.0650
70.8000         181.0000      0.2307    516.1200     61.2900      5.4479      5.3534      0.5344   2278.0000      5.1503    102.1650
71.0000         178.4500      0.2321    512.0000     63.0900      5.2509      5.4529      0.5228   2256.0000      7.0442    113.8650
71.2000         177.1750      0.2286    504.4800     62.1900      5.2027      5.3043      0.5060   2278.0000      7.1751    114.2700
71.4000         177.1750      0.2312    497.7600     61.4850      5.1550      4.9731      0.5132   2268.0000      6.1920    112.8600
71.6000         186.0750      0.2305    497.4000     61.2900      5.0609      4.6199      0.5160   2269.0000      3.6294     99.0150
71.8000         194.9500      0.2373    505.2800     61.1850      4.9686      4.6199      0.5142   2250.8999      3.3716     95.9100
72.0000         183.5250      0.2480    514.8000     60.8850      4.8779      4.6199      0.5240   2238.0000      3.8356     99.9600
72.2000         184.8000      0.2425    525.9600     61.3800      4.9686      4.7932      0.5168   2259.0000      4.6971    101.0550
72.4000         188.6000      0.2393    522.5200     60.6900      5.0145      4.8824      0.5086   2260.0000      5.3436    106.1550
72.6000         183.5250      0.2387    516.9200     59.9850      5.1078      4.9275      0.5072   2250.0000      5.5441    110.0550
72.8000         194.9500      0.2419    511.2000     58.3800      5.2509      4.8376      0.5068   2232.0000      5.2460    101.0550
73.0000         193.6750      0.2480    510.0400     58.1850      5.2994      4.7932      0.5026   2208.0000      4.4857    111.4650
73.2000         188.6000      0.2645    512.8400     56.6850      5.3980      4.8376      0.4846   2220.0000      3.9795    108.2550
73.4000         177.1750      0.2712    517.2800     54.3900      5.6524      4.9275      0.4890   2198.0000      3.9069    109.6650
73.6000         175.9000      0.2809    517.0800     52.4850      6.4303      5.8161      0.5006   2173.0000      3.3716    106.2600
73.8000         175.9000      0.2856    516.1200     52.6800      6.8585      6.3772      0.5128   2167.0000      4.7844     98.0550
74.0000         174.6250      0.2860    518.5600     53.2800      7.2482      6.9860      0.5246   2166.0000      8.1626     94.8600
74.2000         174.6250      0.2860    522.6801     53.9850      8.2457      7.7309      0.5184   2173.0000     13.1774     79.5000
74.4000         173.3750      0.2908    521.0400     55.3800      8.6344      7.8746      0.5068   2164.0000     12.0179     83.1000
74.6000         173.3750      0.2959    518.7200     60.9900      8.6344      7.8746      0.4916   2149.0000      9.8136     99.2550
74.8000         177.1750      0.2989    517.4400     68.0850      7.2482      7.8746      0.4868   2176.0000      6.3071    103.1550
75.0000         175.9000      0.2927    517.0800     70.8900      6.0846      7.3153      0.4704   2196.0000      8.3913    104.5050
75.2000         174.6250      0.2819    513.1600     71.2950      5.2027      6.0902      0.4816   2202.0000      8.8681    104.4150
75.4000         177.1750      0.2717    504.1600     66.2850      4.0572      3.9503      0.4912   2225.0000      4.6971     88.7550
75.6000         177.1750      0.2639    502.8000     64.0800      3.6327      3.3778      0.5038   2224.0000      2.9096     95.3550
75.8000         178.4500      0.2599    509.0800     64.1850      3.3131      3.0523      0.5376   2210.0000      1.9401    109.4550
