~VERSION INFORMATION
 VERS.                 2.0:   CWLS LOG ASCII STANDARD -VERSION 2.0
 WRAP.                  NO:   ONE LINE PER DEPTH STEP
~WELL INFORMATION BLOCK
#MNEM.UNIT           DATA                    DESCRIPTION OF MNEMONIC
#---------    -------------------            -------------------------------
# Generated from Intellog Unique Number	CX_WELLS/WELL/2676
WELL.         06-20-089-10W4                 : Well_name    - WELL
LOC .         AA/06-20-089-10W4/0            : Location     - LOCATION
UWI .         AA/06-20-089-10W400            : Uwi          - UNIQUE WELL ID
ENTR.         JOETTE                         : Entered      - ENTERED BY
SRVC.         SCHLUMBERGER                   : Scn          - SERVICE COMPANY
DATE.         03/04/92                       : Date         - LOG DATE
STRT.M        55                             : top_depth    - START DEPTH
STOP.M        160                            : bot_depth    - STOP DEPTH
STEP.M        0.25                           : increment    - STEP LENGTH
 NULL. -999.2500:NULL Value
~CURVE INFORMATION BLOCK
#MNEM UNIT       ERCB CURVE CODE    CURVE DESCRIPTION
#-----------   ------------------   ----------------------------------
DEPT.M        00 001 00 00         : DEPTH        - DEPTH
GR  .API      00 310 00 00         : GR           - GAMMA RAY
NPHI.V/V      00 330 00 00         : PHIN         - NEUTRON POROSITY (SANDSTONE)
DPHI.V/V      00 890 00 00         : PHID         - DENSITY POROSITY (SANDSTONE)
ILD .OHMM     00 120 00 00         : RESD         - DEEP RESISTIVITY (DIL)
~PARAMETER INFORMATION
#MNEM.UNIT           DATA             DESCRIPTION OF MNEMONIC
#---------         -----------     ------------------------------
GL  .M        397.32               : gl           - GROUND LEVEL ELEVATION
EREF.M        397.32               : kb           - ELEVATION OF DEPTH REFERENCE
DATM.M        397.32               : datum        - DATUM ELEVATION
TDD .M        164.28               : tdd          - TOTAL DEPTH DRILLER
RUN .         ONE                  : Run          - RUN NUMBER
ENG .         JO                   : Engineer     - RECORDING ENGINEER
WIT .         TIM                  : Witness      - WITNESSED BY
MUD .         GEL                  : Mud_type     - MUD TYPE
MATR.         SANDSTONE            : Logunit      - NEUTRON MATRIX
TMAX.C        6.4                  : BHT          - MAXIMUM RECORDED TEMPERATURE
BHTD.M        164.28               : BHTDEP       - MAXIMUM RECORDED TEMPERATURE
RMT .C        14.4                 : MDTP         - TEMPERATURE OF MUD
MUDD.KG/M     1                    : MWT          - MUD DENSITY
NEUT.         1                    : NEUTRON      - NEUTRON TYPE
RESI.         0                    : RESIST       - RESISTIVITY TYPE
RM  .OHMM     9.5                  : RM           - RESISTIVITY OF MUD
RMC .OHMM     9.5                  : RMC          - RESISTIVITY OF MUD CAKE
RMF .OHMM     9.5                  : RMF          - RESISTIVITY OF MUD FILTRATE
SUFT.C        4                    : SUFT         - SURFACE TEMPERATURE
~A  DEPTH       GR     PHIN     PHID     RESD
   55.000  105.424    0.469    0.272   25.514
   55.250   88.665    0.453    0.249   40.940
   55.500   71.908    0.307    0.059  117.399
   55.750   67.131    0.354    0.093  119.085
   56.000   94.702    0.459    0.229   64.547
   56.250  104.899    0.479    0.281   31.921
   56.500  109.110    0.500    0.345   24.973
   56.750  121.699    0.522    0.364   18.944
   57.000  123.510    0.542    0.361   15.997
   57.250  116.337    0.565    0.342   11.594
   57.500   91.196    0.584    0.324    6.994
   57.750   96.601    0.579    0.315    2.969
   58.000  105.600    0.603    0.323    1.634
   58.250  103.219    0.561    0.332    1.444
   58.500  100.239    0.558    0.343    1.357
   58.750  106.846    0.580    0.343    0.870
   59.000  113.449    0.553    0.335    0.805
   59.250  117.660    0.538    0.325    0.855
   59.500  116.473    0.527    0.317    1.271
   59.750  103.310    0.526    0.309    3.430
   60.000  106.922    0.527    0.301    6.816
   60.250  110.531    0.526    0.296    7.933
   60.500  112.938    0.528    0.291    7.455
   60.750  118.343    0.534    0.290    7.562
   61.000  117.762    0.545    0.290    7.439
   61.250  109.987    0.551    0.290    7.900
   61.500  106.408    0.540    0.291    8.916
   61.750   99.834    0.526    0.296   10.702
   62.000  103.442    0.523    0.297   13.040
   62.250  110.045    0.537    0.296   18.802
   62.500  114.260    0.563    0.291   26.286
   62.750  116.670    0.576    0.285   14.690
   63.000  120.878    0.515    0.279   14.445
   63.250  124.482    0.512    0.273   15.344
   63.500  119.705    0.508    0.267   16.298
   63.750  110.736    0.505    0.259   17.835
   64.000  114.943    0.498    0.247   17.290
   64.250  108.972    0.491    0.231   17.272
   64.500  104.191    0.474    0.207   21.364
   64.750  104.206    0.426    0.185   20.700
   65.000  107.818    0.439    0.171   20.684
   65.250  106.638    0.461    0.188   19.438
   65.500  106.046    0.470    0.232   18.267
   65.750  104.867    0.473    0.259   15.903
   66.000  105.480    0.480    0.274   13.022
   66.250  106.693    0.490    0.284   12.811
   66.500  106.708    0.506    0.289   13.814
   66.750  110.915    0.527    0.295   14.012
   67.000  115.122    0.520    0.305   13.998
   67.250  119.929    0.508    0.311   13.984
   67.500  119.348    0.497    0.315   14.399
   67.750  112.770    0.488    0.309   32.843
   68.000  106.196    0.473    0.289   46.624
   68.250  103.815    0.463    0.265   50.274
   68.500  107.427    0.454    0.249   43.770
   68.750  109.239    0.473    0.257   30.302
   69.000  108.655    0.495    0.267   25.976
   69.250  105.674    0.510    0.274   20.952
   69.500  102.690    0.510    0.248   18.522
   69.750  102.705    0.483    0.241   18.223
   70.000  105.715    0.474    0.255   21.867
   70.250  111.124    0.472    0.266   33.508
   70.500  112.935    0.469    0.280   33.989
   70.750  112.351    0.483    0.295   25.014
   71.000  109.970    0.499    0.269   17.575
   71.250  108.187    0.515    0.250   17.557
   71.500  107.008    0.521    0.239   17.809
   71.750  105.821    0.493    0.233   19.208
   72.000  104.637    0.501    0.230   23.049
   72.250  102.260    0.515    0.228   24.477
   72.500   99.879    0.528    0.260    7.200
   72.750   98.096    0.547    0.289    4.410
   73.000   98.111    0.568    0.304    3.100
   73.250   99.919    0.601    0.320    1.487
   73.500  106.522    0.619    0.328    1.078
   73.750  113.732    0.573    0.324    1.418
   74.000  117.336    0.530    0.289    2.732
   74.250  123.341    0.513    0.272    4.659
   74.500  122.760    0.505    0.260   15.567
   74.750  118.578    0.488    0.258   13.145
   75.000  113.801    0.485    0.269   13.132
   75.250  110.226    0.489    0.279   17.009
   75.500  108.443    0.493    0.289   18.618
   75.750  107.256    0.498    0.301   18.322
   76.000  106.672    0.495    0.309   19.451
   76.250  106.687    0.479    0.260   18.007
   76.500  104.908    0.454    0.247   15.678
   76.750  101.928    0.418    0.217   15.190
   77.000   98.948    0.460    0.212   22.923
   77.250   95.365    0.491    0.234   19.064
   77.500   92.385    0.553    0.262    9.144
   77.750   88.806    0.619    0.348    5.863
   78.000   87.626    0.619    0.371    3.592
   78.250   87.042    0.609    0.389    1.413
   78.500   86.461    0.623    0.390    1.775
   78.750   85.270    0.636    0.383    3.749
   79.000   82.889    0.579    0.372    8.547
   79.250   78.715    0.534    0.357   10.256
   79.500   78.730    0.543    0.370   11.229
   79.750   82.342    0.485    0.395   12.875
   80.000   80.559    0.432    0.418   16.677
   80.250   76.977    0.437    0.401   23.316
   80.500   76.396    0.467    0.323   33.609
   80.750   80.600    0.490    0.335   42.233
   81.000   83.010    0.492    0.361   21.866
   81.250   86.622    0.451    0.346   15.844
   81.500   91.425    0.490    0.306   14.438
   81.750  104.018    0.518    0.292   13.992
   82.000  119.609    0.526    0.318    9.395
   82.250  119.028    0.544    0.326    3.529
   82.500  116.643    0.567    0.331    1.266
   82.750  112.469    0.540    0.332    1.543
   83.000  111.286    0.537    0.330    2.125
   83.250  111.899    0.542    0.327    2.291
   83.500  112.509    0.551    0.325    1.905
   83.750  112.531    0.562    0.321    1.932
   84.000  111.939    0.550    0.321    2.181
   84.250  110.756    0.546    0.319    2.018
   84.500  109.577    0.549    0.319    2.279
   84.750  108.989    0.549    0.319    2.653
   85.000  107.206    0.545    0.323    3.942
   85.250  104.230    0.551    0.335    7.368
   85.500  100.647    0.551    0.345    8.448
   85.750   95.870    0.550    0.352    5.671
   86.000   92.890    0.552    0.348    5.249
   86.250   92.904    0.488    0.329    7.566
   86.500   99.508    0.523    0.249    8.158
   86.750  107.312    0.543    0.238    9.495
   87.000  106.732    0.509    0.270   10.719
   87.250  104.347    0.392    0.313   12.100
   87.500   99.570    0.382    0.218   13.662
   87.750   92.996    0.386    0.167   20.935
   88.000   84.629    0.388    0.249   33.075
   88.250   83.445    0.391    0.287   30.611
   88.500   79.264    0.402    0.283   27.471
   88.750   74.490    0.413    0.277   23.561
   89.000   72.109    0.425    0.271   18.432
   89.250   75.118    0.433    0.274   18.408
   89.500   79.921    0.423    0.278   20.460
   89.750   87.726    0.393    0.277   22.073
   90.000   90.136    0.394    0.277   27.309
   90.250   90.151    0.404    0.276   29.447
   90.500   87.766    0.417    0.270   28.532
   90.750   81.192    0.440    0.260   25.999
   91.000   72.222    0.461    0.254   23.338
   91.250   65.649    0.417    0.254   25.165
   91.500   62.069    0.337    0.262   35.192
   91.750   57.292    0.341    0.308   53.926
   92.000   53.713    0.343    0.327  110.494
   92.250   47.139    0.338    0.337  110.380
   92.500   38.769    0.335    0.340   89.010
   92.750   33.992    0.335    0.341   98.956
   93.000   33.407    0.339    0.346  124.348
   93.250   33.425    0.345    0.350  115.055
   93.500   32.841    0.365    0.352  100.145
   93.750   32.257    0.373    0.350   95.585
   94.000   30.475    0.370    0.339   94.039
   94.250   29.894    0.371    0.325   84.413
   94.500   29.909    0.371    0.325   79.307
   94.750   30.522    0.366    0.327   78.045
   95.000   32.334    0.367    0.329   79.145
   95.250   33.542    0.385    0.330   84.046
   95.500   35.953    0.401    0.330   89.252
   95.750   38.364    0.404    0.330   91.927
   96.000   43.170    0.411    0.330   97.595
   96.250   47.976    0.432    0.325   91.738
   96.500   56.380    0.457    0.313   83.595
   96.750   63.582    0.460    0.300   78.579
   97.000   71.387    0.453    0.286   53.576
   97.250   74.995    0.439    0.287   41.257
   97.500   75.609    0.400    0.291   42.493
   97.750   72.625    0.390    0.295   43.767
   98.000   64.853    0.398    0.295   45.079
   98.250   73.852    0.415    0.290   48.595
