~VERSION INFORMATION
 VERS.                 2.0:   CWLS LOG ASCII STANDARD -VERSION 2.0
 WRAP.                  NO:   ONE LINE PER DEPTH STEP
~WELL INFORMATION BLOCK
#MNEM.UNIT           DATA                    DESCRIPTION OF MNEMONIC
#---------    -------------------            -------------------------------
# Generated from Intellog Unique Number	CN_91_93/WELL/3624
WELL.         02-21-093-07W4                 : Well_name    - WELL
LOC .         AA/02-21-093-07W4/0            : Location     - LOCATION
UWI .         AA/02-21-093-07W400            : Uwi          - UNIQUE WELL ID
ENTR.         JOETTE                         : Entered      - ENTERED BY
SRVC.         WESTERN ATLAS                  : Scn          - SERVICE COMPANY
DATE.         03/18/92                       : Date         - LOG DATE
STRT.F        50                             : top_depth    - START DEPTH
STOP.F        820.177                        : bot_depth    - STOP DEPTH
STEP.F        0.8202                         : increment    - STEP LENGTH
 NULL. -999.2500:NULL Value
~CURVE INFORMATION BLOCK
#MNEM UNIT       ERCB CURVE CODE    CURVE DESCRIPTION
#-----------   ------------------   ----------------------------------
DEPT.F        00 001 00 00         : DEPTH        - DEPTH
ILD .OHMM     00 120 00 00         : RESD         - DEEP RESISTIVITY (DIL)
CALI.IN       00 280 01 00         : CAL          - CALIPER
GR  .API      00 310 00 00         : GR           - GAMMA RAY
NPHI.V/V      00 330 00 00         : PHIN         - NEUTRON POROSITY (SANDSTONE)
~PARAMETER INFORMATION
#MNEM.UNIT           DATA             DESCRIPTION OF MNEMONIC
#---------         -----------     ------------------------------
GL  .M        506.578              : gl           - GROUND LEVEL ELEVATION
EREF.M        508.102              : kb           - ELEVATION OF DEPTH REFERENCE
DATM.M        508.102              : datum        - DATUM ELEVATION
TDD .M        508.102              : tdd          - TOTAL DEPTH DRILLER
RUN .         ONE                  : Run          - RUN NUMBER
ENG .         JO                   : Engineer     - RECORDING ENGINEER
WIT .         TIM                  : Witness      - WITNESSED BY
MUD .         GEL                  : Mud_type     - MUD TYPE
MATR.         SANDSTONE            : Logunit      - NEUTRON MATRIX
TMAX.F        47                   : BHT          - MAXIMUM RECORDED TEMPERATURE
BHTD.F        832                  : BHTDEP       - MAXIMUM RECORDED TEMPERATURE
RMT .F        40                   : MDTP         - TEMPERATURE OF MUD
MUDD.LB/G     0.541666             : MWT          - MUD DENSITY
NEUT.         1                    : NEUTRON      - NEUTRON TYPE
RESI.         0                    : RESIST       - RESISTIVITY TYPE
RM  .OHMM     9                    : RM           - RESISTIVITY OF MUD
RMC .OHMM     9                    : RMC          - RESISTIVITY OF MUD CAKE
RMF .OHMM     9                    : RMF          - RESISTIVITY OF MUD FILTRATE
SUFT.F        39.2                 : SUFT         - SURFACE TEMPERATURE
~A  DEPTH     RESD      CAL       GR     PHIN
# ...
  620.866   21.365    6.628   67.942    0.361
  621.686   20.630    6.551   67.989    0.352
  622.507   20.284    6.514   68.007    0.353
  623.327   19.944    6.477   68.045    0.351
  624.147   19.967    6.400   68.082    0.348
  624.967   20.368    6.363   68.129    0.346
  625.787   21.138    6.286   68.166    0.342
  626.608   21.936    6.248   68.799    0.336
  627.428   22.377    6.132   69.432    0.329
  628.248   21.995    5.976   70.671    0.327
  629.068   21.626    5.859   72.486    0.334
  629.888   20.145    5.823   74.311    0.345
  630.709   19.103    5.785   76.146    0.356
  631.529   18.446    5.747   76.183    0.365
  632.349   18.131    5.751   75.634    0.368
  633.169   17.507    5.713   74.470    0.367
  633.990   16.905    5.716   76.891    0.365
  634.810   16.626    5.678   81.099    0.363
  635.630   16.347    5.682   85.326    0.361
  636.450   16.082    5.684   81.788    0.360
  637.270   16.097    5.646   78.837    0.359
  638.091   16.120    5.649   74.712    0.357
  638.911   15.845    5.652   77.133    0.356
  639.731   15.860    5.654   78.949    0.355
  640.551   15.860    5.657   83.157    0.355
  641.371   17.101    5.660   87.980    0.356
  642.192   17.434    5.663   89.200    0.361
  643.012   17.142    5.664   91.630    0.362
  643.832   17.162    5.707   94.051    0.360
  644.652   17.182    5.710   95.876    0.349
  645.472   17.198    5.711   94.117    0.330
  646.293   17.218    5.715   90.578    0.328
  647.113   17.243    5.716   85.253    0.322
  647.933   17.259    5.681   80.523    0.329
  648.753   17.284    5.682   76.994    0.337
  649.573   17.320    5.686   77.040    0.342
  650.394   17.330    5.688   77.674    0.346
  651.214   17.040    5.651   78.307    0.348
  652.034   17.055    5.653   78.335    0.348
  652.854   16.779    5.655   77.776    0.349
  653.675   16.487    5.658   76.026    0.349
  654.495   16.512    5.661   73.680    0.348
  655.315   16.541    5.664   72.525    0.347
  656.135   16.551    5.666   77.357    0.345
  656.955   16.576    5.669   78.568    0.341
  657.776   16.590    5.671   80.393    0.336
  658.596   16.620    5.674   81.631    0.330
  659.416   16.640    5.676   81.073    0.327
  660.236   16.654    5.679   81.100    0.324
  661.056   16.674    5.682   79.946    0.324
  661.877   16.704    5.684   79.406    0.324
  662.697   16.714    5.686   79.443    0.325
  663.517   16.738    5.690   79.471    0.325
  664.337   17.069    5.691   79.509    0.323
  665.157   17.090    5.695   80.738    0.320
  665.978   17.105    5.697   83.168    0.316
  666.798   17.756    5.700   83.801    0.313
  667.618   18.102    5.702   82.656    0.310
  668.438   18.797    5.704   81.492    0.307
  669.259   18.814    5.747   79.742    0.309
  670.079   18.836    5.749   76.809    0.333
  670.899   18.859    5.752   77.442    0.338
  671.719   18.542    5.754   79.267    0.335
  672.539   18.242    5.757   81.101    0.331
  673.360   17.931    5.760   82.321    0.327
  674.180   17.630    5.763   82.973    0.325
  675.000   17.334    5.764   82.991    0.325
  675.820   17.355    5.767   81.837    0.325
  676.640   17.355    5.770   80.682    0.327
  677.461   17.084    5.772   80.738    0.328
  678.281   17.104    5.774   81.362    0.325
  679.101   17.134    5.777   81.995    0.323
  679.921   17.150    5.780   83.224    0.320
  680.741   17.180    5.823   85.664    0.319
  681.562   17.195    5.825   86.884    0.320
  682.382   17.221    5.948   88.699    0.325
  683.202   16.927    6.029   89.928    0.328
  684.022   16.648    6.031   94.146    0.330
  684.843   16.668    6.034   94.779    0.335
  685.663   16.383    6.037   91.847    0.336
  686.483   16.408    6.039   90.683    0.335
  687.303   16.427    6.042   88.951    0.334
  688.123   16.442    6.045   88.383    0.328
  688.944   16.762    6.046   87.834    0.322
  689.764   16.782    6.049   87.852    0.320
  690.584   17.426    6.052   88.486    0.323
  691.404   18.095    6.055   89.724    0.328
  692.224   18.779    6.057   90.953    0.334
  693.045   19.857    6.099   94.566    0.337
  693.865   21.373    6.101   91.037    0.337
  694.685   23.425    6.025   87.490    0.337
  695.505   26.143    6.028   83.951    0.336
  696.325   30.805    5.990   79.827    0.335
  697.146   38.325    5.953   75.693    0.336
  697.966   46.851    5.956   72.145    0.337
  698.786   47.749    5.919   60.861    0.341
  699.606   44.467    5.921   56.140    0.349
  700.427   37.827    5.884   56.773    0.355
  701.247   32.178    5.886   59.790    0.355
  702.067   28.901    5.849   64.594    0.354
  702.887   25.492    5.812   68.207    0.349
  703.707   23.314    5.776   71.829    0.345
  704.528   22.108    5.739   74.837    0.339
  705.348   21.737    5.740   73.682    0.337
  706.168   21.372    5.704   71.336    0.337
  706.988   21.410    5.666   67.807    0.338
  707.808   21.827    5.668   67.258    0.340
  708.629   22.245    5.632   70.265    0.340
  709.449   22.685    5.634   72.695    0.338
  710.269   23.556    5.636   69.166    0.337
  711.089   24.008    5.639   66.215    0.337
  711.909   25.849    5.642   68.040    0.337
  712.730   26.826    5.644   71.653    0.336
  713.550   28.365    5.647   74.679    0.335
  714.370   29.983    5.650   77.695    0.333
  715.190   31.116    5.652   79.511    0.330
  716.010   34.727    5.655   81.336    0.331
  716.831   40.197    5.656   78.394    0.331
  717.651   46.516    5.660   72.472    0.338
  718.471   53.844    5.703   66.550    0.348
  719.291   58.997    5.705   62.416    0.358
  720.112   62.363    5.707   58.878    0.359
  720.932   61.335    5.750   55.340    0.358
  721.752   55.104    5.750   53.599    0.355
  722.572   48.604    5.716   54.847    0.351
  723.392   37.757    5.717   57.873    0.348
  724.213   37.124    5.681   59.679    0.345
  725.033   33.962    5.722   61.495    0.339
  725.853   32.195    5.725   64.530    0.332
  726.673   30.539    5.727   63.953    0.332
  727.493   30.035    5.730   62.808    0.336
  728.314   29.532    5.732   62.249    0.340
  729.134   29.558    5.735   61.691    0.336
  729.954   29.053    5.738   61.728    0.329
  730.774   29.096    5.740   62.957    0.320
  731.594   28.103    5.783   64.205    0.322
  732.415   27.632    5.786   64.242    0.328
  733.235   27.177    5.787   63.665    0.328
  734.055   27.201    5.791   60.732    0.328
  734.875   27.225    5.793   58.386    0.326
  735.696   26.776    5.796   62.594    0.325
  736.516   26.808    5.839   66.216    0.328
  737.336   26.374    5.840   69.233    0.332
  738.156   25.916    5.882   69.270    0.335
  738.976   25.481    5.885   66.328    0.336
  739.797   25.519    5.928   69.941    0.337
  740.617   25.542    5.891   74.149    0.337
  741.437   25.542    5.893   77.771    0.336
  742.257   23.835    5.856   76.021    0.335
  743.077   23.422    5.858   72.473    0.335
  743.898   22.616    5.861   67.753    0.334
  744.718   22.656    5.863   64.205    0.333
  745.538   23.512    5.827   46.962    0.335
  746.358   26.233    5.829   40.453    0.349
  747.178   33.232    5.832   38.703    0.352
  747.999   47.813    5.833   38.731    0.347
  748.819   53.346    5.797   39.364    0.345
  749.639   57.419    5.800   39.997    0.338
  750.459   58.555    5.803   41.236    0.331
  751.280   56.557    5.804   42.474    0.327
  752.100   50.811    5.768   44.895    0.324
  752.920   45.609    5.770   46.720    0.324
  753.740   36.748    5.772   50.323    0.323
  754.560   27.532    5.775   57.521    0.323
  755.381   23.849    5.817   64.709    0.323
  756.201   21.048    5.820   72.493    0.324
  757.021   20.317    5.822   79.103    0.324
  757.841   19.618    5.825   79.737    0.325
  758.661   18.949    5.829   82.158    0.326
  759.482   18.971    5.870   83.992    0.326
  760.302   18.988    5.873   82.828    0.326
  761.122   18.988    5.875   79.886    0.325
  761.942   17.720    5.878   76.934    0.323
  762.762   17.720    5.880   73.396    0.322
