~VERSION INFORMATION
 VERS.                 2.0:   CWLS LOG ASCII STANDARD -VERSION 2.0
 WRAP.                  NO:   ONE LINE PER DEPTH STEP
~WELL INFORMATION BLOCK
#MNEM.UNIT           DATA                    DESCRIPTION OF MNEMONIC
#---------    -------------------            -------------------------------
# Generated from Intellog Unique Number	CN_94_101/WELL/2730
WELL.         05-01-094-12W4                 : Well_name    - WELL
LOC .         AA/05-01-094-12W4/0            : Location     - LOCATION
UWI .         AA/05-01-094-12W400            : Uwi          - UNIQUE WELL ID
ENTR.         JOETTE                         : Entered      - ENTERED BY
SRVC.         SCHLUMBERGER                   : Scn          - SERVICE COMPANY
DATE.         06/19/92                       : Date         - LOG DATE
STRT.M        20                             : top_depth    - START DEPTH
STOP.M        110                            : bot_depth    - STOP DEPTH
STEP.M        0.25                           : increment    - STEP LENGTH
 NULL. -999.2500:NULL Value
~CURVE INFORMATION BLOCK
#MNEM UNIT       ERCB CURVE CODE    CURVE DESCRIPTION
#-----------   ------------------   ----------------------------------
DEPT.M        00 001 00 00         : DEPTH        - DEPTH
GR  .API      00 310 00 00         : GR           - GAMMA RAY
ILD .OHMM     00 120 00 00         : RESD         - DEEP RESISTIVITY (DIL)
RHOB.KG/M3    00 350 00 00         : DENS         - BULK DENSITY
DPHI.V/V      00 890 00 00         : PHID         - DENSITY POROSITY (SANDSTONE)
~PARAMETER INFORMATION
#MNEM.UNIT           DATA             DESCRIPTION OF MNEMONIC
#---------         -----------     ------------------------------
GL  .M        333.8                : gl           - GROUND LEVEL ELEVATION
EREF.M        333.8                : kb           - ELEVATION OF DEPTH REFERENCE
DATM.M        333.8                : datum        - DATUM ELEVATION
TDD .M        125                  : tdd          - TOTAL DEPTH DRILLER
RUN .         ONE                  : Run          - RUN NUMBER
ENG .         JO                   : Engineer     - RECORDING ENGINEER
WIT .         TIM                  : Witness      - WITNESSED BY
MUD .         GEL                  : Mud_type     - MUD TYPE
MATR.         SANDSTONE            : Logunit      - NEUTRON MATRIX
TMAX.C        12                   : BHT          - MAXIMUM RECORDED TEMPERATURE
BHTD.M        125                  : BHTDEP       - MAXIMUM RECORDED TEMPERATURE
RMT .C        5                    : MDTP         - TEMPERATURE OF MUD
MUDD.KG/M     1110                 : MWT          - MUD DENSITY
NEUT.         1                    : NEUTRON      - NEUTRON TYPE
RESI.         0                    : RESIST       - RESISTIVITY TYPE
RM  .OHMM     7                    : RM           - RESISTIVITY OF MUD
RMC .OHMM     7                    : RMC          - RESISTIVITY OF MUD CAKE
RMF .OHMM     7                    : RMF          - RESISTIVITY OF MUD FILTRATE
SUFT.C        4                    : SUFT         - SURFACE TEMPERATURE
~A  DEPTH       GR     RESD     DENS     PHID
   20.000   75.120    6.924 2166.210    0.293
   20.250   76.432    9.470 2180.660    0.284
   20.500   76.504   24.478 2132.170    0.314
   20.750   75.990   25.959 2112.150    0.326
   21.000   76.044   24.231 2120.470    0.321
   21.250   76.098   23.587 2175.420    0.288
   21.500   77.445   22.017 2191.840    0.278
   21.750   78.739   20.560 2179.920    0.285
   22.000   80.654   20.889 2170.010    0.291
   22.250   84.464   22.459 2259.440    0.237
   22.500   88.257   23.133 2277.830    0.226
   22.750   92.068   23.839 2223.330    0.259
   23.000   95.879   22.568 2095.930    0.336
   23.250   97.155   21.066 2057.620    0.359
   23.500   97.847   18.322 2033.600    0.374
   23.750   97.298   17.094 2023.640    0.380
   24.000   96.147   16.413 2011.710    0.387
   24.250   94.960   16.922 1999.730    0.394
   24.500   94.411   17.200 1971.610    0.411
   24.750   93.862   17.492 1963.730    0.416
   25.000   93.331   17.499 2111.880    0.326
   25.250   93.403   17.530 2160.810    0.296
   25.500   93.474   17.819 2163.060    0.295
   25.750   94.786   18.105 2165.250    0.294
   26.000   95.478   18.395 2175.600    0.288
   26.250   96.807   19.235 2198.090    0.274
   26.500   97.481   19.526 2190.220    0.279
   26.750   98.173   20.130 2176.320    0.287
   27.000  100.105   20.166 2176.490    0.287
   27.250  102.037   19.363 2190.880    0.278
   27.500  103.349   19.125 2239.760    0.249
   27.750  102.180   19.150 2290.600    0.218
   28.000  101.649   19.734 2323.280    0.198
   28.250  104.219   19.778 2287.000    0.220
   28.500  106.116   18.990 2175.800    0.287
   28.750  109.909   17.978 2145.590    0.306
   29.000  111.841   17.500 2131.640    0.314
   29.250  110.690   17.050 2129.950    0.315
   29.500  108.900   16.841 2128.030    0.316
   29.750  107.714   16.401 2112.060    0.326
   30.000  106.580   15.748 2096.080    0.336
   30.250  105.996   15.547 2088.150    0.341
   30.500  106.723   15.147 2082.300    0.344
   30.750  106.777   15.167 2074.420    0.349
   31.000  107.468   15.201 2080.770    0.345
   31.250  107.558   15.445 2078.970    0.346
   31.500  107.593   15.472 2073.060    0.350
   31.750  107.045   15.713 2077.330    0.347
   32.000  105.894   15.741 2087.740    0.341
   32.250  105.947   15.561 2104.160    0.331
   32.500  105.398   15.589 2118.610    0.322
   32.750  106.710   15.603 2118.830    0.322
   33.000  106.782   15.860 2121.080    0.321
   33.250  106.233   16.576 2163.770    0.295
   33.500  105.064   17.325 2182.330    0.283
   33.750  105.153   17.853 2174.390    0.288
   34.000  107.103   18.406 2170.510    0.291
   34.250  110.878   18.422 2203.190    0.271
   34.500  116.532   17.948 2221.630    0.260
   34.750  116.603   17.479 2236.030    0.251
   35.000  114.814   17.759 2238.390    0.249
   35.250  113.645   18.569 2232.480    0.253
   35.500  113.096   18.586 2236.700    0.250
   35.750  113.185   18.619 2251.150    0.242
   36.000  111.378   18.652 2263.580    0.234
   36.250  107.108   19.780 2265.770    0.233
   36.500  103.440   20.674 2292.320    0.217
   36.750   99.790   21.005 2353.340    0.180
   37.000   99.259   20.178 2450.810    0.121
   37.250  102.414   19.357 2487.540    0.098
   37.500  109.964   17.831 2433.030    0.131
   37.750  112.499   17.596 2382.580    0.162
   38.000  113.190   17.643 2206.580    0.269
   38.250  113.298   17.666 2198.700    0.274
   38.500  113.351   17.690 2188.740    0.280
   38.750  112.802   18.229 2172.770    0.289
   39.000  112.856   18.802 2168.890    0.292
   39.250  112.927   19.095 2179.230    0.285
   39.500  114.275   19.120 2215.960    0.263
   39.750  115.551   18.893 2228.390    0.256
   40.000  117.501   18.391 2220.510    0.260
   40.250  116.952   17.667 2228.830    0.255
   40.500  115.766   17.197 2220.950    0.260
   40.750  114.596   16.986 2213.080    0.265
   41.000  117.149   17.512 2217.350    0.262
   41.250  117.841   18.053 2227.700    0.256
   41.500  114.191   18.070 2233.990    0.252
   41.750  113.022   17.855 2234.220    0.252
   42.000  112.473   16.666 2230.390    0.254
   42.250  116.886   16.703 2222.510    0.259
   42.500  115.717   16.956 2212.550    0.265
   42.750  113.928   17.228 2216.880    0.262
   43.000  112.138   17.259 2210.970    0.266
   43.250  110.987   16.815 2203.100    0.271
   43.500  109.818   16.152 2185.040    0.282
   43.750  113.593   15.954 2171.090    0.290
   44.000  116.181   15.968 2185.480    0.282
   44.250  113.754   15.779 2208.040    0.268
   44.500  111.362   15.807 2216.360    0.263
   44.750  110.175   15.835 2210.560    0.266
   45.000  109.644   15.856 2212.810    0.265
   45.250  109.060   16.124 2225.120    0.258
   45.500  107.891   16.146 2239.520    0.249
   45.750  104.879   16.405 2257.970    0.238
   46.000  103.072   16.426 2310.890    0.206
   46.250   97.561   16.232 2201.660    0.272
   46.500   92.050   15.800 2098.560    0.334
   46.750   89.039   15.171 2046.080    0.366
   47.000   92.193   13.772 1989.600    0.400
   47.250   93.523   13.406 1937.120    0.432
   47.500   91.096   13.430 1957.590    0.420
   47.750   88.686   13.645 2018.620    0.383
   48.000   89.998   12.918 2055.290    0.360
   48.250   88.829   12.230 2077.840    0.347
   48.500   87.040   12.085 2092.290    0.338
   48.750   86.491   12.993 2118.780    0.322
   49.000   89.043   14.168 2185.880    0.281
   49.250   92.234   15.456 2194.320    0.276
   49.500   91.065   15.704 2194.480    0.276
   49.750   88.017   15.504 2200.780    0.272
   50.000   82.489   14.671 2225.300    0.257
   50.250   78.857   15.340 2257.980    0.238
   50.500   81.391   16.269 2215.620    0.263
   50.750   91.404   16.522 2179.340    0.285
   51.000   95.817   15.864 2161.450    0.296
   51.250  101.471   14.808 2157.510    0.298
   51.500  102.163   15.052 2151.660    0.302
   51.750  107.214   15.293 2137.710    0.310
   52.000  107.285   14.893 2139.900    0.309
   52.250  104.238   14.704 2176.630    0.287
   52.500  103.707   14.730 2174.820    0.288
   52.750  105.639   14.973 2158.900    0.298
   53.000  107.571   15.206 2159.070    0.298
   53.250  105.162   15.900 2163.340    0.295
   53.500  103.390   16.392 2165.640    0.294
   53.750  103.462   16.640 2161.820    0.296
   54.000  102.913   17.148 2170.080    0.291
   54.250  104.845   16.937 2212.830    0.265
   54.500  108.018   15.809 2194.830    0.276
   54.750  109.932   14.352 2166.760    0.293
   55.000  112.484   14.175 2209.450    0.267
   55.250  106.353   15.234 2232.000    0.253
   55.500  100.843   16.378 2278.850    0.225
   55.750   95.314   15.505 2291.170    0.217
   56.000   88.563   14.679 2378.570    0.165
   56.250   77.470   14.711 2425.360    0.136
   56.500   66.980   15.153 2451.970    0.120
   56.750   63.950   15.852 2498.760    0.092
   57.000   69.001   16.099 2387.560    0.159
   57.250   72.794   16.357 2237.830    0.250
   57.500   66.645   16.379 2217.750    0.262
   57.750   61.755   16.184 2193.670    0.277
   58.000   56.244   16.206 2159.470    0.297
   58.250   51.354   16.242 2129.260    0.316
   58.500   47.066   16.495 2091.010    0.339
   58.750   44.656   17.240 2081.110    0.345
   59.000   47.226   18.019 2089.430    0.340
   59.250   47.918   18.568 2101.800    0.332
   59.500   45.509   18.601 2108.100    0.328
   59.750   41.238   20.292 2110.350    0.327
   60.000   34.469   25.129 2098.420    0.334
   60.250   28.977   33.412 2084.470    0.343
   60.500   31.511   35.418 2082.670    0.344
   60.750   32.823   35.496 2091.040    0.339
   61.000   29.829   35.045 2101.450    0.332
   61.250   29.244   32.712 2105.610    0.330
   61.500   28.075   30.968 2103.860    0.331
   61.750   30.026   31.927 2093.900    0.337
   62.000   32.560   34.325 2077.930    0.347
   62.250   35.112   35.388 2072.070    0.350
   62.500   35.184   35.435 2078.430    0.346
   62.750   35.255   36.515 2084.670    0.343
   63.000   37.205   35.046 2093.050    0.338
   63.250   39.758   32.253 2095.290    0.336
