~VERSION INFORMATION
 VERS.                 2.0:   CWLS LOG ASCII STANDARD -VERSION 2.0
 WRAP.                  NO:   ONE LINE PER DEPTH STEP
~WELL INFORMATION BLOCK
#MNEM.UNIT           DATA                    DESCRIPTION OF MNEMONIC
#---------    -------------------            -------------------------------
# Generated from Intellog Unique Number	CN_91_93/WELL/3624
WELL.         02-21-093-07W4                 : Well_name    - WELL
LOC .         AA/02-21-093-07W4/0            : Location     - LOCATION
UWI .         AA/02-21-093-07W400            : Uwi          - UNIQUE WELL ID
ENTR.         JOETTE                         : Entered      - ENTERED BY
SRVC.         WESTERN ATLAS                  : Scn          - SERVICE COMPANY
DATE.         03/18/92                       : Date         - LOG DATE
STRT.F        50                             : top_depth    - START DEPTH
STOP.F        820.177                        : bot_depth    - STOP DEPTH
STEP.F        0.8202                         : increment    - STEP LENGTH
 NULL. -999.2500:NULL Value
~CURVE INFORMATION BLOCK
#MNEM UNIT       ERCB CURVE CODE    CURVE DESCRIPTION
#-----------   ------------------   ----------------------------------
DEPT.F        00 001 00 00         : DEPTH        - DEPTH
ILD .OHMM     00 120 00 00         : RESD         - DEEP RESISTIVITY (DIL)
CALI.IN       00 280 01 00         : CAL          - CALIPER
GR  .API      00 310 00 00         : GR           - GAMMA RAY
NPHI.V/V      00 330 00 00         : PHIN         - NEUTRON POROSITY (SANDSTONE)
~PARAMETER INFORMATION
#MNEM.UNIT           DATA             DESCRIPTION OF MNEMONIC
#---------         -----------     ------------------------------
GL  .M        506.578              : gl           - GROUND LEVEL ELEVATION
EREF.M        508.102              : kb           - ELEVATION OF DEPTH REFERENCE
DATM.M        508.102              : datum        - DATUM ELEVATION
TDD .M        508.102              : tdd          - TOTAL DEPTH DRILLER
RUN .         ONE                  : Run          - RUN NUMBER
ENG .         JO                   : Engineer     - RECORDING ENGINEER
WIT .         TIM                  : Witness      - WITNESSED BY
MUD .         GEL                  : Mud_type     - MUD TYPE
MATR.         SANDSTONE            : Logunit      - NEUTRON MATRIX
TMAX.F        47                   : BHT          - MAXIMUM RECORDED TEMPERATURE
BHTD.F        832                  : BHTDEP       - MAXIMUM RECORDED TEMPERATURE
RMT .F        40                   : MDTP         - TEMPERATURE OF MUD
MUDD.LB/G     0.541666             : MWT          - MUD DENSITY
NEUT.         1                    : NEUTRON      - NEUTRON TYPE
RESI.         0                    : RESIST       - RESISTIVITY TYPE
RM  .OHMM     9                    : RM           - RESISTIVITY OF MUD
RMC .OHMM     9                    : RMC          - RESISTIVITY OF MUD CAKE
RMF .OHMM     9                    : RMF          - RESISTIVITY OF MUD FILTRATE
SUFT.F        39.2                 : SUFT         - SURFACE TEMPERATURE
~A  DEPTH     RESD      CAL       GR     PHIN
   50.000   26.509    7.664   90.633    0.441
   50.820   26.064    7.586   90.065    0.440
   51.640   26.095    7.431   89.497    0.439
   52.461   25.665    7.353   88.929    0.437
   53.281   25.688    7.316   87.784    0.436
   54.101   25.272    7.239   87.811    0.434
   54.921   25.294    7.202   86.685    0.432
   55.742   24.863    7.165   86.685    0.432
   56.562   24.907    7.127   78.426    0.430
   57.382   24.929    7.091   82.616    0.428
   58.202   24.525    7.054   82.048    0.427
   59.022   24.547    7.055   81.490    0.425
   59.843   24.583    7.019   80.931    0.423
   60.663   24.598    7.021   79.786    0.421
   61.483   24.627    7.024   79.823    0.419
   62.303   24.656    6.987   79.264    0.415
   63.123   25.144    6.988   78.110    0.413
   63.944   25.641    6.991   75.764    0.407
   64.764   26.133    6.954   72.822    0.402
   65.584   26.649    6.957   69.879    0.392
   66.404   27.673    7.078   66.341    0.375
   67.224   28.195    7.240   63.995    0.362
   68.045   29.286    7.402   62.850    0.351
   68.865   30.411    7.523   64.079    0.338
   69.685   30.994    7.646   65.904    0.331
   70.505   32.184    7.688   66.546    0.325
   71.326   32.203    7.690   64.805    0.318
   72.146   33.430    7.732   63.641    0.309
   72.966   34.081    7.775   60.112    0.292
   73.786   34.755    7.817   58.353    0.287
   74.606   36.090    7.860   57.189    0.295
   75.427   36.133    7.862   54.852    0.302
   76.247   36.825    7.824   54.284    0.307
   77.067   36.869    7.788   54.917    0.311
   77.887   36.923    7.751   56.752    0.315
   78.707   36.967    7.634   59.172    0.326
   79.528   37.011    7.477   61.016    0.319
   80.348   36.390    7.598   62.236    0.320
   81.168   35.138    7.442   62.264    0.329
   81.988   33.330    7.047   62.906    0.342
   82.808   32.173    7.010   62.934    0.349
   83.629   30.518    7.291   62.981    0.356
   84.449   30.563    7.532   63.018    0.374
   85.269   30.581    7.615   65.448    0.401
   86.089   28.999    7.577   68.465    0.417
   86.909   24.684    7.421   71.482    0.434
   87.730   22.170    7.265   73.903    0.434
   88.550   20.640    7.227   76.342    0.429
   89.370   20.670    7.271   76.966    0.423
   90.190   21.849    7.312   78.186    0.420
   91.010   23.511    7.354   79.424    0.419
   91.831   24.852    7.477   80.048    0.418
   92.651   26.278    7.518   79.499    0.417
   93.471   27.786    7.520   79.536    0.415
   94.291   28.327    7.484   78.987    0.414
   95.112   28.360    7.486   79.620    0.413
   95.932   28.386    7.449   82.637    0.411
   96.752   28.419    7.412   84.462    0.408
   97.572   27.449    7.415   85.681    0.405
   98.392   26.981    7.417   85.719    0.400
   99.213   26.060    7.380   86.371    0.396
  100.033   25.171    7.343   85.216    0.391
  100.853   24.749    7.345   84.062    0.383
  101.673   24.326    7.309   82.907    0.375
  102.493   23.918    7.311   81.157    0.368
  103.314   23.954    7.313   78.820    0.362
  104.134   23.545    7.316   78.242    0.358
  104.954   23.587    7.358   77.702    0.354
  105.774   23.622    7.400   78.317    0.349
  106.594   23.636    7.563   80.170    0.348
  107.415   23.671    7.644   81.399    0.345
  108.235   23.267    7.687   82.013    0.342
  109.055   23.301    7.729   82.060    0.340
  109.875   23.322    7.731   81.492    0.337
  110.696   23.363    7.734   79.146    0.334
  111.516   23.384    7.696   75.608    0.332
  112.336   23.006    7.699   74.463    0.330
  113.156   23.026    7.702   75.692    0.329
  113.976   23.047    7.704   76.334    0.328
  114.797   23.094    7.707   76.371    0.327
  115.617   23.115    7.749   76.399    0.326
  116.437   23.558    7.752   76.446    0.325
  117.257   23.579    7.755   75.878    0.325
  118.077   24.045    7.796   75.338    0.324
  118.898   24.528    7.800   74.770    0.323
  119.718   24.550    7.802   74.221    0.323
  120.538   24.579    7.805   73.066    0.322
  121.358   25.050    7.807   71.912    0.322
  122.178   25.080    7.810   70.171    0.321
  122.999   25.117    7.812   68.998    0.320
  123.819   25.147    7.815   68.439    0.320
  124.639   25.636    7.816   68.486    0.319
  125.459   25.667    7.820   69.119    0.320
  126.280   25.697    7.783   69.147    0.321
  127.100   25.266    7.746   70.981    0.323
  127.920   24.850    7.748   72.219    0.326
  128.740   24.886    7.750   73.458    0.326
  129.560   24.901    7.753   73.476    0.325
  130.381   24.945    7.756   74.110    0.324
  131.201   24.968    7.758   74.752    0.321
  132.021   25.469    7.761   75.385    0.319
  132.841   25.491    7.764   75.432    0.318
  133.661   25.529    7.766   75.469    0.316
  134.482   25.544    7.768   75.507    0.317
  135.302   25.582    7.732   74.948    0.317
  136.122   25.620    7.734   74.399    0.318
  136.942   25.643    7.696   74.427    0.319
  137.762   25.673    7.699   73.877    0.316
  138.583   25.719    7.623   73.896    0.313
  139.403   25.742    7.586   73.942    0.311
  140.223   25.765    7.508   74.585    0.312
  141.043   25.803    7.432   75.218    0.315
  141.864   25.841    7.435   75.246    0.317
  142.684   25.864    7.436   77.090    0.318
  143.504   25.895    7.440   78.309    0.321
  144.324   25.925    7.402   79.557    0.323
  145.144   25.956    7.365   79.576    0.324
  145.965   25.987    7.329   79.027    0.325
  146.785   26.493    7.371   77.863    0.326
  147.605   26.540    7.372   76.727    0.326
  148.425   26.572    7.415   76.159    0.327
  149.245   27.097    7.417   76.187    0.326
  150.066   27.113    7.421   76.224    0.325
  150.886   27.649    7.422   76.271    0.323
  151.706   28.196    7.386   75.116    0.323
  152.526   28.213    7.388   73.971    0.324
  153.346   28.779    7.390   70.442    0.327
  154.167   29.331    7.472   68.683    0.333
  154.987   29.374    7.277   66.932    0.333
  155.807   29.937    7.120   65.182    0.325
  156.627   30.529    7.083   64.614    0.323
  157.448   30.556    7.046   63.469    0.321
  158.268   31.170    7.008   62.323    0.320
  159.088   31.786    7.012   61.755    0.320
  159.908   31.805    7.014   60.620    0.321
  160.728   32.425    6.976   60.052    0.322
  161.549   33.056    6.940   59.484    0.322
  162.369   33.710    6.902   59.521    0.322
  163.189   33.749    7.024   59.568    0.323
  164.009   34.407    7.107   59.596    0.322
  164.829   34.447    7.108   60.229    0.321
  165.650   34.488    7.111   61.458    0.319
  166.470   35.160    7.312   63.301    0.316
  167.290   35.233    7.553   64.531    0.311
  168.110   35.264    7.398   65.760    0.309
  168.930   35.295    7.359   66.393    0.306
  169.751   34.703    7.283   67.622    0.305
  170.571   34.755    7.245   68.255    0.305
  171.391   34.796    7.249   68.292    0.307
  172.211   34.848    7.251   68.330    0.307
  173.031   34.868    7.214   68.367    0.310
  173.852   34.941    7.216   68.404    0.312
  174.672   34.941    7.179   67.846    0.313
  175.492   33.768    7.181   66.691    0.313
  176.312   35.044    7.184   65.537    0.313
  177.133   35.748    7.146   63.795    0.312
  177.953   35.780    7.149   62.632    0.312
  178.773   35.811    7.112   60.304    0.310
  179.593   36.520    7.076   59.140    0.308
  180.413   36.563    7.038   59.187    0.306
  181.234   36.606    7.040   59.820    0.305
  182.054   37.319    7.043   59.848    0.304
  182.874   37.385    7.085   60.490    0.304
  183.694   38.113    7.128   60.518    0.304
  184.514   38.147    7.131   61.170    0.304
  185.335   38.181    7.134   61.198    0.303
  186.155   38.238    7.135   61.841    0.303
  186.975   38.272    7.178   62.465    0.305
  187.795   38.328    7.180   63.098    0.305
  188.615   37.009    7.183   63.731    0.309
  189.436   35.095    7.186   64.364    0.311
  190.256   33.887    7.188   64.997    0.315
  191.076   32.740    7.192   66.236    0.318
  191.896   32.182    7.194   66.869    0.324
