~VERSION INFORMATION
 VERS.                 2.0:   CWLS LOG ASCII STANDARD -VERSION 2.0
 WRAP.                  NO:   ONE LINE PER DEPTH STEP
~WELL INFORMATION BLOCK
#MNEM.UNIT           DATA                    DESCRIPTION OF MNEMONIC
#---------    -------------------            -------------------------------
# Generated from Intellog Unique Number	CX_WELLS/WELL/3149
WELL.         PETRO-CANADA                   : Well_name    - WELL
LOC .         AA/06-08-083-08W4/0            : Location     - LOCATION
UWI .         AA/06-08-083-08W4/0            : Uwi          - UNIQUE WELL ID
ENTR.         TIM                            : Entered      - ENTERED BY
SRVC.         SCHLUMBERGER                   : Scn          - SERVICE COMPANY
STRT.M        275                            : top_depth    - START DEPTH
STOP.M        500                            : bot_depth    - STOP DEPTH
STEP.M        0.25                           : increment    - STEP LENGTH
 NULL. -999.2500:NULL Value
~CURVE INFORMATION BLOCK
#MNEM UNIT       ERCB CURVE CODE    CURVE DESCRIPTION
#-----------   ------------------   ----------------------------------
DEPT.M        00 001 00 00         : DEPTH        - DEPTH
GR  .API      00 310 00 00         : GR           - GAMMA RAY
NPHI.V/V      00 330 00 00         : PHIN         - NEUTRON POROSITY (SANDSTONE)
DPHI.V/V      00 890 00 00         : PHID         - DENSITY POROSITY (SANDSTONE)
ILD .OHMM     00 120 00 00         : RESD         - DEEP RESISTIVITY (OTHER)
~PARAMETER INFORMATION
#MNEM.UNIT           DATA             DESCRIPTION OF MNEMONIC
#---------         -----------     ------------------------------
GL  .M        726                  : gl           - GROUND LEVEL ELEVATION
EREF.M        730.2                : kb           - ELEVATION OF DEPTH REFERENCE
DATM.M        730.2                : datum        - DATUM ELEVATION
TDD .M        505                  : tdd          - TOTAL DEPTH DRILLER
RUN .         ONE                  : Run          - RUN NUMBER
ENG .         BILL                 : Engineer     - RECORDING ENGINEER
WIT .         JIM                  : Witness      - WITNESSED BY
MUD .         GEL                  : Mud_type     - MUD TYPE
MATR.         SANDSTONE            : Logunit      - NEUTRON MATRIX
TMAX.C        29                   : BHT          - MAXIMUM RECORDED TEMPERATURE
BHTD.M        505.834              : BHTDEP       - MAXIMUM RECORDED TEMPERATURE
MATR.         1                    : LOGUNIT      - NEUTRON MATRIX
RMT .C        20                   : MDTP         - TEMPERATURE OF MUD
NEUT.         1                    : NEUTRON      - NEUTRON TYPE
RESI.         4.78                 : RESIST       - RESISTIVITY TYPE
RMC .OHMM     4.8                  : RMC          - RESISTIVITY OF MUD CAKE
RMF .OHMM     4.8                  : RMF          - RESISTIVITY OF MUD FILTRATE
SUFT.C        3                    : SUFT         - SURFACE TEMPERATURE
~A  DEPTH       GR     PHIN     PHID     RESD
# ...
  405.500  108.708    0.354    0.191   10.909
  405.750  106.962    0.351    0.193   10.717
  406.000  105.216    0.350    0.205   10.535
  406.250  105.890    0.345    0.227   10.357
  406.500  105.919    0.341    0.272   10.373
  406.750  106.593    0.353    0.289   10.201
  407.000  103.043    0.377    0.318   10.021
  407.250   98.892    0.392    0.309    9.324
  407.500   95.943    0.410    0.282    8.362
  407.750   97.805    0.414    0.271    7.922
  408.000  101.486    0.411    0.280    7.509
  408.250  103.319    0.410    0.293    7.516
  408.500  105.181    0.417    0.307    7.667
  408.750  103.449    0.419    0.319    8.112
  409.000  101.116    0.379    0.272    8.741
  409.250   99.943    0.374    0.249    9.593
  409.500   98.798    0.371    0.242   10.340
  409.750   98.255    0.377    0.244   10.545
  410.000   98.914    0.381    0.246   10.562
  410.250   98.972    0.378    0.246   10.568
  410.500   99.632    0.375    0.244   10.389
  410.750   99.690    0.374    0.243   10.027
  411.000   99.161    0.376    0.242    9.505
  411.250   99.820    0.373    0.246    8.683
  411.500  100.465    0.381    0.261    8.228
  411.750  102.327    0.385    0.289    7.797
  412.000  101.182    0.388    0.302    7.662
  412.250   98.234    0.388    0.313    7.537
  412.500   95.886    0.385    0.318    7.544
  412.750   97.176    0.381    0.326    7.691
  413.000   98.408    0.378    0.332    8.293
  413.250  100.871    0.365    0.328    8.609
  413.500   99.741    0.367    0.318    9.107
  413.750   96.177    0.371    0.310    9.820
  414.000   92.641    0.372    0.296   10.197
  414.250   91.482    0.373    0.280   10.595
  414.500   89.765    0.373    0.270   10.798
  414.750   89.823    0.373    0.267   10.425
  415.000   89.852    0.372    0.264    9.876
  415.250   89.910    0.370    0.261    9.358
  415.500   89.983    0.369    0.263    8.868
  415.750   89.425    0.368    0.267    8.406
  416.000   89.497    0.367    0.277    7.684
  416.250   89.570    0.367    0.317    7.279
  416.500   90.200    0.369    0.339    6.770
  416.750   92.693    0.398    0.362    5.960
  417.000   93.924    0.404    0.371    4.966
  417.250   96.388    0.411    0.374    4.216
  417.500   98.851    0.421    0.378    4.299
  417.750  100.742    0.405    0.381    4.718
  418.000   97.779    0.389    0.368    5.676
  418.250   92.410    0.374    0.259    7.215
  418.500   88.860    0.357    0.245    8.366
  418.750   87.115    0.356    0.234    9.702
  419.000   84.767    0.355    0.237   10.848
  419.250   81.833    0.354    0.279   11.063
  419.500   80.688    0.358    0.289   11.283
  419.750   78.942    0.355    0.285   11.300
  420.000   77.783    0.352    0.279   11.315
  420.250   74.849    0.349    0.276   11.329
  420.500   71.901    0.348    0.272   11.985
  420.750   70.741    0.348    0.262   12.915
  421.000   69.597    0.346    0.240   13.415
  421.250   69.655    0.352    0.160   12.254
  421.500   70.930    0.359    0.108   11.612
  421.750   72.176    0.367    0.095   10.607
  422.000   75.241    0.367    0.129    9.869
  422.250   80.711    0.341    0.240    9.698
  422.500   85.579    0.277    0.267    9.366
  422.750   94.672    0.294    0.292    9.202
  423.000   97.737    0.368    0.310    8.881
  423.250   95.991    0.401    0.326    7.820
  423.500   95.447    0.419    0.343    6.888
  423.750   94.317    0.430    0.344    6.895
  424.000   91.970    0.428    0.336    7.301
  424.250   89.623    0.421    0.326    7.441
  424.500   87.877    0.409    0.302    7.586
  424.750   86.145    0.394    0.291    6.932
  425.000   85.573    0.376    0.277    6.215
  425.250   85.645    0.382    0.271    5.274
  425.500   86.319    0.379    0.264    4.010
  425.750   87.551    0.376    0.259    3.403
  426.000   87.609    0.373    0.254    3.109
  426.250   87.066    0.379    0.257    3.056
  426.500   88.341    0.384    0.261    3.174
  426.750   89.587    0.382    0.264    3.551
  427.000   91.464    0.382    0.266    3.686
  427.250   93.326    0.387    0.268    4.198
  427.500   95.789    0.393    0.274    4.868
  427.750   98.238    0.399    0.319    5.441
  428.000   98.912    0.409    0.325    6.199
  428.250   98.368    0.418    0.326    6.437
  428.500   96.007    0.429    0.275    6.565
  428.750   92.486    0.437    0.256    6.575
  429.000   90.725    0.443    0.263    6.459
  429.250   88.965    0.446    0.289    5.688
  429.500   87.219    0.448    0.311    4.828
  429.750   86.074    0.449    0.319    4.411
  430.000   86.132    0.449    0.327    4.030
  430.250   88.610    0.450    0.330    3.889
  430.500   92.261    0.454    0.330    3.966
  430.750   98.347    0.454    0.326    4.045
  431.000  102.013    0.450    0.327    4.124
  431.250  105.092    0.445    0.334    3.910
  431.500  103.948    0.441    0.336    3.773
  431.750  100.412    0.442    0.331    3.509
  432.000   99.253    0.446    0.326    3.514
  432.250   97.493    0.442    0.323    3.583
  432.500   96.348    0.433    0.321    3.656
  432.750   95.819    0.426    0.322    3.727
  433.000   95.863    0.422    0.327    4.091
  433.250   94.733    0.428    0.333    4.491
  433.500   92.385    0.434    0.337    4.662
  433.750   88.850    0.441    0.340    4.758
  434.000   87.676    0.433    0.330    4.761
  434.250   86.517    0.425    0.309    4.768
  434.500   85.373    0.425    0.300    4.863
  434.750   89.068    0.425    0.304    4.958
  435.000   92.734    0.426    0.307    5.057
  435.250   95.798    0.421    0.309    5.253
  435.500   97.044    0.398    0.313    5.355
  435.750   98.906    0.393    0.310    5.463
  436.000   97.762    0.390    0.303    5.470
  436.250   86.996    0.385    0.291    5.379
  436.500   81.627    0.372    0.280    5.285
  436.750   75.687    0.365    0.284    5.102
  437.000   77.534    0.366    0.291    4.836
  437.250   81.200    0.368    0.291    4.752
  437.500   83.678    0.368    0.291    4.586
  437.750   83.736    0.365    0.291    4.428
  438.000   80.773    0.364    0.293    4.353
  438.250   77.223    0.361    0.294    4.606
  438.500   77.281    0.361    0.287    4.960
  438.750   78.542    0.362    0.263    6.307
  439.000   82.237    0.361    0.256    7.587
  439.250   85.287    0.357    0.260    9.469
  439.500   87.750    0.356    0.256    9.142
  439.750   89.627    0.352    0.247    9.151
  440.000   92.090    0.352    0.240    9.332
  440.250   93.336    0.350    0.238    9.873
  440.500   97.618    0.361    0.239   11.664
  440.750  103.689    0.365    0.239   12.340
  441.000  109.761    0.373    0.238   12.585
  441.250  113.427    0.372    0.232   12.834
  441.500  115.890    0.370    0.228   12.620
  441.750  117.752    0.364    0.224   11.742
  442.000  117.209    0.345    0.225   10.921
  442.250  114.861    0.337    0.233   10.158
  442.500  111.326    0.335    0.240    9.453
  442.750  107.762    0.330    0.247    9.465
  443.000  103.009    0.325    0.254    9.653
  443.250   95.235    0.315    0.253    9.489
  443.500   79.659    0.313    0.245   10.228
  443.750   74.305    0.313    0.242   11.226
  444.000   75.565    0.311    0.244   11.872
  444.250   78.029    0.309    0.247   12.797
  444.500   78.688    0.312    0.248   13.543
  444.750   76.341    0.314    0.250   13.802
  445.000   75.196    0.324    0.252   15.148
  445.250   74.653    0.331    0.260   16.933
  445.500   71.719    0.339    0.267   18.928
  445.750   66.952    0.339    0.278   20.396
  446.000   60.982    0.338    0.288   23.236
  446.250   55.041    0.335    0.281   25.494
  446.500   58.106    0.331    0.273   26.480
  446.750   61.757    0.330    0.264   26.514
  447.000   67.242    0.328    0.259   25.141
  447.250   71.509    0.323    0.254   24.699
  447.500   78.783    0.318    0.251   22.994
  447.750   83.652    0.315    0.247   22.187
  448.000   88.535    0.309    0.242   20.636
  448.250   88.593    0.307    0.238   17.516
  448.500   86.847    0.311    0.233   15.704
  448.750   88.122    0.319    0.228   13.832
