~VERSION INFORMATION
 VERS.                 2.0:   CWLS LOG ASCII STANDARD -VERSION 2.0
 WRAP.                  NO:   ONE LINE PER DEPTH STEP
~WELL INFORMATION BLOCK
#MNEM.UNIT           DATA                    DESCRIPTION OF MNEMONIC
#---------    -------------------            -------------------------------
# Generated from Intellog Unique Number	CN_91_93/WELL/3090
WELL.         01-05-092-12W4                 : Well_name    - WELL
LOC .         AA/01-05-092-12W4/0            : Location     - LOCATION
UWI .         AA/01-05-092-12W400            : Uwi          - UNIQUE WELL ID
ENTR.         JOETTE                         : Entered      - ENTERED BY
SRVC.         WESTERN ATLAS                  : Scn          - SERVICE COMPANY
DATE.         04/10/92                       : Date         - LOG DATE
STRT.M        45                             : top_depth    - START DEPTH
STOP.M        200                            : bot_depth    - STOP DEPTH
STEP.M        0.25                           : increment    - STEP LENGTH
 NULL. -999.2500:NULL Value
~CURVE INFORMATION BLOCK
#MNEM UNIT       ERCB CURVE CODE    CURVE DESCRIPTION
#-----------   ------------------   ----------------------------------
DEPT.M        00 001 00 00         : DEPTH        - DEPTH
CALI.MM       00 280 01 00         : CAL          - CALIPER
GR  .API      00 310 00 00         : GR           - GAMMA RAY
NPHI.V/V      00 330 00 00         : PHIN         - NEUTRON POROSITY (SANDSTONE)
DPHI.V/V      00 890 00 00         : PHID         - DENSITY POROSITY (SANDSTONE)
ILD .OHMM     00 120 00 00         : RESD         - DEEP RESISTIVITY (DIL)
~PARAMETER INFORMATION
#MNEM.UNIT           DATA             DESCRIPTION OF MNEMONIC
#---------         -----------     ------------------------------
GL  .M        390.2                : gl           - GROUND LEVEL ELEVATION
EREF.M        395.3                : kb           - ELEVATION OF DEPTH REFERENCE
DATM.M        395.3                : datum        - DATUM ELEVATION
TDD .M        203.3                : tdd          - TOTAL DEPTH DRILLER
RUN .         ONE                  : Run          - RUN NUMBER
ENG .         BILL                 : Engineer     - RECORDING ENGINEER
WIT .         JIM                  : Witness      - WITNESSED BY
MUD .         GEL                  : Mud_type     - MUD TYPE
MATR.         SANDSTONE            : Logunit      - NEUTRON MATRIX
TMAX.C        19                   : BHT          - MAXIMUM RECORDED TEMPERATURE
BHTD.M        203.3                : BHTDEP       - MAXIMUM RECORDED TEMPERATURE
RMT .C        20                   : MDTP         - TEMPERATURE OF MUD
MUDD.KG/M     1100                 : MWT          - MUD DENSITY
NEUT.         1                    : NEUTRON      - NEUTRON TYPE
RESI.         0                    : RESIST       - RESISTIVITY TYPE
RM  .OHMM     2.5                  : RM           - RESISTIVITY OF MUD
RMC .OHMM     2.5                  : RMC          - RESISTIVITY OF MUD CAKE
RMF .OHMM     2.5                  : RMF          - RESISTIVITY OF MUD FILTRATE
SUFT.C        4                    : SUFT         - SURFACE TEMPERATURE
~A  DEPTH      CAL       GR     PHIN     PHID     RESD
# ...
  118.000  157.374   36.064    0.360    0.270   26.731
  118.250  156.391   38.505    0.366    0.265   24.597
  118.500  155.916   42.454    0.374    0.270   23.057
  118.750  156.457   42.774    0.378    0.282   21.615
  119.000  156.483   41.583    0.376    0.294   20.832
  119.250  156.008   37.970    0.381    0.290   20.265
  119.500  155.533   36.170    0.376    0.295   19.714
  119.750  156.067   35.585    0.386    0.291   20.087
  120.000  156.092   34.392    0.373    0.268   21.838
  120.250  157.638   32.897    0.376    0.262   25.334
  120.500  158.176   28.678    0.380    0.295   24.874
  120.750  157.189   34.445    0.379    0.287   22.261
  121.000  155.717   39.003    0.382    0.267   20.108
  121.250  156.243   41.441    0.380    0.282   19.203
  121.500  158.289   36.918    0.380    0.291   19.206
  121.750  159.331   32.397    0.370    0.290   19.935
  122.000  159.357   26.968    0.370    0.296   21.079
  122.250  158.378   29.106    0.370    0.277   23.347
  122.500  157.903   30.939    0.372    0.277   24.234
  122.750  157.936   31.560    0.367    0.290   24.015
  123.000  157.965   31.884    0.375    0.294   22.720
  123.250  157.490   30.389    0.373    0.304   20.907
  123.500  157.516   37.364    0.405    0.312   19.418
  123.750  160.074   39.500    0.399    0.303   18.715
  124.000  162.124   31.953    0.394    0.303   18.037
  124.250  162.658   27.736    0.382    0.307   17.875
  124.500  160.166   33.198    0.385    0.318   18.554
  124.750  158.675   34.124    0.380    0.310   19.802
  125.000  156.687   30.208    0.372    0.311   19.623
  125.250  156.212   26.899    0.377    0.313   18.394
  125.500  157.257   29.032    0.378    0.299   18.917
  125.750  157.279   34.501    0.380    0.293   20.757
  126.000  156.300   33.306    0.376    0.299   26.911
  126.250  155.321   28.785    0.366    0.296   28.721
  126.500  155.350   23.054    0.373    0.299   31.227
  126.750  154.883   18.530    0.381    0.311   31.227
  127.000  154.404   19.760    0.374    0.316   35.567
  127.250  154.938   24.014    0.361    0.297   36.576
  127.500  154.463   26.150    0.368    0.297   35.911
  127.750  153.988   26.172    0.366    0.312   30.401
  128.000  154.021   28.005    0.371    0.321   24.344
  128.250  154.054   30.139    0.368    0.312   19.316
  128.500  154.076   29.246    0.367    0.307   18.444
  128.750  154.105   30.476    0.377    0.302   15.046
  129.000  154.639   29.588    0.374    0.298   13.591
  129.250  154.672   31.419    0.371    0.305   11.940
  129.500  154.698   32.647    0.369    0.310   11.193
  129.750  154.734   29.942    0.365    0.319   10.689
  130.000  154.764   26.328    0.366    0.302   10.207
  130.250  155.294   26.346    0.359    0.307    9.929
  130.500  154.819   22.130    0.351    0.319    9.748
  130.750  154.852   21.239    0.356    0.327    9.661
  131.000  157.406   22.467    0.360    0.330    9.753
  131.250  158.437   22.785    0.347    0.324    9.665
  131.500  158.970   21.895    0.322    0.318    8.977
  131.750  157.491   20.707    0.314    0.318    8.033
  132.000  155.503   20.724    0.333    0.340    6.433
  132.250  154.520   22.251    0.349    0.357    6.555
  132.500  154.553   22.575    0.361    0.362    8.038
  132.750  156.102   26.524    0.244    0.307   12.543
  133.000  156.636   25.331    0.157    0.133   23.777
  133.250  157.166   18.995    0.001   -0.000   62.336
  133.500  157.192   14.776   -0.002    0.005   83.870
  133.750  157.733   17.217    0.004    0.001   83.118
  134.000  157.251   15.719    0.007    0.009   79.372
  134.250  157.280   15.434    0.011    0.010   75.091
  134.500  157.817   20.293    0.012    0.001   66.584
  134.750  158.347   25.457    0.010    0.003   51.380
  135.000  158.885   31.224    0.008    0.004   39.647
  135.250  159.418   38.201    0.010   -0.002   27.629
  135.500  160.456   47.598    0.053    0.043   21.320
  135.750  162.503   50.642    0.057    0.066   22.130
  136.000  166.066   47.333    0.105    0.177   22.970
  136.250  164.579   46.138    0.195    0.203   23.405
  136.500  160.069   41.617    0.216    0.080   21.537
  136.750  159.090   42.545    0.026    0.030   20.376
  137.000  158.615   43.470    0.029    0.038   19.101
  137.250  158.648   47.421    0.038    0.105   18.072
  137.500  158.678   51.074    0.121    0.132   17.743
  137.750  159.211   47.456    0.148    0.151   17.913
  138.000  159.745   46.569    0.241    0.141   19.116
  138.250  159.774   46.584    0.219    0.118   23.882
  138.500  159.807   42.668    0.190    0.052   31.251
  138.750  159.336   34.819    0.175    0.017   46.129
  139.000  159.358   23.338    0.146    0.002   52.044
  139.250  159.391   14.581    0.133    0.004   55.029
  139.500  159.424   16.719    0.143    0.011   55.042
  139.750  159.446   19.459    0.137    0.020   55.052
  140.000  159.479   19.479    0.131    0.022   58.214
  140.250  160.013   17.072    0.124    0.006   61.555
  140.500  160.046   15.879    0.109   -0.000   65.692
  140.750  160.071   13.779    0.104    0.004   74.808
  141.000  160.605   11.376    0.093    0.006   90.897
  141.250  161.139    7.762    0.088    0.007   97.906
  141.500  161.676    6.570    0.092    0.003   86.814
  141.750  162.213    7.800    0.100    0.009   72.146
  142.000  163.748   11.446    0.129    0.009   62.218
  142.250  163.281   18.123    0.135    0.022   58.866
  142.500  161.293   19.050    0.123    0.023   61.672
  142.750  159.301   14.830    0.117    0.030   66.432
  143.000  158.823   13.036    0.111    0.011   71.556
  143.250  158.352   15.470    0.113    0.005   77.795
  143.500  158.885   17.303    0.110    0.007   80.749
  143.750  159.415   15.203    0.100    0.008   77.827
  144.000  160.457   16.130    0.101   -0.003   74.323
  144.250  161.495   18.566    0.120   -0.008   73.651
  144.500  161.023   21.311    0.126   -0.003   74.352
  144.750  159.536   16.486    0.124    0.003   77.174
  145.000  158.561   13.177    0.125    0.004   78.633
  145.250  158.082   15.010    0.125    0.015   75.788
  145.500  158.111   15.935    0.119    0.006   71.708
  145.750  158.141   12.625    0.115    0.007   67.845
  146.000  158.174   15.061    0.121    0.005   62.428
  146.250  158.200   16.289    0.129    0.004   46.421
  146.500  158.229   16.308    0.126    0.005   41.544
  146.750  158.262   21.470    0.157    0.001   31.468
  147.000  158.295   27.237    0.202    0.017   27.647
  147.250  157.813   33.003    0.198    0.034   26.156
  147.500  157.846   31.815    0.188    0.045   28.175
  147.750  157.371   30.318    0.183    0.035   31.204
  148.000  156.899   30.333    0.171    0.017   41.214
  148.250  156.428   30.653    0.152    0.017   48.253
  148.500  156.450   30.370    0.149    0.000   59.177
  148.750  155.475   24.032    0.138    0.009   64.936
  149.000  154.499   20.120    0.128    0.008   76.737
  149.250  153.008   18.318    0.120    0.005   78.915
  149.500  152.033   16.825    0.122    0.008   84.226
  149.750  152.566   17.445    0.129    0.007   85.815
  150.000  159.662   19.264    0.143   -0.002   84.356
  150.250  164.223   22.311    0.153    0.004   67.408
  150.500  166.229   23.820    0.161    0.003   55.917
  150.750  164.167   23.808    0.179    0.003   44.264
  151.000  160.059   24.098    0.190    0.005   38.477
  151.250  155.442   26.833    0.205    0.028   25.500
  151.500  154.402   33.851    0.230    0.058   19.812
  151.750  153.866   43.930    0.259    0.093   17.547
  152.000  155.875   50.031    0.255    0.085   15.835
  152.250  158.910   54.603    0.245    0.132   15.400
  152.500  163.975   60.396    0.220    0.154   19.463
  152.750  166.503   56.710    0.179    0.099   33.812
  153.000  163.418   32.532    0.150    0.032   46.055
  153.250  158.801   22.727    0.137    0.013   58.753
  153.500  158.261   19.653    0.130    0.005   66.369
  153.750  159.767   20.247    0.135    0.003   74.973
  154.000  159.228   22.985    0.135    0.008   74.994
  154.250  158.695   19.909    0.126    0.008   69.598
