~VERSION INFORMATION
 VERS.                 2.0:   CWLS LOG ASCII STANDARD -VERSION 2.0
 WRAP.                  NO:   ONE LINE PER DEPTH STEP
~WELL INFORMATION BLOCK
#MNEM.UNIT           DATA                    DESCRIPTION OF MNEMONIC
#---------    -------------------            -------------------------------
# Generated from Intellog Unique Number	CN_94_101/WELL/3480
WELL.         08-31-095-10W4                 : Well_name    - WELL
LOC .         AA/08-31-095-10W4/0            : Location     - LOCATION
UWI .         AA/08-31-095-10W400            : Uwi          - UNIQUE WELL ID
ENTR.         JOETTE                         : Entered      - ENTERED BY
SRVC.         SCHLUMBERGER                   : Scn          - SERVICE COMPANY
DATE.         07/29/92                       : Date         - LOG DATE
STRT.M        0                              : top_depth    - START DEPTH
STOP.M        84.25                          : bot_depth    - STOP DEPTH
STEP.M        0.25                           : increment    - STEP LENGTH
 NULL. -999.2500:NULL Value
~CURVE INFORMATION BLOCK
#MNEM UNIT       ERCB CURVE CODE    CURVE DESCRIPTION
#-----------   ------------------   ----------------------------------
DEPT.M        00 001 00 00         : DEPTH        - DEPTH
GR  .API      00 310 00 00         : GR           - GAMMA RAY
RHOB.KG/M3    00 350 00 00         : DENS         - BULK DENSITY
ILD .OHMM     00 120 00 00         : RESD         - DEEP RESISTIVITY (DIL)
NPHI.V/V      00 330 00 00         : PHIN         - NEUTRON POROSITY (SANDSTONE)
~PARAMETER INFORMATION
#MNEM.UNIT           DATA             DESCRIPTION OF MNEMONIC
#---------         -----------     ------------------------------
GL  .M        290.4                : gl           - GROUND LEVEL ELEVATION
EREF.M        290.4                : kb           - ELEVATION OF DEPTH REFERENCE
DATM.M        290.4                : datum        - DATUM ELEVATION
TDD .M        84.3                 : tdd          - TOTAL DEPTH DRILLER
RUN .         ONE                  : Run          - RUN NUMBER
ENG .         JO                   : Engineer     - RECORDING ENGINEER
WIT .         TIM                  : Witness      - WITNESSED BY
MUD .         GEL                  : Mud_type     - MUD TYPE
MATR.         SANDSTONE            : Logunit      - NEUTRON MATRIX
TMAX.C        63                   : BHT          - MAXIMUM RECORDED TEMPERATURE
BHTD.M        84.3                 : BHTDEP       - MAXIMUM RECORDED TEMPERATURE
RMT .C        63                   : MDTP         - TEMPERATURE OF MUD
MUDD.KG/M     1080                 : MWT          - MUD DENSITY
NEUT.         1                    : NEUTRON      - NEUTRON TYPE
RESI.         0                    : RESIST       - RESISTIVITY TYPE
RM  .OHMM     2.53                 : RM           - RESISTIVITY OF MUD
RMC .OHMM     2.53                 : RMC          - RESISTIVITY OF MUD CAKE
RMF .OHMM     2.53                 : RMF          - RESISTIVITY OF MUD FILTRATE
SUFT.C        4                    : SUFT         - SURFACE TEMPERATURE
~A  DEPTH       GR     DENS     RESD     PHIN
    0.000   61.844 2738.340    4.510    0.510
    0.250   55.937 2743.270    4.347    0.508
    0.500   50.680 2745.650    4.139    0.508
    0.750   42.807 2750.570    4.038    0.508
    1.000   37.538 2755.500    3.845    0.507
    1.250   35.548 2760.380    3.795    0.506
    1.500   32.895 2767.850    3.657    0.506
    1.750   31.531 2772.820    3.609    0.507
    2.000   33.421 2775.190    3.605    0.506
    2.250   33.371 2767.380    3.555    0.505
    2.500   35.286 2751.920    3.511    0.503
    2.750   40.444 2728.810    3.462    0.486
    3.000   39.092 2720.950    3.541    0.471
    3.250   38.391 2748.850    3.797    0.446
    3.500   40.945 2774.160    3.881    0.466
    3.750   34.374 2809.670    3.784    0.526
    4.000   41.483 2806.950    3.823    0.547
    4.250   38.179 2814.420    3.863    0.548
    4.500   38.780 2386.010    4.345    0.533
    4.750   54.351 2286.420   10.533    0.512
    5.000   40.633 2263.310   23.233    0.493
    5.250   38.631 2209.580   40.911    0.484
    5.500   45.077 2227.250   42.327    0.478
    5.750   45.678 2374.920   38.925    0.474
    6.000   54.102 2374.750   37.962    0.475
    6.250   57.306 2221.640   40.694    0.476
    6.500   48.795 2259.690   39.672    0.477
    6.750   40.272 2241.640   41.548    0.473
    7.000   36.317 2310.310   45.051    0.466
    7.250   33.000 2345.810   45.522    0.452
    7.500   37.519 2340.500   45.998    0.436
    7.750   49.835 2223.110   47.048    0.431
    8.000   49.786 2319.820   37.079    0.415
    8.250   49.085 2253.300   40.697    0.408
    8.500   63.354 2225.140   44.144    0.396
    8.750   78.925 2281.030   36.487    0.440
    9.000   87.999 2319.090   40.524    0.430
    9.250   75.571 2257.760   42.425    0.461
    9.500   83.982 2216.730   41.867    0.440
    9.750   93.044 2310.930   50.510    0.434
   10.000   84.533 2313.260   53.508    0.441
   10.250   86.436 2279.960   49.190    0.427
   10.500   73.357 2292.490   51.498    0.440
   10.750   72.656 2274.520   65.933    0.405
   11.000   73.257 2218.240   72.368    0.400
   11.250   75.147 2286.920   51.279    0.418
   11.500   77.050 2447.330   65.629    0.427
   11.750   47.711 2332.440  107.693    0.404
   12.000   45.709 2299.140  153.354    0.410
   12.250   96.439 2286.190   68.513    0.400
   12.500   86.626 2288.560   58.673    0.380
   12.750   83.322 2296.040   60.704    0.361
   13.000   72.846 2229.610   64.308    0.350
   13.250   70.843 2305.890   72.272    0.374
   13.500   92.272 2241.970   68.028    0.372
   13.750  105.902 2213.760   90.176    0.378
   14.000   88.918 2200.850   84.912    0.410
   14.250   78.454 2272.030   79.926    0.381
   14.500   91.421 2203.050  104.777    0.431
   14.750  101.785 2284.430  113.652    0.412
   15.000   92.624 2256.220   87.477    0.407
   15.250   79.544 2243.310   89.410    0.421
   15.500   71.684 2286.460   89.284    0.407
   15.750   82.048 2209.750  111.640    0.393
   16.000   72.886 2268.240  118.267    0.400
   16.250   91.060 2257.870   93.240    0.396
   16.500   87.105 2244.960  104.787    0.380
   16.750   69.470 2277.870  137.320    0.371
   17.000   52.472 2252.260  106.989    0.389
   17.250   68.707 2218.960   73.170    0.405
   17.500   75.178 2256.970   63.383    0.390
   17.750   64.051 2218.570   89.197    0.388
   18.000   62.699 2226.050  105.095    0.398
   18.250   81.537 2202.940   87.899    0.418
   18.500   81.487 2233.350  107.265    0.399
   18.750   74.265 2286.690   92.951    0.421
   19.000   55.340 2245.750  140.467    0.425
   19.250   51.373 2192.020  233.238    0.403
   19.500   74.116 2204.590  167.234    0.401
   19.750   68.859 2206.920  153.684    0.394
   20.000   66.181 2188.950  206.360    0.384
   20.250   62.889 2165.850  267.250    0.386
   20.500   55.680 2170.770  403.723    0.405
   20.750   50.423 2198.630  225.856    0.402
   21.000   54.278 2188.270  171.798    0.400
   21.250   75.695 2249.250  167.547    0.392
   21.500   69.148 2266.920  206.967    0.381
   21.750   50.862 2243.810  229.865    0.394
   22.000   69.036 2182.440  235.029    0.377
   22.250   76.158 2169.530  346.755    0.420
   22.500   51.363 2151.520  376.124    0.402
   22.750   53.266 2148.760  303.622    0.396
   23.000   68.837 2169.010  282.337    0.423
   23.250   85.710 2224.900  361.479    0.405
   23.500   76.548 2224.730  238.606    0.405
   23.750   66.735 2163.360  181.497    0.417
   24.000   79.051 2229.440  304.948    0.411
   24.250   62.718 2173.210  196.590    0.432
   24.500   52.905 2173.040  270.190    0.429
   24.750   41.127 2180.510  358.282    0.412
   25.000   44.331 2119.090  379.685    0.406
   25.250   43.631 2180.170  411.844    0.413
   25.500   52.042 2220.770  298.807    0.403
   25.750   58.501 2164.490  232.724    0.404
   26.000   53.895 2156.630  294.458    0.395
   26.250   49.289 2169.160  311.937    0.389
   26.500   50.541 2125.750  376.328    0.433
   26.750   45.923 2100.050  413.054    0.412
   27.000   32.855 2104.980  422.182    0.432
   27.250   30.853 2135.340  416.778    0.416
   27.500   52.282 2117.380  352.725    0.398
   27.750   52.883 2163.030  387.011    0.395
   28.000   56.087 2221.550  261.663    0.425
   28.250   67.753 2213.690  158.950    0.404
   28.500   65.100 2254.340  189.575    0.400
   28.750   67.653 2233.740  149.352    0.394
   29.000   60.444 2236.070  163.986    0.419
   29.250   70.795 2220.610  207.486    0.410
   29.500   56.414 2289.240  165.464    0.407
   29.750   57.028 2281.420  131.953    0.427
   30.000   62.185 2268.550  107.784    0.432
   30.250   67.342 2265.830  172.736    0.416
   30.500   48.417 2301.340  174.541    0.432
   30.750   40.544 2186.450  151.195    0.443
   31.000   37.240 2224.500  292.844    0.428
   31.250   32.622 2112.160  313.915    0.426
   31.500   37.791 2086.510  416.412    0.430
   31.750   46.841 2109.270  415.821    0.442
   32.000   53.312 2183.000  281.042    0.424
   32.250   54.564 2208.310  178.986    0.412
   32.500   42.786 2208.140  297.302    0.409
   32.750   33.624 2174.840  389.603    0.404
   33.000   27.066 2161.930  144.074    0.450
   33.250   57.606 2256.040   57.853    0.464
   33.500   77.746 2199.810  109.435    0.462
   33.750   69.235 2204.730  135.182    0.452
   34.000   70.474 2321.740  143.207    0.435
   34.250   59.360 2171.220  189.966    0.416
   34.500   72.978 2242.440   31.418    0.409
   34.750   74.230 2344.200   29.226    0.397
   35.000   84.594 2372.060   30.961    0.417
   35.250   89.087 2351.500   29.490    0.437
   35.500   92.304 2389.510   27.110    0.436
   35.750   81.841 2323.130   32.706    0.413
   36.000   42.727 2231.180   54.306    0.385
   36.250   30.949 2223.360   74.638    0.383
   36.500   23.089 2256.310  119.615    0.387
   36.750   21.086 2230.660   92.035    0.385
   37.000   21.687 2261.070  184.757    0.377
   37.250   18.358 2245.560  130.916    0.362
   37.500   18.959 2224.960  340.719    0.359
   37.750   18.910 2232.440  209.509    0.366
   38.000   14.316 2219.570  291.369    0.367
   38.250   24.029 2206.650  301.455    0.373
   38.500   25.281 2206.390  359.410    0.381
   38.750   26.533 2259.820  394.205    0.340
   39.000   25.181 2264.750  389.297    0.357
   39.250   19.261 2208.470  388.744    0.361
   39.500   19.211 2221.040  397.335    0.346
   39.750   16.558 2203.030  401.487    0.386
   40.000   15.182 2200.310  400.917    0.384
   40.250   13.855 2296.970  405.107    0.375
   40.500   13.805 2243.290  399.921    0.357
   40.750   15.683 2230.370  399.354    0.354
   41.000   13.681 2263.290  394.102    0.359
   41.250   10.364 2258.060  388.781    0.365
   41.500    8.374 2293.570  383.668    0.366
   41.750   11.591 2313.780  378.487    0.361
   42.000   15.446 2262.560  378.084    0.372
   42.250   18.651 2293.010  382.036    0.370
   42.500   15.347 2290.290  390.478    0.363
   42.750   17.900 2307.950  376.342    0.362
   43.000   13.920 2297.590  362.846    0.381
   43.250   11.930 2259.190  379.870    0.378
