~Version : LASO    vs 4.00
VERS.                2.00:   CWLS Log ASCII Standard -VERSION 2.0
WRAP.                  NO:
~Well Information Block
#MNEM.UNIT       Data                        Description of Mnemonic
#----.----      -------------------------- : -----------------------------
STRT.M            30.0000:
STOP.M           204.0000:
STEP.M             0.2000:
NULL.           -999.2500:
COMP.  MOBIL OIL OF CANADA                    :COMPANY
WELL.  MOBIL CLARKE OV PROGRAM 2-81 4-3       :WELL
FLD.                                          :FIELD
LOC.   04-03-090-07W4                         :LOCATION
CTRY.  CANADA                                 :COUNTRY
PROV.  ALBERTA                                :PROVINCE
SRVC.  SCHLUMBERGER                           :SERVICE COMPANY
DATE.  26-JAN-81                              :LOG DATE
UWI.   AA/04-03-090-07W400                    :UNIQUE WELL ID
~Parameter Information Block
#MNEM.UNIT       Data                        Description of Mnemonic
#----.----      -------------------------- : -----------------------------
RUN .                   1                 : Run Number
GL  .M           466.8000                 : Ground Level Elevation
DREF.                  GD                 : Depth Reference
EREF.M           466.8000                 : Elevation of Depth Reference
TDL .M           205.0000                 : Total Depth Logger
TDD .M           205.0000                 : Total Depth Driller
BHT .DEGC         19.0000                 : Bottom Hole Temperature
BS  .MM          159.0000                 : Bit Size
DFD .            980.0000                 : Mud Weight (Density)
DFV .             38.0000                 : Mud Viscosity
DFPH.             10.0000                 : Mud pH
~Curve Information Block
#MNEM.UNIT        API CODE    Curve Description
#---------    ------------    -------------------------------------------
DEPT.M                    :   DEPTH
CALI.MM       42 280  1  1:   3 DENSITY CALIPER
DPHI.V/V                  :   DPHI
DT  .US/M     60 520  0  1:   2 SONIC INTERVAL TRANSIT TIME (COMPENSATED)
GR  .GAPI     42 310  1  1:   4 GAMMA RAY
ILD .OHMM      5 120 46  1:   7 DEEP INDUCTION
ILM .OHMM      5 120 44  1:   8 MEDIUM INDUCTION
NPHI.V/V      42 890  3  1:   5 NEUTRON POROSITY (SANDSTONE)
RHOB.K/M3     42 350  1  1:   6 BULK DENSITY
SFLU.OHMM      5 220  1  1:   9 FOCUSSED RESISTIVITY
SP  .MV        5  10  1  1:   10 SPONTANEOUS POTENTIAL
~A  Depth           CALI        DPHI          DT          GR         ILD         ILM        NPHI        RHOB        SFLU          SP
# ...
152.0000        159.5500      0.3329    500.0000     72.0750     14.1850     13.4224      0.3944   2086.0000     15.9893    -61.8900
152.2000        159.5500      0.3358    500.9600     66.2700     18.6995     16.7429      0.4034   2107.0000     18.1899    -63.6750
152.4000        160.8250      0.3414    496.9200     64.7700     21.2731     19.7620      0.4096   2084.0000     20.5036    -64.6950
152.6000        160.8250      0.3529    513.3600     62.9700     23.5413     22.8997      0.3824   2088.0000     28.3028    -66.9900
152.8000        159.5500      0.3602    510.6800     60.8700     24.4247     24.6507      0.3630   2106.0000     55.4409    -70.8150
153.0000        158.2750      0.3482    521.5600     58.8750     24.6507     21.8691      0.3444   2036.9000     94.5867    -74.3700
153.2000        157.0000      0.3326    524.6400     59.3700     24.4247     20.3156      0.3590   2057.8999     45.2720    -73.1100
153.4000        157.0000      0.3219    542.1200     61.3800     23.3254     19.2234      0.3164   2095.0000     24.6507    -72.0900
153.6000        157.0000      0.3129    576.6400     65.2800     19.4013     17.3712      0.3008   2122.0000     22.8997    -71.8350
153.8000        158.2750      0.3144    593.8800     63.8700     18.0231     16.1373      0.3076   2126.0000     26.5357    -69.7950
154.0000        158.2750      0.3145    571.0800     63.6750     17.6942     15.1297      0.3492   2147.0000     25.5758    -66.9900
154.2000        160.8250      0.3240    540.2800     67.3800     19.7620     16.5894      0.3654   2120.0000     14.4487    -60.8700
154.4000        162.0750      0.3343    530.6000     68.8800     21.4699     19.0471      0.3666   2115.0000     13.7984    -60.8700
154.6000        168.4250      0.3511    583.2000     67.2750     22.6898     22.0714      0.3560   2116.0000     20.6933    -62.9100
154.8000        163.3500      0.3514    581.3600     59.2800     25.1090     24.2008      0.3654   2067.8999     83.1438    -65.9700
155.0000        160.8250      0.3470    564.5200     57.5700     26.7812     24.4247      0.3790   2047.9000     75.1329    -65.2050
155.2000        162.0750      0.3386    514.1600     57.1800     28.5647     23.7591      0.3876   2060.8999     61.3522    -63.9300
155.4000        163.3500      0.3276    537.2000     56.9700     29.6367     22.2756      0.3690   2100.0000     49.1847    -61.8900
155.6000        164.6250      0.3316    547.6800     58.2750     28.8290     23.3254      0.3524   2099.0000     25.8125    -62.1450
155.8000        167.1750      0.3317    533.8800     59.7750     26.7812     24.2008      0.3844   2098.0000     28.5647    -63.6750
156.0000        165.9000      0.3336    496.9200     58.8750     24.8788     23.3254      0.3830   2096.0000     50.0991    -65.2050
156.2000        159.5500      0.3370    490.3200     56.7750     27.0290     21.0780      0.3778   2085.0000     45.6909    -64.6950
156.4000        159.5500      0.3419    480.2400     59.0700     30.4670     23.5413      0.3860   2090.0000     27.0290    -65.2050
156.6000        163.3500      0.3502    507.6000     59.1750     33.1001     28.0434      0.3600   2102.0000     24.4247    -68.2650
156.8000        160.8250      0.3581    523.4000     54.0750     32.1981     30.7489      0.3392   2064.8999     35.6312    -71.5800
157.0000        158.2750      0.3553    519.5200     51.3750     29.6367     31.0334      0.3388   2040.9000     83.1438    -73.3650
157.2000        158.2750      0.3457    497.7200     51.0750     27.0290     28.0434      0.3486   2039.9000    260.5133    -73.3650
157.4000        160.8250      0.3277    503.0400     59.9700     25.3414     19.7620      0.3328   2094.0000     50.0991    -66.9900
157.6000        162.0750      0.3149    528.9600     64.8750     24.4247     18.5281      0.3204   2126.0000     20.1294    -64.6950
157.8000        164.6250      0.3269    542.9200     66.4800     23.3254     18.3582      0.3300   2133.0000     16.1373    -64.9500
158.0000        159.5500      0.3337    517.4400     61.3800     22.4817     19.0471      0.3468   2082.0000     23.1116    -67.5000
158.2000        159.5500      0.3341    479.2400     57.2700     25.1090     20.8848      0.3724   2084.0000     25.3414    -66.9900
158.4000        159.5500      0.3310    469.5600     53.3700     29.9109     24.6507      0.3896   2112.0000     28.3028    -66.9900
158.6000        157.0000      0.3348    475.5200     49.6800     46.5404     37.6556      0.3830   2049.8999     67.2713    -68.5200
158.8000        157.0000      0.3444    483.3600     47.5800     55.9538     45.6909      0.3828   2029.9000    148.5354    -68.7750
159.0000        158.2750      0.3559    511.2800     46.8750     59.6802     50.5627      0.3712   2029.9000    366.2941    -68.2650
159.2000        158.2750      0.3527    520.3200     47.9700     55.4409     47.8443      0.3668   2037.9000    839.1313    -67.7550
159.4000        164.6250      0.3470    523.2000     52.5750     38.0041     30.1877      0.3596   2047.9000    149.9098    -65.4600
159.6000        165.9000      0.3437    512.5200     58.0800     33.1001     24.4247      0.3532   2069.8999     47.8443    -63.6750
159.8000        168.4250      0.3371    479.6400     63.9750     29.9109     21.6686      0.3446   2116.0000     26.0513    -62.4000
160.0000        165.9000      0.3229    474.2800     63.7800     25.3414     21.2731      0.3472   2137.0000     19.0471    -64.1850
160.2000        169.7000      0.3251    468.5600     60.1800     23.9789     21.4699      0.3580   2137.0000     25.5758    -65.9700
160.4000        162.0750      0.3244    494.0400     55.8750     24.2008     21.2731      0.3794   2092.0000     41.6706    -66.7350
160.6000        160.8250      0.3276    505.1200     55.6800     31.3206     24.2008      0.3828   2098.0000     36.2936    -68.7750
160.8000        159.5500      0.3325    512.9200     51.6750     37.6556     27.7863      0.3528   2079.8999     33.4064    -72.3450
161.0000        160.8250      0.3486    510.0400     47.2800     44.8570     31.9029      0.3410   2053.8999     37.6556    -75.6450
161.2000        158.2750      0.3594    511.4800     43.3800     63.0710     44.4457      0.3398   2015.9000     69.1560    -78.1950
161.4000        159.5500      0.3720    500.9600     40.4700     75.8281     51.5027      0.3292   2011.9000    131.7741    -78.1950
161.6000        162.0750      0.3754    515.0000     38.8800     92.0089     57.5215      0.3228   2032.9000    420.5619    -77.1750
161.8000        163.3500      0.3727    548.2800     38.8800    139.2611     64.2436      0.3416   2051.8999    554.4086    -72.6000
162.0000        163.3500      0.3648    550.1200     40.3800    156.9748     66.6546      0.3566   2041.9000    366.2941    -70.0500
162.2000        163.3500      0.3649    497.7200     42.6750    161.3727     69.1560      0.3672   2037.9000    214.6990    -67.2450
162.4000        163.3500      0.3626    462.1600     44.4750    147.1736     70.4417      0.3736   2049.8999    181.8988    -64.6950
162.6000        163.3500      0.3578    449.8400     43.7700     94.5867     64.2436      0.3808   2041.9000    353.0449    -62.1450
162.8000        163.3500      0.3624    460.7200     44.8800     71.7513     54.4289      0.3854   2044.9000    710.9350    -62.4000
163.0000        163.3500      0.3577    470.6000     47.1750     58.5909     43.6345      0.3830   2061.8999    346.6011    -63.1650
163.2000        164.6250      0.3547    471.4400     56.0700     44.0382     31.9029      0.3718   2138.0000     51.5027    -61.8900
163.4000        163.3500      0.3414    469.7600     57.9750     38.0041     29.6367      0.3584   2124.0000     35.6312    -63.1650
163.6000        157.0000      0.3221    467.7200     57.6750     33.7155     27.0290      0.3430   2077.8999     36.2936    -65.4600
163.8000        155.7500      0.3269    465.2400     58.7700     28.0434     23.7591      0.3472   2086.0000     36.9683    -67.5000
164.0000        158.2750      0.3374    454.5600     60.4800     27.5315     22.8997      0.3464   2098.0000     38.7106    -67.7550
