~VERSION INFORMATION
 VERS.                 2.0:   CWLS LOG ASCII STANDARD -VERSION 2.0
 WRAP.                  NO:   ONE LINE PER DEPTH STEP
~WELL INFORMATION BLOCK
#MNEM.UNIT           DATA                    DESCRIPTION OF MNEMONIC
#---------    -------------------            -------------------------------
# Generated from Intellog Unique Number	CN_94_101/WELL/2832
WELL.         06-08-096-14W4                 : Well_name    - WELL
LOC .         AA/06-08-096-14W4/0            : Location     - LOCATION
UWI .         AA/06-08-096-14W400            : Uwi          - UNIQUE WELL ID
ENTR.         JOETTE                         : Entered      - ENTERED BY
SRVC.         SCHLUMBERGER                   : Scn          - SERVICE COMPANY
DATE.         07/07/92                       : Date         - LOG DATE
STRT.M        40                             : top_depth    - START DEPTH
STOP.M        310                            : bot_depth    - STOP DEPTH
STEP.M        0.25                           : increment    - STEP LENGTH
 NULL. -999.2500:NULL Value
~CURVE INFORMATION BLOCK
#MNEM UNIT       ERCB CURVE CODE    CURVE DESCRIPTION
#-----------   ------------------   ----------------------------------
DEPT.M        00 001 00 00         : DEPTH        - DEPTH
CALI.MM       00 280 01 00         : CAL          - CALIPER
GR  .API      00 310 00 00         : GR           - GAMMA RAY
NPHI.V/V      00 330 00 00         : PHIN         - NEUTRON POROSITY (SANDSTONE)
DPHI.V/V      00 890 00 00         : PHID         - DENSITY POROSITY (SANDSTONE)
ILD .OHMM     00 120 00 00         : RESD         - DEEP RESISTIVITY (DIL)
~PARAMETER INFORMATION
#MNEM.UNIT           DATA             DESCRIPTION OF MNEMONIC
#---------         -----------     ------------------------------
GL  .M        559.67               : gl           - GROUND LEVEL ELEVATION
EREF.M        562.67               : kb           - ELEVATION OF DEPTH REFERENCE
DATM.M        562.67               : datum        - DATUM ELEVATION
TDD .M        320                  : tdd          - TOTAL DEPTH DRILLER
RUN .         ONE                  : Run          - RUN NUMBER
ENG .         JO                   : Engineer     - RECORDING ENGINEER
WIT .         TIM                  : Witness      - WITNESSED BY
MUD .         GEL                  : Mud_type     - MUD TYPE
MATR.         SANDSTONE            : Logunit      - NEUTRON MATRIX
TMAX.C        17                   : BHT          - MAXIMUM RECORDED TEMPERATURE
BHTD.M        320                  : BHTDEP       - MAXIMUM RECORDED TEMPERATURE
RMT .C        15                   : MDTP         - TEMPERATURE OF MUD
MUDD.KG/M     1120                 : MWT          - MUD DENSITY
NEUT.         1                    : NEUTRON      - NEUTRON TYPE
RESI.         0                    : RESIST       - RESISTIVITY TYPE
RM  .OHMM     0.709                : RM           - RESISTIVITY OF MUD
RMC .OHMM     0.709                : RMC          - RESISTIVITY OF MUD CAKE
RMF .OHMM     0.709                : RMF          - RESISTIVITY OF MUD FILTRATE
SUFT.C        4                    : SUFT         - SURFACE TEMPERATURE
~A  DEPTH      CAL       GR     PHIN     PHID     RESD
   40.000  181.583   21.062    0.498    0.320   17.227
   40.250  179.749   19.399    0.489    0.324   30.710
   40.500  175.070   18.366    0.423    0.340   39.945
   40.750  173.199   18.433    0.362    0.350   52.894
   41.000  171.401   19.668    0.335    0.356   81.348
   41.250  170.652   21.508    0.305    0.343   92.807
   41.500  170.726   24.539    0.279    0.349   84.816
   41.750  170.950   26.941    0.261    0.348   54.534
   42.000  171.997   31.723    0.210    0.348   48.890
   42.250  174.092   34.732    0.175    0.355   42.235
   42.500  178.170   40.075    0.147    0.365   30.351
   42.750  181.275   44.857    0.170    0.344   28.220
   43.000  185.353   48.450    0.197    0.331   25.299
   43.250  187.374   48.539    0.228    0.336   21.482
   43.500  192.425   46.877    0.279    0.332   16.604
   43.750  196.429   52.804    0.324    0.328   15.175
   44.000  201.480   54.084    0.350    0.335   13.859
   44.250  206.494   54.734    0.379    0.332   12.433
   44.500  202.788   61.852    0.390    0.339    9.096
   44.750  201.964   66.050    0.412    0.347    8.632
   45.000  203.123   66.723    0.423    0.358    8.182
   45.250  204.208   63.871    0.453    0.360    7.754
   45.500  204.319   60.502    0.466    0.336    7.087
   45.750  206.452   59.986    0.474    0.317    6.721
   46.000  206.601   58.324    0.466    0.312    6.615
   46.250  203.830   55.449    0.438    0.307    6.629
   46.500  200.050   50.307    0.436    0.324    6.771
   46.750  192.378   53.293    0.463    0.339    6.916
   47.000  187.662   57.469    0.456    0.351    7.064
   47.250  184.966   57.558    0.432    0.342    7.088
   47.500  183.132   52.393    0.426    0.280    7.375
   47.750  181.297   42.558    0.434    0.268    8.113
   48.000  175.645   29.197    0.444    0.291   12.703
   48.250  172.838   21.697    0.450    0.286   18.812
   48.500  168.085   19.474    0.419    0.298   35.431
   48.750  164.342   18.957    0.390    0.313   45.299
   49.000  163.517   19.024    0.353    0.335   44.526
   49.250  165.650   19.158    0.278    0.360   43.825
   49.500  165.761   19.203    0.215    0.366   42.371
   49.750  163.964   20.482    0.210    0.369   40.937
   50.000  161.194   21.739    0.210    0.396   40.239
   50.250  160.444   23.579    0.202    0.400   38.877
   50.500  162.465   26.004    0.211    0.403   37.562
   50.750  164.560   26.093    0.230    0.401   36.316
   51.000  165.719   24.993    0.233    0.368   35.768
   51.250  165.831   25.666    0.231    0.347   35.816
   51.500  165.980   29.303    0.240    0.327   35.252
   51.750  164.220   30.538    0.244    0.347   34.696
   52.000  163.433   28.875    0.237    0.363   32.929
   52.250  163.545   26.068    0.236    0.361   30.113
   52.500  163.656   24.968    0.247    0.362   29.056
   52.750  164.853   23.305    0.255    0.369   26.554
   53.000  164.927   23.417    0.249    0.368   25.639
   53.250  166.049   24.674    0.226    0.354   24.333
   53.500  166.235   27.099    0.224    0.359   23.981
   53.750  165.374   27.749    0.220    0.383   24.937
   54.000  165.560   30.174    0.215    0.389   25.438
   54.250  164.699   30.263    0.213    0.391   28.002
   54.500  164.885   26.872    0.217    0.381   30.279
   54.750  165.071   26.355    0.220    0.363   30.319
   55.000  165.183   25.861    0.245    0.365   31.549
   55.250  166.379   28.308    0.258    0.374   31.633
   55.500  166.453   30.149    0.254    0.377   31.738
   55.750  165.629   31.405    0.241    0.377   31.197
   56.000  164.842   29.721    0.273    0.369   30.726
   56.250  162.971   28.081    0.282    0.364   29.707
   56.500  162.147   29.338    0.273    0.356   29.200
   56.750  165.252   31.763    0.260    0.343   28.212
   57.000  166.374   30.123    0.249    0.329   27.786
   57.250  166.560   29.000    0.256    0.297   26.846
   57.500  164.763   27.338    0.267    0.314   26.423
   57.750  163.902   25.698    0.249    0.326   26.007
   58.000  162.104   25.788    0.251    0.332   26.059
   58.250  161.280   27.629    0.256    0.350   28.141
   58.500  161.466   29.469    0.245    0.359   31.557
   58.750  162.514   29.536    0.235    0.367   35.364
   59.000  164.646   26.145    0.230    0.373   38.904
   59.250  164.869   23.877    0.265    0.385   42.010
   59.500  165.954   22.799    0.281    0.388   44.532
   59.750  166.066   24.100    0.285    0.374   46.369
   60.000  166.252   26.480    0.245    0.366   46.493
   60.250  165.391   29.489    0.240    0.372   44.860
   60.500  166.513   34.855    0.235    0.375   39.505
   60.750  168.607   47.204    0.249    0.373   33.523
   61.000  171.713   49.628    0.290    0.370   25.434
   61.250  171.824   56.162    0.334    0.361   20.797
   61.500  172.010   61.505    0.393    0.334   14.382
   61.750  171.149   62.762    0.442    0.295   11.760
   62.000  170.325   61.123    0.473    0.267   10.356
   62.250  169.538   57.125    0.478    0.296    9.464
   62.500  167.704   53.690    0.474    0.311    8.491
   62.750  164.934   56.136    0.451    0.329    7.760
   63.000  167.029   51.511    0.443    0.360    8.696
   63.250  170.134   42.843    0.438    0.366   12.861
   63.500  170.245   34.737    0.466    0.383   20.897
   63.750  165.567   20.815    0.472    0.406   32.719
   64.000  161.786   17.379    0.479    0.405   52.186
   64.250  157.070   16.907    0.398    0.418  244.301
   64.500  155.236   16.974    0.317    0.383  295.052
   64.750  152.540   17.063    0.181    0.378  312.553
   65.000  152.615   17.153    0.189    0.385  182.926
   65.250  152.875   17.287    0.193    0.394  119.737
   65.500  152.950   17.331    0.190    0.398   79.789
   65.750  154.072   18.004    0.171    0.395  164.982
   66.000  154.183   17.555    0.174    0.395  283.591
   66.250  154.407   17.599    0.178    0.397  284.159
   66.500  154.481   17.127    0.205    0.400  179.111
   66.750  154.667   17.216    0.222    0.402  119.434
   67.000  154.779   17.284    0.226    0.398   85.715
   67.250  153.992   19.169    0.250    0.372   81.348
   67.500  153.205   21.010    0.273    0.361   78.596
   67.750  152.307   21.660    0.296    0.330   75.937
   68.000  154.476   23.524    0.306    0.325   74.691
   68.250  155.523   24.758    0.325    0.318   74.691
   68.500  158.703   25.431    0.336    0.319   63.550
   68.750  158.778   24.959    0.338    0.324   68.579
   69.000  158.926   24.442    0.340    0.346   67.544
   69.250  161.021   22.780    0.339    0.353   67.770
   69.500  161.170   21.118    0.334    0.366   67.906
   69.750  160.383   17.727    0.324    0.377   66.881
   70.000  158.586   16.649    0.318    0.379   67.015
   70.250  157.725   17.300    0.309    0.383   67.149
   70.500  156.901   20.331    0.304    0.336   66.136
   70.750  157.050   20.981    0.307    0.337   65.094
   71.000  156.226   21.654    0.315    0.340   61.737
   71.250  156.412   21.182    0.359    0.356   58.514
   71.500  156.598   20.666    0.371    0.369   56.534
   71.750  156.710   20.171    0.383    0.368   55.644
   72.000  156.859   19.699    0.395    0.371   53.797
   72.250  156.970   19.182    0.408    0.373   53.905
   72.500  157.119   19.271    0.408    0.368   53.092
   72.750  157.268   19.405    0.407    0.369   53.162
   73.000  156.518   19.473    0.408    0.364   53.304
   73.250  156.518   19.584    0.412    0.358   53.482
   73.500  161.719   19.045    0.415    0.348   53.661
   73.750  157.938   19.157    0.419    0.346   53.769
   74.000  158.013   19.246    0.409    0.351   53.948
   74.250  158.162   18.729    0.399    0.352   54.020
   74.500  158.310   18.235    0.402    0.342   54.201
   74.750  158.459   18.324    0.408    0.338   54.345
   75.000  158.645   18.413    0.417    0.344   54.527
   75.250  158.794   19.131    0.413    0.354   54.600
   75.500  158.943   19.221    0.402    0.352   54.782
   75.750  159.129   19.265    0.393    0.353   54.965
   76.000  159.241   19.377    0.393    0.353   55.038
   76.250  158.380   19.466    0.396    0.353   55.222
