~VERSION INFORMATION
 VERS.                 2.0:   CWLS LOG ASCII STANDARD -VERSION 2.0
 WRAP.                  NO:   ONE LINE PER DEPTH STEP
~WELL INFORMATION BLOCK
#MNEM.UNIT           DATA                    DESCRIPTION OF MNEMONIC
#---------    -------------------            -------------------------------
# Generated from Intellog Unique Number	CC_84_87/WELL/1062
NULL.         -999.2500                      : null value
LOC .         05-25-085-09W4                 : Location     - LOCATION          
UWI .         AA/05-25-085-09W400            : Uwi          - UNIQUE WELL ID    
ENTR.         DW                             : Entered      - ENTERED BY        
SRVC.         SCHLUMBERGER                   : Scn          - SERVICE COMPANY   
STRT.M        200.000                        : top_depth    - START DEPTH       
STOP.M        449.893                        : bot_depth    - STOP DEPTH        
STEP.M        0.3                            : increment    - STEP LENGTH       
~CURVE INFORMATION BLOCK
#MNEM UNIT       ERCB CURVE CODE    CURVE DESCRIPTION
#-----------   ------------------   ----------------------------------
DEPT.M        00 001 00 00         : DEPTH        - DEPTH                       
DPHI.V/V      00 890 00 00         : PHID         - DENSITY POROSITY (LIMESTONE)
NPHI.V/V      00 330 00 00         : PHIN         - NEUTRON POROSITY (LIMESTONE)
GR  .API      00 310 00 00         : GR           - GAMMA RAY                   
ILD .OHMM     00 120 00 00         : RESD         - DEEP RESISTIVITY (DIL)      
~PARAMETER INFORMATION       
#MNEM.UNIT           DATA             DESCRIPTION OF MNEMONIC
#---------         -----------     ------------------------------
GL  .M        705                  : gl           - GROUND LEVEL ELEVATION      
EREF.M        708.5                : kb           - ELEVATION OF DEPTH REFERENCE
DATM.M        708.5                : datum        - DATUM ELEVATION             
TDD .M        449                  : tdd          - TOTAL DEPTH DRILLER         
RUN .         ONE                  : Run          - RUN NUMBER                  
ENG .         BILL                 : Engineer     - RECORDING ENGINEER          
WIT .         JIM                  : Witness      - WITNESSED BY                
MUD .         GEL                  : Mud_type     - MUD TYPE                    
MATR.         LIMESTONE            : Logunit      - NEUTRON MATRIX              
TMAX.C        17                   : BHT          - MAXIMUM RECORDED TEMPERATURE
BHTD.M        449                  : BHTDEP       - MAXIMUM RECORDED TEMPERATURE
MATR.         1                    : LOGUNIT      - NEUTRON MATRIX              
RMT .C        25                   : MDTP         - TEMPERATURE OF MUD          
NEUT.         1                    : NEUTRON      - NEUTRON TYPE                
RESI.         0                    : RESIST       - RESISTIVITY TYPE            
RMC .OHMM     0.25                 : RMC          - RESISTIVITY OF MUD CAKE     
RMF .OHMM     0.25                 : RMF          - RESISTIVITY OF MUD FILTRATE 
SUFT.C        15                   : SUFT         - SURFACE TEMPERATURE         
~A  DEPTH     PHID     PHIN       GR     RESD
# ...
  252.201    0.325    0.479   38.348   30.411
  252.501    0.328    0.459   37.731   29.833
  252.801    0.328    0.464   38.363   28.712
  253.101    0.329    0.476   42.729   26.599
  253.401    0.332    0.494   50.832   24.642
  253.701    0.332    0.495   60.802   21.974
  254.001    0.319    0.491   65.791   18.505
  254.301    0.303    0.503   63.312   16.189
  254.601    0.288    0.479   61.454   14.714
  254.901    0.275    0.466   64.575   14.162
  255.201    0.204    0.455   65.828   13.893
  255.501    0.122    0.443   64.594   13.370
  255.801    0.202    0.435   62.736   13.368
  256.101    0.248    0.465   62.745   13.368
  256.401    0.254    0.476   63.999   12.866
  256.701    0.248    0.491   61.519   12.382
  257.001    0.250    0.492   60.283   11.471
  257.301    0.247    0.492   60.290   10.627
  257.600    0.243    0.496   62.790    9.845
  257.900    0.240    0.514   62.802    9.296
  258.200    0.242    0.515   63.431    8.947
  258.500    0.242    0.505   65.930    8.777
  258.800    0.242    0.518   68.429    8.776
  259.100    0.240    0.516   64.705    8.609
  259.400    0.238    0.505   69.073    8.608
  259.700    0.235    0.491   73.439    8.607
  260.000    0.233    0.503   72.202    8.284
  260.300    0.230    0.491   69.099    8.126
  260.600    0.229    0.507   70.977    7.972
  260.900    0.230    0.477   74.099    7.820
  261.200    0.235    0.460   74.733    7.820
  261.500    0.238    0.496   75.986    7.818
  261.800    0.240    0.457   76.617    7.968
  262.100    0.243    0.497   74.135    8.121
  262.400    0.244    0.470   69.787    8.764
  262.700    0.244    0.458   68.552    8.932
  263.000    0.243    0.471   63.580    9.457
  263.300    0.241    0.493   59.852    9.638
  263.600    0.241    0.470   56.751    9.637
  263.900    0.241    0.470   61.117    9.454
  264.200    0.239    0.481   63.616    9.099
  264.500    0.236    0.495   64.250    8.926
  264.800    0.239    0.526   65.504    8.924
  265.100    0.241    0.504   67.380    8.755
  265.400    0.237    0.497   66.145    8.754
  265.700    0.232    0.483   64.286    8.921
  266.000    0.230    0.471   64.294    9.093
  266.300    0.229    0.497   65.549    9.091
  266.600    0.229    0.501   62.446    9.090
  266.900    0.225    0.499   65.568    9.090
  267.200    0.222    0.511   60.597    8.916
  267.500    0.201    0.513   58.118    8.915
  267.800    0.200    0.496   58.749    8.915
  268.100    0.231    0.507   60.625    8.913
  268.400    0.244    0.493   64.370    8.912
  268.700    0.242    0.488   67.493    9.083
  269.000    0.241    0.478   69.990    9.082
  269.300    0.240    0.473   72.491    9.081
  269.600    0.236    0.474   71.876    9.255
  269.900    0.236    0.478   68.772    9.254
  270.200    0.240    0.490   76.255    9.431
  270.500    0.246    0.490   76.885    9.986
  270.800    0.250    0.474   73.160   10.373
  271.100    0.252    0.479   71.922   10.572
  271.400    0.260    0.493   65.084   10.774
  271.700    0.276    0.493   60.736   10.773
  272.000    0.262    0.475   59.499   10.568
  272.300    0.236    0.479   67.602   10.367
  272.600    0.236    0.482   75.704    9.978
  272.900    0.237    0.470   75.091    9.788
  273.200    0.245    0.478   70.744   10.167
  273.500    0.261    0.477   67.639   10.363
  273.800    0.267    0.472   61.423   10.764
  274.100    0.269    0.483   60.811   10.763
  274.400    0.263    0.506   60.820   10.558
  274.700    0.263    0.492   59.583   10.556
  275.000    0.278    0.490   56.481   10.356
  275.300    0.272    0.494   55.866   10.355
  275.600    0.264    0.496   58.369   10.354
  275.900    0.268    0.467   60.243   10.353
  276.200    0.271    0.443   61.497   10.352
  276.500    0.271    0.474   60.262   10.753
  276.800    0.256    0.501   59.649   10.959
  277.100    0.244    0.488   61.527   11.384
  277.400    0.243    0.478   62.158   12.054
  277.700    0.172    0.468   60.920   14.867
  278.000    0.201    0.460   54.704   17.650
  278.300    0.314    0.455   44.754   19.047
  278.600    0.329    0.449   40.404   18.686
  278.900    0.313    0.434   33.567   17.984
  279.200    0.287    0.423   38.557   16.981
  279.500    0.274    0.435   46.036   16.659
  279.800    0.244    0.418   54.761   16.033
  280.100    0.257    0.406   64.731   15.728
  280.400    0.269    0.425   72.210   15.727
  280.700    0.274    0.460   73.467   15.725
  281.000    0.252    0.472   67.871   15.134
  281.300    0.244    0.448   68.504   14.020
  281.600    0.267    0.440   71.624   12.743
  281.900    0.275    0.465   68.521   11.806
  282.199    0.244    0.469   62.306   11.362
  282.499    0.193    0.499   67.917   11.361
  282.799    0.268    0.492   76.641   12.029
  283.099    0.318    0.472   76.653   15.414
  283.399    0.328    0.467   78.528   17.954
  283.699    0.328    0.479   64.843   20.129
  283.999    0.320    0.480   61.738   21.312
  284.299    0.311    0.479   67.350   21.311
  284.599    0.305    0.475   72.339   20.510
  284.899    0.313    0.474   72.972   18.999
  285.199    0.319    0.470   66.755   18.286
  285.499    0.324    0.460   56.181   17.267
  285.799    0.323    0.464   41.872   16.619
  286.099    0.298    0.495   51.844   15.692
  286.399    0.280    0.465   54.964   15.395
  286.699    0.278    0.442   48.748   14.536
  286.999    0.286    0.457   53.115   14.260
  287.299    0.280    0.480   54.992   13.724
  287.599    0.274    0.497   58.737   13.463
  287.899    0.271    0.493   62.481   13.721
  288.199    0.269    0.467   66.849   13.720
  288.499    0.256    0.483   65.612   14.526
  288.799    0.241    0.510   51.925   15.089
  289.099    0.256    0.497   39.484   15.088
  289.399    0.251    0.476   37.006   14.521
  289.699    0.251    0.461   37.637   11.116
  289.999    0.265    0.480   40.135   10.698
  290.299    0.282    0.445   52.594   11.327
  290.599    0.299    0.467   57.584   13.707
  290.899    0.307    0.457   47.633   15.368
  291.199    0.297    0.420   40.171   15.366
  291.499    0.305    0.437   38.937   15.075
  291.799    0.274    0.454   40.190   13.188
  292.099    0.254    0.422   47.049   11.319
  292.399    0.244    0.403   51.414   10.094
  292.699    0.245    0.432   53.291    9.531
  292.999    0.246    0.448   58.282    9.350
  293.299    0.252    0.431   62.028    9.172
  293.599    0.254    0.462   62.658    8.828
  293.899    0.255    0.469   60.799    8.659
  294.199    0.258    0.441   65.166    8.495
  294.499    0.262    0.428   77.626    8.495
  294.799    0.260    0.417   83.861    8.175
  295.099    0.230    0.417   88.851    7.719
  295.399    0.211    0.489   86.994    7.289
  295.699    0.212    0.493   93.227    6.883
  295.999    0.206    0.466   91.991    6.882
  296.299    0.202    0.485   87.643    7.014
  296.599    0.206    0.493   94.502    7.569
  296.899    0.230    0.493   97.622    8.169
  297.199    0.238    0.483   95.143    8.985
  297.499    0.250    0.462   91.415    9.884
  297.799    0.241    0.468   87.691   10.465
  298.099    0.235    0.455   82.719   10.464
  298.399    0.236    0.473   78.993   10.265
  298.699    0.241    0.459   82.115    9.509
  298.999    0.255    0.452   87.103    9.329
  299.299    0.259    0.447   88.980    8.809
  299.599    0.257    0.440   81.518    8.641
  299.899    0.264    0.450   77.794    8.477
  300.199    0.289    0.453   74.689    8.476
  300.499    0.296    0.463   67.228    8.315
  300.799    0.296    0.472   64.124    8.157
  301.099    0.294    0.476   71.604    8.001
  301.399    0.292    0.464   77.220    8.001
  301.699    0.291    0.453   71.001    8.311
  301.999    0.291    0.490   64.784    8.470
  302.299    0.283    0.488   67.907    8.469
  302.599    0.267    0.468   71.029    8.468
  302.899    0.241    0.484   72.283    8.467
  303.199    0.227    0.493   74.782    8.466
  303.499    0.219    0.481   75.414    8.628
  303.799    0.233    0.468   78.535    8.628
  304.099    0.253    0.456   74.813    8.962
