~VERSION INFORMATION
 VERS.                 2.0:   CWLS LOG ASCII STANDARD -VERSION 2.0
 WRAP.                  NO:   ONE LINE PER DEPTH STEP
~WELL INFORMATION BLOCK
#MNEM.UNIT           DATA                    DESCRIPTION OF MNEMONIC
#---------    -------------------            -------------------------------
# Generated from Intellog Unique Number	CX_WELLS/WELL/3736
WELL.         AMOCO GREGOIRE                 : Well_name    - WELL
LOC .         AA/08-08-086-08W4/0            : Location     - LOCATION
UWI .         AA/08-08-086-08W400            : Uwi          - UNIQUE WELL ID
ENTR.         T                              : Entered      - ENTERED BY
SRVC.         SCHLUMBERGER                   : Scn          - SERVICE COMPANY
STRT.F        150                            : top_depth    - START DEPTH
STOP.F        860.302                        : bot_depth    - STOP DEPTH
STEP.F        0.82                           : increment    - STEP LENGTH
 NULL. -999.2500:NULL Value
~CURVE INFORMATION BLOCK
#MNEM UNIT       ERCB CURVE CODE    CURVE DESCRIPTION
#-----------   ------------------   ----------------------------------
DEPT.F        00 001 00 00         : DEPTH        - DEPTH
GR  .API      00 310 00 00         : GR           - GAMMA RAY
DPHI.V/V      00 890 00 00         : PHID         - DENSITY POROSITY (SANDSTONE)
ILD .OHMM     00 120 00 00         : RESD         - DEEP RESISTIVITY (DIL)
~PARAMETER INFORMATION
#MNEM.UNIT           DATA             DESCRIPTION OF MNEMONIC
#---------         -----------     ------------------------------
GL  .F        1621                 : gl           - GROUND LEVEL ELEVATION
EREF.F        1625                 : kb           - ELEVATION OF DEPTH REFERENCE
DATM.F        1625                 : datum        - DATUM ELEVATION
TDD .F        884                  : tdd          - TOTAL DEPTH DRILLER
RUN .         ONE                  : Run          - RUN NUMBER
ENG .         BILL                 : Engineer     - RECORDING ENGINEER
WIT .         JIM                  : Witness      - WITNESSED BY
MUD .         GEL                  : Mud_type     - MUD TYPE
MATR.         SANDSTONE            : Logunit      - NEUTRON MATRIX
TMAX.F        64.4                 : BHT          - MAXIMUM RECORDED TEMPERATURE
BHTD.F        882                  : BHTDEP       - MAXIMUM RECORDED TEMPERATURE
MATR.         1                    : LOGUNIT      - NEUTRON MATRIX
RMT .F        54.5                 : MDTP         - TEMPERATURE OF MUD
NEUT.         1                    : NEUTRON      - NEUTRON TYPE
RESI.         4.2                  : RESIST       - RESISTIVITY TYPE
RMC .OHMM     2                    : RMC          - RESISTIVITY OF MUD CAKE
RMF .OHMM     3.9                  : RMF          - RESISTIVITY OF MUD FILTRATE
SUFT.F        39.2                 : SUFT         - SURFACE TEMPERATURE
~A  DEPTH       GR     PHID     RESD
  150.000  122.612    0.268   12.905
  150.820  126.548    0.268   12.909
  151.640  127.214    0.268   12.915
  152.461  122.015    0.268   12.921
  153.281  114.860    0.268   12.722
  154.101  114.230    0.268   12.527
  154.921  115.548    0.268   12.131
  155.741  118.180    0.268   12.133
  156.562  122.116    0.266   11.937
  157.382  123.438    0.265   11.744
  158.202  123.452    0.265   11.746
  159.022  122.818    0.264   11.548
  159.843  121.532    0.264   11.553
  160.663  120.898    0.263   11.561
  161.483  119.617    0.259   11.566
  162.303  118.983    0.255   11.571
  163.123  117.697    0.252   11.576
  163.944  115.107    0.249   11.579
  164.764  110.565    0.245   12.192
  165.584  107.318    0.241   12.396
  166.404  101.467    0.242   13.614
  167.224   89.746    0.248   14.020
  168.045   78.026    0.263   14.831
  168.865   69.567    0.272   15.844
  169.685   61.759    0.280   17.866
  170.505   55.908    0.292   18.879
  171.325   50.066    0.302   20.294
  172.146   49.423    0.312   23.325
  172.966   49.446    0.318   27.362
  173.786   50.769    0.325   37.850
  174.606   51.435    0.331   40.477
  175.427   53.414    0.333   38.264
  176.247   55.398    0.333   36.656
  177.067   57.373    0.333   35.452
  177.887   59.343    0.332   34.247
  178.707   59.357    0.333   32.639
  179.528   60.032    0.336   30.832
  180.348   60.055    0.340   30.431
  181.168   61.373    0.341   29.631
  181.988   63.347    0.339   28.830
  182.808   65.322    0.335   28.028
  183.629   69.905    0.336   27.227
  184.449   77.097    0.339   26.425
  185.269   79.729    0.338   25.826
  186.089   80.395    0.335   25.427
  186.909   82.379    0.328   25.231
  187.730   84.353    0.319   24.834
  188.550   86.328    0.311   24.636
  189.370   88.307    0.307   24.238
  190.190   88.973    0.316   24.044
  191.010   90.291    0.323   23.645
  191.831   92.270    0.317   23.447
  192.651   94.245    0.308   22.850
  193.471   95.563    0.293   22.854
  194.291  100.160    0.281   22.657
  195.112  101.474    0.275   22.459
  195.932  104.105    0.272   21.659
  196.752  104.128    0.272   20.860
  197.572  103.485    0.272   20.258
  198.392  102.199    0.272   19.054
  199.213  101.565    0.273   18.253
  200.033  100.284    0.273   17.453
  200.853   95.742    0.276   17.052
  201.673   91.195    0.289   19.073
  202.493   87.948    0.304   27.546
  203.314   85.358    0.318   30.575
  204.134   82.120    0.323   35.822
  204.954   81.491    0.324   44.296
  205.774   80.196    0.319   42.688
  206.594   78.914    0.318   39.870
  207.415   77.624    0.317   39.069
  208.235   78.299    0.315   38.269
  209.055   79.617    0.306   37.467
  209.875   79.644    0.295   36.666
  210.696   78.363    0.283   35.663
  211.516   77.068    0.279   34.256
  212.336   73.830    0.280   33.252
  213.156   69.935    0.298   32.047
  213.976   66.688    0.314   32.457
  214.797   62.794    0.326   34.681
  215.617   60.213    0.331   36.902
  216.437   58.918    0.334   43.157
  217.257   58.284    0.335   46.993
  218.077   60.258    0.335   50.627
  218.898   62.895    0.335   54.664
  219.718   64.869    0.335   58.903
  220.538   64.883    0.333   61.933
  221.358   64.901    0.330   63.149
  222.178   66.876    0.328   63.959
  222.999   71.469    0.321   64.770
  223.819   72.787    0.318   65.785
  224.639   73.462    0.315   66.192
  225.459   73.475    0.314   66.198
  226.280   76.107    0.309   65.799
  227.100   78.077    0.306   55.723
  227.920   78.752    0.305   47.865
  228.740   80.075    0.304   44.443
  229.560   82.049    0.303   45.054
  230.381   83.367    0.300   46.470
  231.201   87.308    0.301   46.879
  232.021   87.326    0.305   46.077
  232.841   86.697    0.310   44.268
  233.661   86.058    0.309   42.055
  234.482   83.473    0.301   40.447
  235.302   82.177    0.295   39.444
  236.122   81.544    0.288   39.852
  236.942   82.219    0.287   39.857
  237.762   82.885    0.287   39.865
  238.583   84.868    0.287   39.063
  239.403   86.191    0.285   37.857
  240.223   88.166    0.285   36.048
  241.043   90.797    0.283   34.038
  241.864   91.463    0.278   33.437
  242.684   92.129    0.274   33.039
  243.504   92.152    0.276   33.851
  244.324   92.818    0.277   36.275
  245.144   93.493    0.280   37.894
  245.965   94.815    0.281   37.698
  246.785   95.490    0.281   36.896
  247.605   94.200    0.284   36.497
  248.425   88.349    0.291   35.695
  249.245   82.498    0.298   34.894
  250.066   85.777    0.303   34.899
  250.886   87.752    0.304   34.703
  251.706   87.118    0.302   33.298
  252.526   85.184    0.299   32.697
  253.346   83.251    0.298   32.905
  254.167   82.617    0.295   33.112
  254.987   81.983    0.296   32.714
  255.807   82.654    0.299   32.114
  256.627   82.677    0.300   31.714
  257.448   81.386    0.300   31.517
  258.268   80.100    0.300   33.943
  259.088   79.466    0.301   41.004
  259.908   79.484    0.301   44.638
  260.728   82.111    0.301   46.459
  261.549   86.695    0.301   48.480
  262.369   90.630    0.299   50.097
  263.189   90.649    0.297   49.498
  264.009   90.667    0.295   48.091
  264.829   91.990    0.293   45.274
  265.650   92.656    0.289   39.231
  266.470   93.331    0.283   35.607
  267.290   95.305    0.272   32.387
  268.110   97.932    0.262   31.183
  268.930  102.515    0.251   30.180
  269.751  109.707    0.243   28.974
  270.571  116.899    0.236   26.962
  271.391  131.269    0.236   24.145
  272.211  141.070    0.235   21.126
  273.031  150.218    0.230   16.898
  273.852  153.506    0.224   13.879
  274.672  154.167    0.217   13.079
  275.492  154.195    0.212   12.479
  276.312  154.209    0.211   11.880
  277.133  154.227    0.225   11.682
  277.953  154.250    0.233   11.083
  278.773  154.273    0.227   10.885
  279.593  154.287    0.221   10.488
  280.413  153.648    0.215   10.290
  281.234  153.028    0.209    9.894
  282.054  152.385    0.203    9.697
  282.874  151.747    0.202    9.502
  283.694  150.465    0.205    9.305
  284.514  149.836    0.209    9.107
  285.335  149.198    0.210    8.911
  286.155  149.216    0.214    8.715
  286.975  149.239    0.216    8.720
  287.795  148.605    0.224    8.926
  288.615  147.967    0.238    9.336
  289.436  146.028    0.253    9.541
  290.256  144.095    0.267    9.548
  291.076  139.544    0.280    9.551
  291.896  133.040    0.282    9.556
  292.717  133.063    0.279    9.561
  293.537  135.690    0.275    9.567
  294.357  138.969    0.271    9.371
  295.177  141.601    0.265    9.176
  295.997  140.310    0.265    9.180
  296.818  137.072    0.268    8.982
  297.638  135.782    0.268    8.988
  298.458  135.148    0.265    8.992
  299.278  135.171    0.264    8.998
  300.098  135.189    0.263    9.003
  300.919  135.212    0.261    9.008
  301.739  135.882    0.260    8.813
  302.559  135.896    0.259    8.818
  303.379  136.571    0.257    8.620
  304.199  134.633    0.256    8.626
  305.020  131.386    0.258    8.428
  305.840  125.535    0.258    8.434
  306.660  119.032    0.255    8.439
  307.480  110.573    0.244    8.242
  308.301  106.683    0.246    8.247
  309.121  104.088    0.243    8.252
  309.941   99.546    0.236    8.459
  310.761   93.699    0.222    9.070
  311.581   90.452    0.217    9.275
  312.402   86.558    0.235    9.686
  313.222   83.315    0.257    9.692
  314.042   80.725    0.281    9.493
  314.862   78.135    0.289    9.095
  315.682   76.206    0.294    8.898
  316.503   75.563    0.299    8.904
  317.323   72.972    0.303    8.911
  318.143   70.382    0.301    8.914
  318.963   64.540    0.296    8.718
  319.783   63.245    0.294    8.723
  320.604   60.012    0.294    8.526
  321.424   59.374    0.294    8.531
  322.244   56.792    0.294    8.537
  323.064   54.854    0.295    8.541
  323.885   53.559    0.296    8.546
  324.705   50.969    0.297    8.552
  325.525   49.031    0.297    8.559
  326.345   47.093    0.297    8.562
  327.165   47.111    0.297    8.568
