~VERSION INFORMATION
 VERS.                 2.0:   CWLS LOG ASCII STANDARD -VERSION 2.0
 WRAP.                  NO:   ONE LINE PER DEPTH STEP
~WELL INFORMATION BLOCK
#MNEM.UNIT           DATA                    DESCRIPTION OF MNEMONIC
#---------    -------------------            -------------------------------
# Generated from Intellog Unique Number	CN_94_101/WELL/4981
WELL.         06-16-100-14W4                 : Well_name    - WELL
LOC .         AA/06-16-100-14W4/0            : Location     - LOCATION
UWI .         AA/06-16-100-14W400            : Uwi          - UNIQUE WELL ID
ENTR.         TIM                            : Entered      - ENTERED BY
SRVC.         SCHLUMBERGER                   : Scn          - SERVICE COMPANY
DATE.         08/11/92                       : Date         - LOG DATE
STRT.M        274.32                         : top_depth    - START DEPTH
STOP.M        481.57                         : bot_depth    - STOP DEPTH
STEP.M        0.25                           : increment    - STEP LENGTH
 NULL. -999.2500:NULL Value
~CURVE INFORMATION BLOCK
#MNEM UNIT       ERCB CURVE CODE    CURVE DESCRIPTION
#-----------   ------------------   ----------------------------------
DEPT.M        00 001 00 00         : DEPTH        - DEPTH
GR  .API      00 310 00 00         : GR           - GAMMA RAY
ILD .OHMM     00 120 00 00         : RESD         - DEEP RESISTIVITY (DIL)
NPHI.V/V      00 330 00 00         : PHIN         - NEUTRON POROSITY (SANDSTONE)
~PARAMETER INFORMATION
#MNEM.UNIT           DATA             DESCRIPTION OF MNEMONIC
#---------         -----------     ------------------------------
GL  .M        716.28               : gl           - GROUND LEVEL ELEVATION
EREF.M        719.633              : kb           - ELEVATION OF DEPTH REFERENCE
DATM.M        719.633              : datum        - DATUM ELEVATION
TDD .M        484.937              : tdd          - TOTAL DEPTH DRILLER
RUN .         ONE                  : Run          - RUN NUMBER
ENG .         JO                   : Engineer     - RECORDING ENGINEER
WIT .         TIM                  : Witness      - WITNESSED BY
MUD .         GEL                  : Mud_type     - MUD TYPE
MATR.         SANDSTONE            : Logunit      - NEUTRON MATRIX
TMAX.C        20                   : BHT          - MAXIMUM RECORDED TEMPERATURE
BHTD.M        484.937              : BHTDEP       - MAXIMUM RECORDED TEMPERATURE
RMT .C        10                   : MDTP         - TEMPERATURE OF MUD
MUDD.KG/M     9300                 : MWT          - MUD DENSITY
NEUT.         1                    : NEUTRON      - NEUTRON TYPE
RESI.         0                    : RESIST       - RESISTIVITY TYPE
RM  .OHMM     13.8                 : RM           - RESISTIVITY OF MUD
RMC .OHMM     13.8                 : RMC          - RESISTIVITY OF MUD CAKE
RMF .OHMM     13.8                 : RMF          - RESISTIVITY OF MUD FILTRATE
SUFT.C        4                    : SUFT         - SURFACE TEMPERATURE
~A  DEPTH       GR     RESD     PHIN
# ...
  382.820   81.235    4.323    0.530
  383.070   81.266    4.329    0.530
  383.320   82.505    4.251    0.532
  383.570   84.544    4.172    0.529
  383.820   85.767    4.097    0.522
  384.070   86.998    3.946    0.512
  384.320   86.637    3.726    0.488
  384.570   85.469    3.519    0.473
  384.820   83.100    3.455    0.458
  385.070   81.124    3.528    0.456
  385.320   79.555    3.604    0.470
  385.570   78.387    3.678    0.498
  385.820   79.618    3.684    0.535
  386.070   84.056    3.762    0.541
  386.320   88.494    3.843    0.479
  386.570   88.917    3.924    0.420
  386.820   89.356    4.005    0.393
  387.070   88.596    4.091    0.371
  387.320   87.419    4.095    0.381
  387.570   85.458    4.100    0.410
  387.820   83.882    4.029    0.433
  388.070   81.921    3.953    0.461
  388.320   80.353    3.662    0.504
  388.570   80.376    3.391    0.518
  388.820   81.215    3.202    0.542
  389.070   82.038    3.144    0.569
  389.320   82.877    3.211    0.567
  389.570   83.316    3.279    0.557
  389.820   82.955    3.415    0.547
  390.070   82.579    3.487    0.536
  390.320   82.602    3.560    0.533
  390.570   82.641    3.565    0.541
  390.820   82.672    3.640    0.555
  391.070   82.703    3.575    0.569
  391.320   81.943    3.248    0.560
  391.570   79.966    3.066    0.534
  391.820   80.413    2.895    0.505
  392.070   81.628    2.956    0.478
  392.320   83.659    3.017    0.462
  392.570   84.506    3.205    0.468
  392.820   84.537    3.337    0.478
  393.070   84.168    3.407    0.489
  393.320   84.207    3.347    0.506
  393.570   84.631    3.223    0.534
  393.820   85.454    3.042    0.543
  394.070   86.693    2.658    0.558
  394.320   87.124    2.412    0.580
  394.570   87.563    2.066    0.590
  394.820   86.794    1.770    0.593
  395.070   85.625    1.608    0.588
  395.320   84.457    1.578    0.581
  395.570   84.488    1.520    0.573
  395.820   86.919    1.522    0.568
  396.070   88.557    1.524    0.568
  396.320   88.981    1.526    0.574
  396.570   88.220    1.498    0.579
  396.820   87.459    1.471    0.579
  397.070   87.075    1.417    0.572
  397.320   86.706    1.419    0.559
  397.570   87.553    1.507    0.544
  397.820   89.183    1.631    0.523
  398.070   91.214    1.766    0.510
  398.320   93.245    2.028    0.505
  398.570   94.068    2.284    0.507
  398.820   95.307    2.571    0.509
  399.070   95.738    2.895    0.495
  399.320   96.169    3.324    0.467
  399.570   96.208    3.529    0.449
  399.820   95.832    3.676    0.448
  400.070   95.471    3.753    0.448
  400.320   95.110    3.834    0.448
  400.570   94.741    3.913    0.447
  400.820   94.772    3.996    0.441
  401.070   94.396    4.328    0.436
  401.320   94.835    4.335    0.430
  401.570   94.874    4.257    0.425
  401.820   94.889    4.262    0.419
  402.070   95.336    4.185    0.417
  402.320   95.359    4.110    0.412
  402.570   95.391    4.034    0.412
  402.820   94.622    4.039    0.416
  403.070   93.853    4.046    0.424
  403.320   93.085    4.133    0.447
  403.570   91.139    4.218    0.470
  403.820   90.355    4.225    0.479
  404.070   89.979    4.231    0.495
  404.320   89.210    4.236    0.507
  404.570   88.849    4.241    0.508
  404.820   88.496    4.085    0.508
  405.070   88.512    4.091    0.506
  405.320   87.751    4.095    0.486
  405.570   85.782    4.101    0.456
  405.820   83.422    4.106    0.448
  406.070   81.845    4.196    0.435
  406.320   81.877    4.198    0.398
  406.570   81.900    4.205    0.386
  406.820   82.355    4.211    0.385
  407.070   81.570    4.216    0.383
  407.320   79.202    4.305    0.375
  407.570   75.634    4.484    0.355
  407.820   68.866    4.669    0.290
  408.070   70.497    5.154    0.253
  408.320   80.126    5.474    0.223
  408.570   81.765    5.481    0.195
  408.820   82.204    5.488    0.189
  409.070   83.043    5.285    0.279
  409.320   84.266    4.895    0.357
  409.570   89.088    4.358    0.369
  409.820   95.526    3.881    0.379
  410.070   95.158    3.524    0.489
  410.320   94.404    3.200    0.490
  410.570   94.420    2.741    0.488
  410.820   94.459    2.589    0.487
  411.070   95.706    2.591    0.488
  411.320   96.529    2.648    0.491
  411.570   97.760    2.650    0.493
  411.820   97.399    2.655    0.497
  412.070   96.615    2.555    0.501
  412.320   95.446    2.368    0.505
  412.570   93.878    2.279    0.510
  412.820   91.525    2.151    0.517
  413.070   90.756    1.954    0.522
  413.320   90.380    1.845    0.527
  413.570   89.611    1.776    0.530
  413.820   89.242    1.712    0.536
  414.070   89.273    1.680    0.541
  414.320   88.912    1.683    0.543
  414.570   88.936    1.859    0.543
  414.820   89.775    1.973    0.544
  415.070   90.621    2.054    0.543
  415.320   91.445    2.313    0.538
  415.570   92.268    2.554    0.532
  415.820   93.107    2.765    0.525
  416.070   93.138    2.937    0.505
  416.320   91.969    2.999    0.457
  416.570   90.409    3.124    0.452
  416.820   89.240    3.188    0.454
  417.070   88.463    3.321    0.447
  417.320   87.311    3.391    0.438
  417.570   86.526    3.532    0.423
  417.820   88.972    3.535    0.402
  418.070   90.188    3.610    0.481
  418.320   92.634    3.615    0.525
  418.570   94.665    3.621    0.518
  418.820   95.896    3.554    0.509
  419.070   97.119    3.358    0.500
  419.320   98.350    3.233    0.474
  419.570   98.389    3.173    0.461
  419.820   98.420    2.998    0.468
  420.070   98.459    2.885    0.471
  420.320   98.083    2.833    0.482
  420.570   96.530    2.730    0.491
  420.820   95.353    2.681    0.515
  421.070   93.785    2.632    0.519
  421.320   92.616    2.635    0.523
  421.570   93.455    2.587    0.531
  421.820   94.286    2.445    0.535
  422.070   93.910    2.353    0.543
  422.320   92.741    2.221    0.548
  422.570   91.980    2.058    0.549
  422.820   90.812    1.905    0.549
  423.070   88.843    1.835    0.550
  423.320   87.275    1.767    0.553
  423.570   86.898    1.735    0.556
  423.820   87.753    1.704    0.558
  424.070   88.568    1.674    0.559
  424.320   89.799    1.675    0.559
  424.570   91.830    1.677    0.557
  424.820   93.061    1.680    0.557
  425.070   94.307    1.682    0.558
  425.320   95.538    1.719    0.563
  425.570   97.169    1.721    0.567
  425.820   99.592    1.722    0.570
  426.070  105.630    1.724    0.573
  426.320  108.061    1.727    0.580
  426.570   98.894    1.696    0.588
  426.820   94.926    1.665    0.592
  427.070   86.151    1.636    0.585
  427.320   83.382    1.575    0.575
  427.570   77.415    1.517    0.574
  427.820   71.047    1.489    0.577
  428.070   63.480    1.492    0.579
  428.320   54.305    1.493    0.583
  428.570   46.337    1.524    0.513
  428.820   42.377    2.007    0.367
  429.070   41.608    3.030    0.358
  429.320   40.840    7.459    0.358
  429.570   40.079   14.522    0.360
  429.820   40.102   21.081    0.364
  430.070   41.749   22.834    0.373
  430.320   42.972   22.421    0.376
  430.570   44.211   22.016    0.380
  430.820   44.626   19.992    0.382
  431.070   45.873   18.878    0.385
  431.320   46.696   16.811    0.387
  431.570   48.335   16.188    0.387
  431.820   49.566   15.895    0.387
  432.070   52.004   15.916    0.387
  432.320   52.827   15.634    0.386
  432.570   54.474   15.346    0.384
  432.820   55.297   14.505    0.382
  433.070   56.120   14.234    0.379
  433.320   57.367   13.445    0.373
  433.570   58.190   12.947    0.372
  433.820   59.829   12.467    0.376
  434.070   60.652   12.005    0.379
  434.320   62.683   11.559    0.384
  434.570   66.321   10.497    0.387
  434.820   71.951    9.717    0.396
  435.070   86.388    7.400    0.410
  435.320   90.826    5.012    0.527
  435.570   92.049    3.462    0.532
  435.820   92.888    2.742    0.526
  436.070   93.319    2.441    0.516
  436.320   93.350    2.091    0.512
  436.570   91.782    1.862    0.518
  436.820   90.221    1.691    0.524
