~VERSION INFORMATION
 VERS.                 2.0:   CWLS LOG ASCII STANDARD -VERSION 2.0
 WRAP.                  NO:   ONE LINE PER DEPTH STEP
~WELL INFORMATION BLOCK
#MNEM.UNIT           DATA                    DESCRIPTION OF MNEMONIC
#---------    -------------------            -------------------------------
# Generated from Intellog Unique Number	CN_94_101/WELL/4988
WELL.         TEXACO                         : Well_name    - WELL
LOC .         AA/07-08-101-12W4/0            : Location     - LOCATION
UWI .         AA/07-08-101-12W400            : Uwi          - UNIQUE WELL ID
ENTR.         TIM                            : Entered      - ENTERED BY
SRVC.         SCHLUMBERGER                   : Scn          - SERVICE COMPANY
DATE.         08/11/92                       : Date         - LOG DATE
STRT.M        380                            : top_depth    - START DEPTH
STOP.M        665                            : bot_depth    - STOP DEPTH
STEP.M        0.25                           : increment    - STEP LENGTH
NULL. -999.2500:NULL Value
~CURVE INFORMATION BLOCK
#MNEM UNIT       ERCB CURVE CODE    CURVE DESCRIPTION
#-----------   ------------------   ----------------------------------
DEPT.M        00 001 00 00         : DEPTH        - DEPTH
GR  .API      00 310 00 00         : GR           - GAMMA RAY
ILD .OHMM     00 120 00 00         : RESD         - DEEP RESISTIVITY (DIL)
NPHI.V/V      00 330 00 00         : PHIN         - NEUTRON POROSITY (SANDSTONE)
DPHI.V/V      00 890 00 00         : PHID         - DENSITY POROSITY (SANDSTONE)
~PARAMETER INFORMATION
#MNEM.UNIT           DATA             DESCRIPTION OF MNEMONIC
#---------         -----------     ------------------------------
GL  .M        814.2                : gl           - GROUND LEVEL ELEVATION
EREF.M        817.6                : kb           - ELEVATION OF DEPTH REFERENCE
DATM.M        817.6                : datum        - DATUM ELEVATION
TDD .M        667                  : tdd          - TOTAL DEPTH DRILLER
RUN .         ONE                  : Run          - RUN NUMBER
ENG .         JO                   : Engineer     - RECORDING ENGINEER
WIT .         TIM                  : Witness      - WITNESSED BY
MUD .         GEL                  : Mud_type     - MUD TYPE
MATR.         SANDSTONE            : Logunit      - NEUTRON MATRIX
TMAX.C        25                   : BHT          - MAXIMUM RECORDED TEMPERATURE
BHTD.M        667                  : BHTDEP       - MAXIMUM RECORDED TEMPERATURE
RMT .C        10                   : MDTP         - TEMPERATURE OF MUD
MUDD.KG/M     1050                 : MWT          - MUD DENSITY
NEUT.         1                    : NEUTRON      - NEUTRON TYPE
RESI.         0                    : RESIST       - RESISTIVITY TYPE
RM  .OHMM     0.84                 : RM           - RESISTIVITY OF MUD
RMC .OHMM     0.84                 : RMC          - RESISTIVITY OF MUD CAKE
RMF .OHMM     0.84                 : RMF          - RESISTIVITY OF MUD FILTRATE
SUFT.C        4                    : SUFT         - SURFACE TEMPERATURE
~A  DEPTH       GR     RESD     PHIN     PHID
# ...
  554.000   34.450   57.104    0.394    0.275
  554.250   28.935   83.534    0.378    0.282
  554.500   23.420   99.191    0.369    0.282
  554.750   20.997  111.281    0.353    0.276
  555.000   20.430  124.845    0.351    0.276
  555.250   20.480  137.485    0.347    0.277
  555.500   21.780  151.351    0.344    0.280
  555.750   22.436  160.425    0.341    0.281
  556.000   23.724  166.854    0.337    0.282
  556.250   25.642  167.094    0.332    0.280
  556.500   28.179  161.118    0.324    0.280
  556.750   30.072  144.079    0.319    0.281
  557.000   31.978   63.888    0.325    0.281
  557.250   36.370   19.044    0.339    0.281
  557.500   37.644   16.084    0.362    0.282
  557.750   42.642   13.334    0.367    0.284
  558.000   46.402   12.380    0.369    0.286
  558.250   49.545   11.713    0.370    0.287
  558.500   54.555   10.878    0.380    0.289
  558.750   58.328   10.682    0.392    0.292
  559.000   59.616   10.697    0.397    0.293
  559.250   58.430   10.724    0.404    0.295
  559.500   56.638   10.732    0.415    0.295
  559.750   56.057   10.744    0.428    0.297
  560.000   54.859   10.165    0.436    0.300
  560.250   51.817    9.625    0.446    0.306
  560.500   46.921    9.277    0.454    0.315
  560.750   35.841    9.116    0.456    0.379
  561.000   30.314    8.955    0.461    0.440
  561.250   25.418    8.800    0.479    0.489
  561.500   21.152    8.812    0.501    0.567
  561.750   22.427    8.997    0.533    0.591
  562.000   24.964    9.722    0.578    0.613
  562.250   28.737    9.919    0.605    0.627
  562.500   31.867   10.316    0.629    0.623
  562.750   38.732   10.327    0.647    0.602
  563.000   42.480   10.152    0.658    0.504
  563.250   49.951   10.166    0.637    0.475
  563.500   53.132   10.578    0.563    0.421
  563.750   52.538   11.871    0.526    0.410
  564.000   50.734   12.814    0.542    0.457
  564.250   47.074   14.656    0.552    0.499
  564.500   48.980   15.535    0.517    0.501
  564.750   52.741   15.854    0.495    0.429
  565.000   57.120   14.444    0.474    0.374
  565.250   63.985   12.427    0.465    0.354
  565.500   68.983   10.696    0.460    0.334
  565.750   72.744    9.382    0.456    0.323
  566.000   77.148    8.711    0.454    0.313
  566.250   78.410    8.890    0.448    0.305
  566.500   76.000    9.786    0.439    0.309
  566.750   72.328   12.309    0.425    0.317
  567.000   68.668   14.068    0.412    0.325
  567.250   64.403   15.487    0.398    0.334
  567.500   62.598   16.113    0.404    0.335
  567.750   60.794   15.531    0.408    0.326
  568.000   59.608   14.425    0.416    0.305
  568.250   60.895   13.648    0.421    0.303
  568.500   62.788   13.160    0.424    0.298
  568.750   64.694   13.426    0.426    0.296
  569.000   65.388   14.508    0.428    0.307
  569.250   65.413   15.677    0.429    0.325
  569.500   63.609   15.988    0.427    0.327
  569.750   60.580   16.317    0.424    0.320
  570.000   60.618   16.671    0.414    0.310
  570.250   61.287   16.683    0.403    0.285
  570.500   60.719   17.683    0.402    0.286
  570.750   58.309   18.743    0.406    0.292
  571.000   57.110   20.641    0.402    0.298
  571.250   55.924   21.878    0.396    0.303
  571.500   57.224   19.931    0.388    0.304
  571.750   60.379   18.498    0.384    0.295
  572.000   61.048   16.226    0.384    0.285
  572.250   62.323   14.238    0.384    0.274
  572.500   64.229   13.466    0.384    0.264
  572.750   70.463   12.268    0.384    0.260
  573.000   76.697   10.970    0.389    0.260
  573.250   82.326    9.990    0.394    0.264
  573.500   84.850   10.005    0.402    0.271
  573.750   86.137   11.880    0.407    0.278
  574.000   86.188    8.303    0.414    0.276
  574.250   85.620    7.714    0.420    0.265
  574.500   86.302    7.723    0.426    0.255
  574.750   86.958    8.038    0.428    0.256
  575.000   87.639    8.038    0.431    0.261
  575.250   87.690    7.904    0.434    0.263
  575.500   88.359    9.207    0.434    0.272
  575.750   88.410    9.399    0.434    0.279
  576.000   87.829    9.413    0.433    0.281
  576.250   83.564    9.076    0.424    0.272
  576.500   81.759    8.752    0.418    0.268
  576.750   80.573    8.283    0.420    0.263
  577.000   80.611    7.981    0.423    0.261
  577.250   80.043    7.552    0.421    0.264
  577.500   80.132    7.423    0.414    0.261
  577.750   80.157    7.297    0.402    0.256
  578.000   80.221    7.166    0.393    0.253
  578.250   80.271    6.655    0.384    0.250
  578.500   80.309    6.294    0.379    0.248
  578.750   80.385    5.846    0.377    0.252
  579.000   81.029    5.429    0.378    0.254
  579.250   81.092    5.333    0.384    0.264
  579.500   80.511    5.243    0.391    0.275
  579.750   78.707    5.154    0.398    0.283
  580.000   76.284    5.159    0.404    0.297
  580.250   72.637    5.168    0.432    0.319
  580.500   71.439    5.273    0.440    0.344
  580.750   70.871    5.380    0.466    0.355
  581.000   71.565    5.706    0.494    0.361
  581.250   72.209    5.933    0.525    0.367
  581.500   72.890    6.170    0.559    0.358
  581.750   74.178    6.295    0.563    0.339
  582.000   74.859    6.072    0.481    0.322
  582.250   76.134    5.855    0.429    0.296
  582.500   78.658    5.861    0.403    0.283
  582.750   84.287    6.336    0.404    0.276
  583.000   86.798    6.842    0.423    0.289
  583.250   84.993    7.822    0.435    0.303
  583.500   78.242    9.292    0.425    0.278
  583.750   77.056   10.037    0.393    0.265
  584.000   77.725    9.500    0.380    0.249
  584.250   78.406    8.817    0.357    0.229
  584.500   79.063    6.772    0.362    0.228
  584.750   82.218    5.942    0.373    0.234
  585.000   84.111    5.727    0.390    0.201
  585.250   87.897    5.321    0.381    0.193
  585.500   89.790    5.127    0.408    0.214
  585.750   91.065    4.944    0.414    0.234
  586.000   92.983    4.767    0.418    0.253
  586.250   93.652    4.600    0.412    0.260
  586.500   93.728    4.603    0.409    0.262
  586.750   93.135    4.358    0.403    0.255
  587.000   93.198    4.281    0.397    0.257
  587.250   95.735    4.130    0.394    0.260
  587.500   96.391    4.055    0.396    0.263
  587.750   96.442    3.840    0.424    0.265
  588.000   95.243    3.844    0.453    0.265
  588.250   94.069    3.708    0.466    0.265
  588.500   94.107    3.642    0.477    0.268
  588.750   96.026    3.578    0.475    0.274
  589.000   97.931    3.583    0.472    0.281
  589.250   99.219    3.521    0.467    0.286
  589.500   96.796    3.460    0.459    0.294
  589.750   93.755    3.400    0.459    0.300
  590.000   92.569    3.341    0.458    0.310
  590.250   92.619    3.347    0.454    0.300
  590.500   93.275    3.287    0.453    0.284
  590.750   94.588    3.230    0.453    0.295
  591.000   94.639    3.174    0.453    0.306
  591.250   94.058    3.123    0.452    0.318
  591.500   94.121    3.126    0.452    0.324
  591.750   94.803    3.131    0.451    0.330
  592.000   95.472    3.136    0.451    0.321
  592.250   95.510    3.138    0.453    0.298
  592.500   96.166    3.144    0.454    0.294
  592.750   96.848    3.149    0.456    0.283
  593.000   96.899    3.093    0.457    0.270
  593.250   96.936    3.097    0.457    0.263
  593.500   95.145    3.045    0.458    0.260
  593.750   93.959    3.048    0.456    0.256
  594.000   94.009    3.054    0.450    0.251
  594.250   94.060    3.057    0.441    0.245
  594.500   92.255    3.062    0.430    0.240
  594.750   89.820    3.067    0.407    0.233
  595.000   88.634    3.071    0.400    0.233
  595.250   91.158    3.074    0.426    0.256
  595.500   94.313    3.081    0.432    0.265
  595.750   94.376    3.083    0.436    0.261
  596.000   94.414    3.089    0.437    0.257
  596.250   95.714    3.093    0.442    0.251
  596.500   97.001    3.098    0.443    0.249
  596.750   97.683    3.162    0.436    0.242
  597.000   98.958    3.167    0.426    0.235
  597.250  100.232    3.232    0.428    0.230
