~VERSION INFORMATION
 VERS.                 2.0:   CWLS LOG ASCII STANDARD -VERSION 2.0
 WRAP.                  NO:   ONE LINE PER DEPTH STEP
~WELL INFORMATION BLOCK
#MNEM.UNIT           DATA                    DESCRIPTION OF MNEMONIC
#---------    -------------------            -------------------------------
# Generated from Intellog Unique Number	CN_91_93/WELL/1071
WELL.         MILL CITY                      : Well_name    - WELL
LOC .         AA/04-20-091-07W4/0            : Location     - LOCATION
UWI .         AA/04-20-091-07W400            : Uwi          - UNIQUE WELL ID
ENTR.         JOETTE                         : Entered      - ENTERED BY
SRVC.         SCHLUMBERGER                   : Scn          - SERVICE COMPANY
DATE.         01/14/92                       : Date         - LOG DATE
STRT.F        200                            : top_depth    - START DEPTH
STOP.F        750.361                        : bot_depth    - STOP DEPTH
STEP.F        0.82                           : increment    - STEP LENGTH
 NULL. -999.2500:NULL Value
~CURVE INFORMATION BLOCK
#MNEM UNIT       ERCB CURVE CODE    CURVE DESCRIPTION
#-----------   ------------------   ----------------------------------
DEPT.F        00 001 00 00         : DEPTH        - DEPTH
GR  .API      00 310 00 00         : GR           - GAMMA RAY
NPHI.V/V      00 330 00 00         : PHIN         - NEUTRON POROSITY (SANDSTONE)
ILD .OHMM     00 120 00 00         : RESD         - DEEP RESISTIVITY (DIL)
~PARAMETER INFORMATION
#MNEM.UNIT           DATA             DESCRIPTION OF MNEMONIC
#---------         -----------     ------------------------------
GL  .F        1570.5               : gl           - GROUND LEVEL ELEVATION
EREF.F        1570.5               : kb           - ELEVATION OF DEPTH REFERENCE
DATM.F        1570.5               : datum        - DATUM ELEVATION
TDD .F        757                  : tdd          - TOTAL DEPTH DRILLER
RUN .         ONE                  : Run          - RUN NUMBER
ENG .         JO                   : Engineer     - RECORDING ENGINEER
WIT .         TIM                  : Witness      - WITNESSED BY
MUD .         GEL                  : Mud_type     - MUD TYPE
MATR.         SANDSTONE            : Logunit      - NEUTRON MATRIX
TMAX.F        49                   : BHT          - MAXIMUM RECORDED TEMPERATURE
BHTD.F        757                  : BHTDEP       - MAXIMUM RECORDED TEMPERATURE
RMT .F        58                   : MDTP         - TEMPERATURE OF MUD
MUDD.LB/G     9                    : MWT          - MUD DENSITY
NEUT.         1                    : NEUTRON      - NEUTRON TYPE
RESI.         0                    : RESIST       - RESISTIVITY TYPE
RM  .OHMM     1.5                  : RM           - RESISTIVITY OF MUD
RMC .OHMM     1.8                  : RMC          - RESISTIVITY OF MUD CAKE
RMF .OHMM     1.1                  : RMF          - RESISTIVITY OF MUD FILTRATE
SUFT.F        39.2                 : SUFT         - SURFACE TEMPERATURE
~A  DEPTH       GR     PHIN     RESD
  200.000   55.156    0.092  195.762
  200.820   54.252    0.131  198.982
  201.640   51.939    0.150  198.307
  202.461   50.804    0.135  196.155
  203.281   54.817    0.160  197.678
  204.101   60.469    0.180  183.308
  204.921   67.295    0.232  151.104
  205.741   87.939    0.410   61.716
  206.562   91.952    0.431   49.794
  207.382   90.111    0.418   51.800
  208.202   90.620    0.427   50.392
  209.022   90.418    0.427   48.490
  209.843   91.383    0.433   50.997
  210.663   93.292    0.424   52.256
  211.483   92.626    0.426   54.756
  212.303   91.718    0.428   50.663
  213.123   90.349    0.432   50.219
  213.944   91.548    0.424   51.010
  214.764   92.291    0.432   49.834
  215.584   90.915    0.437   50.380
  216.404   90.014    0.434   53.124
  217.224   90.285    0.423   54.397
  218.045   89.611    0.411   51.023
  218.865   89.409    0.414   50.348
  219.685   90.850    0.399   52.842
  220.505   91.585    0.408   50.940
  221.325   90.915    0.417   48.305
  222.146   89.781    0.424   50.799
  222.966   87.238    0.421   53.787
  223.786   85.627    0.420   54.327
  224.606   83.790    0.400   56.352
  225.427   82.652    0.411   58.839
  226.247   82.684    0.424   63.530
  227.067   84.590    0.411   60.902
  227.887   83.690    0.390   59.726
  228.707   82.547    0.384   56.847
  229.528   81.643    0.386   53.724
  230.348   80.739    0.398   61.596
  231.168   80.545    0.398   57.496
  231.988   82.451    0.409   60.234
  232.808   84.586    0.424   60.780
  233.629   85.091    0.410   54.476
  234.449   84.429    0.405   47.940
  235.269   84.687    0.402   49.450
  236.089   84.489    0.412   53.178
  236.909   83.121    0.406   61.288
  237.730   82.213    0.403   62.561
  238.550   82.249    0.407   57.240
  239.370   82.984    0.413   56.315
  240.190   84.187    0.431   53.680
  241.010   85.390    0.432   50.074
  241.831   85.426    0.417   52.073
  242.651   84.058    0.416   52.375
  243.471   83.145    0.408   50.229
  244.291   83.416    0.404   50.782
  245.112   86.258    0.403   49.850
  245.932   87.461    0.411   48.674
  246.752   87.731    0.392   52.151
  247.572   87.764    0.394   49.516
  248.392   88.733    0.391   49.567
  249.213   90.876    0.398   49.143
  250.033   87.869    0.405   47.228
  250.853   85.794    0.413   46.547
  251.673   83.949    0.404   53.931
  252.493   81.172    0.399   68.404
  253.314   77.458    0.406   76.039
  254.134   73.276    0.371   69.497
  254.954   71.435    0.394   65.635
  255.774   71.944    0.397   64.954
  256.594   73.615    0.401   73.070
  257.415   73.414    0.401   73.366
  258.235   70.398    0.407   97.126
  259.055   65.986    0.380   96.207
  259.875   62.967    0.366   88.193
  260.696   59.721    0.336   93.617
  261.516   57.654    0.352  110.776
  262.336   56.278    0.342   87.370
  263.156   52.568    0.355   96.464
  263.976   52.362    0.374   79.414
  264.797   55.438    0.364   74.331
  265.617   60.391    0.366   64.858
  266.437   63.471    0.384   61.497
  267.257   63.035    0.391   71.073
  268.077   60.492    0.397   88.232
  268.898   57.013    0.394  100.012
  269.718   55.640    0.386   77.339
  270.538   56.847    0.375   81.060
  271.358   58.749    0.386  129.254
  272.178   56.674    0.383  142.512
  272.999   52.960    0.377  140.366
  273.819   49.012    0.350  140.655
  274.639   45.298    0.339  139.974
  275.459   45.803    0.354  142.718
  276.280   47.943    0.357  135.687
  277.100   50.784    0.327  130.116
  277.920   55.035    0.331  120.881
  278.740   56.246    0.349  110.180
  279.560   54.398    0.345   99.236
  280.381   52.093    0.343   94.647
  281.201   53.764    0.357  111.080
  282.021   55.903    0.365  111.620
  282.841   57.579    0.361  108.979
  283.661   59.020    0.379  113.921
  284.482   60.453    0.365  102.488
  285.302   63.767    0.367   80.303
  286.122   68.014    0.365   71.069
  286.942   71.800    0.384   81.152
  287.762   71.603    0.401   73.620
  288.583   72.095    0.393   66.834
  289.403   73.537    0.390   66.397
  290.223   77.315    0.414   57.162
  291.043   82.502    0.417   45.973
  291.864   87.686    0.428   50.433
  292.684   94.512    0.435   46.577
  293.504  102.509    0.447   44.919
  294.324  110.041    0.446   45.453
  295.144  111.943    0.456   41.359
  295.965  109.868    0.472   36.269
  296.785  110.603    0.470   39.508
  297.605  111.580    0.470   41.758
  298.425  111.842    0.467   43.037
  299.245  108.605    0.453   42.593
  300.066  107.224    0.452   37.516
  300.886  105.383    0.449   34.637
  301.706  103.781    0.470   33.224
  302.526  105.920    0.453   35.479
  303.346  108.060    0.440   34.548
  304.167  109.033    0.451   33.886
  304.987  107.426    0.440   34.169
  305.807  107.459    0.449   33.738
  306.627  106.094    0.458   32.318
  307.448  105.186    0.439   34.587
  308.268  105.682    0.432   33.661
  309.088  106.191    0.443   32.730
  309.908  105.755    0.457   34.484
  310.728  105.081    0.451   33.321
  311.549  106.526    0.442   33.128
  312.369  107.729    0.450   32.209
  313.189  106.357    0.466   31.284
  314.009  104.044    0.471   30.840
  314.829  101.969    0.461   30.892
  315.650   99.894    0.459   31.194
  316.470   98.522    0.459   31.246
  317.290   99.499    0.455   31.786
  318.110  100.463    0.451   31.599
  318.930  101.432    0.471   31.657
  319.751  102.874    0.457   32.191
  320.571  103.378    0.460   31.510
  321.391  103.172    0.453   30.584
  322.211  102.979    0.448   30.154
  323.031  102.300    0.455   28.252
  323.852  100.928    0.440   27.815
  324.672   98.159    0.446   28.361
  325.492   97.020    0.453   27.924
  326.312   96.819    0.454   28.213
  327.133   95.450    0.450   31.202
  327.953   94.078    0.457   33.953
  328.773   92.701    0.463   33.516
  329.593   91.559    0.467   34.538
  330.413   89.496    0.460   39.480
  331.234   88.584    0.431   44.910
  332.054   86.981    0.429   32.745
  332.874   85.141    0.440   28.645
  333.694   83.768    0.450   27.976
  334.514   86.840    0.460   28.992
  335.335   90.857    0.463   30.264
  336.155   97.449    0.445   29.834
  336.975  100.529    0.430   31.839
  337.795   97.752    0.440   35.560
  338.615   95.205    0.421   35.612
  339.436   89.150    0.413   35.663
  340.256   87.075    0.409   36.936
  341.076   83.829    0.419   36.261
  341.896   80.584    0.427   36.319
  342.717   78.279    0.409   33.922
  343.537   78.541    0.422   33.736
  344.357   81.855    0.449   33.299
  345.177   86.336    0.461   32.611
  345.997   86.615    0.454   32.431
  346.818   88.044    0.446   33.704
  347.638   92.533    0.435   37.174
  348.458   91.391    0.435   41.377
  349.278   89.784    0.438   46.808
  350.098   87.947    0.445   53.215
  350.919   86.571    0.430   51.069
  351.739   82.389    0.411   42.078
  352.559   81.016    0.425   35.536
  353.379   80.818    0.428   30.954
  354.199   82.962    0.432   30.273
  355.020   87.205    0.453   29.592
  355.840   91.690    0.461   32.574
  356.660   95.234    0.469   34.097
  357.480   92.929    0.474   31.706
  358.301   91.326    0.459   29.309
  359.121   92.998    0.455   25.453
  359.941   94.201    0.452   28.686
  360.761   92.360    0.444   34.110
  361.581   90.515    0.449   39.785
  362.402   88.210    0.445   41.790
  363.222   85.671    0.437   35.004
  364.042   86.402    0.419   31.392
  364.862   88.784    0.437   26.559
  365.682   90.455    0.439   27.832
  366.503   92.590    0.464   30.576
  367.323   92.623    0.450   29.413
  368.143   91.016    0.439   28.488
  368.963   88.243    0.428   30.242
  369.783   85.704    0.436   30.538
  370.604   83.863    0.423   33.771
  371.424   81.316    0.415   43.841
  372.244   78.305    0.424   42.691
  373.064   76.000    0.411   39.548
  373.885   76.500    0.411   36.181
  374.705   79.104    0.425   43.077
  375.525   79.140    0.433   42.891
  376.345   81.046    0.424   34.639
  377.165   87.170    0.428   30.288
