~VERSION INFORMATION
 VERS.                 2.0:   CWLS LOG ASCII STANDARD -VERSION 2.0
 WRAP.                  NO:   ONE LINE PER DEPTH STEP
~WELL INFORMATION BLOCK
#MNEM.UNIT           DATA                    DESCRIPTION OF MNEMONIC
#---------    -------------------            -------------------------------
# Generated from Intellog Unique Number	CC_84_87/WELL/1047
NULL.         -999.25                        : NULL_VALUE
WELL.         ARCO ACI MCMURRAY              : Well_name    - WELL              
LOC .         02-26-084-10W4                 : Location     - LOCATION          
UWI .         AA/02-26-084-10W400            : Uwi          - UNIQUE WELL ID    
ENTR.         JHS                            : Entered      - ENTERED BY        
SRVC.         SCHLUMBERGER                   : Scn          - SERVICE COMPANY   
DATE.         08 FEB 74                      : Date         - LOG DATE
STRT.M        170.688                        : top_depth    - START DEPTH       
STOP.M        392.083                        : bot_depth    - STOP DEPTH        
STEP.M        0.3                            : increment    - STEP LENGTH       
~CURVE INFORMATION BLOCK
#MNEM UNIT       ERCB CURVE CODE    CURVE DESCRIPTION
#-----------   ------------------   ----------------------------------
DEPT.M        00 001 00 00         : DEPTH        - DEPTH                       
RHOB.KG/M3    00 350 00 00         : DENS         - BULK DENSITY                
GR  .API      00 310 00 00         : GR           - GAMMA RAY                   
NPHI.V/V      00 330 00 00         : PHIN         - NEUTRON POROSITY (LIMESTONE)
ILD .OHMM     00 120 00 00         : RESD         - DEEP RESISTIVITY (DIL)      
~PARAMETER INFORMATION       
#MNEM.UNIT           DATA             DESCRIPTION OF MNEMONIC
#---------         -----------     ------------------------------
GL  .M        643.829              : gl           - GROUND LEVEL ELEVATION      
EREF.M        646.877              : kb           - ELEVATION OF DEPTH REFERENCE
DATM.M        646.877              : datum        - DATUM ELEVATION             
TDD .M        390.449              : tdd          - TOTAL DEPTH DRILLER         
RUN .         ONE                  : Run          - RUN NUMBER                  
ENG .         BILL                 : Engineer     - RECORDING ENGINEER          
WIT .         JIM                  : Witness      - WITNESSED BY                
MUD .         GEL                  : Mud_type     - MUD TYPE                    
MATR.         LIMESTONE            : Logunit      - NEUTRON MATRIX              
TMAX.C        60                   : BHT          - MAXIMUM RECORDED TEMPERATURE
BHTD.M        390.449              : BHTDEP       - MAXIMUM RECORDED TEMPERATURE
MATR.         1                    : LOGUNIT      - NEUTRON MATRIX              
RMT .C        25                   : MDTP         - TEMPERATURE OF MUD          
NEUT.         1                    : NEUTRON      - NEUTRON TYPE                
RESI.         0                    : RESIST       - RESISTIVITY TYPE            
RMC .OHMM     0.25                 : RMC          - RESISTIVITY OF MUD CAKE     
RMF .OHMM     0.25                 : RMF          - RESISTIVITY OF MUD FILTRATE 
SUFT.C        15                   : SUFT         - SURFACE TEMPERATURE         
~A  DEPTH     DENS       GR     PHIN     RESD
  170.688 2307.700   44.882    0.352   11.148
  170.988 2165.740   60.846    0.384    7.897
  171.288 2118.460   90.390    0.441    5.594
  171.588 2134.290  108.124    0.466    4.499
  171.888 2120.540  112.275    0.454    4.107
  172.188 2092.970  106.387    0.444    4.106
  172.488 2118.670  106.993    0.447    4.576
  172.788 2138.460  112.920    0.450    4.919
  173.088 2142.440  112.936    0.453    5.099
  173.388 2183.920  117.675    0.431    5.191
  173.688 2174.110  117.695    0.446    5.188
  173.988 2152.480  116.529    0.428    5.094
  174.288 2148.580  112.411    0.426    5.092
  174.588 2174.280  110.069    0.409    5.375
  174.888 2146.710  113.037    0.427    5.472
  175.188 2130.990  115.417    0.420    5.372
  175.488 2160.630  118.386    0.427    5.178
  175.788 2156.740  122.537    0.446    5.084
  176.088 2164.690  117.240    0.428    4.991
  176.388 2145.010  108.990    0.428    5.268
  176.688 2178.590  103.102    0.409    5.561
  176.988 2158.920  109.615    0.409    5.660
  177.288 2141.230  109.630    0.416    5.659
  177.588 2157.070  109.649    0.420    5.656
  177.888 2178.810  110.257    0.393    5.655
  178.188 2159.140  104.368    0.401    5.653
  178.488 2157.230  103.799    0.383    5.651
  178.788 2157.270  107.355    0.378    5.649
  179.088 2161.270  105.010    0.389    5.856
  179.388 2198.810  100.303    0.399    6.646
  179.688 2224.500   83.783    0.360    8.410
  179.988 2260.050   74.942    0.328   10.263
  180.288 2137.820   82.639    0.365   12.987
  180.588 2110.260   89.150    0.340   14.738
  180.888 2130.040   90.941    0.354   14.469
  181.188 2187.290   95.682    0.354   13.211
  181.488 2201.150   95.700    0.351   12.969
  181.788 2145.980   89.809    0.353   14.989
  182.088 2082.910   64.433    0.334   18.291
  182.388 2086.920   65.635    0.339   21.525
  182.688 2116.560   72.737    0.342   23.991
  182.988 2112.660   86.927    0.324   24.422
  183.288 2122.580   87.533    0.344   23.543
  183.588 2100.940   72.195    0.326   22.698
  183.888 2116.770   74.576    0.336   22.690
  184.188 2150.360   81.682    0.349   23.098
  184.488 2146.460   85.240    0.357   23.944
  184.788 2112.990   81.713    0.342   24.374
  185.088 2095.300   89.408    0.336   24.366
  185.388 2117.030   85.291    0.342   24.358
  185.688 2146.680   87.084    0.330   23.911
  185.988 2144.760   84.737    0.324   22.638
  186.288 2142.840   87.115    0.342   20.299
  186.588 2109.360   93.040    0.354   19.218
  186.888 2107.440   95.418    0.369   21.418
  187.188 2077.910   94.255    0.389   23.873
  187.488 2054.300   88.364    0.351   29.665
  187.788 2072.100   75.979    0.325   31.884
  188.088 2091.880   67.139    0.330   26.591
  188.388 2078.130   93.730    0.365   27.562
  188.688 2101.850  105.559    0.362   29.627
  188.988 2149.250  107.349    0.364   23.826
  189.288 2214.390  112.090    0.312   20.980
  189.588 2200.630   86.122    0.313   23.810
  189.888 2096.150   57.202    0.334   30.129
  190.188 2076.470   42.457    0.347   36.766
  190.488 2088.380   39.523    0.329   61.063
  190.788 2080.540   37.768    0.330   58.868
  191.088 2078.620   41.920    0.350   55.735
  191.388 2074.720   46.070    0.331   47.327
  191.688 2104.360   57.305    0.313   38.758
  191.988 2128.080   74.450    0.323   33.513
  192.288 2199.140   87.461    0.335   31.160
  192.588 2246.540   86.296    0.325   29.500
  192.888 2228.830   86.312    0.314   30.027
  193.188 2222.970   83.377    0.321   31.695
  193.488 2120.460   86.938    0.344   32.266
  193.788 2118.560   91.090    0.328   32.257
  194.088 2136.350   93.470    0.317   32.243
  194.388 2171.910   94.076    0.306   31.652
  194.688 2154.210   87.004    0.318   31.641
  194.988 2102.980   87.617    0.342   31.634
  195.288 2091.200   89.401    0.332   32.201
  195.588 2103.090   86.467    0.343   33.381
  195.888 2093.280   74.672    0.353   34.600
  196.188 2079.520   62.289    0.349   35.869
  196.488 2111.140   67.621    0.328   37.861
  196.788 2119.090   75.906    0.321   38.542
  197.088 2115.190   78.285    0.330   37.837
  197.388 2117.220   75.349    0.317   35.179
  197.688 2144.890   83.635    0.313   33.304
  197.988 2188.330   86.604    0.314   33.295
  198.288 2172.610   84.851    0.362   33.889
  198.588 2107.570   78.962    0.347   35.774
  198.888 2080.010   78.978    0.359   38.448
  199.188 2111.620   80.176    0.351   39.859
  199.488 2097.870   86.099    0.363   41.319
  199.788 2082.150   90.252    0.317   42.829
  200.088 2090.090   90.269    0.355   41.287
  200.388 2105.920   95.600    0.366   39.805
  200.688 2094.140   92.663    0.358   37.683
  200.988 2102.080   87.366    0.357   36.995
  201.288 2070.580   80.886    0.365   36.317
  201.588 2072.600   82.088    0.357   35.653
  201.888 2104.220   88.599    0.351   35.004
  202.188 2102.300   89.207    0.355   33.745
  202.488 2078.680   88.042    0.349   31.949
  202.788 2086.620   89.833    0.360   30.248
  203.088 2122.180   94.572    0.343   28.124
  203.388 2136.040   97.542    0.349   24.764
  203.688 2143.990   99.926    0.355   21.803
  203.988 2167.710  101.122    0.348   22.195
  204.288 2159.880   97.595    0.342   22.188
  204.588 2142.170   94.662    0.325   20.630
  204.888 2156.040   95.269    0.308   16.000
  205.188 2191.590  102.962    0.348   11.130
  205.488 2309.990  127.191    0.384    8.632
  205.788 2290.320  136.066    0.366    7.464
  206.088 2316.020  126.634    0.385    6.815
  206.388 2359.460  141.415    0.414    6.452
  206.688 2233.290  147.338    0.394    6.568
  206.988 2225.450  143.812    0.388    6.332
  207.288 2195.910  134.971    0.383    6.563
  207.588 2168.350  134.987    0.369    7.450
  207.888 2142.770  120.832    0.342   10.898
  208.188 2095.480  106.676    0.315   17.455
  208.488 2119.210  106.103    0.325   30.060
  208.788 2113.340  103.169    0.327   34.115
  209.088 2085.780  104.366    0.340   32.891
  209.388 2113.450  109.108    0.320   32.289
  209.688 2139.140  106.762    0.327   32.279
  209.988 2121.450   88.471    0.308   33.454
  210.288 2117.560   89.081    0.339   33.448
  210.588 2105.780   96.183    0.346   34.671
  210.888 2090.050  105.650    0.332   37.264
  211.188 2099.970  113.347    0.335   38.628
  211.488 2094.110  112.179    0.334   37.240
  211.788 2104.020   97.433    0.336   35.905
  212.088 2102.100  109.853    0.325   31.046
  212.388 2167.240  123.452    0.329   24.079
  212.688 2185.060  113.429    0.323   20.079
  212.988 2187.080  108.727    0.322   18.003
  213.288 2212.770  116.417    0.307   17.998
  213.588 2206.910  121.751    0.306   18.998
  213.888 2137.920  107.002    0.329   20.795
  214.188 2110.370  102.887    0.340   24.472
  214.488 2094.640   94.045    0.346   34.524
  214.788 2069.060  106.464    0.337   39.183
  215.088 2065.160  121.835    0.327   37.093
  215.388 2073.110  132.482    0.317   34.488
  215.688 2086.970  131.909    0.326   31.488
  215.988 2112.660   88.815    0.366   29.811
  216.288 2106.800   71.706    0.345   28.224
  216.588 2098.960   84.718    0.312   26.721
  216.888 2114.800   93.592    0.314   24.846
  217.188 2154.300   95.970    0.334   22.277
  217.488 2185.910   98.351    0.328   20.340
  217.788 2205.680  100.139    0.342   20.331
  218.088 2182.070   97.205    0.336   21.856
  218.388 2144.660   86.000    0.342   26.669
  218.688 2115.120   76.570    0.342   30.821
  218.988 2071.780   70.680    0.354   34.980
  219.288 2087.610   76.013    0.338   38.290
  219.589 2089.640   69.534    0.340   36.251
  219.889 2091.670   74.866    0.353   30.782
  220.189 2095.660   69.567    0.354   26.616
  220.489 2074.030   73.128    0.349   23.866
  220.789 2093.810   71.964    0.353   21.015
  221.089 2105.680   75.525    0.342   18.171
  221.389 2121.520   76.136    0.339   16.591
  221.689 2121.570   82.057    0.352   15.995
  221.989 2163.050   90.931    0.339   15.419
  222.289 2198.610   94.491    0.319   15.138
  222.589 2265.720   87.422    0.299   14.594
