~VERSION INFORMATION
 VERS.                 2.0:   CWLS LOG ASCII STANDARD -VERSION 2.0
 WRAP.                  NO:   ONE LINE PER DEPTH STEP
~WELL INFORMATION BLOCK
#MNEM.UNIT           DATA                    DESCRIPTION OF MNEMONIC
#---------    -------------------            -------------------------------
# Generated from Intellog Unique Number	CN_94_101/WELL/3474
WELL.         SHELL CANADA LTD.              : Well_name    - WELL
LOC .         AA/04-15-095-10W4/0            : Location     - LOCATION
UWI .         AA/04-15-095-10W400            : Uwi          - UNIQUE WELL ID
ENTR.         JOETTE                         : Entered      - ENTERED BY
SRVC.         SCHLUMBERGER                   : Scn          - SERVICE COMPANY
DATE.         07/29/92                       : Date         - LOG DATE
STRT.F        20                             : top_depth    - START DEPTH
STOP.F        270.164                        : bot_depth    - STOP DEPTH
STEP.F        0.8202                         : increment    - STEP LENGTH
 NULL. -999.2500:NULL Value
~CURVE INFORMATION BLOCK
#MNEM UNIT       ERCB CURVE CODE    CURVE DESCRIPTION
#-----------   ------------------   ----------------------------------
DEPT.F        00 001 00 00         : DEPTH        - DEPTH
GR  .API      00 310 00 00         : GR           - GAMMA RAY
DPHI.V/V      00 890 00 00         : PHID         - DENSITY POROSITY (SANDSTONE)
ILD .OHMM     00 120 00 00         : RESD         - DEEP RESISTIVITY (DIL)
~PARAMETER INFORMATION
#MNEM.UNIT           DATA             DESCRIPTION OF MNEMONIC
#---------         -----------     ------------------------------
GL  .F        950                  : gl           - GROUND LEVEL ELEVATION
EREF.F        950                  : kb           - ELEVATION OF DEPTH REFERENCE
DATM.F        950                  : datum        - DATUM ELEVATION
TDD .F        279                  : tdd          - TOTAL DEPTH DRILLER
RUN .         ONE                  : Run          - RUN NUMBER
ENG .         JO                   : Engineer     - RECORDING ENGINEER
WIT .         TIM                  : Witness      - WITNESSED BY
MUD .         GEL                  : Mud_type     - MUD TYPE
MATR.         SANDSTONE            : Logunit      - NEUTRON MATRIX
TMAX.F        36                   : BHT          - MAXIMUM RECORDED TEMPERATURE
BHTD.F        279                  : BHTDEP       - MAXIMUM RECORDED TEMPERATURE
RMT .F        36                   : MDTP         - TEMPERATURE OF MUD
MUDD.LB/G     1.01                 : MWT          - MUD DENSITY
NEUT.         1                    : NEUTRON      - NEUTRON TYPE
RESI.         0                    : RESIST       - RESISTIVITY TYPE
RM  .OHMM     1.5                  : RM           - RESISTIVITY OF MUD
RMC .OHMM     1.5                  : RMC          - RESISTIVITY OF MUD CAKE
RMF .OHMM     1.5                  : RMF          - RESISTIVITY OF MUD FILTRATE
SUFT.F        39.2                 : SUFT         - SURFACE TEMPERATURE
~A  DEPTH       GR     PHID     RESD
   20.000   54.238    0.389  232.366
   20.820   55.513    0.383  255.645
   21.640   57.990    0.348  266.016
   22.461   58.901    0.334  217.437
   23.281   58.956    0.343  184.454
   24.101   62.235    0.351  165.439
   24.921   68.757    0.355  137.762
   25.741   60.376    0.348  138.214
   26.562   58.062    0.348  123.885
   27.382   57.734    0.355  126.538
   28.202   54.982    0.361  126.871
   29.022   49.444    0.365  103.702
   29.843   41.081    0.361  139.948
   30.663   36.325    0.364   98.599
   31.483   36.799    0.365  108.477
   32.303   35.268    0.365   40.621
   33.123   31.733    0.362   32.570
   33.944   33.428    0.359   82.753
   34.764   33.500    0.359   81.444
   35.584   35.613    0.357  240.069
   36.404   37.253    0.361  312.370
   37.224   40.550    0.361  527.125
   38.045   41.825    0.360  163.829
   38.865   45.123    0.361   50.917
   39.685   35.539    0.351  230.210
   40.505   29.618    0.354  476.523
   41.325   39.729    0.362 1145.110
   42.146   41.405    0.359 2285.390
   42.966   35.046    0.350   80.720
   43.786   37.123    0.353   90.412
   44.606   40.020    0.360   94.079
   45.426   34.462    0.362   81.304
   46.247   30.964    0.374  184.792
   47.067   31.401    0.365  294.939
   47.887   29.087    0.352   88.266
   48.707   31.565    0.349  128.386
   49.528   33.259    0.356  224.997
   50.348   31.710    0.354  164.410
   51.168   32.202    0.357   86.002
   51.988   32.274    0.361  142.458
   52.808   34.333    0.360  142.833
   53.629   39.233    0.359   55.473
   54.449   38.923    0.360  208.301
   55.269   35.789    0.356  115.204
   56.089   36.682    0.348  105.264
   56.910   37.137    0.342  105.610
   57.730   37.611    0.363  188.552
   58.550   40.489    0.362  120.904
   59.370   45.790    0.337  128.167
   60.190   45.061    0.334  146.439
   61.011   37.500    0.342  131.256
   61.831   42.802    0.338   99.606
   62.651   43.676    0.333   94.456
   63.471   39.340    0.335   81.684
   64.291   36.989    0.332   96.733
   65.112   41.088    0.331  125.949
   65.932   43.183    0.341  119.437
   66.752   42.837    0.336   99.391
   67.572   49.359    0.336   99.652
   68.392   45.405    0.338  107.618
   69.213   44.275    0.329  103.967
   70.033   48.356    0.307  106.194
   70.853   48.064    0.302  151.621
   71.673   51.726    0.314  123.932
   72.493   58.230    0.319   78.057
   73.314   59.523    0.327   85.934
   74.134   58.393    0.332   89.478
   74.954   59.669    0.330   98.378
   75.774   59.741    0.335  114.435
   76.594   58.611    0.337   65.728
   77.415   55.860    0.330   48.028
   78.235   55.149    0.330   43.077
   79.055   55.222    0.323   45.665
   79.875   48.062    0.309   49.380
   80.695   41.703    0.293   50.438
   81.516   43.415    0.293   59.731
   82.336   47.077    0.292   70.828
   83.156   62.016    0.284   62.317
   83.976   70.123    0.275   79.593
   84.797   71.398    0.282  136.831
   85.617   69.066    0.292  322.763
   86.437   68.337    0.303  575.869
   87.257   71.653    0.320  376.677
   88.077   71.725    0.325  255.540
   88.898   70.978    0.330  212.789
   89.718   56.585    0.339 2023.440
   90.538   38.602    0.341 2028.760
   91.358   33.847    0.337 1101.390
   92.178   27.488    0.336  142.822
   92.999   21.567    0.340  125.742
   93.819   22.824    0.342  110.704
   94.639   20.510    0.342  146.745
   95.459   19.362    0.339  180.475
   96.279   17.831    0.335  191.694
   97.100   19.507    0.334  188.414
   97.920   23.624    0.331  175.500
   98.740   24.498    0.329  160.359
   99.560   22.549    0.327  149.270
  100.381   20.217    0.332  146.812
  101.201   18.686    0.338  152.868
  102.021   19.560    0.329  156.245
  102.841   21.637    0.319  159.592
  103.661   21.746    0.314  153.975
  104.482   22.219    0.361  130.619
  105.302   24.697    0.380   72.241
  106.122   25.571    0.378   67.290
  106.942   23.622    0.381   74.079
  107.762   22.911    0.372   66.399
  108.583   26.190    0.347  109.987
  109.403   28.686    0.325   76.014
  110.223   25.534    0.315  119.091
  111.043   24.404    0.302  135.980
  111.864   22.873    0.306  128.950
  112.684   24.950    0.334  113.529
  113.504   27.846    0.332  105.678
  114.324   24.293    0.330  109.965
  115.144   20.759    0.328  240.821
  115.965   16.841    0.333  398.908
  116.785   15.292    0.345  260.755
  117.605   13.762    0.357   49.973
  118.425   13.051    0.366   19.421
  119.245   13.123    0.366   18.762
  120.066   16.002    0.356   17.144
  120.886   19.281    0.348   53.429
  121.706   23.362    0.341  135.748
  122.526   39.103    0.324  154.999
  123.346   66.905    0.326   69.886
  124.167   80.223    0.320  109.633
  124.987   80.295    0.304  118.242
  125.807   76.760    0.288  130.173
  126.627   69.618    0.255  112.497
  127.448   54.423    0.280  126.087
  128.268   43.255    0.311  155.070
  129.088   30.465    0.323  217.331
  129.908   31.376    0.322  210.095
  130.728   29.007    0.309  226.890
  131.549   26.675    0.319  142.904
  132.369   31.994    0.327  102.502
  133.189   34.053    0.338   61.061
  134.009   33.743    0.338   92.177
  134.829   31.392    0.335  119.938
  135.650   30.263    0.327   39.412
  136.470   33.177    0.322   17.443
  137.290   34.835    0.327   13.729
  138.110   38.551    0.339   17.535
  138.930   41.412    0.345   22.801
  139.751   43.507    0.336   24.202
  140.571   39.553    0.327   28.134
  141.391   35.216    0.334   33.361
  142.211   49.336    0.376   23.929
  143.031   69.103    0.390   15.072
  143.852   82.020    0.292   20.734
  144.672   71.653    0.245   21.575
  145.492   61.687    0.257   17.966
  146.312   50.920    0.218   12.895
  147.133   47.804    0.196   14.462
  147.953   58.316    0.167   16.209
  148.773   62.798    0.174   17.505
  149.593   70.905    0.188   17.880
  150.413   85.844    0.214   17.273
  151.234   92.749    0.240   15.793
  152.054   87.192    0.218   14.967
  152.874   81.653    0.210   13.177
  153.694   74.493    0.220   10.371
  154.514   72.160    0.230    7.583
  155.335   75.039    0.235    7.603
  156.155   79.138    0.240    8.687
  156.975   81.633    0.246   10.684
  157.795   84.147    0.254   12.661
  158.615   83.783    0.276   12.941
  159.436   81.851    0.274   11.176
  160.256   81.942    0.278    8.640
  161.076   84.802    0.276    7.612
  161.896   88.901    0.276    8.686
  162.717   90.577    0.269    8.872
  163.537   88.245    0.267    7.118
  164.357   85.512    0.280    6.042
  165.177   85.985    0.285    6.405
  165.997   92.507    0.275    6.913
  166.818   94.584    0.279    7.610
  167.638   92.252    0.293    7.924
  168.458   87.897    0.312    8.094
  169.278   82.741    0.324    8.422
  170.098   86.840    0.296    9.102
  170.919   89.336    0.292    9.823
  171.739   84.581    0.283   10.821
  172.559   80.262    0.277   10.835
  173.379   82.321    0.267   11.282
  174.199   84.798    0.268   12.890
  175.020   82.466    0.269   13.405
  175.840   78.130    0.247   33.453
  176.660   75.397    0.227   38.887
  177.480   76.708    0.219   15.396
  178.301   77.965    0.202   25.981
  179.121   78.821    0.167   30.788
  179.941   79.313    0.160   35.177
  180.761   75.760    0.185   40.919
  181.581   64.591    0.226   57.348
  182.402   54.224    0.258   58.615
  183.222   63.552    0.280   55.548
  184.042   62.805    0.309   54.669
  184.862   57.266    0.332   97.603
  185.682   53.312    0.351  129.294
  186.503   46.170    0.364  122.610
  187.323   41.816    0.351   80.147
  188.143   40.285    0.355   52.458
  188.963   45.987    0.361   74.850
  189.783   47.681    0.361   87.123
  190.604   42.525    0.363   75.244
  191.424   36.986    0.364  184.204
  192.244   39.482    0.372  120.409
  193.064   39.573    0.371   32.861
  193.885   38.024    0.370   40.414
  194.705   36.876    0.367   51.618
  195.525   37.750    0.366   55.745
  196.345   35.819    0.369  213.244
  197.165   34.288    0.377  158.742
