~VERSION INFORMATION
 VERS.                 2.0:   CWLS LOG ASCII STANDARD -VERSION 2.0
 WRAP.                  NO:   ONE LINE PER DEPTH STEP
~WELL INFORMATION BLOCK
#MNEM.UNIT           DATA                    DESCRIPTION OF MNEMONIC
#---------    -------------------            -------------------------------
# Generated from Intellog Unique Number	CC_88_90/WELL/2329
WELL.         WESTERN HEMISPHERE PETROLEUM C : Well_name    - WELL
LOC .         AA/01-35-088-10W4/0            : Location     - LOCATION
UWI .         AA/01-35-088-10W400            : Uwi          - UNIQUE WELL ID
ENTR.         JOETTE                         : Entered      - ENTERED BY
SRVC.         SCHLUMBERGER                   : Scn          - SERVICE COMPANY
DATE.         03/06/92                       : Date         - LOG DATE
STRT.M        60.96                          : top_depth    - START DEPTH
STOP.M        138.96                         : bot_depth    - STOP DEPTH
STEP.M        0.25                           : increment    - STEP LENGTH
 NULL. -999.2500:NULL Value
~CURVE INFORMATION BLOCK
#MNEM UNIT       ERCB CURVE CODE    CURVE DESCRIPTION
#-----------   ------------------   ----------------------------------
DEPT.M        00 001 00 00         : DEPTH        - DEPTH
ILD .OHMM     00 120 00 00         : RESD         - DEEP RESISTIVITY (DIL)
NPHI.V/V      00 330 00 00         : PHIN         - NEUTRON POROSITY (SANDSTONE)
GR  .API      00 310 00 00         : GR           - GAMMA RAY
~PARAMETER INFORMATION
#MNEM.UNIT           DATA             DESCRIPTION OF MNEMONIC
#---------         -----------     ------------------------------
GL  .M        367.436              : gl           - GROUND LEVEL ELEVATION
EREF.M        367.436              : kb           - ELEVATION OF DEPTH REFERENCE
DATM.M        367.436              : datum        - DATUM ELEVATION
TDD .M        140.208              : tdd          - TOTAL DEPTH DRILLER
RUN .         ONE                  : Run          - RUN NUMBER
ENG .         JO                   : Engineer     - RECORDING ENGINEER
WIT .         TIM                  : Witness      - WITNESSED BY
MUD .         GEL                  : Mud_type     - MUD TYPE
MATR.         SANDSTONE            : Logunit      - NEUTRON MATRIX
TMAX.C        10                   : BHT          - MAXIMUM RECORDED TEMPERATURE
BHTD.M        140.208              : BHTDEP       - MAXIMUM RECORDED TEMPERATURE
RMT .C        18.3                 : MDTP         - TEMPERATURE OF MUD
MUDD.KG/M     541.666              : MWT          - MUD DENSITY
NEUT.         1                    : NEUTRON      - NEUTRON TYPE
RESI.         0                    : RESIST       - RESISTIVITY TYPE
RM  .OHMM     8                    : RM           - RESISTIVITY OF MUD
RMC .OHMM     8                    : RMC          - RESISTIVITY OF MUD CAKE
RMF .OHMM     8                    : RMF          - RESISTIVITY OF MUD FILTRATE
SUFT.C        4                    : SUFT         - SURFACE TEMPERATURE
~A  DEPTH     RESD     PHIN       GR
   60.960    9.372    0.534   85.425
   61.210    9.216    0.526   84.199
   61.460    9.802    0.528   87.275
   61.710   10.006    0.528   96.496
   61.960   10.218    0.522  112.478
   62.210   10.253    0.523  106.336
   62.460    9.907    0.537  105.725
   62.710    9.202    0.546  119.863
   62.960   10.521    0.542  127.241
   63.210   11.465    0.545  113.723
   63.460   10.400    0.543  111.268
   63.710   10.055    0.544  124.792
   63.960   16.690    0.549  121.108
   64.210   21.507    0.548  110.048
   64.460   20.237    0.514  109.437
   64.710   20.456    0.489  105.138
   64.960   21.034    0.448  102.683
   65.210   19.779    0.442  103.916
   65.460   17.233    0.438  112.523
   65.710   17.444    0.433  105.765
   65.960   18.037    0.433   93.477
   66.210   18.241    0.433  100.855
   66.460   17.902    0.446   95.942
   66.710   17.014    0.452  108.237
   66.960   16.492    0.451  115.614
   67.210   19.277    0.450  119.920
   67.460   14.165    0.453  127.297
   67.710   17.310    0.448  112.551
   67.960   17.338    0.454  104.565
   68.210   18.480    0.460  107.641
   68.460   18.135    0.444  118.706
   68.710   15.413    0.440  121.168
   68.960   16.907    0.452  121.171
   69.210   16.569    0.468  109.497
   69.460   15.687    0.483   90.449
   69.710   17.909    0.500   89.838
   69.960   19.410    0.498   93.528
   70.210   15.412    0.501   94.760
   70.460   15.976    0.477  108.899
   70.710   16.561    0.478  120.578
   70.960   15.489    0.488  126.727
   71.210   18.091    0.494  125.501
   71.460   14.996    0.472  106.453
   71.710   16.307    0.471   84.331
   71.960   17.435    0.486   97.856
   72.210   14.897    0.485   89.255
   72.460   14.558    0.480   91.102
   72.710   15.693    0.478   99.094
   72.960   19.029    0.483   99.712
   73.210   17.400    0.488  102.173
   73.460   18.711    0.493   96.030
   73.710   19.480    0.485  102.794
   73.960   17.484    0.474  124.307
   74.210   19.169    0.467  135.987
   74.460   21.771    0.480  129.230
   74.710   23.457    0.499  116.941
   74.960   24.028    0.500  102.195
   75.210   24.430    0.500  112.646
   75.460   23.922    0.498  114.493
   75.710   23.753    0.495  118.183
   75.960   22.871    0.491  121.874
   76.210   22.342    0.480  118.189
   76.460   21.820    0.463  115.734
   76.710   21.115    0.431  118.196
   76.960   21.333    0.453  120.043
   77.210   23.188    0.476  108.984
   77.460   28.914    0.486  100.998
   77.710   31.325    0.493  102.229
   77.960   37.228    0.477  113.295
   78.210   38.730    0.446  102.850
   78.460   37.474    0.436  101.625
   78.710   36.402    0.363  104.701
   78.960   35.330    0.392  110.849
   79.210   34.632    0.420  112.082
   79.460   34.110    0.425  105.325
   79.710   33.588    0.427  109.630
   79.960   32.509    0.427  109.633
   80.210   31.980    0.425  107.792
   80.460   31.473    0.410  108.410
   80.710   30.760    0.401   99.809
   80.960   31.338    0.417   99.812
   81.210   31.550    0.431   97.972
   81.460   30.845    0.441   83.225
   81.710   30.146    0.444   88.145
   81.960   30.908    0.444   94.909
   82.210   31.112    0.436   89.380
   82.460   31.507    0.433   91.842
   82.710   30.816    0.436  101.678
   82.960   30.097    0.445  102.296
   83.210   29.398    0.449   93.081
   83.460   30.893    0.443  105.375
   83.710   28.905    0.435  120.742
   83.960   27.459    0.440  120.131
   84.210   25.104    0.450  117.061
   84.460   23.482    0.464  120.137
   84.710   22.784    0.478  109.079
   84.960   21.888    0.467   99.249
   85.210   22.649    0.467   94.949
   85.460   24.328    0.465   98.640
   85.710   26.013    0.450   99.258
   85.960   26.782    0.448  100.490
   86.210   27.169    0.451   98.650
   86.460   27.571    0.445   91.892
   86.710   27.790    0.441   96.197
   86.960   28.177    0.446  108.492
   87.210   28.953    0.448   94.975
   87.460   29.341    0.439   95.593
   87.710   30.293    0.418  102.356
   87.960   31.780    0.429   92.526
   88.210   36.399    0.437  101.747
   88.460   41.568    0.449  100.522
   88.710   45.087    0.449   89.463
   88.960   44.565    0.444   88.852
   89.210   40.926    0.432   94.386
   89.460   34.157    0.436   98.691
   89.710   29.234    0.426   95.621
   89.960   29.629    0.423   88.864
   90.210   30.391    0.435   91.325
   90.460   27.295    0.446  118.369
   90.710   25.856    0.455  104.852
   90.960   32.499    0.450   93.178
   91.210   33.444    0.440   90.723
   91.460   38.979    0.428   89.498
   91.710   43.598    0.437  112.239
   91.960   50.791    0.451  123.919
   92.210   62.391    0.448  113.475
   92.460   54.154    0.441  114.708
   92.710   48.125    0.430  114.710
   92.960   43.196    0.425  104.266
   93.210   38.450    0.441   98.738
   93.460   34.987    0.453   97.512
   93.710   44.937    0.459  109.806
   93.960   53.780    0.460  120.258
   94.210   56.749    0.447  110.427
   94.460   49.612    0.435  107.357
   94.710   39.909    0.439  109.819
   94.960   30.939    0.436  108.593
   95.210   38.505    0.435  108.597
   95.460   39.260    0.444  116.589
   95.710   41.312    0.447  112.290
   95.960   42.630    0.452   93.241
   96.210   43.759    0.449   87.099
   96.460   45.437    0.455   82.800
   96.710   48.406    0.452   80.960
   96.960   50.634    0.451   72.974
   97.210   39.464    0.453   64.987
   97.460   35.451    0.454   74.823
   97.710   33.096    0.451   83.430
   97.960   38.265    0.454   88.350
   98.210   43.441    0.462   96.957
   98.460   44.936    0.468  116.012
   98.710   42.023    0.467  106.797
   98.960   43.892    0.465  117.862
   99.210   38.963    0.459  127.084
   99.460   44.681    0.463  120.327
   99.710   42.876    0.466  116.642
   99.960   39.047    0.450  120.948
  100.210   84.615    0.443  124.024
  100.460   83.360    0.445  128.329
  100.710   81.738    0.438  116.655
  100.960   81.949    0.424  110.512
  101.210   86.935    0.418   95.766
  101.460   94.311    0.428   90.239
  101.710   82.950    0.404   97.002
  101.960   35.986    0.367  102.536
  102.210   35.464    0.378  110.528
  102.460   35.125    0.401  106.844
  102.710   36.430    0.430  111.764
  102.960   43.439    0.454  106.850
  103.210   71.378    0.463  108.697
  103.460   70.313    0.462  105.627
  103.710   69.791    0.458   93.954
  103.960   79.360    0.453   93.957
  104.210   81.222    0.400  104.408
  104.460   72.626    0.361  102.567
  104.710   65.123    0.323  110.560
  104.960   55.053    0.312  116.708
  105.210   43.157    0.329  103.806
  105.460   44.828    0.362   81.685
  105.710   46.696    0.362   82.302
  105.960   42.874    0.401  101.972
  106.210   38.869    0.422  102.590
  106.460   35.223    0.433   88.457
  106.710   33.037    0.435   79.857
  106.960   73.647    0.430   83.548
  107.210   65.968    0.431   81.093
  107.460   70.220    0.442   77.408
  107.710   71.898    0.449   94.619
  107.960   71.743    0.435  107.528
  108.210   63.323    0.414  105.073
  108.460   45.179    0.421   96.472
  108.710   28.678    0.440  105.079
  108.960   29.087    0.456  108.770
  109.210   33.882    0.450   95.867
  109.460   72.652    0.446   91.568
  109.710   79.485    0.437   87.884
  109.960   80.057    0.428   89.116
  110.210   75.868    0.422   77.443
  110.460   72.398    0.412   80.519
  110.710   55.171    0.411  111.865
  110.960   51.342    0.415  114.941
  111.210   62.208    0.426  114.329
  111.460   58.562    0.440  111.260
  111.710   43.902    0.446   84.836
  111.960   35.482    0.454   81.767
  112.210   27.253    0.470   84.843
  112.460   26.181    0.460   89.148
  112.710   25.292    0.448  103.900
  112.960   24.587    0.445  130.330
  113.210   23.889    0.466  124.188
  113.460   23.360    0.481  111.899
  113.710   22.471    0.476  104.529
  113.960   21.582    0.454  105.146
  114.210   20.877    0.450   91.013
  114.460   20.172    0.438   85.486
  114.710   19.650    0.448   83.031
  114.960   19.135    0.471   82.420
