~VERSION INFORMATION
 VERS.                 2.0:   CWLS LOG ASCII STANDARD -VERSION 2.0
 WRAP.                  NO:   ONE LINE PER DEPTH STEP
~WELL INFORMATION BLOCK
#MNEM.UNIT           DATA                    DESCRIPTION OF MNEMONIC
#---------    -------------------            -------------------------------
# Generated from Intellog Unique Number	CN_91_93/WELL/2721
WELL.         02-24-091-12W4                 : Well_name    - WELL
LOC .         AA/02-24-091-12W4/0            : Location     - LOCATION
UWI .         AA/02-24-091-12W400            : Uwi          - UNIQUE WELL ID
ENTR.         JOETTE                         : Entered      - ENTERED BY
SRVC.         SCHLUMBERGER                   : Scn          - SERVICE COMPANY
DATE.         02/09/92                       : Date         - LOG DATE
STRT.M        60                             : top_depth    - START DEPTH
STOP.M        166                            : bot_depth    - STOP DEPTH
STEP.M        0.25                           : increment    - STEP LENGTH
 NULL. -999.2500:NULL Value
~CURVE INFORMATION BLOCK
#MNEM UNIT       ERCB CURVE CODE    CURVE DESCRIPTION
#-----------   ------------------   ----------------------------------
DEPT.M        00 001 00 00         : DEPTH        - DEPTH
GR  .API      00 310 00 00         : GR           - GAMMA RAY
DPHI.V/V      00 890 00 00         : PHID         - DENSITY POROSITY (SANDSTONE)
ILD .OHMM     00 120 00 00         : RESD         - DEEP RESISTIVITY (DIL)
~PARAMETER INFORMATION
#MNEM.UNIT           DATA             DESCRIPTION OF MNEMONIC
#---------         -----------     ------------------------------
GL  .M        453.2                : gl           - GROUND LEVEL ELEVATION
EREF.M        453.2                : kb           - ELEVATION OF DEPTH REFERENCE
DATM.M        453.2                : datum        - DATUM ELEVATION
TDD .M        194.5                : tdd          - TOTAL DEPTH DRILLER
RUN .         ONE                  : Run          - RUN NUMBER
ENG .         JO                   : Engineer     - RECORDING ENGINEER
WIT .         TIM                  : Witness      - WITNESSED BY
MUD .         GEL                  : Mud_type     - MUD TYPE
MATR.         SANDSTONE            : Logunit      - NEUTRON MATRIX
TMAX.C        10                   : BHT          - MAXIMUM RECORDED TEMPERATURE
BHTD.M        190                  : BHTDEP       - MAXIMUM RECORDED TEMPERATURE
RMT .C        5                    : MDTP         - TEMPERATURE OF MUD
MUDD.KG/M     541.666              : MWT          - MUD DENSITY
NEUT.         1                    : NEUTRON      - NEUTRON TYPE
RESI.         0                    : RESIST       - RESISTIVITY TYPE
RM  .OHMM     8.5                  : RM           - RESISTIVITY OF MUD
RMC .OHMM     8.5                  : RMC          - RESISTIVITY OF MUD CAKE
RMF .OHMM     8.5                  : RMF          - RESISTIVITY OF MUD FILTRATE
SUFT.C        4                    : SUFT         - SURFACE TEMPERATURE
~A  DEPTH       GR     PHID     RESD
   60.000   83.623    0.305   12.835
   60.250   79.114    0.181   17.253
   60.500   94.987    0.146   18.353
   60.750  105.763    0.249   10.953
   61.000  102.153    0.291    9.479
   61.250  109.035    0.284    9.284
   61.500  110.520    0.307    9.283
   61.750  109.908    0.314    8.488
   62.000  114.990    0.322    7.396
   62.250  112.279    0.311    6.142
   62.500  106.570    0.358    6.016
   62.750  115.548    0.375    5.425
   63.000  117.335    0.401    5.973
   63.250  103.834    0.396    7.292
   63.500  107.418    0.415    8.029
   63.750  106.505    0.349    6.996
   64.000  105.892    0.381    6.441
   64.250   94.491    0.444    7.863
   64.500   82.787    0.482    9.598
   64.750   89.668    0.251    8.081
   65.000   91.454    0.237    8.715
   65.250  106.127    0.149   13.169
   65.500   97.720    0.241   11.959
   65.750   95.910    0.296    9.529
   66.000  102.491    0.326    7.039
   66.250  100.977    0.487    5.845
   66.500   98.269    0.439    5.456
   66.750   97.655    0.318    7.538
   67.000   94.945    0.295    6.659
   67.250   92.234    0.287    7.485
   67.500  101.213    0.313    5.883
   67.750  111.991    0.361    5.529
   68.000  101.487    0.376    5.567
   68.250  106.569    0.347    7.798
   68.500   96.665    0.332    7.691
   68.750   83.764    0.201   10.923
   69.000   67.266    0.133   16.966
   69.250   81.040    0.174   12.619
   69.500   91.817    0.302    9.715
   69.750  100.796    0.322    6.126
   70.000  110.674    0.325    5.301
   70.250  116.953    0.360    4.166
   70.500  115.143    0.424    3.731
   70.750  101.943    0.439    3.556
   71.000  110.022    0.414    3.435
   71.250  110.007    0.399    4.222
   71.500  104.002    0.411    5.834
   71.750  116.876    0.389    6.121
   72.000  122.858    0.387    5.873
   72.250  119.548    0.409    5.873
   72.500  113.240    0.319    6.078
   72.750  118.322    0.302    6.879
   73.000   98.826    0.326    6.692
   73.250   93.419    0.341    8.282
   73.500  110.788    0.240   11.056
   73.750  116.172    0.240   11.521
   74.000  124.251    0.260    9.244
   74.250  120.041    0.286    8.748
   74.500  126.923    0.302   10.107
   74.750  121.214    0.287    9.565
   75.000  111.610    0.290   10.825
   75.250  120.589    0.293   11.050
   75.500  112.183    0.273    9.050
   75.750  107.374    0.270    7.886
   76.000   91.176    0.274    8.105
   76.250  110.346    0.302   11.671
   76.500  117.226    0.316   13.484
   76.750  126.802    0.316   13.764
   77.000  112.704    0.312   13.574
   77.250   95.906    0.300   13.481
   77.500   88.700    0.311   13.481
   77.750   82.993    0.218   12.669
   78.000   76.685    0.183   12.581
   78.250   71.276    0.236   11.504
   78.500   83.553    0.292   14.435
   78.750   78.143    0.197   42.518
   79.000   75.733    0.107   60.388
   79.250   85.012    0.105   23.042
   79.500   72.110    0.322   13.751
   79.750   79.888    0.326   14.330
   80.000   75.079    0.319   14.527
   80.250   72.970    0.174   16.217
   80.500   66.662    0.151   29.103
   80.750   78.939    0.230   15.882
   81.000   77.726    0.329   14.225
   81.250   81.008    0.333   13.934
   81.500   93.586    0.309   11.730
   81.750   98.967    0.353   10.151
   82.000   98.356    0.435    7.245
   82.250  107.932    0.472    7.295
   82.500  108.218    0.399    9.409
   82.750  108.806    0.362    8.312
   83.000   83.317    0.311    7.652
   83.250   72.813    0.067   15.438
   83.500   89.885    0.150   36.235
   83.750  113.849    0.268   12.643
   84.000  101.545    0.323   12.995
   84.250   90.145    0.306   11.639
   84.500   90.731    0.309   10.864
   84.750   85.622    0.313   13.171
   85.000   70.323    0.238   31.778
   85.250   80.501    0.223   14.402
   85.500   94.273    0.247   12.124
   85.750  111.347    0.288   11.239
   86.000  104.438    0.302   10.206
   86.250   87.941    0.294    6.990
   86.500   91.526    0.199    6.007
   86.750  104.700    0.213    9.657
   87.000   96.594    0.296    6.346
   87.250   92.985    0.348    6.302
   87.500  114.252    0.385    7.182
   87.750  111.842    0.327    7.083
   88.000  110.328    0.274    6.796
   88.250   98.926    0.301    6.565
   88.500  112.701    0.374    6.213
   88.750   95.604    0.416    5.921
   89.000  104.582    0.484    6.386
   89.250  103.967    0.337    8.180
   89.500  104.854    0.245    8.123
   89.750  105.440    0.252    8.465
   90.000  107.827    0.273    8.882
   90.250   97.623    0.284    8.405
   90.500   91.615    0.273    8.290
   90.750   97.896    0.275    7.738
   91.000  103.578    0.181   12.698
   91.250  118.551    0.246   10.329
   91.500  112.244    0.292    7.578
   91.750   95.147    0.283    9.641
   92.000  117.612    0.287    9.378
   92.250  129.888    0.291    9.442
   92.500  119.385    0.271    9.705
   92.750  109.181    0.267    8.573
   93.000   95.979    0.255    8.751
   93.250   92.670    0.135    9.769
   93.500  106.744    0.090   30.403
   93.750  113.025    0.132   17.291
   94.000  108.816    0.201    9.633
   94.250  127.386    0.268    8.930
   94.500  119.280    0.364    7.364
   94.750  128.858    0.411    6.200
   95.000  131.843    0.368    6.641
   95.250  131.843    0.345    6.328
   95.500  138.404    0.311    6.030
   95.750  138.404    0.358    5.667
   96.000  143.476    0.387    5.007
   96.250  144.953    0.412    4.837
   96.500  144.953    0.427    4.738
   96.750  151.230    0.437    4.737
   97.000  152.717    0.457    4.577
   97.250  117.936    0.395    4.391
   97.500  106.535    0.209    4.361
   97.750  104.423    0.236    4.576
   98.000  121.195    0.251    5.178
   98.250  121.481    0.396    5.702
   98.500  114.874    0.372    5.546
   98.750  113.661    0.397    5.508
   99.000  108.253    0.451    5.859
   99.250  124.126    0.422    5.819
   99.500   94.740    0.317    6.769
   99.750  100.722    0.269    8.436
  100.000  119.889    0.289    7.504
  100.250  119.279    0.330    7.004
  100.500  121.963    0.367    6.493
  100.750  130.641    0.350    7.399
  101.000  123.434    0.327    7.926
  101.250  117.128    0.347    8.548
  101.500  130.302    0.314    8.547
  101.750  120.699    0.315    8.846
  102.000  114.391    0.318    9.218
  102.250  112.279    0.304    8.723
  102.500   98.178    0.234    8.313
  102.750  110.755    0.183   11.251
  103.000  112.838    0.189    9.871
  103.250  107.731    0.251    7.599
  103.500  114.311    0.328    6.622
  103.750  128.685    0.408    6.266
  104.000  114.885    0.437    6.266
  104.250  120.267    0.428    6.265
  104.500  120.853    0.357    6.222
  104.750  122.340    0.365    6.264
  105.000  131.318    0.374    6.618
  105.250  118.116    0.305    9.530
  105.500  110.610    0.258   11.011
  105.750  111.797    0.271    9.334
  106.000  106.388    0.305    7.804
  106.250  106.374    0.334    7.488
  106.500  115.354    0.474    8.131
  106.750  122.234    0.456    7.642
  107.000  125.519    0.322    7.333
  107.250  114.715    0.320    7.909
  107.500  109.307    0.345    8.185
  107.750  108.993    0.683    7.281
  108.000  108.981    0.724    7.692
  108.250  121.256    0.720    7.852
  108.500  128.137    0.668    7.482
  108.750  119.132    0.261    7.797
  109.000   96.040    0.243    7.958
  109.250   95.127    0.107    7.849
  109.500  108.003    0.235   15.405
  109.750  107.390    0.404    8.761
  110.000  109.774    0.438    6.125
  110.250  112.460    0.450    5.374
  110.500  113.945    0.477    5.337
  110.750  104.940    0.363    5.300
  111.000  112.119    0.353    5.299
  111.250  118.401    0.376    5.755
  111.500  115.392    0.378    7.123
  111.750  128.565    0.357    7.525
  112.000  110.269    0.333    7.524
  112.250  105.460    0.414    7.269
  112.500  121.034    0.490    7.786
  112.750  110.530    0.501   10.539
  113.000   98.228    0.421    5.712
  113.250  100.014    0.217   17.175
  113.500   91.908    0.276    8.690
  113.750   82.903    0.470    6.375
  114.000   91.582    0.469    6.033
