~VERSION INFORMATION
 VERS.                 2.0:   CWLS LOG ASCII STANDARD -VERSION 2.0
 WRAP.                  NO:   ONE LINE PER DEPTH STEP
~WELL INFORMATION BLOCK
#MNEM.UNIT           DATA                    DESCRIPTION OF MNEMONIC
#---------    -------------------            -------------------------------
# Generated from Intellog Unique Number	CN_94_101/WELL/3312
WELL.         06-30-095-08W4                 : Well_name    - WELL
LOC .         AA/06-30-095-08W4/0            : Location     - LOCATION
UWI .         AA/06-30-095-08W400            : Uwi          - UNIQUE WELL ID
ENTR.         JOETTE                         : Entered      - ENTERED BY
SRVC.         SCHLUMBERGER                   : Scn          - SERVICE COMPANY
DATE.         07/22/92                       : Date         - LOG DATE
STRT.M        10                             : top_depth    - START DEPTH
STOP.M        105                            : bot_depth    - STOP DEPTH
STEP.M        0.25                           : increment    - STEP LENGTH
 NULL. -999.2500:NULL Value
~CURVE INFORMATION BLOCK
#MNEM UNIT       ERCB CURVE CODE    CURVE DESCRIPTION
#-----------   ------------------   ----------------------------------
DEPT.M        00 001 00 00         : DEPTH        - DEPTH
GR  .API      00 310 00 00         : GR           - GAMMA RAY
DELT.US/F     00 520 00 00         : DELT         - SONIC TRAVEL TIME
ILD .OHMM     00 120 00 00         : RESD         - DEEP RESISTIVITY (DIL)
~PARAMETER INFORMATION
#MNEM.UNIT           DATA             DESCRIPTION OF MNEMONIC
#---------         -----------     ------------------------------
GL  .M        318.75               : gl           - GROUND LEVEL ELEVATION
EREF.M        318.75               : kb           - ELEVATION OF DEPTH REFERENCE
DATM.M        318.75               : datum        - DATUM ELEVATION
TDD .M        105.5                : tdd          - TOTAL DEPTH DRILLER
RUN .         ONE                  : Run          - RUN NUMBER
ENG .         JO                   : Engineer     - RECORDING ENGINEER
WIT .         TIM                  : Witness      - WITNESSED BY
MUD .         GEL                  : Mud_type     - MUD TYPE
MATR.         SANDSTONE            : Logunit      - NEUTRON MATRIX
TMAX.C        8                    : BHT          - MAXIMUM RECORDED TEMPERATURE
BHTD.M        105.5                : BHTDEP       - MAXIMUM RECORDED TEMPERATURE
RMT .C        8                    : MDTP         - TEMPERATURE OF MUD
MUDD.KG/M     1190                 : MWT          - MUD DENSITY
NEUT.         1                    : NEUTRON      - NEUTRON TYPE
RESI.         0                    : RESIST       - RESISTIVITY TYPE
RM  .OHMM     7.1                  : RM           - RESISTIVITY OF MUD
RMC .OHMM     7.1                  : RMC          - RESISTIVITY OF MUD CAKE
RMF .OHMM     7.1                  : RMF          - RESISTIVITY OF MUD FILTRATE
SUFT.C        4                    : SUFT         - SURFACE TEMPERATURE
~A  DEPTH       GR     DELT     RESD
   10.000   37.891  539.537 1928.930
   10.250   46.620  541.717 1793.000
   10.500   54.741  543.097 1257.160
   10.750   61.040  543.732  540.694
   11.000   69.161  546.713  308.293
   11.250   80.320  550.496  394.743
   11.500  111.662  554.334  403.370
   11.750  112.449  552.510  238.973
   12.000  109.635  549.084  194.746
   12.250  113.459  547.950  188.091
   12.500  102.139  549.440  195.986
   12.750  101.014  554.024  150.958
   13.000   85.263  557.807  137.901
   13.250   90.346  561.534  135.620
   13.500  108.233  563.715  121.498
   13.750  123.734  564.294  147.038
   14.000  126.951  564.928  161.984
   14.250  130.775  565.507   97.718
   14.500  131.561  566.141   79.689
   14.750  130.525  565.863   81.431
   15.000  127.059  564.840   80.140
   15.250  137.003  564.451   74.546
   15.500  142.739  564.340   73.364
   15.750  136.798  564.173   82.413
   16.000  111.282  563.150   90.790
   16.250   94.968  562.127   91.046
   16.500   93.324  558.645  135.686
   16.750  125.926  539.945  102.493
   17.000  129.142  530.856  164.556
   17.250  134.789  520.911  188.361
   17.500  132.538  523.948  111.514
   17.750  110.148  527.731   99.832
   18.000  107.852  525.105  182.953
   18.250  105.601  522.480  121.244
   18.500   54.479  518.142  114.920
   18.750   45.500  515.572  202.833
   19.000   61.564  507.285  236.246
   19.250   69.078  504.659  308.451
   19.500   72.340  506.039  586.926
   19.750   69.436  510.623  293.394
   20.000   44.572  513.660  213.595
   20.250   57.643  513.438  239.771
   20.500   59.037  509.901  249.660
   20.750   58.001  506.474  264.889
   21.000   54.490  504.650  292.020
   21.250   57.706  503.683  315.713
   21.500   49.943  505.062  341.328
   21.750   40.964  502.326  342.533
   22.000   41.143  504.507  273.749
   22.250   49.264  507.600  520.896
   22.500   54.393  501.715  918.731
   22.750   47.844  489.422 1590.240
   23.000   50.453  494.006 1073.860
   23.250   54.885  494.585  712.154
   23.500   54.456  487.955 2168.010
   23.750   38.187  478.755 2526.930
   24.000   51.214  481.792 2141.180
   24.250   43.405  488.033 1990.300
   24.500   36.901  491.071 1592.870
   24.750   35.865  493.251 1116.840
   25.000   33.569  488.168 1458.190
   25.250   38.653  484.686 2051.080
   25.500   36.401  486.066 2137.170
   25.750   49.383  489.047 1842.680
   26.000   57.505  491.228 2693.100
   26.250   58.291  498.326 1135.910
   26.500   49.357  506.169  892.158
   26.750   43.416  504.234  471.845
   27.000   46.025  499.261 1357.670
   27.250   44.381  492.520 2099.370
   27.500   43.953  491.552 2741.000
   27.750   49.644  488.927 1653.530
   28.000   47.393  491.909  795.512
   28.250   48.787  491.687  390.258
   28.500   42.238  484.200 1380.850
   28.750   46.714  478.371 2530.560
   29.000   43.203  467.680 3428.140
   29.250   35.439  457.790 1681.760
   29.500   41.131  467.180  388.430
   29.750   43.177  472.620  412.125
   30.000   45.178  475.546  518.230
   30.250   41.667  471.319 1123.980
   30.500   41.239  473.556 1642.710
   30.750   44.545  485.404 1647.350
   31.000   40.381  481.866  216.334
   31.250   38.782  480.098  959.815
   31.500   43.822  461.342  753.853
   31.750   40.355  455.512  454.768
   32.000   35.629  437.502 1358.670
   32.250   40.105  442.141 3363.570
   32.500   37.899  452.387 2229.060
   32.750   37.381  459.430  645.565
   33.000   37.649  459.953  310.800
   33.250   36.005  457.383 1603.830
   33.500   36.747  456.249  896.812
   33.750   36.319  459.286  677.902
   34.000   34.675  460.666  918.999
   34.250   37.891  460.499  514.238
   34.500   41.153  452.957  710.355
   34.750   35.819  453.536 1630.060
   35.000   32.915  451.711 2666.770
   35.250   31.924  443.479 1410.410
   35.500   36.400  440.854  705.038
   35.750   40.832  438.974 1881.720
   36.000   39.143  440.354 3136.900
   36.250   38.107  443.391 3725.610
   36.500   44.406  445.572  877.441
   36.750   48.882  437.284  728.620
   37.000   37.518  430.599 1641.990
   37.250   37.045  436.840 1843.220
   37.500   40.869  443.827  668.896
   37.750   41.655  445.206  411.174
   38.000   44.917  444.183 1569.570
   38.250   46.355  441.558 1379.940
   38.500   44.104  436.530  801.746
   38.750   41.808  427.441 2534.260
   39.000   46.329  419.153 4644.310
   39.250   48.893  426.941 4157.750
   39.500   53.325  432.381 1226.990
   39.750   53.548  439.424  158.130
   40.000   54.898  440.002  273.709
   40.250   56.336  432.516 3617.850
   40.500   46.142  421.825 3006.360
   40.750   49.967  424.006  433.706
   41.000   55.050  442.317  353.689
   41.250   48.502  438.035  507.295
   41.500   42.561  431.405  929.021
   41.750   37.272  432.729  832.866
   42.000   42.918  435.766  704.729
   42.250   53.515  435.544  720.638
   42.500   78.736  436.123  169.482
   42.750   74.663  439.049  190.253
   43.000   57.697  428.414  453.619
   43.250   52.408  431.340  538.751
   43.500   51.371  431.173  290.342
   43.750   38.703  420.482  156.470
   44.000   32.851  409.792  533.588
   44.250   32.422  405.509 2650.030
   44.500   31.994  406.088 2974.800
   44.750   33.343  405.065 2873.130
   45.000   40.294  404.041 3479.540
   45.250   37.998  408.681 3059.160
   45.500   36.310  414.811  574.179
   45.750   32.843  408.982 1921.570
   46.000   29.985  403.152 3264.130
   46.250   28.948  408.482 4425.030
   46.500   30.950  411.463 3473.030
   46.750   30.521  412.899 1464.870
   47.000   32.523  415.079 1047.320
   47.250   37.044  418.862 1392.380
   47.500   37.222  416.292 2910.540
   47.750   38.572  407.204 1204.760
   48.000   52.206  439.188  104.552
   48.250   89.668  462.306   79.087
   48.500  104.472  482.164   95.712
   48.750  107.733  481.941   94.195
   49.000  132.347  483.266   55.766
   49.250  135.001  469.427   57.025
   49.500  128.452  461.940   65.274
   49.750  116.999  488.206   70.520
   50.000  115.355  496.906   69.402
   50.250  117.357  482.955   92.333
   50.500  107.163  484.335   73.844
   50.750  104.911  484.113   53.797
   51.000   70.890  490.354   54.973
   51.250   49.716  495.795   89.935
   51.500   46.857  493.915  124.234
   51.750   51.896  485.683  207.104
   52.000   53.335  472.589  408.891
   52.250   51.039  461.898  586.470
   52.500   45.097  457.616 1480.480
   52.750   37.941  445.323 1790.430
   53.000   36.297  429.771 2768.530
   53.250   38.344  420.738 1104.470
   53.500   43.428  430.928  666.283
   53.750   46.036  438.771  503.645
   54.000   55.373  443.355  695.722
   54.250   67.747  444.735 1399.640
   54.500   63.673  446.916 1230.550
   54.750   66.282  457.217  830.965
   55.000   90.897  426.391  147.517
   55.250   83.178  451.111  165.596
   55.500   70.509  466.163  169.215
   55.750   62.745  456.273  388.572
   56.000   51.336  443.179 1160.900
   56.250   48.478  426.882 2876.000
   56.500   55.339  438.674 1766.640
   56.750   70.188  447.319  641.106
   57.000   56.957  455.963  125.028
   57.250   47.978  450.078  309.525
   57.500   45.682  445.795  535.759
   57.750   48.336  453.639  253.132
   58.000   44.217  453.416  549.014
   58.250   37.713  445.985 1465.290
   58.500   37.285  436.040 1312.710
   58.750   35.078  441.480 2272.180
   59.000   34.649  427.586 1014.680
   59.250   35.999  426.507  781.553
   59.500   38.652  423.136 2873.340
   59.750   37.571  392.310 3225.470
   60.000   35.928  387.226 1874.000
   60.250   36.107  390.208 2843.800
   60.500   33.855  394.791 3855.200
   60.750   32.819  399.375 2806.630
   61.000   31.872  398.352 3596.190
   61.250   33.829  404.649 2295.280
   61.500   32.141  422.905 1085.220
   61.750   32.927  441.217  900.527
   62.000   29.506  445.800 1503.340
   62.250   29.640  434.309  855.966
   62.500   34.679  414.751 1274.740
   62.750   36.117  421.794 1828.350
   63.000   41.764  390.967 4615.490
   63.250   44.418  364.947 4716.350
   63.500   42.122  354.311 4066.460
   63.750   41.783  351.631 2851.200
   64.000   35.189  357.872 2913.510
