~Version : LASO    vs 4.00
VERS.                2.00:   CWLS Log ASCII Standard -VERSION 2.0
WRAP.                  NO:
~Well Information Block
#MNEM.UNIT       Data                        Description of Mnemonic
#----.----      -------------------------- : -----------------------------
STRT.M            11.0000:
STOP.M           176.0000:
STEP.M             0.1000:
NULL.           -999.2500:
COMP.  MOBIL OIL CANADA LTD.  :COMPANY
WELL.  MOBIL CLARKE OV 5-32   :WELL
FLD.   CLARKE                 :FIELD
LOC.   05-32-089-08W4         :LOCATION
CTRY.  CANADA                 :COUNTRY
PROV.  ALBERTA                :PROVINCE
SRVC.  SCHLUMBERGER           :SERVICE COMPANY
DATE.  04-MAR-81              :LOG DATE
UWI.   AA/05-32-089-08W400    :UNIQUE WELL ID
~Parameter Information Block
#MNEM.UNIT       Data                        Description of Mnemonic
#----.----      -------------------------- : -----------------------------
RUN .                   1                 : Run Number
GL  .M           391.1000                 : Ground Level Elevation
DREF.                  KB                 : Depth Reference
EREF.M           394.5000                 : Elevation of Depth Reference
TDL .M           176.5000                 : Total Depth Logger
TDD .M           174.0000                 : Total Depth Driller
CSGL.M            16.0000                 : Casing Bottom Logger
CSGD.M            14.6000                 : Casing Bottom Driller
CSGS.MM          219.0000                 : Casing Size
CSGW.KG/M          0.0000                 : Casing Weight
BHT .DEGC         23.0000                 : Bottom Hole Temperature
BS  .MM          159.0000                 : Bit Size
DFD .           1110.0000                 : Mud Weight (Density)
DFV .             90.0000                 : Mud Viscosity
DFPH.             10.0000                 : Mud pH
RM  .OHMM          1.9600                 : Mud Resistivity
RMT .DEGC         20.0000                 : Mud Resistivity Temperature
~Curve Information Block
#MNEM.UNIT        API CODE    Curve Description
#---------    ------------    -------------------------------------------
DEPT.M                    :   DEPTH
CALI.MM       42 280  1  1:   3 DENSITY CALIPER
DPHI.V/V                  :   DPHI
DT  .US/M     60 520  0  1:   2 SONIC INTERVAL TRANSIT TIME (COMPENSATED)
GR  .GAPI     42 310  1  1:   4 GAMMA RAY
ILD .OHMM      5 120 46  1:   6 DEEP INDUCTION
ILM .OHMM      5 120 44  1:   7 MEDIUM INDUCTION
NPHI.V/V                  :   NPHI
RHOB.K/M3     42 350  1  1:   5 BULK DENSITY
SFLU.OHMM      5 220  1  1:   8 FOCUSSED RESISTIVITY
SP  .MV        5  10  1  1:   9 SPONTANEOUS POTENTIAL
~A  Depth           CALI        DPHI          DT          GR         ILD         ILM        NPHI        RHOB        SFLU          SP
# ...
47.6000         176.2000      0.1368    538.5200     99.0600      8.0878      7.5133      0.5032   2205.0000      9.7237    -91.5000
47.7000         176.2000      0.1189    539.6801     96.7950      8.0878      7.5133      0.5001   2205.0000      9.7237    -91.5000
47.8000         177.5000      0.0972    525.6400     91.9500      8.4690      7.3085      0.4859   2206.0000      8.5473    -91.7550
47.9000         177.5000      0.0816    500.0000     87.1050      8.4690      7.3085      0.4547   2206.0000      8.5473    -91.7550
48.0000         181.3000      0.0662    499.7600     81.8400      9.7237      7.6530      0.4395   2275.0000      5.9133    -91.5000
48.1000         181.3000      0.0545    499.7600     77.4900      9.7237      7.6530      0.4214   2275.0000      5.9133    -91.5000
48.2000         180.0250      0.0389    495.3600     75.1500     10.7604      8.8681      0.3968   2284.0000      5.5441    -91.2600
48.3000         180.0250      0.0349    422.0000     76.1100     10.7604      8.8681      0.3677   2284.0000      5.5441    -91.2600
48.4000         177.5000      0.0493    328.4800     77.4750     11.4770     10.8600      0.3479   2359.0000      5.9133    -91.5000
48.5000         177.5000      0.0950    311.8800     80.4750     11.4770     10.8600      0.3985   2359.0000      5.9133    -91.5000
48.6000         174.9250      0.1300    347.8800     83.4750     12.9369     15.2697      0.4079   2578.0000     30.7489    -91.5000
48.7000         174.9250      0.1556    408.5200     85.6800     12.9369     15.2697      0.4170   2578.0000     30.7489    -91.5000
48.8000         173.6500      0.2288    469.1600     87.3300     13.9261     15.4110      0.4235   2615.0000     61.9199    -91.7550
48.9000         173.6500      0.2735    500.6400     88.9800     13.9261     15.4110      0.4305   2615.0000     61.9199    -91.7550
49.0000         173.6500      0.2887    500.6400     90.1200     15.5536     14.9910      0.4352   2615.0000     28.8290    -93.2550
49.1000         173.6500      0.2996    513.2800     90.9150     15.5536     14.9910      0.4404   2615.0000     28.8290    -93.2550
49.2000         172.3750      0.3060    518.7200     91.7250     16.7429     14.9910      0.4423   2413.0000     12.4690    -97.2600
49.3000         172.3750      0.3109    522.2800     90.6450     16.7429     14.9910      0.4449   2413.0000     12.4690    -97.2600
49.4000         172.3750      0.3133    523.1200     89.6700     15.6975     14.4487      0.4457   2237.0000     13.4224    -98.7600
49.5000         172.3750      0.3142    523.9600     88.9950     15.6975     14.4487      0.4461   2237.0000     13.4224    -98.7600
49.6000         172.3750      0.3125    524.6000     88.4250     14.7174     13.6719      0.4463   2145.0000     13.6719    -99.5100
49.7000         172.3750      0.3106    524.6801     88.3050     14.7174     13.6719      0.4471   2145.0000     13.6719    -99.5100
49.8000         172.3750      0.3086    524.7600     88.1850     13.0566     12.7008      0.4486   2132.0000     14.1850    -99.7500
49.9000         172.3750      0.3082    525.0000     88.0650     13.0566     12.7008      0.4523   2132.0000     14.1850    -99.7500
50.0000         172.3750      0.3095    525.5200     86.8350     12.9369     12.0179      0.4560   2126.0000     14.9910   -100.0050
50.1000         172.3750      0.3093    526.0000     85.3350     12.9369     12.0179      0.4598   2126.0000     14.9910   -100.0050
50.2000         172.3750      0.3092    525.2000     83.8650     12.9369     12.0179      0.4635   2132.0000     12.9369    -99.2550
50.3000         172.3750      0.3072    524.4800     82.8600     12.9369     12.0179      0.4662   2132.0000     12.9369    -99.2550
50.4000         172.3750      0.3069    523.9600     81.7650     13.0566     11.6904      0.4698   2141.0000     11.9078    -98.7600
50.5000         172.3750      0.3066    523.8000     83.3550     13.0566     11.6904      0.4734   2141.0000     11.9078    -98.7600
50.6000         172.3750      0.3057    523.7200     85.1250     13.0566     11.4770      0.4755   2138.0000     11.7986    -99.7500
50.7000         172.3750      0.3041    524.9600     87.3150     13.0566     11.4770      0.4763   2138.0000     11.7986    -99.7500
50.8000         172.3750      0.3012    526.7200     90.5250     12.9369     12.4690      0.4734   2138.0000     10.4672   -100.0050
50.9000         172.3750      0.2948    529.4800     93.7350     12.9369     12.4690      0.4696   2138.0000     10.4672   -100.0050
51.0000         171.1250      0.2886    531.9600     96.8550     12.4690     13.4224      0.4668   2135.0000     10.6618   -100.7550
51.1000         171.1250      0.2825    534.2800     99.1800     12.4690     13.4224      0.4638   2135.0000     10.6618   -100.7550
51.2000         172.3750      0.2780    536.6000    101.5050     10.9605     11.2676      0.4627   2137.0000     16.7429   -100.2600
51.3000         172.3750      0.2716    538.7200    103.7850     10.9605     11.2676      0.4672   2137.0000     16.7429   -100.2600
51.4000         174.9250      0.2645    540.7600    105.6000      9.9961      9.8136      0.4726   2159.0000     13.2993    -98.5050
51.5000         174.9250      0.2590    542.7600    108.1350      9.9961      9.8136      0.4789   2159.0000     13.2993    -98.5050
51.6000         176.2000      0.2574    544.5600    107.9850      9.3720      8.6264      0.4860   2170.0000      8.8681    -96.0000
51.7000         176.2000      0.2597    546.3200    107.7450      9.3720      8.6264      0.4932   2170.0000      8.8681    -96.0000
51.8000         181.3000      0.2617    547.4400    106.9200      8.0878      7.1751      0.5039   2225.0000      5.8054    -92.2500
51.9000         181.3000      0.2618    548.2000    105.7050      8.0878      7.1751      0.5085   2225.0000      5.8054    -92.2500
52.0000         181.3000      0.2619    547.2000    104.4900      7.4444      6.7894      0.5146   2232.0000      5.5441    -91.7550
52.1000         181.3000      0.2656    546.4400    104.0250      7.4444      6.7894      0.5204   2232.0000      5.5441    -91.7550
52.2000         180.0250      0.2670    545.3200    103.6350      6.9156      6.4838      0.5245   2215.0000      5.4933    -91.5000
52.3000         180.0250      0.2677    546.2000    103.1250      6.9156      6.4838      0.5284   2215.0000      5.4933    -91.5000
52.4000         181.3000      0.2661    547.7600    103.9200      5.9680      5.7521      0.5337   2206.0000      6.1920    -91.2600
52.5000         181.3000      0.2642    549.6800    105.0450      5.9680      5.7521      0.5391   2206.0000      6.1920    -91.2600
52.6000         181.3000      0.2632    551.4800    106.1700      5.7521      5.2946      0.5446   2215.0000      6.0790    -91.2600
52.7000         181.3000      0.2621    552.6000    107.5950      5.7521      5.2946      0.5450   2215.0000      6.0790    -91.2600
52.8000         180.0250      0.2636    553.1200    109.1850      5.6472      4.9640      0.5377   2210.0000      4.8734    -91.2600
52.9000         180.0250      0.2638    553.4800    110.0400      5.6472      4.9640      0.5321   2210.0000      4.8734    -91.2600
53.0000         178.7500      0.2638    552.4400    110.5200      5.4429      4.9185      0.5274   2214.0000      3.9069    -91.0050
53.1000         178.7500      0.2681    551.1200    106.2750      5.4429      4.9185      0.5157   2214.0000      3.9069    -91.0050
53.2000         180.0250      0.2731    549.6800    102.9450      5.3436      4.9185      0.5092   2218.0000      4.4446    -91.0050
53.3000         180.0250      0.2769    547.8000     99.8250      5.3436      4.9185      0.5018   2218.0000      4.4446    -91.0050
53.4000         181.3000      0.2783    545.9200     99.0300      5.3436      4.8734      0.4974   2210.0000      4.7406    -91.0050
53.5000         181.3000      0.2763    543.7200     98.2350      5.3436      4.8734      0.4917   2210.0000      4.7406    -91.0050
53.6000         182.5750      0.2744    541.1200     97.4100      5.8054      5.2460      0.4858   2190.0000      4.6114    -90.5100
