~VERSION INFORMATION
 VERS.                 2.0:   CWLS LOG ASCII STANDARD -VERSION 2.0
 WRAP.                  NO:   ONE LINE PER DEPTH STEP
~WELL INFORMATION BLOCK
#MNEM.UNIT           DATA                    DESCRIPTION OF MNEMONIC
#---------    -------------------            -------------------------------
# Generated from Intellog Unique Number	CN_94_101/WELL/4991
WELL.         08-15-099-12W4                 : Well_name    - WELL
LOC .         AA/08-15-099-12W4/0            : Location     - LOCATION
UWI .         AA/08-15-099-12W400            : Uwi          - UNIQUE WELL ID
ENTR.         TOP                            : Entered      - ENTERED BY
SRVC.         SCHLUMBERGER                   : Scn          - SERVICE COMPANY
DATE.         08/11/92                       : Date         - LOG DATE
STRT.M        121.92                         : top_depth    - START DEPTH
STOP.M        338.42                         : bot_depth    - STOP DEPTH
STEP.M        0.25                           : increment    - STEP LENGTH
 NULL. -999.2500:NULL Value
~CURVE INFORMATION BLOCK
#MNEM UNIT       ERCB CURVE CODE    CURVE DESCRIPTION
#-----------   ------------------   ----------------------------------
DEPT.M        00 001 00 00         : DEPTH        - DEPTH
GR  .API      00 310 00 00         : GR           - GAMMA RAY
ILD .OHMM     00 120 00 00         : RESD         - DEEP RESISTIVITY (DIL)
NPHI.V/V      00 330 00 00         : PHIN         - NEUTRON POROSITY (SANDSTONE)
~PARAMETER INFORMATION
#MNEM.UNIT           DATA             DESCRIPTION OF MNEMONIC
#---------         -----------     ------------------------------
GL  .M        566.014              : gl           - GROUND LEVEL ELEVATION
EREF.M        569.062              : kb           - ELEVATION OF DEPTH REFERENCE
DATM.M        569.062              : datum        - DATUM ELEVATION
TDD .M        342.595              : tdd          - TOTAL DEPTH DRILLER
RUN .         ONE                  : Run          - RUN NUMBER
ENG .         JO                   : Engineer     - RECORDING ENGINEER
WIT .         TIM                  : Witness      - WITNESSED BY
MUD .         GEL                  : Mud_type     - MUD TYPE
MATR.         SANDSTONE            : Logunit      - NEUTRON MATRIX
TMAX.C        23.8889              : BHT          - MAXIMUM RECORDED TEMPERATURE
BHTD.M        342.595              : BHTDEP       - MAXIMUM RECORDED TEMPERATURE
RMT .C        10                   : MDTP         - TEMPERATURE OF MUD
MUDD.KG/M     9200                 : MWT          - MUD DENSITY
NEUT.         1                    : NEUTRON      - NEUTRON TYPE
RESI.         0                    : RESIST       - RESISTIVITY TYPE
RM  .OHMM     6.8                  : RM           - RESISTIVITY OF MUD
RMC .OHMM     6.8                  : RMC          - RESISTIVITY OF MUD CAKE
RMF .OHMM     6.8                  : RMF          - RESISTIVITY OF MUD FILTRATE
SUFT.C        4                    : SUFT         - SURFACE TEMPERATURE
~A  DEPTH       GR     RESD     PHIN
  121.920  103.842    1.740    0.493
  122.170  105.125    1.741    0.489
  122.420  105.146    1.804    0.484
  122.670  105.161    1.869    0.482
  122.920  105.186    1.871    0.485
  123.170  105.626    1.810    0.487
  123.420  106.066    1.780    0.489
  123.670  105.252    1.722    0.495
  123.920  103.590    1.695    0.498
  124.170  102.776    1.668    0.500
  124.420  101.543    1.669    0.501
  124.670  101.134    1.670    0.501
  124.920   96.959    1.643    0.497
  125.170   83.142    1.645    0.500
  125.420   79.382    1.704    0.502
  125.670   79.822    1.891    0.498
  125.920   89.495    2.098    0.478
  126.170   95.388    2.288    0.418
  126.420  100.023    2.290    0.386
  126.670  103.399    2.254    0.415
  126.920  105.941    2.143    0.480
  127.170  107.639    1.969    0.491
  127.420  108.079    1.871    0.485
  127.670  104.749    1.873    0.482
  127.920  102.247    2.009    0.481
  128.170  100.589    2.117    0.481
  128.420  101.449    2.231    0.482
  128.670  101.894    2.232    0.482
  128.920   99.817    2.197    0.485
  129.170   96.895    2.054    0.488
  129.420  102.374    2.021    0.490
  129.670  108.686    1.888    0.496
  129.920  107.448    1.826    0.502
  130.170  102.854    1.707    0.513
  130.420   99.519    1.623    0.521
  130.670   95.345    1.543    0.532
  130.920   91.590    1.517    0.531
  131.170   84.904    1.546    0.525
  131.420   83.660    1.628    0.511
  131.670   81.169    1.870    0.487
  131.920   79.092    2.148    0.431
  132.170   77.015    2.509    0.408
  132.420   74.943    3.033    0.393
  132.670   73.710    3.795    0.381
  132.920   73.301    4.284    0.373
  133.170   72.902    4.919    0.363
  133.420   72.922    5.458    0.357
  133.670   72.947    6.272    0.355
  133.920   72.973    6.494    0.359
  134.170   72.993    7.082    0.363
  134.420   73.428    7.593    0.368
  134.670   73.868    8.003    0.374
  134.920   73.888    8.148    0.376
  135.170   74.333    8.440    0.376
  135.420   74.772    8.452    0.376
  135.670   75.207    8.179    0.376
  135.920   75.652    8.183    0.376
  136.170   76.092    8.190    0.377
  136.420   76.956    8.059    0.377
  136.670   77.391    8.066    0.379
  136.920   78.680    7.937    0.385
  137.170   79.109    7.809    0.388
  137.420   79.549    7.681    0.392
  137.670   80.833    7.431    0.394
  137.920   82.127    7.187    0.401
  138.170   82.981    6.493    0.406
  138.420   84.255    6.172    0.412
  138.670   86.797    5.669    0.418
  138.920   88.485    5.483    0.422
  139.170   92.286    5.394    0.424
  139.420   96.920    5.129    0.425
  139.670  100.716    4.960    0.431
  139.920  103.253    4.635    0.437
  140.170  106.634    4.258    0.447
  140.420  109.595    3.780    0.464
  140.670  107.513    3.413    0.476
  140.920  104.597    3.029    0.490
  141.170  104.623    2.554    0.498
  141.420  104.643    2.229    0.503
  141.670  104.244    2.048    0.504
  141.920  103.006    2.015    0.504
  142.170  101.348    1.949    0.504
  142.420   97.599    1.950    0.500
  142.670   95.097    1.953    0.497
  142.920   93.020    1.988    0.496
  143.170   91.362    2.095    0.488
  143.420   89.705    2.247    0.481
  143.670   88.047    2.327    0.468
  143.920   85.556    2.627    0.450
  144.170   83.054    3.068    0.442
  144.420   79.299    3.584    0.442
  144.670   73.028    3.977    0.441
  144.920   65.498    4.489    0.439
  145.170   62.582    5.157    0.424
  145.420   62.188    5.342    0.395
  145.670   62.203    5.347    0.376
  145.920   62.648    5.445    0.373
  146.170   63.931    5.450    0.370
  146.420   64.791    5.455    0.368
  146.670   65.225    5.367    0.364
  146.920   65.665    5.467    0.364
  147.170   65.266    5.470    0.366
  147.420   63.609    5.476    0.373
  147.670   62.370    5.577    0.384
  147.920   62.815    5.679    0.385
  148.170   64.938    5.781    0.374
  148.420   67.056    5.888    0.362
  148.670   69.168    5.894    0.357
  148.920   69.613    6.000    0.358
  149.170   69.214    6.009    0.364
  149.420   67.981    6.014    0.368
  149.670   69.674    5.918    0.376
  149.920   73.889    5.723    0.383
  150.170   78.109    5.630    0.390
  150.420   81.066    5.445    0.396
  150.670   82.344    5.178    0.403
  150.920   83.204    4.839    0.412
  151.170   84.483    4.521    0.419
  151.420   86.600    3.878    0.431
  151.670   89.976    3.442    0.440
  151.920   93.362    3.217    0.450
  152.170   95.055    3.006    0.457
  152.420   95.915    2.859    0.460
  152.670   95.935    2.765    0.461
  152.920   95.955    2.767    0.463
  153.170   95.137    2.770    0.461
  153.420   93.065    2.773    0.459
  153.670   91.412    2.728    0.455
  153.920   90.594    2.684    0.453
  154.170   91.872    2.642    0.456
  154.420   96.921    2.599    0.461
  154.670  101.136    2.602    0.466
  154.920  104.517    2.517    0.474
  155.170  107.484    2.476    0.477
  155.420  107.914    2.437    0.485
  155.670  108.354    2.397    0.490
  155.920  108.374    2.279    0.493
  156.170  108.399    1.989    0.496
  156.420  108.420    1.858    0.499
  156.670  106.762    1.828    0.495
  156.920  105.104    1.769    0.494
  157.170  104.286    1.770    0.491
  157.420  110.598    1.772    0.494
  157.670  114.394    1.773    0.499
  157.920  117.355    1.745    0.505
  158.170  117.376    1.717    0.510
  158.420  114.460    1.661    0.514
  158.670  111.544    1.606    0.515
  158.920  108.633    1.554    0.512
  159.170  106.975    1.583    0.511
  159.420  105.318    1.611    0.509
  159.670  103.241    1.698    0.507
  159.920  101.578    1.758    0.506
  160.170  102.023    1.791    0.506
  160.420  102.458    1.793    0.505
  160.670   98.703    1.705    0.503
  160.920   92.012    1.649    0.501
  161.170   64.767    1.568    0.496
  161.420   61.012    1.596    0.489
  161.670   59.774    1.682    0.480
  161.920   58.541    1.772    0.443
  162.170   57.717    2.001    0.414
  162.420   56.903    2.337    0.354
  162.670   56.504    2.924    0.347
  162.920   56.949    3.986    0.348
  163.170   57.384    5.343    0.348
  163.420   58.243    6.351    0.348
  163.670   60.790    6.811    0.348
  163.920   62.478    6.814    0.347
  164.170   65.435    6.822    0.343
  164.420   69.655    6.827    0.337
  164.670   74.290    6.603    0.312
  164.920   79.763    5.762    0.297
  165.170   86.500    5.203    0.289
  165.420   87.789    4.780    0.291
  165.670   85.701    4.391    0.338
  165.920   82.785    4.105    0.404
  166.170   79.875    3.771    0.410
  166.420   79.056    3.646    0.402
  166.670   82.007    3.409    0.401
  166.920   85.384    3.296    0.403
  167.170   87.516    3.188    0.408
  167.420   87.527    3.031    0.415
  167.670   85.460    2.931    0.419
  167.920   84.212    2.884    0.426
  168.170   82.140    2.838    0.432
  168.420   80.063    2.792    0.433
  168.670   77.571    2.748    0.429
  168.920   76.328    2.897    0.422
  169.170   74.251    2.999    0.411
  169.420   73.008    3.271    0.400
  169.670   71.355    3.629    0.389
  169.920   69.703    4.167    0.384
  170.170   68.879    4.870    0.383
  170.420   66.812    5.311    0.382
  170.670   65.989    5.996    0.376
  170.920   65.165    6.428    0.371
  171.170   64.771    6.772    0.376
  171.420   66.044    7.142    0.384
  171.670   68.167    7.147    0.392
  171.920   69.031    7.152    0.401
  172.170   68.632    6.919    0.404
  172.420   67.809    6.466    0.404
  172.670   66.581    6.043    0.404
  172.920   66.171    5.552    0.404
  173.170   64.938    5.277    0.403
  173.420   64.534    5.018    0.403
  173.670   64.135    4.935    0.402
  173.920   64.160    4.856    0.402
  174.170   65.025    5.032    0.402
  174.420   66.723    5.215    0.401
  174.670   69.260    5.217    0.402
  174.920   71.373    5.133    0.406
  175.170   75.593    4.965    0.415
  175.420   78.135    4.721    0.427
  175.670   75.638    4.566    0.450
  175.920   73.981    4.416    0.461
