~Version : LASO    vs 4.00
VERS.                2.00:   CWLS Log ASCII Standard -VERSION 2.0
WRAP.                  NO:
~Well Information Block
#MNEM.UNIT       Data                        Description of Mnemonic
#----.----      -------------------------- : -----------------------------
STRT.M            15.0000:
STOP.M           186.3750:
STEP.M             0.1250:
NULL.           -999.2500:
COMP.  MOBIL OIL OF CANADA                :COMPANY
WELL.  MOBIL CLARKE OV 2-19               :WELL
FLD.                                      :FIELD
LOC.   02-19-090-07W4                     :LOCATION
CTRY.  CANADA                             :COUNTRY
PROV.  ALBERTA                            :PROVINCE
SRVC.  DRESSER ATLAS                      :SERVICE COMPANY
DATE.  24-FEB-81                          :LOG DATE
UWI.   AA/02-19-090-07W400                :UNIQUE WELL ID
~Parameter Information Block
#MNEM.UNIT       Data                        Description of Mnemonic
#----.----      -------------------------- : -----------------------------
RUN .                   1                 : Run Number
GL  .M           444.6000                 : Ground Level Elevation
DREF.                  KB                 : Depth Reference
EREF.M           444.6000                 : Elevation of Depth Reference
TDL .M           186.3000                 : Total Depth Logger
TDD .M           185.0000                 : Total Depth Driller
CSGL.M            14.7000                 : Casing Bottom Logger
CSGD.M            14.7000                 : Casing Bottom Driller
CSGS.MM          219.0000                 : Casing Size
CSGW.KG/M          0.0000                 : Casing Weight
BHT .DEGC         20.0000                 : Bottom Hole Temperature
BS  .MM          159.0000                 : Bit Size
DFD .           9999.0000                 : Mud Weight (Density)
DFV .             90.0000                 : Mud Viscosity
RM  .OHMM          2.5000                 : Mud Resistivity
RMT .DEGC         20.0000                 : Mud Resistivity Temperature
~Curve Information Block
#MNEM.UNIT        API CODE    Curve Description
#---------    ------------    -------------------------------------------
DEPT.M                    :   DEPTH
CALI.MM       42 280  1  1:   3 DENSITY CALIPER
DPHI.V/V                  :   DPHI
DT  .US/M     60 520 32  1:   2 SONIC INTERVAL TRANSIT TIME (COMPENSATED)
GR  .GAPI     42 310  1  1:   4 GAMMA RAY
ILD .OHMM      5 120 45  1:   7 DEEP INDUCTION
NPHI.V/V      42 890  3  1:   5 NEUTRON POROSITY (SANDSTONE)
RHOB.K/M3     42 350  1  1:   6 BULK DENSITY
SN  .OHMM      5  40 16  1:   8 SHORT NORMAL
SP  .MV        5  10  1  1:   9 SPONTANEOUS POTENTIAL
~A  Depth           CALI        DPHI          DT          GR         ILD        NPHI        RHOB          SN          SP
# ...
165.7500        180.4750      0.3468    498.6000     44.4600     12.6350      0.3968   2083.0000     26.7200    -83.8950
165.8750        181.6750      0.3415    498.6000     46.7550     12.5050      0.3961   2092.1001     27.8800    -83.9250
166.0000        182.5750      0.3363    507.4800     42.6300     12.3100      0.4032   2105.5000     31.1700    -82.7550
166.1250        183.4750      0.3332    510.8000     43.3500     12.1800      0.3991   2115.3000     34.1600    -80.9550
166.2500        183.4750      0.3293    503.6000     45.4200     12.0550      0.3942   2114.1001     36.9050    -79.7850
166.3750        183.4750      0.3264    478.2800     48.4650     12.1150      0.3938   2105.5000     33.3050    -77.2200
166.5000        182.8750      0.3267    469.9200     50.1600     12.1800      0.3871   2089.1001     25.5000    -74.5200
166.6250        182.2750      0.3301    470.4000     50.4000     12.5050      0.3874   2090.3000     21.0500    -73.9050
166.7500        181.6750      0.3334    467.0400     49.5600     13.0200      0.3893   2094.0000     19.5850    -75.2250
166.8750        181.6750      0.3320    449.5600     51.6150     13.8600      0.3743   2101.8999     22.8800    -77.3700
167.0000        181.9750      0.3289    447.1600     51.4500     14.8950      0.3758   2112.8999     29.9500    -87.4500
167.1250        181.9750      0.3234    443.3600     48.8700     15.8600      0.3743   2129.3000     38.1850    -92.5950
167.2500        181.9750      0.3171    427.5600     45.1800     16.9600      0.3743   2140.3000     52.5500   -101.3700
167.3750        181.9750      0.3116    398.6000     41.8500     19.4750      0.3893   2154.3000     89.2000   -116.2500
167.5000        181.9750      0.3083    398.3600     39.4650     22.5100      0.3979   2158.6001    111.6000   -119.8950
167.6250        182.2750      0.3045    397.4000     37.0800     26.8400      0.4051   2151.8999    121.3500   -119.6250
167.7500        183.1750      0.3046    397.4000     34.5150     30.4550      0.4137   2139.7000    122.5500   -116.9400
167.8750        184.1000      0.3179    395.5200     29.1450     33.8750      0.4096   2107.3999    120.1000   -116.2500
168.0000        184.1000      0.3346    391.4400     30.9600     38.1350      0.4032   2077.5000    125.6000   -116.4150
168.1250        184.7000      0.3418    389.5200     31.9500     41.5600      0.3991   2068.3000    138.9999   -113.8950
168.2500        184.4000      0.3427    391.6800     32.9400     43.5600      0.4039   2074.3999    135.3500   -111.9900
168.3750        184.4000      0.3424    408.6800     33.8850     44.0750      0.4021   2081.8000    120.7000   -108.6000
168.5000        183.7750      0.3396    412.4800     33.1500     43.6250      0.3927   2092.1001    102.4500   -107.4600
168.6250        183.4750      0.3378    415.6000     32.4300     42.2050      0.3818   2093.3000    112.8000   -106.8300
168.7500        183.4750      0.3364    417.0400     38.7450     38.5250      0.3799   2086.6001    124.9999   -106.3650
168.8750        183.4750      0.3393    412.0000     35.8650     35.6200      0.3796   2084.8000    108.5500   -104.3700
169.0000        183.4750      0.3426    405.0800     33.5250     33.1650      0.3848   2089.7000    106.1000   -100.3500
169.1250        182.5750      0.3460    400.5200     34.9500     30.5800      0.3904   2084.8000    132.3000    -96.8250
169.2500        181.9750      0.3502    404.6000     36.1350     28.1300      0.3968   2063.5000    136.6000    -90.8250
169.3750        182.2750      0.3571    424.4400     37.3800     25.8050      0.3987   2040.9000     93.3000    -83.6250
169.5000        182.8750      0.3629    428.7600     38.6250     24.8350      0.4017   2036.6000     51.0500    -79.4850
169.6250        183.1750      0.3669    424.9200     38.7000     23.9300      0.4051   2031.2000     34.7700    -77.0700
169.7500        183.1750      0.3702    427.0800     40.7400     23.3500      0.3946   2019.6000     38.9150    -78.9150
169.8750        183.7750      0.3704    430.6800     44.8350     22.7700      0.3781   2019.6000     37.6950    -78.3450
170.0000        183.7750      0.3704    420.8800     46.6500     22.3200      0.3728   2039.7000     41.8400    -78.3750
170.1250        183.4750      0.3723    400.0400     48.4650     22.7050      0.3679   2075.1001     46.1100    -78.8250
170.2500        183.4750      0.3715    382.1200     50.6250     23.2850      0.3589   2131.8000     57.2000    -80.7450
170.3750        182.2750      0.3486    405.0800     52.8750     24.3850      0.3506   2165.8999     82.8000    -82.0500
170.5000        182.2750      0.3329    392.4000     54.3600     25.8700      0.3533   2167.7000    116.4500    -85.9200
170.6250        182.5750      0.3208    390.7200     55.0050     27.1600      0.3559   2156.2000    109.1500    -87.7350
170.7500        183.7750      0.3082    394.3200     55.5600     27.8050      0.3638   2143.3000    103.6500    -87.6000
170.8750        185.0000      0.2990    413.6800     56.1150     28.6450      0.3766   2120.2000    110.3500    -86.8050
171.0000        185.6000      0.2946    426.3600     57.7050     30.1300      0.3856   2104.8999    111.6000    -82.1100
171.1250        185.9000      0.2975    432.6000     59.6400     32.2600      0.3916   2095.2000     78.9000    -78.4950
171.2500        185.3000      0.3034    435.2000     50.7600     33.8750      0.3904   2089.7000     46.3550    -75.0750
171.3750        185.3000      0.3117    421.6000     49.3050     35.0350      0.3882   2097.0000     48.1250    -75.7050
171.5000        185.3000      0.3201    413.6800     49.0650     35.6200      0.3897   2098.8000     81.1000    -81.4200
171.6250        186.5000      0.3247    416.0800     48.8850     36.0050      0.3942   2088.5000    131.1000    -86.2200
171.7500        186.8000      0.3244    418.2400     48.7800     37.2300      0.4043   2076.3000    136.6000    -89.5800
171.8750        187.7000      0.3279    418.2400     47.0550     39.6850      0.4160   2078.7000    130.5000    -90.8850
172.0000        186.2000      0.3301    415.3600     41.6700     42.0100      0.4208   2099.3999    118.3000    -90.3300
172.1250        185.3000      0.3312    416.0800     39.4350     44.6550      0.4295   2117.1001    122.5500    -89.0700
172.2500        185.3000      0.3343    424.4400     39.2700     47.8200      0.4358   2112.8999    138.4000    -87.3900
172.3750        185.0000      0.3305    435.6800     39.1950     49.8850      0.4370   2102.5000    103.4500    -85.6200
172.5000        185.3000      0.3266    430.6800     39.1050     51.0500      0.4343   2094.0000     62.2500    -83.8650
172.6250        185.0000      0.3250    424.2000     39.7800     51.3000      0.4385   2081.8000     74.4000    -86.3400
172.7500        185.3000      0.3267    423.9600     40.5900     51.5500      0.4362   2084.8000    103.0500    -90.1050
172.8750        185.3000      0.3307    424.4400     41.1750     51.6500      0.4216   2098.2000    141.4500    -94.2150
173.0000        185.0000      0.3342    421.8400     38.9100     52.7000      0.4118   2101.8999    137.8000    -98.4150
173.1250        184.4000      0.3313    419.9200     37.1400     54.7500      0.4137   2104.3000    137.2000    -99.3150
173.2500        183.7750      0.3267    420.1600     36.0000     57.1000      0.4197   2109.2000    133.5500   -100.8750
173.3750        183.4750      0.3275    424.6800     35.8050     58.7500      0.4205   2095.2000    117.6500   -102.1800
173.5000        183.4750      0.3310    423.4800     35.6100     60.9000      0.4182   2071.3999    112.8000   -104.1000
173.6250        183.7750      0.3361    421.1200     35.4600     63.9500      0.4145   2048.8000    117.0500   -108.4800
173.7500        184.1000      0.3436    418.9600     35.5650     64.9000      0.4073   2053.7000    135.9500   -111.2700
173.8750        184.1000      0.3510    415.1200     35.6400     65.4000      0.4043   2057.3999    144.5000   -110.7000
174.0000        185.0000      0.3535    411.0400     35.7150     65.6000      0.4084   2059.8000    142.0500   -110.3250
