~VERSION INFORMATION
 VERS.                 2.0:   CWLS LOG ASCII STANDARD -VERSION 2.0
 WRAP.                  NO:   ONE LINE PER DEPTH STEP
~WELL INFORMATION BLOCK
#MNEM.UNIT           DATA                    DESCRIPTION OF MNEMONIC
#---------    -------------------            -------------------------------
# Generated from Intellog Unique Number	CN_94_101/WELL/3298
WELL.         06-01-095-08W4                 : Well_name    - WELL
LOC .         AA/06-01-095-08W4/0            : Location     - LOCATION
UWI .         AA/06-01-095-08W400            : Uwi          - UNIQUE WELL ID
ENTR.         JOETTE                         : Entered      - ENTERED BY
SRVC.         SCHLUMBERGER                   : Scn          - SERVICE COMPANY
DATE.         07/22/92                       : Date         - LOG DATE
STRT.M        20                             : top_depth    - START DEPTH
STOP.M        170                            : bot_depth    - STOP DEPTH
STEP.M        0.25                           : increment    - STEP LENGTH
 NULL. -999.2500:NULL Value
~CURVE INFORMATION BLOCK
#MNEM UNIT       ERCB CURVE CODE    CURVE DESCRIPTION
#-----------   ------------------   ----------------------------------
DEPT.M        00 001 00 00         : DEPTH        - DEPTH
GR  .API      00 310 00 00         : GR           - GAMMA RAY
ILD .OHMM     00 120 00 00         : RESD         - DEEP RESISTIVITY (DIL)
NPHI.V/V      00 330 00 00         : PHIN         - NEUTRON POROSITY (SANDSTONE)
RHOB.KG/M3    00 350 00 00         : DENS         - BULK DENSITY
~PARAMETER INFORMATION
#MNEM.UNIT           DATA             DESCRIPTION OF MNEMONIC
#---------         -----------     ------------------------------
GL  .M        401.7                : gl           - GROUND LEVEL ELEVATION
EREF.M        401.7                : kb           - ELEVATION OF DEPTH REFERENCE
DATM.M        401.7                : datum        - DATUM ELEVATION
TDD .M        174.5                : tdd          - TOTAL DEPTH DRILLER
RUN .         ONE                  : Run          - RUN NUMBER
ENG .         JO                   : Engineer     - RECORDING ENGINEER
WIT .         TIM                  : Witness      - WITNESSED BY
MUD .         GEL                  : Mud_type     - MUD TYPE
MATR.         SANDSTONE            : Logunit      - NEUTRON MATRIX
TMAX.C        8                    : BHT          - MAXIMUM RECORDED TEMPERATURE
BHTD.M        174.5                : BHTDEP       - MAXIMUM RECORDED TEMPERATURE
RMT .C        8                    : MDTP         - TEMPERATURE OF MUD
MUDD.KG/M     1090                 : MWT          - MUD DENSITY
NEUT.         1                    : NEUTRON      - NEUTRON TYPE
RESI.         0                    : RESIST       - RESISTIVITY TYPE
RM  .OHMM     7.5                  : RM           - RESISTIVITY OF MUD
RMC .OHMM     7.5                  : RMC          - RESISTIVITY OF MUD CAKE
RMF .OHMM     7.5                  : RMF          - RESISTIVITY OF MUD FILTRATE
SUFT.C        4                    : SUFT         - SURFACE TEMPERATURE
~A  DEPTH       GR     RESD     PHIN     DENS
# ...
  107.000   57.909   55.868    0.445 2151.190
  107.250   62.204   42.506    0.406 2163.690
  107.500   64.685   48.392    0.423 2162.050
  107.750   73.735   22.226    0.408 2152.420
  108.000   63.673   61.163    0.414 2160.780
  108.250   66.153   25.398    0.486 2159.140
  108.500   74.653   28.916    0.446 2141.340
  108.750   78.305   31.332    0.450 2127.590
  109.000   87.378   24.423    0.465 2122.000
  109.250   77.293   19.056    0.443 2116.130
  109.500   64.819   16.444    0.438 2104.390
  109.750   52.367   50.050    0.430 2092.560
  110.000   34.495   89.754    0.413 2074.760
  110.250   49.541  360.739    0.392 2101.580
  110.500   56.225   92.822    0.438 2110.040
  110.750   50.321   74.201    0.392 2104.260
  111.000   46.231  298.228    0.372 2092.520
  111.250   49.952  257.356    0.389 2117.140
  111.500   47.012  112.392    0.417 2111.460
  111.750   39.936  152.630    0.398 2085.490
  112.000   39.453 1376.160    0.383 2092.020
  112.250   43.702 1491.150    0.378 2116.630
  112.500   54.568 1104.210    0.393 2141.440
  112.750   55.876  194.539    0.429 2133.640
  113.000   52.361  133.699    0.457 2117.770
  113.250   50.063   54.139    0.438 2091.890
  113.500   43.585  212.180    0.428 2100.350
  113.750   36.509  178.546    0.424 2114.860
  114.000   52.152   59.048    0.481 2139.570
  114.250   43.859  175.412    0.432 2148.130
  114.500   56.516   61.066    0.475 2186.880
  114.750   70.942   28.020    0.501 2181.200
  115.000   82.405   12.869    0.464 2135.120
  115.250   52.587   47.959    0.457 2121.270
  115.500   53.873  169.945    0.419 2109.440
  115.750   73.123   93.104    0.403 2152.320
  116.000   78.613   43.852    0.402 2215.500
  116.250   75.695   28.683    0.388 2207.800
  116.500   69.813   22.359    0.365 2191.920
  116.750   65.747   42.168    0.349 2176.150
  117.000   62.232   53.196    0.359 2182.580
  117.250   59.314   39.392    0.386 2184.980
  117.500   61.197   37.597    0.410 2199.590
  117.750   78.655   27.894    0.412 2179.680
  118.000   73.348   16.481    0.373 2147.650
  118.250   54.304   18.314    0.375 2125.810
  118.500   49.020   23.060    0.388 2136.290
  118.750   44.907   51.877    0.388 2158.980
  119.000   36.040   65.322    0.370 2165.420
  119.250   49.294   49.699    0.361 2184.070
  119.500   50.580   51.157    0.366 2176.370
  119.750   59.676   24.095    0.385 2197.030
  120.000   51.957   31.937    0.397 2193.280
  120.250   62.823   16.223    0.435 2179.430
  120.500   56.919   31.377    0.396 2153.550
  120.750   40.861   49.563    0.372 2125.560
  121.000   28.409   80.361    0.382 2125.940
  121.250   29.120  155.424    0.380 2120.260
  121.500   31.004  190.837    0.363 2110.630
  121.750   51.403   87.648    0.332 2125.050
  122.000   51.494   73.754    0.351 2125.430
  122.250   35.436   42.494    0.380 2105.610
  122.500   34.333  154.421    0.394 2081.660
  122.750   51.171  163.009    0.383 2116.560
  123.000   49.471  137.169    0.389 2114.830
  123.250   74.097  148.631    0.389 2099.050
  123.500   82.573   75.500    0.391 2099.430
  123.750   68.904   90.481    0.411 2110.000
  124.000   49.859   76.067    0.427 2081.910
  124.250   42.163  604.117    0.434 2043.920
  124.500   33.916  348.065    0.462 2042.280
  124.750   31.595  690.354    0.474 2058.810
  125.000   28.700 1147.900    0.482 2043.030
  125.250   31.778 1681.230    0.496 2011.000
  125.500   49.213 1045.670    0.491 1991.090
  125.750   42.712  879.090    0.492 1946.940
  126.000   39.219   86.689    0.554 1898.760
  126.250   56.058   25.921    0.668 1690.730
  126.500   50.773   91.853    0.711 1769.970
  126.750   34.715  234.590    0.760 1972.790
  127.000   29.431  714.004    0.450 2037.980
  127.250   34.898  157.803    0.464 2042.400
  127.500   35.587   82.204    0.415 2089.330
  127.750   33.887  298.725    0.399 2132.210
  128.000   45.372  323.383    0.372 2130.670
  128.250   37.056  160.183    0.382 2128.930
  128.500   33.586  409.104    0.406 2139.410
  128.750   30.691  569.743    0.391 2133.730
  129.000   25.982  312.424    0.368 2105.730
  129.250   27.268  237.478    0.353 2102.070
  129.500   26.785 1934.140    0.370 2108.610
  129.750   25.682 4034.390    0.374 2080.610
  130.000   26.370 3948.780    0.390 2062.720
  130.250   27.656 2394.910    0.384 2061.080
  130.500   28.322  390.856    0.380 2085.790
  130.750   29.631 1456.580    0.398 2100.400
  131.000   29.125 1080.640    0.399 2094.630
  131.250   29.194  200.036    0.413 2127.410
  131.500   37.073  824.489    0.386 2148.080
  131.750   37.164  138.121    0.390 2166.640
  132.000   38.450   51.810    0.391 2156.920
  132.250   54.691  268.136    0.411 2147.290
  132.500   44.031  634.376    0.448 2155.660
  132.750   36.932  862.299    0.358 2156.030
  133.000   63.350  357.743    0.386 2178.630
  133.250   82.577   87.447    0.413 2219.490
  133.500   74.307   43.316    0.378 2209.770
  133.750   69.000   12.964    0.360 2206.110
  134.000   63.118   36.586    0.403 2222.740
  134.250   39.893  189.347    0.358 2218.990
  134.500   78.853  366.210    0.354 2203.300
  134.750   93.302  578.463    0.335 2193.490
  135.000  108.349    9.275    0.413 2199.930
  135.250  113.241    8.852    0.419 2222.620
  135.500   99.572    7.646    0.425 2239.150
  135.750   91.876    9.388    0.478 2241.550
  136.000   79.425    7.512    0.463 2205.480
  136.250   62.747   30.164    0.351 2165.470
  136.500   40.716   67.921    0.326 2135.460
  136.750   38.418   89.943    0.340 2141.890
  137.000   48.089   14.679    0.363 2188.820
  137.250   43.379  158.020    0.343 2179.100
  137.500   47.077   54.908    0.355 2183.610
  137.750   40.575   31.695    0.350 2163.600
  138.000   32.902   29.498    0.377 2119.460
  138.250   28.215   31.139    0.399 2121.950
  138.500   25.895   32.870    0.375 2118.190
  138.750   28.398   29.803    0.367 2102.420
  139.000   29.707   25.743    0.372 2094.810
  139.250   26.192   25.220    0.391 2095.090
  139.500   29.867   25.291    0.403 2095.470
  139.750   32.370   25.362    0.403 2093.830
  140.000   28.281   26.131    0.404 2088.150
  140.250   24.789   26.873    0.379 2076.410
  140.500   23.088   27.688    0.382 2076.880
  140.750   28.532   28.474    0.362 2085.250
  141.000   40.592   29.310    0.367 2099.860
  141.250   43.670   30.199    0.403 2116.390
  141.500   32.413   32.691    0.422 2124.850
  141.750   29.495   36.327    0.430 2129.360
  142.000   29.610   43.453    0.413 2123.680
  142.250   34.502   54.715    0.418 2113.870
  142.500   36.960   63.941    0.407 2093.960
  142.750   37.051   56.532    0.381 2072.120
  143.000   40.726   38.889    0.408 2074.520
  143.250   40.221   28.879    0.411 2054.600
  143.500   37.325   29.698    0.374 2048.920
  143.750   42.218   32.150    0.374 2059.490
  144.000   41.712   32.270    0.388 2064.010
  144.250   44.193   31.586    0.428 2078.430
  144.500   48.465   31.734    0.423 2086.890
  144.750   45.570   31.823    0.380 2085.240
  145.000   40.861   31.972    0.387 2077.540
  145.250   35.622   31.294    0.423 2059.840
  145.500   36.265   31.382    0.410 2056.080
  145.750   35.162   31.529    0.411 2072.620
  146.000   34.656   31.618    0.396 2081.080
  146.250   35.345   31.736    0.367 2083.480
  146.500   33.667   32.698    0.379 2085.870
  146.750   32.564   32.821    0.372 2076.250
  147.000   35.022   34.646    0.351 2070.570
  147.250   31.529   35.697    0.347 2077.100
  147.500   26.866   34.939    0.334 2083.350
  147.750   29.323   34.166    0.341 2104.020
  148.000   29.438   33.441    0.353 2112.570
  148.250   28.909   31.947    0.332 2108.910
  148.500   30.792   32.097    0.332 2119.290
  148.750   28.494   32.977    0.345 2109.570
  149.000   30.975   37.579    0.379 2083.690
  149.250   40.048   43.834    0.351 2138.790
  149.500   44.941   48.708    0.327 2153.210
  149.750   39.634   37.968    0.360 2163.790
  150.000   31.961   28.168    0.384 2139.830
  150.250   26.654   24.331    0.384 2132.230
