~VERSION INFORMATION
 VERS.                 2.0:   CWLS LOG ASCII STANDARD -VERSION 2.0
 WRAP.                  NO:   ONE LINE PER DEPTH STEP
~WELL INFORMATION BLOCK
#MNEM.UNIT           DATA                    DESCRIPTION OF MNEMONIC
#---------    -------------------            -------------------------------
# Generated from Intellog Unique Number	CC_84_87/WELL/1059
NULL.         -999.25                        : NULL_VALUE
WELL.         PCI PCEJ HANGST OV             : Well_name    - WELL              
LOC .         05-13-084-11W4                 : Location     - LOCATION          
UWI .         AA/05-13-084-11W400            : Uwi          - UNIQUE WELL ID    
ENTR.         DW                             : Entered      - ENTERED BY        
SRVC.         SCHLUMBERGER                   : Scn          - SERVICE COMPANY   
DATE.         30 JAN 84                      : Date         - LOG DATE
STRT.M        135                            : top_depth    - START DEPTH       
STOP.M        379.796                        : bot_depth    - STOP DEPTH        
STEP.M        0.3                            : increment    - STEP LENGTH       
~CURVE INFORMATION BLOCK
#MNEM UNIT       ERCB CURVE CODE    CURVE DESCRIPTION
#-----------   ------------------   ----------------------------------
DEPT.M        00 001 00 00         : DEPTH        - DEPTH                       
DPHI.V/V      00 890 00 00         : PHID         - DENSITY POROSITY (LIMESTONE)
NPHI.V/V      00 330 00 00         : PHIN         - NEUTRON POROSITY (LIMESTONE)
GR  .API      00 310 00 00         : GR           - GAMMA RAY                   
ILD .OHMM     00 120 00 00         : RESD         - DEEP RESISTIVITY (DIL)      
~PARAMETER INFORMATION       
#MNEM.UNIT           DATA             DESCRIPTION OF MNEMONIC
#---------         -----------     ------------------------------
GL  .M        615.3                : gl           - GROUND LEVEL ELEVATION      
EREF.M        618.5                : kb           - ELEVATION OF DEPTH REFERENCE
DATM.M        618.5                : datum        - DATUM ELEVATION             
TDD .M        388                  : tdd          - TOTAL DEPTH DRILLER         
RUN .         ONE                  : Run          - RUN NUMBER                  
ENG .         BILL                 : Engineer     - RECORDING ENGINEER          
WIT .         JIM                  : Witness      - WITNESSED BY                
MUD .         GEL                  : Mud_type     - MUD TYPE                    
MATR.         LIMESTONE            : Logunit      - NEUTRON MATRIX              
TMAX.C        19.4                 : BHT          - MAXIMUM RECORDED TEMPERATURE
BHTD.M        388                  : BHTDEP       - MAXIMUM RECORDED TEMPERATURE
MATR.         1                    : LOGUNIT      - NEUTRON MATRIX              
RMT .C        25                   : MDTP         - TEMPERATURE OF MUD          
NEUT.         1                    : NEUTRON      - NEUTRON TYPE                
RESI.         0                    : RESIST       - RESISTIVITY TYPE            
RMC .OHMM     0.25                 : RMC          - RESISTIVITY OF MUD CAKE     
RMF .OHMM     0.25                 : RMF          - RESISTIVITY OF MUD FILTRATE 
SUFT.C        4                    : SUFT         - SURFACE TEMPERATURE         
~A  DEPTH     PHID     PHIN       GR     RESD
# ...
  343.798    0.285    0.375   34.494   62.584
  344.098    0.290    0.287   35.623   42.905
  344.398    0.151    0.284   45.260   27.798
  344.698    0.137    0.310  110.697   14.927
  344.998    0.125    0.348  114.861   11.890
  345.298    0.134    0.340  114.178   10.594
  345.598    0.124    0.332  106.818   10.179
  345.898    0.117    0.325   95.825   10.158
  346.198    0.127    0.324   92.716   10.325
  346.498    0.151    0.344  110.833   10.497
  346.798    0.164    0.342  127.740   11.936
  347.098    0.175    0.345  124.631   14.092
  347.398    0.219    0.366  106.352   16.037
  347.698    0.225    0.375   72.308   18.934
  347.997    0.242    0.376   74.046   21.542
  348.297    0.248    0.362   73.959   24.500
  348.597    0.230    0.363   73.891   23.967
  348.897    0.177    0.387   85.335   24.363
  349.197    0.181    0.345   83.441   25.248
  349.497    0.215    0.361   71.220   25.171
  349.797    0.220    0.371   82.673   23.733
  350.097    0.229    0.371   86.230   23.683
  350.397    0.231    0.372   75.237   24.995
  350.697    0.213    0.372   64.849   25.882
  350.997    0.216    0.360   65.970   25.823
  351.297    0.198    0.338   79.862   24.349
  351.597    0.182    0.333   88.276   23.386
  351.897    0.209    0.381   85.767   24.221
  352.197    0.247    0.403   71.738   25.568
  352.497    0.237    0.413   64.375   27.995
  352.797    0.248    0.393   60.648   33.070
  353.097    0.256    0.385   61.190   37.601
  353.397    0.230    0.377   59.899   38.226
  353.697    0.205    0.360   70.743   37.416
  353.997    0.200    0.342   87.043   35.963
  354.297    0.209    0.350   80.888   32.054
  354.597    0.198    0.359   78.993   28.563
  354.897    0.186    0.364   80.723   27.431
  355.197    0.206    0.384   79.451   26.856
  355.497    0.228    0.381   75.120   25.813
  355.797    0.217    0.364   78.675   24.348
  356.097    0.209    0.361   85.880   20.134
  356.397    0.205    0.334   92.482   16.337
  356.697    0.134    0.332   96.029   13.509
  356.997    0.141    0.350   96.561   10.751
  357.297    0.165    0.362   92.234   10.144
  357.597    0.123    0.365   89.128   10.123
  357.897    0.151    0.375   86.618   10.682
  358.197    0.166    0.390   85.332   12.147
  358.497    0.083    0.361   90.117   12.582
  358.797    0.104    0.356   95.493   11.423
  359.097    0.132    0.365   94.799   10.575
  359.397    0.176    0.405   90.484   10.160
  359.697    0.235    0.430   58.857   11.338
  359.997    0.250    0.431   49.084   13.395
  360.297    0.259    0.409   44.149   17.690
  360.597    0.234    0.384   36.185   19.031
  360.897    0.241    0.394   29.437   19.698
  361.197    0.261    0.367   28.148   20.796
  361.497    0.282    0.366   36.549   24.556
  361.797    0.266    0.374   38.898   30.117
  362.097    0.246    0.413   42.457   43.720
  362.397    0.256    0.430   44.209   59.985
  362.697    0.279    0.389   40.488   69.466
  362.997    0.288    0.390   37.976   71.996
  363.297    0.263    0.415   38.505   74.533
  363.597    0.270    0.400   37.822   78.686
  363.897    0.295    0.398   32.285   86.182
  364.197    0.286    0.391   28.563   99.867
  364.497    0.286    0.381   29.091  115.772
  364.797    0.252    0.401   32.662  129.250
  365.097    0.261    0.377   33.793  124.139
  365.397    0.290    0.357   31.902  123.827
  365.697    0.296    0.399   33.641  133.181
  365.997    0.231    0.409   33.563  151.484
  366.297    0.247    0.394   28.017  172.339
  366.597    0.294    0.370   29.154  219.303
  366.897    0.277    0.375   30.901  274.025
  367.197    0.229    0.387   29.584  283.799
  367.497    0.234    0.390   30.134  257.690
  367.797    0.266    0.384   32.483  229.672
  368.097    0.272    0.378   35.436  212.502
  368.397    0.259    0.379   34.736  200.486
  368.697    0.232    0.387   33.461  178.659
  368.997    0.236    0.403   32.169  162.257
  369.297    0.253    0.418   31.483  161.858
  369.597    0.254    0.419   51.431  155.498
  369.897    0.273    0.401   47.104  138.650
  370.197    0.256    0.383   33.685  114.631
  370.497    0.262    0.388   28.118   91.293
  370.797    0.267    0.403   28.668   82.933
  371.097    0.284    0.408   31.024   82.734
  371.397    0.275    0.405   28.520   77.978
  371.697    0.247    0.401   28.430   72.186
  371.997    0.246    0.384   30.179   60.817
  372.297    0.068    0.328   28.885   37.254
  372.596    0.000    0.268   29.402   23.692
  372.896    0.004    0.122   30.553   20.342
  373.196    0.011    0.133   27.436   24.021
  373.496    0.022    0.144   24.935   32.346
  373.796    0.036    0.147   24.862   54.554
  374.096    0.041    0.141   24.765   63.200
  374.396    0.036    0.132   23.482   70.539
  374.696    0.022    0.124   19.162   77.304
  374.996    0.013    0.125   15.443   93.041
  375.296    0.021    0.129   13.541  105.812
  375.596    0.025    0.133   13.470  107.476
  375.896    0.017    0.136   15.823   92.356
  376.196    0.016    0.141   16.344   68.233
  376.496    0.019    0.141   18.693   63.152
  376.796    0.000    0.117   24.078   70.474
  377.096    0.000    0.114   25.208   86.428
  377.396    0.004    0.127   23.311   89.449
  377.696    0.016    0.139   22.027   79.707
  377.996    0.010    0.145   23.767   73.826
  378.296    0.000    0.137   23.081   67.059
  378.596    0.000    0.122   24.812   70.758
  378.896    0.000    0.124   23.534   76.003
  379.196    0.000    0.126   21.029   77.316
  379.496    0.001    0.125   19.735   77.134
  379.796    0.006    0.123   19.052   72.662
