~VERSION INFORMATION
 VERS.                 2.0:   CWLS LOG ASCII STANDARD -VERSION 2.0
 WRAP.                  NO:   ONE LINE PER DEPTH STEP
~WELL INFORMATION BLOCK
#MNEM.UNIT           DATA                    DESCRIPTION OF MNEMONIC
#---------    -------------------            -------------------------------
# Generated from Intellog Unique Number	CN_94_101/WELL/2717
WELL.         SYNCRUDE CANADA LTD.           : Well_name    - WELL
LOC .         AA/01-07-094-12W4/0            : Location     - LOCATION
UWI .         AA/01-07-094-12W400            : Uwi          - UNIQUE WELL ID
ENTR.         JOETTE                         : Entered      - ENTERED BY
SRVC.         SCHLUMBERGER                   : Scn          - SERVICE COMPANY
DATE.         06/19/92                       : Date         - LOG DATE
STRT.F        30                             : top_depth    - START DEPTH
STOP.F        340.039                        : bot_depth    - STOP DEPTH
STEP.F        0.8202                         : increment    - STEP LENGTH
 NULL. -999.2500:NULL Value
~CURVE INFORMATION BLOCK
#MNEM UNIT       ERCB CURVE CODE    CURVE DESCRIPTION
#-----------   ------------------   ----------------------------------
DEPT.F        00 001 00 00         : DEPTH        - DEPTH
GR  .API      00 310 00 00         : GR           - GAMMA RAY
NPHI.V/V      00 330 00 00         : PHIN         - NEUTRON POROSITY (SANDSTONE)
DPHI.V/V      00 890 00 00         : PHID         - DENSITY POROSITY (SANDSTONE)
ILD .OHMM     00 120 00 00         : RESD         - DEEP RESISTIVITY (DIL)
~PARAMETER INFORMATION
#MNEM.UNIT           DATA             DESCRIPTION OF MNEMONIC
#---------         -----------     ------------------------------
GL  .F        1156                 : gl           - GROUND LEVEL ELEVATION
EREF.F        1156                 : kb           - ELEVATION OF DEPTH REFERENCE
DATM.F        1156                 : datum        - DATUM ELEVATION
TDD .F        355                  : tdd          - TOTAL DEPTH DRILLER
RUN .         ONE                  : Run          - RUN NUMBER
ENG .         JO                   : Engineer     - RECORDING ENGINEER
WIT .         TIM                  : Witness      - WITNESSED BY
MUD .         GEL                  : Mud_type     - MUD TYPE
MATR.         SANDSTONE            : Logunit      - NEUTRON MATRIX
TMAX.F        50                   : BHT          - MAXIMUM RECORDED TEMPERATURE
BHTD.F        355                  : BHTDEP       - MAXIMUM RECORDED TEMPERATURE
RMT .F        50                   : MDTP         - TEMPERATURE OF MUD
MUDD.LB/G     1.11                 : MWT          - MUD DENSITY
NEUT.         1                    : NEUTRON      - NEUTRON TYPE
RESI.         0                    : RESIST       - RESISTIVITY TYPE
RM  .OHMM     8.1                  : RM           - RESISTIVITY OF MUD
RMC .OHMM     8.1                  : RMC          - RESISTIVITY OF MUD CAKE
RMF .OHMM     8.1                  : RMF          - RESISTIVITY OF MUD FILTRATE
SUFT.F        39.2                 : SUFT         - SURFACE TEMPERATURE
~A  DEPTH       GR     PHIN     PHID     RESD
   30.000   71.013    0.518    0.324   49.570
   30.820   71.032    0.506    0.310   50.487
   31.640   72.861    0.492    0.280   48.638
   32.461   72.880    0.496    0.283   38.917
   33.281   72.292    0.526    0.290  104.059
   34.101   67.497    0.529    0.252  311.024
   34.921   64.508    0.456    0.219   46.817
   35.742   60.916    0.426    0.201   38.161
   36.562   57.926    0.409    0.190   34.131
   37.382   57.343    0.422    0.186   30.527
   38.202   58.575    0.453    0.250   28.866
   39.022   59.191    0.479    0.258   25.814
   39.843   59.210    0.488    0.262   26.290
   40.663   59.229    0.486    0.271   27.281
   41.483   60.451    0.486    0.279   29.927
   42.303   61.678    0.492    0.279   27.779
   43.123   61.096    0.482    0.274   24.843
   43.944   62.323    0.470    0.266   45.831
   44.764   63.540    0.463    0.263  168.015
   45.584   65.364    0.453    0.272   35.983
   46.404   65.388    0.452    0.278   38.747
   47.224   63.005    0.474    0.271   42.505
   48.045   61.209    0.480    0.251   44.928
   48.865   60.024    0.423    0.194   44.917
   49.685   60.650    0.397    0.167   43.270
   50.505   63.677    0.394    0.140   33.985
   51.325   69.112    0.448    0.233   33.976
   52.146   77.555    0.497    0.260   29.281
   52.966   88.405    0.527    0.264   92.529
   53.786   95.047    0.603    0.268  767.653
   54.606  108.309    0.596    0.252   16.456
   55.426  114.340    0.557    0.273   15.852
   56.247  119.173    0.518    0.280   17.071
   57.067  114.985    0.507    0.275   19.799
   57.887  108.991    0.504    0.271   22.126
   58.707  105.399    0.490    0.276   21.313
   59.528  105.414    0.466    0.274   13.396
   60.348  108.441    0.485    0.287   12.668
   61.168  110.265    0.488    0.280   15.534
   61.988  107.877    0.477    0.276   16.117
   62.808  106.096    0.478    0.285   13.634
   63.629  108.521    0.488    0.294   11.970
   64.449  109.744    0.501    0.295   10.706
   65.269  106.152    0.501    0.292   12.886
   66.089  104.366    0.488    0.282   14.944
   66.909  105.593    0.486    0.265   11.958
   67.730  109.218    0.504    0.275    7.800
   68.550  112.847    0.503    0.288    8.399
   69.370  117.083    0.490    0.288    7.653
   70.190  120.110    0.496    0.289    7.104
   71.010  120.129    0.520    0.293    6.594
   71.831  113.534    0.543    0.304    6.235
   72.651  111.141    0.577    0.312    5.474
   73.471  111.160    0.567    0.324    5.273
   74.291  113.585    0.564    0.337    4.986
   75.112  110.600    0.583    0.343    4.378
   75.932  108.809    0.589    0.339    4.458
   76.752  111.842    0.551    0.339    5.268
   77.572  113.069    0.533    0.299    7.356
   78.392  111.879    0.503    0.270    6.828
   79.213  114.305    0.529    0.265    6.337
   80.033  116.736    0.533    0.279    6.952
   80.853  115.551    0.523    0.273    8.214
   81.673  111.960    0.506    0.267   11.684
   82.493  108.378    0.482    0.259   14.327
   83.314  108.998    0.459    0.216   11.464
   84.134  110.818    0.430    0.188    7.907
   84.954  112.035    0.429    0.203    7.905
   85.774  115.665    0.447    0.239    7.615
   86.594  117.489    0.456    0.263    8.831
   87.415  121.724    0.453    0.263    9.869
   88.235  126.557    0.443    0.244   10.240
   89.055  125.372    0.431    0.229   13.275
   89.875  113.959    0.426    0.202   11.230
   90.695  107.960    0.424    0.182    9.500
   91.516  109.784    0.437    0.209    9.857
   92.336  113.414    0.454    0.232    9.854
   93.156  117.649    0.453    0.234    9.852
   93.976  120.075    0.440    0.244    9.668
   94.797  117.687    0.446    0.251    8.974
   95.617  115.905    0.462    0.255    7.048
   96.437  118.331    0.482    0.259    6.789
   97.257  121.359    0.476    0.264    6.540
   98.077  123.178    0.485    0.259    6.913
   98.898  121.397    0.485    0.252   10.790
   99.718  117.805    0.450    0.244   11.837
  100.538  116.019    0.432    0.231   11.403
  101.358  117.848    0.454    0.213    8.470
  102.178  120.870    0.468    0.217    8.312
  102.999  123.301    0.461    0.243    7.716
  103.819  123.320    0.443    0.252    7.433
  104.639  123.334    0.438    0.258    7.295
  105.459  123.362    0.433    0.258    7.855
  106.280  125.186    0.437    0.253    8.777
  107.100  122.192    0.466    0.249    8.776
  107.920  117.402    0.468    0.246    8.146
  108.740  116.824    0.477    0.247    7.422
  109.560  118.036    0.477    0.258    7.018
  110.381  120.462    0.467    0.250    6.161
  111.201  119.879    0.446    0.213    7.555
  112.021  110.872    0.434    0.203   12.238
  112.841  104.879    0.430    0.181   13.178
  113.661  108.508    0.474    0.243    6.155
  114.482  114.544    0.528    0.272    4.925
  115.302  119.382    0.557    0.317    4.014
  116.122  118.197    0.539    0.293    4.743
  116.942  119.419    0.513    0.279    6.264
  117.762  120.642    0.487    0.260    7.000
  118.583  115.847    0.491    0.236    5.813
  119.403  115.875    0.506    0.245    5.395
  120.223  118.291    0.504    0.275    5.102
  121.043  122.527    0.493    0.280    4.563
  121.864  120.741    0.517    0.268    6.255
  122.684  117.751    0.524    0.257    6.735
  123.504  116.562    0.517    0.269    6.024
  124.324  111.772    0.516    0.281    5.191
  125.144  105.773    0.528    0.293    5.000
  125.965  100.377    0.546    0.303    4.472
  126.785   94.985    0.567    0.326    3.714
  127.605   91.388    0.581    0.349    2.708
  128.425   88.403    0.599    0.376    2.810
  129.245   87.816    0.610    0.376    2.809
  130.066   88.436    0.610    0.372    2.706
  130.886   88.455    0.611    0.378    2.756
  131.706   87.873    0.617    0.352    2.807
  132.526   90.303    0.604    0.325    3.137
  133.346   93.331    0.568    0.305    7.934
  134.167   90.341    0.524    0.268    8.231
  134.987   85.551    0.441    0.269    7.783
  135.807   85.570    0.401    0.265    7.638
  136.627   86.190    0.407    0.234   19.318
  137.448   86.204    0.442    0.242   15.457
  138.268   86.223    0.473    0.254    7.219
  139.088   88.052    0.422    0.216    3.565
  139.908   91.084    0.420    0.200    3.839
  140.728   95.315    0.526    0.254    4.535
  141.549  100.745    0.544    0.297    4.619
  142.369  106.189    0.554    0.310    4.704
  143.189  108.013    0.564    0.303    4.973
  144.009  108.629    0.554    0.294    5.875
  144.829  109.249    0.529    0.295    5.874
  145.650  111.074    0.508    0.289    4.969
  146.470  112.907    0.510    0.281    5.252
  147.290  113.523    0.521    0.273    6.441
  148.110  114.750    0.526    0.281    5.760
  148.930  115.972    0.514    0.276    4.608
  149.751  117.796    0.520    0.268    4.963
  150.571  120.217    0.539    0.293    5.756
  151.391  117.232    0.522    0.277    7.325
  152.211  113.035    0.494    0.256   23.147
  153.031  105.833    0.458    0.244   31.144
  153.852   96.224    0.434    0.219    8.031
  154.672   85.412    0.415    0.164    9.848
  155.492   87.838    0.447    0.291   16.555
  156.312   83.644    0.412    0.285   13.246
  157.133   74.637    0.371    0.284   56.336
  157.953   62.020    0.332    0.292   51.330
  158.773   43.385    0.312    0.262   39.574
  159.593   39.794    0.275    0.251   43.409
  160.413   39.216    0.244    0.267   41.048
  161.234   38.633    0.312    0.303   33.455
  162.054   37.448    0.338    0.332   34.716
  162.874   36.273    0.354    0.344   36.693
  163.694   36.283    0.371    0.330   33.434
  164.514   36.913    0.378    0.325   31.614
  165.335   36.922    0.382    0.334   32.802
  166.155   37.547    0.389    0.350   34.670
  166.975   38.779    0.395    0.347   37.330
  167.795   39.997    0.391    0.324   38.735
  168.615   40.613    0.386    0.319   42.492
  169.436   43.043    0.379    0.314   48.376
  170.256   43.659    0.385    0.309   45.745
  171.076   43.678    0.390    0.314   39.423
  171.896   41.892    0.380    0.306   33.970
