~VERSION INFORMATION
 VERS.                 2.0:   CWLS LOG ASCII STANDARD -VERSION 2.0
 WRAP.                  NO:   ONE LINE PER DEPTH STEP
~WELL INFORMATION BLOCK
#MNEM.UNIT           DATA                    DESCRIPTION OF MNEMONIC
#---------    -------------------            -------------------------------
# Generated from Intellog Unique Number	CN_94_101/WELL/4989
WELL.         07-09-099-14W4                 : Well_name    - WELL
LOC .         AA/07-09-099-14W4/0            : Location     - LOCATION
UWI .         AA/07-09-099-14W400            : Uwi          - UNIQUE WELL ID
ENTR.         TIM                            : Entered      - ENTERED BY
SRVC.         SCHLUMBERGER                   : Scn          - SERVICE COMPANY
DATE.         08/11/92                       : Date         - LOG DATE
STRT.M        350                            : top_depth    - START DEPTH
STOP.M        550                            : bot_depth    - STOP DEPTH
STEP.M        0.25                           : increment    - STEP LENGTH
 NULL. -999.2500:NULL Value
~CURVE INFORMATION BLOCK
#MNEM UNIT       ERCB CURVE CODE    CURVE DESCRIPTION
#-----------   ------------------   ----------------------------------
DEPT.M        00 001 00 00         : DEPTH        - DEPTH
GR  .API      00 310 00 00         : GR           - GAMMA RAY
ILD .OHMM     00 120 00 00         : RESD         - DEEP RESISTIVITY (DIL)
NPHI.V/V      00 330 00 00         : PHIN         - NEUTRON POROSITY (SANDSTONE)
DPHI.V/V      00 890 00 00         : PHID         - DENSITY POROSITY (SANDSTONE)
~PARAMETER INFORMATION
#MNEM.UNIT           DATA             DESCRIPTION OF MNEMONIC
#---------         -----------     ------------------------------
GL  .M        792                  : gl           - GROUND LEVEL ELEVATION
EREF.M        795.6                : kb           - ELEVATION OF DEPTH REFERENCE
DATM.M        795.6                : datum        - DATUM ELEVATION
TDD .M        551                  : tdd          - TOTAL DEPTH DRILLER
RUN .         ONE                  : Run          - RUN NUMBER
ENG .         JO                   : Engineer     - RECORDING ENGINEER
WIT .         TIM                  : Witness      - WITNESSED BY
MUD .         GEL                  : Mud_type     - MUD TYPE
MATR.         SANDSTONE            : Logunit      - NEUTRON MATRIX
TMAX.C        30                   : BHT          - MAXIMUM RECORDED TEMPERATURE
BHTD.M        551                  : BHTDEP       - MAXIMUM RECORDED TEMPERATURE
RMT .C        27                   : MDTP         - TEMPERATURE OF MUD
MUDD.KG/M     1050                 : MWT          - MUD DENSITY
NEUT.         1                    : NEUTRON      - NEUTRON TYPE
RESI.         0                    : RESIST       - RESISTIVITY TYPE
RM  .OHMM     3.5                  : RM           - RESISTIVITY OF MUD
RMC .OHMM     3.5                  : RMC          - RESISTIVITY OF MUD CAKE
RMF .OHMM     3.5                  : RMF          - RESISTIVITY OF MUD FILTRATE
SUFT.C        4                    : SUFT         - SURFACE TEMPERATURE
~A  DEPTH       GR     RESD     PHIN     PHID
  350.000   94.788    2.165    0.442    0.265
  350.250   94.840    2.130    0.447    0.267
  350.500   93.686    2.097    0.448    0.270
  350.750   90.709    2.064    0.439    0.272
  351.000   87.154    2.103    0.437    0.274
  351.250   86.603    2.105    0.455    0.274
  351.500   89.672    2.108    0.467    0.270
  351.750   91.535    2.112    0.462    0.266
  352.000   91.574    2.080    0.445    0.265
  352.250   89.830    2.081    0.431    0.265
  352.500   89.266    2.159    0.427    0.269
  352.750   89.318    2.198    0.420    0.273
  353.000   89.987    2.318    0.416    0.280
  353.250   88.820    2.361    0.410    0.286
  353.500   86.459    2.447    0.397    0.291
  353.750   82.301    2.582    0.395    0.292
  354.000   79.927    2.722    0.402    0.292
  354.250   79.389    2.774    0.416    0.292
  354.500   78.838    2.684    0.435    0.293
  354.750   77.081    2.640    0.452    0.301
  355.000   75.323    2.468    0.463    0.309
  355.250   74.772    2.307    0.470    0.312
  355.500   78.444    2.193    0.472    0.314
  355.750   84.530    2.050    0.468    0.311
  356.000   85.186    1.982    0.461    0.303
  356.250   84.031    1.918    0.443    0.301
  356.500   82.877    1.920    0.444    0.306
  356.750   82.943    2.026    0.446    0.320
  357.000   82.995    2.173    0.445    0.336
  357.250   81.841    2.373    0.442    0.348
  357.500   80.674    2.547    0.434    0.350
  357.750   75.899    2.593    0.430    0.348
  358.000   71.728    2.643    0.420    0.345
  358.250   69.971    2.692    0.394    0.339
  358.500   71.230    2.743    0.400    0.330
  358.750   73.709    2.747    0.420    0.324
  359.000   77.381    2.704    0.439    0.324
  359.250   78.627    2.615    0.461    0.324
  359.500   82.326    2.444    0.432    0.322
  359.750   80.568    2.283    0.435    0.317
  360.000   80.030    2.134    0.437    0.310
  360.250   80.660    2.064    0.439    0.302
  360.500   83.139    2.141    0.448    0.296
  360.750   84.398    2.257    0.456    0.287
  361.000   83.847    2.381    0.432    0.288
  361.250   80.883    2.467    0.420    0.301
  361.500   79.728    2.603    0.419    0.313
  361.750   86.417    2.652    0.417    0.329
  362.000   84.043    2.701    0.416    0.337
  362.250   80.476    2.705    0.413    0.340
  362.500   76.305    2.709    0.404    0.337
  362.750   74.547    2.362    0.398    0.332
  363.000   75.203    2.170    0.405    0.319
  363.250   77.066    1.959    0.426    0.304
  363.500   78.351    1.862    0.432    0.292
  363.750   78.390    1.625    0.438    0.300
  364.000   79.059    1.545    0.469    0.316
  364.250   79.701    1.494    0.475    0.324
  364.500   80.974    1.446    0.470    0.320
  364.750   81.013    1.447    0.465    0.317
  365.000   81.669    1.609    0.466    0.310
  365.250   79.924    1.667    0.468    0.304
  365.500   77.563    1.820    0.466    0.298
  365.750   75.202    1.918    0.453    0.301
  366.000   77.078    2.024    0.445    0.316
  366.250   78.337    2.061    0.464    0.322
  366.500   76.553    2.100    0.455    0.314
  366.750   73.602    2.103    0.431    0.312
  367.000   79.084    2.070    0.436    0.319
  367.250   84.567    2.003    0.438    0.326
  367.500   85.236    1.937    0.437    0.317
  367.750   83.478    1.842    0.432    0.314
  368.000   81.104    1.813    0.427    0.314
  368.250   79.347    1.785    0.424    0.323
  368.500   78.796    1.817    0.419    0.335
  368.750   76.435    2.090    0.409    0.342
  369.000   70.467    2.242    0.398    0.311
  369.250   69.287    2.365    0.390    0.300
  369.500   70.559    2.409    0.391    0.319
  369.750   71.818    2.498    0.404    0.358
  370.000   71.870    2.501    0.412    0.347
  370.250   71.922    2.547    0.395    0.318
  370.500   71.988    2.552    0.385    0.313
  370.750   72.631    2.554    0.392    0.303
  371.000   74.519    2.558    0.403    0.282
  371.250   75.149    2.517    0.397    0.268
  371.500   77.011    2.521    0.392    0.271
  371.750   79.477    2.440    0.387    0.276
  372.000   79.569    2.401    0.386    0.284
  372.250   79.005    2.323    0.388    0.294
  372.500   78.441    2.286    0.396    0.301
  372.750   77.929    2.250    0.407    0.302
  373.000   77.968    2.254    0.412    0.297
  373.250   77.391    2.217    0.412    0.297
  373.500   76.853    2.182    0.410    0.306
  373.750   76.893    2.187    0.402    0.300
  374.000   76.958    2.188    0.395    0.284
  374.250   76.997    2.193    0.386    0.277
  374.500   77.653    2.233    0.376    0.272
  374.750   77.706    2.316    0.371    0.294
  375.000   77.155    2.357    0.371    0.362
  375.250   76.617    2.529    0.372    0.358
  375.500   74.243    3.010    0.373    0.347
  375.750   67.659    3.905    0.373    0.336
  376.000   60.471    4.729    0.369    0.317
  376.250   52.680    4.987    0.358    0.310
  376.500   50.306    4.824    0.350    0.313
  376.750   49.165    4.665    0.358    0.318
  377.000   51.028    4.286    0.363    0.323
  377.250   55.907    3.938    0.370    0.329
  377.500   60.182    3.942    0.381    0.330
  377.750   61.441    3.881    0.388    0.333
  378.000   61.494    3.887    0.392    0.336
  378.250   62.163    3.824    0.395    0.341
  378.500   62.805    3.639    0.399    0.342
  378.750   64.091    3.579    0.398    0.342
  379.000   66.556    3.463    0.387    0.341
  379.250   67.815    3.294    0.368    0.337
  379.500   70.281    3.240    0.362    0.326
  379.750   72.143    3.135    0.363    0.273
  380.000   74.622    2.981    0.371    0.279
  380.250   77.075    2.835    0.401    0.280
  380.500   79.540    2.742    0.405    0.271
  380.750   79.593    2.745    0.392    0.265
  381.000   79.042    2.702    0.398    0.266
  381.250   77.284    2.706    0.405    0.270
  381.500   75.527    2.758    0.399    0.277
  381.750   73.179    2.762    0.384    0.287
  382.000   73.245    2.765    0.383    0.292
  382.250   73.284    2.768    0.383    0.285
  382.500   73.953    2.771    0.382    0.279
  382.750   74.595    2.729    0.381    0.274
  383.000   75.854    2.686    0.387    0.269
  383.250   77.113    2.688    0.391    0.275
  383.500   77.756    2.648    0.401    0.284
  383.750   77.808    2.607    0.401    0.293
  384.000   77.861    2.565    0.375    0.303
  384.250   77.913    2.523    0.370    0.304
  384.500   78.595    2.484    0.375    0.305
  384.750   79.225    2.445    0.384    0.310
  385.000   81.113    2.365    0.413    0.319
  385.250   81.166    2.288    0.437    0.327
  385.500   79.408    2.176    0.445    0.324
  385.750   77.651    2.141    0.412    0.304
  386.000   77.087    2.073    0.406    0.310
  386.250   77.152    2.075    0.415    0.313
  386.500   77.191    2.078    0.423    0.306
  386.750   78.464    2.080    0.432    0.294
  387.000   79.723    2.083    0.444    0.285
  387.250   79.775    2.085    0.456    0.276
  387.500   78.621    2.125    0.470    0.273
  387.750   77.467    2.128    0.465    0.277
  388.000   76.325    2.131    0.460    0.286
  388.250   76.352    2.134    0.446    0.288
  388.500   77.034    2.137    0.426    0.290
  388.750   78.266    2.140    0.417    0.290
  389.000   80.142    2.142    0.420    0.290
  389.250   82.634    2.146    0.428    0.291
  389.500   83.867    2.148    0.432    0.291
  389.750   86.359    2.114    0.438    0.291
  390.000   88.208    2.010    0.438    0.289
  390.250   90.674    1.878    0.435    0.285
  390.500   94.333    1.787    0.434    0.275
  390.750   96.812    1.788    0.430    0.264
  391.000   97.467    1.791    0.429    0.260
  391.250   95.723    1.858    0.431    0.262
  391.500   93.349    1.859    0.432    0.268
  391.750   90.385    1.862    0.431    0.273
  392.000   91.067    1.833    0.432    0.277
  392.250   91.093    1.773    0.433    0.287
  392.500   91.762    1.716    0.431    0.288
  392.750   90.594    1.718    0.428    0.288
  393.000   85.230    1.690    0.426    0.286
  393.250   84.666    1.693    0.427    0.289
