~VERSION INFORMATION
 VERS.                 2.0:   CWLS LOG ASCII STANDARD -VERSION 2.0
 WRAP.                  NO:   ONE LINE PER DEPTH STEP
~WELL INFORMATION BLOCK
#MNEM.UNIT           DATA                    DESCRIPTION OF MNEMONIC
#---------    -------------------            -------------------------------
# Generated from Intellog Unique Number	CN_94_101/WELL/3291
WELL.         01-35-095-07W4                 : Well_name    - WELL
LOC .         AA/01-35-095-07W4/0            : Location     - LOCATION
UWI .         AA/01-35-095-07W400            : Uwi          - UNIQUE WELL ID
ENTR.         JOETTE                         : Entered      - ENTERED BY
SRVC.         SCHLUMBERGER                   : Scn          - SERVICE COMPANY
DATE.         07/22/92                       : Date         - LOG DATE
STRT.M        50                             : top_depth    - START DEPTH
STOP.M        235                            : bot_depth    - STOP DEPTH
STEP.M        0.25                           : increment    - STEP LENGTH
 NULL. -999.2500:NULL Value
~CURVE INFORMATION BLOCK
#MNEM UNIT       ERCB CURVE CODE    CURVE DESCRIPTION
#-----------   ------------------   ----------------------------------
DEPT.M        00 001 00 00         : DEPTH        - DEPTH
GR  .API      00 310 00 00         : GR           - GAMMA RAY
NPHI.V/V      00 330 00 00         : PHIN         - NEUTRON POROSITY (SANDSTONE)
DPHI.V/V      00 890 00 00         : PHID         - DENSITY POROSITY (SANDSTONE)
ILD .OHMM     00 120 00 00         : RESD         - DEEP RESISTIVITY (DIL)
~PARAMETER INFORMATION
#MNEM.UNIT           DATA             DESCRIPTION OF MNEMONIC
#---------         -----------     ------------------------------
GL  .M        494.08               : gl           - GROUND LEVEL ELEVATION
EREF.M        495.88               : kb           - ELEVATION OF DEPTH REFERENCE
DATM.M        495.88               : datum        - DATUM ELEVATION
TDD .M        236                  : tdd          - TOTAL DEPTH DRILLER
RUN .         ONE                  : Run          - RUN NUMBER
ENG .         JO                   : Engineer     - RECORDING ENGINEER
WIT .         TIM                  : Witness      - WITNESSED BY
MUD .         GEL                  : Mud_type     - MUD TYPE
MATR.         SANDSTONE            : Logunit      - NEUTRON MATRIX
TMAX.C        4.4                  : BHT          - MAXIMUM RECORDED TEMPERATURE
BHTD.M        236                  : BHTDEP       - MAXIMUM RECORDED TEMPERATURE
RMT .C        4.4                  : MDTP         - TEMPERATURE OF MUD
MUDD.KG/M     1030                 : MWT          - MUD DENSITY
NEUT.         1                    : NEUTRON      - NEUTRON TYPE
RESI.         0                    : RESIST       - RESISTIVITY TYPE
RM  .OHMM     7.4                  : RM           - RESISTIVITY OF MUD
RMC .OHMM     7.4                  : RMC          - RESISTIVITY OF MUD CAKE
RMF .OHMM     7.4                  : RMF          - RESISTIVITY OF MUD FILTRATE
SUFT.C        4                    : SUFT         - SURFACE TEMPERATURE
~A  DEPTH       GR     PHIN     PHID     RESD
# ...
  137.000   75.077    0.487    0.246    5.741
  137.250   78.063    0.489    0.258    5.026
  137.500   78.038    0.543    0.275    4.318
  137.750   77.429    0.571    0.296    3.780
  138.000   75.610    0.586    0.329    3.503
  138.250   73.783    0.607    0.348    3.570
  138.500   74.367    0.629    0.349    3.925
  138.750   77.957    0.624    0.342    4.076
  139.000   83.942    0.613    0.336    4.154
  139.250   85.130    0.617    0.331    4.481
  139.500   82.111    0.619    0.321    4.835
  139.750   79.692    0.614    0.305    5.735
  140.000   81.468    0.600    0.287    6.305
  140.250   83.257    0.581    0.278    6.186
  140.500   84.445    0.565    0.278    6.547
  140.750   84.424    0.557    0.282    7.621
  141.000   83.811    0.536    0.273    8.539
  141.250   79.586    0.522    0.256    7.619
  141.500   77.763    0.524    0.260    6.545
  141.750   77.142    0.515    0.262    8.064
  142.000   77.133    0.503    0.269   10.126
  142.250   77.117    0.489    0.264    9.384
  142.500   77.091    0.488    0.253    6.795
  142.750   76.482    0.506    0.250    7.614
  143.000   77.666    0.541    0.264    8.532
  143.250   78.246    0.551    0.273    8.371
  143.500   78.825    0.540    0.274    7.191
  143.750   79.418    0.545    0.263    5.946
  144.000   81.202    0.554    0.262    6.538
  144.250   83.587    0.562    0.269    7.053
  144.500   85.964    0.559    0.279    7.325
  144.750   85.947    0.546    0.289    7.324
  145.000   85.935    0.543    0.296    6.660
  145.250   85.909    0.555    0.291    6.291
  145.500   86.501    0.576    0.294    5.508
  145.750   88.878    0.582    0.301    5.302
  146.000   91.268    0.586    0.304    5.008
  146.250   93.057    0.592    0.294    4.821
  146.500   96.639    0.597    0.291    4.820
  146.750   99.028    0.592    0.303    5.102
  147.000   99.608    0.565    0.294    6.052
  147.250   97.189    0.539    0.283    7.317
  147.500   93.573    0.519    0.284    9.014
  147.750   86.946    0.509    0.270    8.515
  148.000   85.123    0.501    0.245    7.177
  148.250   82.704    0.511    0.227    6.526
  148.500   79.689    0.536    0.238    6.908
  148.750   68.262    0.548    0.246   10.097
  149.000   62.841    0.510    0.237   26.583
  149.250   53.211    0.481    0.224   68.671
  149.500   50.192    0.435    0.220   30.355
  149.750   53.778    0.394    0.245   21.567
  150.000   57.965    0.359    0.263   35.325
  150.250   57.347    0.395    0.261   40.342
  150.500   54.924    0.443    0.265   46.070
  150.750   53.106    0.468    0.292   40.333
  151.000   54.890    0.438    0.309   28.656
  151.250   57.280    0.432    0.312   22.816
  151.500   60.266    0.432    0.281   19.975
  151.750   63.852    0.432    0.274   18.512
  152.000   67.438    0.431    0.275   33.340
  152.250   69.223    0.422    0.263   49.667
  152.500   63.197    0.402    0.263  108.153
  152.750   58.972    0.375    0.322  152.192
  153.000   57.153    0.364    0.315  167.328
  153.250   57.737    0.366    0.318  149.299
  153.500   60.126    0.375    0.328  125.839
  153.750   62.512    0.382    0.326  104.070
  154.000   66.094    0.383    0.317   86.067
  154.250   66.077    0.388    0.306   79.766
  154.500   64.855    0.403    0.303   65.964
  154.750   64.246    0.409    0.296   62.309
  155.000   65.430    0.409    0.296   53.523
  155.250   66.614    0.404    0.301   41.814
  155.500   68.390    0.404    0.285   32.052
  155.750   69.570    0.416    0.279   29.146
  156.000   70.162    0.429    0.265   28.596
  156.250   73.148    0.423    0.241   32.656
  156.500   76.134    0.412    0.251   25.032
  156.750   80.321    0.441    0.260   19.556
  157.000   83.306    0.455    0.235   15.570
  157.250   81.480    0.466    0.231   16.480
  157.500   80.266    0.471    0.216   17.779
  157.750   78.447    0.477    0.225   20.304
  158.000   77.234    0.474    0.244   19.177
  158.250   74.806    0.460    0.275   20.689
  158.500   74.197    0.452    0.243   23.626
  158.750   76.574    0.447    0.244   24.076
  159.000   80.165    0.438    0.230   21.078
  159.250   83.150    0.432    0.210   24.072
  159.500   79.530    0.427    0.225   27.490
  159.750   74.709    0.424    0.254   24.067
  160.000   69.888    0.405    0.256   30.220
  160.250   66.264    0.409    0.232   38.675
  160.500   69.250    0.409    0.241   37.230
  160.750   72.840    0.405    0.234   24.987
  161.000   75.225    0.416    0.228   25.463
  161.250   74.007    0.423    0.232   29.637
  161.500   71.589    0.421    0.242   35.828
  161.750   69.766    0.437    0.269   40.145
  162.000   67.943    0.442    0.267   31.363
  162.250   67.931    0.428    0.264   24.971
  162.500   70.916    0.423    0.253   23.143
  162.750   73.898    0.431    0.244   26.935
  163.000   74.486    0.440    0.249   29.614
  163.250   73.860    0.451    0.249   29.611
  163.500   73.852    0.446    0.239   27.443
  163.750   73.835    0.444    0.230   25.433
  164.000   73.818    0.441    0.232   24.484
  164.250   75.002    0.440    0.223   23.569
  164.500   75.581    0.432    0.217   22.689
  164.750   72.562    0.421    0.226   22.687
  165.000   69.542    0.437    0.238   27.425
  165.250   68.925    0.429    0.239   33.791
  165.500   70.710    0.410    0.237   40.082
  165.750   73.691    0.409    0.241   32.525
  166.000   76.081    0.421    0.228   30.721
  166.250   77.861    0.425    0.228   33.776
  166.500   77.849    0.420    0.228   33.773
  166.750   77.832    0.409    0.221   31.300
  167.000   76.009    0.396    0.212   29.565
  167.250   71.788    0.400    0.246   36.426
  167.500   65.766    0.389    0.237   44.880
  167.750   62.146    0.394    0.247   47.506
  168.000   55.520    0.422    0.262   82.373
  168.250   53.105    0.415    0.285  125.059
  168.500   54.889    0.400    0.292   44.018
  168.750   65.682    0.389    0.246   30.109
  169.000   69.264    0.392    0.207   46.587
  169.250   67.446    0.399    0.218   64.324
  169.500   64.426    0.412    0.230   83.897
  169.750   60.806    0.429    0.255   88.805
  170.000   56.581    0.446    0.315  103.358
  170.250   53.562    0.436    0.321  169.298
  170.500   51.147    0.430    0.319  105.317
  170.750   53.532    0.438    0.317   88.765
  171.000   54.717    0.425    0.284   99.466
  171.250   51.693    0.411    0.288  151.010
  171.500   49.278    0.423    0.302  166.028
  171.750   48.060    0.425    0.302  175.735
  172.000   48.639    0.433    0.302  132.178
  172.250   48.623    0.449    0.310  229.192
  172.500   48.005    0.449    0.326  389.937
  172.750   52.192    0.411    0.320  159.756
  173.000   62.985    0.413    0.296   49.234
  173.250   71.379    0.405    0.281   22.179
  173.500   74.961    0.405    0.228   24.385
  173.750   76.746    0.421    0.232   27.849
  174.000   74.928    0.434    0.236   36.323
  174.250   71.308    0.417    0.236   41.480
  174.500   67.688    0.437    0.235   38.443
  174.750   64.068    0.443    0.248  103.152
  175.000   58.646    0.419    0.273  204.281
  175.250   54.425    0.410    0.306  147.917
  175.500   50.201    0.408    0.314  117.775
  175.750   46.581    0.408    0.310   92.007
  176.000   47.160    0.408    0.303  101.157
  176.250   48.945    0.409    0.322  117.735
  176.500   51.330    0.410    0.311  109.115
  176.750   53.719    0.405    0.304   91.969
  177.000   56.701    0.408    0.291   90.230
  177.250   59.086    0.415    0.285   85.226
  177.500   59.674    0.408    0.298   49.141
  177.750   57.856    0.412    0.287   62.889
  178.000   56.037    0.428    0.277   88.497
  178.250   55.420    0.444    0.296   74.591
  178.500   59.607    0.427    0.312   31.743
  178.750   66.796    0.395    0.287   34.243
  179.000   69.181    0.412    0.239   50.050
  179.250   66.758    0.424    0.248   48.179
  179.500   61.937    0.423    0.255   58.247
  179.750   55.314    0.423    0.240  333.965
  180.000   48.692    0.443    0.308  232.817
  180.250   43.266    0.440    0.327  106.894
