~VERSION INFORMATION
 VERS.                 2.0:   CWLS LOG ASCII STANDARD -VERSION 2.0
 WRAP.                  NO:   ONE LINE PER DEPTH STEP
~WELL INFORMATION BLOCK
#MNEM.UNIT           DATA                    DESCRIPTION OF MNEMONIC
#---------    -------------------            -------------------------------
# Generated from Intellog Unique Number	CC_80_83/WELL/2302
NULL.         -999.25                        : NULL_VALUE
WELL.         PEX PCEJ CHARD OV              : Well_name    - WELL              
LOC .         07-26-080-08W4                 : Location     - LOCATION          
UWI .         AA/07-26-080-08W400            : Uwi          - UNIQUE WELL ID    
ENTR.         DW                             : Entered      - ENTERED BY        
SRVC.         SCHLUMBERGER                   : Scn          - SERVICE COMPANY   
DATE.         05 feb 80                      : Date         - LOG DATE
STRT.M        220                            : top_depth    - START DEPTH       
STOP.M        450.092                        : bot_depth    - STOP DEPTH        
STEP.M        0.3                            : increment    - STEP LENGTH       
~CURVE INFORMATION BLOCK
#MNEM UNIT       ERCB CURVE CODE    CURVE DESCRIPTION
#-----------   ------------------   ----------------------------------
DEPT.M        00 001 00 00         : DEPTH        - DEPTH                       
DPHI.V/V      00 890 00 00         : PHID         - DENSITY POROSITY (LIMESTONE)
NPHI.V/V      00 330 00 00         : PHIN         - NEUTRON POROSITY (LIMESTONE)
GR  .API      00 310 00 00         : GR           - GAMMA RAY                   
ILD .OHMM     00 120 00 00         : RESD         - DEEP RESISTIVITY (DIL)      
~PARAMETER INFORMATION       
#MNEM.UNIT           DATA             DESCRIPTION OF MNEMONIC
#---------         -----------     ------------------------------
GL  .M        666.9                : gl           - GROUND LEVEL ELEVATION      
EREF.M        670.55               : kb           - ELEVATION OF DEPTH REFERENCE
DATM.M        670.55               : datum        - DATUM ELEVATION             
TDD .M        455                  : tdd          - TOTAL DEPTH DRILLER         
RUN .         ONE                  : Run          - RUN NUMBER                  
ENG .         BILL                 : Engineer     - RECORDING ENGINEER          
WIT .         JIM                  : Witness      - WITNESSED BY                
MUD .         GEL                  : Mud_type     - MUD TYPE                    
MATR.         LIMESTONE            : Logunit      - NEUTRON MATRIX              
TMAX.C        15                   : BHT          - MAXIMUM RECORDED TEMPERATURE
BHTD.M        455                  : BHTDEP       - MAXIMUM RECORDED TEMPERATURE
MATR.         1                    : LOGUNIT      - NEUTRON MATRIX              
RMT .C        25                   : MDTP         - TEMPERATURE OF MUD          
NEUT.         1                    : NEUTRON      - NEUTRON TYPE                
RESI.         0                    : RESIST       - RESISTIVITY TYPE            
RMC .OHMM     0.25                 : RMC          - RESISTIVITY OF MUD CAKE     
RMF .OHMM     0.25                 : RMF          - RESISTIVITY OF MUD FILTRATE 
SUFT.C        4                    : SUFT         - SURFACE TEMPERATURE         
~A  DEPTH     PHID     PHIN       GR     RESD
# ...
  376.595    0.231    0.386   82.080    5.960
  376.895    0.227    0.380   86.385    6.410
  377.195    0.234    0.393   92.534    6.894
  377.495    0.262    0.431   92.538    7.553
  377.795    0.286    0.428   91.313    7.827
  378.095    0.284    0.414   94.389    7.812
  378.395    0.263    0.394   74.732    7.370
  378.695    0.332    0.397   85.181    6.826
  378.995    0.313    0.409   90.101    6.091
  379.295    0.258    0.417   95.021    4.591
  379.595    0.349    0.431   93.796    3.661
  379.895    0.358    0.430   88.270    3.031
  380.195    0.307    0.422   75.371    2.462
  380.495    0.299    0.437   77.219    2.116
  380.795    0.376    0.476   68.622    1.959
  381.095    0.369    0.478   68.626    1.956
  381.395    0.341    0.455   68.016    2.225
  381.695    0.318    0.489   68.020    2.677
  381.995    0.300    0.512   69.253    3.282
  382.295    0.293    0.477   79.088    4.099
  382.595    0.305    0.473   69.875    4.842
  382.895    0.363    0.467   76.024    5.826
  383.195    0.341    0.430   76.028    6.753
  383.495    0.322    0.408   79.719    6.994
  383.795    0.254    0.388   85.253    6.983
  384.095    0.188    0.379   90.788    6.346
  384.395    0.220    0.369   87.106    5.453
  384.695    0.239    0.361   88.338    4.686
  384.995    0.261    0.359   77.282    4.025
  385.295    0.365    0.451   82.817    3.730
  385.595    0.305    0.458   87.122    3.454
  385.895    0.289    0.458   89.584    3.257
  386.195    0.276    0.466   82.831    3.192
  386.495    0.270    0.466   85.291    3.126
  386.795    0.299    0.454   75.464    3.179
  387.095    0.304    0.450   81.613    3.231
  387.395    0.254    0.436   87.147    3.347
  387.695    0.263    0.429   88.380    3.600
  387.995    0.272    0.438   84.698    3.732
  388.295    0.266    0.438   85.317    4.089
  388.595    0.270    0.423   82.864    4.481
  388.895    0.270    0.399   79.181    4.821
  389.195    0.248    0.410   83.486    5.692
  389.495    0.255    0.398   82.261    6.237
  389.795    0.239    0.381   77.965    6.460
  390.095    0.219    0.362   79.813    6.329
  390.395    0.142    0.340   78.588    6.680
  390.695    0.239    0.371   76.749    7.055
  390.995    0.266    0.388   76.138    7.449
  391.295    0.261    0.377   81.672    8.160
  391.595    0.164    0.337   70.616    8.614
  391.895    0.176    0.342   74.307    7.977
  392.195    0.170    0.322   73.697    6.727
  392.495    0.168    0.321   65.714    5.783
  392.795    0.167    0.331   71.862    4.699
  393.095    0.175    0.333   78.010    4.777
  393.395    0.204    0.357   70.642    5.236
  393.695    0.245    0.372   70.032    6.300
  393.995    0.246    0.350   70.650    8.323
  394.295    0.200    0.312   86.629   10.204
  394.595    0.203    0.323   82.333   10.768
  394.895    0.204    0.313   64.519   10.545
  395.195    0.198    0.305   67.596   10.526
  395.495    0.198    0.309   67.599   10.910
  395.795    0.196    0.305   60.231   11.734
  396.095    0.194    0.295   59.005   13.099
  396.395    0.190    0.289   62.082   14.898
  396.695    0.193    0.312   64.544   16.332
  396.995    0.201    0.323   59.633   16.300
  397.295    0.205    0.333   64.552   15.956
  397.595    0.209    0.327   66.400   15.346
  397.895    0.210    0.335   74.392   14.478
  398.195    0.206    0.339   74.396   13.659
  398.495    0.193    0.338   84.846   11.311
  398.795    0.183    0.339   71.947    9.903
  399.095    0.188    0.352   71.952    8.834
  399.395    0.223    0.349   76.256    8.336
  399.695    0.227    0.339   91.621    8.320
  399.995    0.240    0.355  101.492    9.116
  400.294    0.185    0.266   99.589    9.988
  400.594    0.184    0.267   99.529   10.744
  400.894    0.183    0.262   67.488   11.998
  401.194    0.192    0.259   60.042   13.393
  401.494    0.230    0.266   64.295   14.142
  401.794    0.258    0.347   84.525   14.373
  402.094    0.284    0.358   67.865   13.820
  402.394    0.172    0.350   59.188   13.289
  402.694    0.184    0.291   67.131   12.779
  402.994    0.155    0.315   76.302   11.615
  403.294    0.185    0.334   85.466   10.169
  403.594    0.182    0.322   87.252    9.593
  403.894    0.158    0.360   96.422    9.394
  404.194    0.205    0.302   89.597    9.919
  404.494    0.183    0.312   69.239   11.500
  404.794    0.190    0.320   76.562   14.913
  405.094    0.210    0.322   67.890   20.076
  405.394    0.198    0.309   51.218   21.575
  405.694    0.161    0.277   36.396   20.755
  405.994    0.185    0.277   38.797   18.859
  406.294    0.184    0.283   68.884   17.467
  406.594    0.183    0.283   59.593   16.172
  406.894    0.199    0.315   65.685   15.553
  407.194    0.200    0.314   66.243   15.814
  407.494    0.205    0.309   49.578   16.694
  407.794    0.214    0.298   47.659   18.293
  408.094    0.219    0.309   50.684   21.210
  408.394    0.219    0.312   37.703   30.191
  408.694    0.218    0.303   36.419   42.987
  408.994    0.210    0.306   41.899   48.896
  409.294    0.207    0.324   35.680   55.607
  409.594    0.207    0.327   36.848   60.963
  409.894    0.208    0.317   44.796   65.578
  410.194    0.211    0.282   51.505   64.232
  410.494    0.213    0.276   51.446   60.584
  410.794    0.207    0.309   24.924   56.105
  411.094    0.203    0.303   42.101   51.958
  411.394    0.202    0.319   61.725   48.137
  411.694    0.208    0.316   59.202   36.970
  411.994    0.207    0.331   43.769   28.939
  412.294    0.207    0.318   33.861   21.813
  412.594    0.231    0.330   35.034   15.841
  412.894    0.227    0.333   43.592   13.364
  413.194    0.208    0.364   83.501   11.057
  413.494    0.215    0.368   85.300   11.250
  413.794    0.160    0.367   79.705   11.227
  414.094    0.122    0.320   75.333   10.792
  414.394    0.168    0.313   83.890    9.811
  414.694    0.228    0.323   94.908    8.590
  414.994    0.218    0.339   88.074    7.380
  415.294    0.212    0.357   88.016    7.092
  415.594    0.230    0.375   97.808    6.951
  415.894    0.227    0.382   90.366    6.938
  416.194    0.218    0.373   99.533    7.459
  416.494    0.192    0.358  100.087    8.484
  416.794    0.167    0.334  108.643    9.300
  417.094    0.111    0.330   89.514   10.382
  417.394    0.164    0.325   75.914   11.594
  417.694    0.191    0.302   79.549   12.946
  417.994    0.202    0.299   78.879   15.283
  418.294    0.193    0.298   70.820   17.719
  418.594    0.199    0.310   68.913   20.161
  418.894    0.192    0.316   71.927   25.183
  419.194    0.177    0.288   98.941   26.086
  419.494    0.173    0.267  135.793   24.618
  419.794    0.170    0.256   87.749   20.001
  420.094    0.164    0.245   66.777   14.251
  420.394    0.118    0.244   79.637   12.475
  420.694    0.119    0.254   94.957   11.343
  420.994    0.138    0.273   85.051   10.503
  421.294    0.153    0.278   85.601    9.909
  421.594    0.150    0.265   86.782    9.893
  421.894    0.136    0.275   91.015   10.437
  422.194    0.148    0.323   85.418   11.024
  422.494    0.179    0.308   84.142   12.305
  422.794    0.202    0.329   73.622   13.742
  423.094    0.201    0.333   76.626   16.533
  423.394    0.200    0.335   85.190   18.123
  423.694    0.213    0.337   88.213   22.213
  423.994    0.211    0.329   86.916   25.271
  424.294    0.208    0.349   66.559   27.685
  424.594    0.202    0.343   68.966   29.237
  424.893    0.200    0.337   66.439   31.428
  425.193    0.202    0.329   60.849   29.664
  425.493    0.204    0.346   70.009   27.465
  425.793    0.209    0.344   61.962   25.919
  426.093    0.200    0.335   66.188   24.008
  426.393    0.190    0.327   68.600   21.815
  426.693    0.195    0.315   69.779   20.591
  426.993    0.193    0.296   70.337   19.420
  427.293    0.189    0.295   81.352   18.671
  427.593    0.184    0.302   85.599   18.635
  427.893    0.182    0.319   75.686   18.607
  428.193    0.184    0.309   76.867   19.279
  428.493    0.192    0.306   73.734   20.340
