~Version : LASO    vs 4.00
VERS.                2.00:   CWLS Log ASCII Standard -VERSION 2.0
WRAP.                  NO:
~Well Information Block
#MNEM.UNIT       Data                        Description of Mnemonic
#----.----      -------------------------- : -----------------------------
STRT.M            30.0000:
STOP.M           204.0000:
STEP.M             0.2000:
NULL.           -999.2500:
COMP.  MOBIL OIL OF CANADA                    :COMPANY
WELL.  MOBIL CLARKE OV PROGRAM 2-81 4-3       :WELL
FLD.                                          :FIELD
LOC.   04-03-090-07W4                         :LOCATION
CTRY.  CANADA                                 :COUNTRY
PROV.  ALBERTA                                :PROVINCE
SRVC.  SCHLUMBERGER                           :SERVICE COMPANY
DATE.  26-JAN-81                              :LOG DATE
UWI.   AA/04-03-090-07W400                    :UNIQUE WELL ID
~Parameter Information Block
#MNEM.UNIT       Data                        Description of Mnemonic
#----.----      -------------------------- : -----------------------------
RUN .                   1                 : Run Number
GL  .M           466.8000                 : Ground Level Elevation
DREF.                  GD                 : Depth Reference
EREF.M           466.8000                 : Elevation of Depth Reference
TDL .M           205.0000                 : Total Depth Logger
TDD .M           205.0000                 : Total Depth Driller
BHT .DEGC         19.0000                 : Bottom Hole Temperature
BS  .MM          159.0000                 : Bit Size
DFD .            980.0000                 : Mud Weight (Density)
DFV .             38.0000                 : Mud Viscosity
DFPH.             10.0000                 : Mud pH
~Curve Information Block
#MNEM.UNIT        API CODE    Curve Description
#---------    ------------    -------------------------------------------
DEPT.M                    :   DEPTH
CALI.MM       42 280  1  1:   3 DENSITY CALIPER
DPHI.V/V                  :   DPHI
DT  .US/M     60 520  0  1:   2 SONIC INTERVAL TRANSIT TIME (COMPENSATED)
GR  .GAPI     42 310  1  1:   4 GAMMA RAY
ILD .OHMM      5 120 46  1:   7 DEEP INDUCTION
ILM .OHMM      5 120 44  1:   8 MEDIUM INDUCTION
NPHI.V/V      42 890  3  1:   5 NEUTRON POROSITY (SANDSTONE)
RHOB.K/M3     42 350  1  1:   6 BULK DENSITY
SFLU.OHMM      5 220  1  1:   9 FOCUSSED RESISTIVITY
SP  .MV        5  10  1  1:   10 SPONTANEOUS POTENTIAL
~A  Depth           CALI        DPHI          DT          GR         ILD         ILM        NPHI        RHOB        SFLU          SP
# ...
176.4000        155.7500      0.3430    419.8400     39.5700     30.4670     26.7812      0.3744   2037.9000     61.9199    -97.8150
176.6000        157.0000      0.3531    430.1200     35.7750     49.6398     38.3557      0.3838   2033.9000    390.6879   -104.7000
176.8000        155.7500      0.3580    439.7600     35.8800     69.1560     46.1137      0.3812   2025.9000    585.9086   -105.9750
177.0000        155.7500      0.3575    451.6800     37.0800     98.1364     54.4289      0.3660   2023.9000    758.2805   -106.4850
177.2000        155.7500      0.3586    441.0000     37.8750    147.1736     68.5220      0.3700   2037.9000   1116.4259   -106.9950
177.4000        155.7500      0.3598    433.2000     37.4700    161.3727     71.7513      0.3684   2047.9000   1201.7937   -107.2500
177.6000        155.7500      0.3599    439.1600     37.5750    168.9779     73.7615      0.3660   2044.9000   1179.8584   -107.2500
177.8000        157.0000      0.3589    421.6800     38.6700    192.2339     76.5297      0.3672   2041.9000   1201.7937   -107.2500
178.0000        157.0000      0.3607    420.0400     38.1750    199.4481     76.5297      0.3710   2044.9000   1342.2391   -106.9950
178.2000        157.0000      0.3631    415.1200     36.7800    205.0359     76.5297      0.3736   2037.9000   1852.8058   -105.9750
178.4000        157.0000      0.3604    417.1600     35.7750    208.8478     77.2378      0.3782   2049.8999   1444.8738   -104.7000
178.6000        157.0000      0.3621    420.4400     38.0700    199.4481     75.8281      0.3754   2043.9000   2248.1738   -101.3850
178.8000        157.0000      0.3612    420.2400     39.8700    185.2806     75.8281      0.3676   2057.8999   2088.4780    -99.3450
179.0000        158.2750      0.3611    419.6400     41.6700    164.3728     75.8281      0.3656   2058.8999   2248.1738    -97.3050
179.2000        159.5500      0.3599    415.1200     44.8800    107.6044     71.7513      0.3608   2042.9000   1976.1954    -92.4600
179.4000        159.5500      0.3580    409.5600     46.6800     80.8779     64.2436      0.3540   2052.8999   2186.9050    -90.4350
179.6000        159.5500      0.3566    408.5600     50.7750     60.7897     53.4355      0.3664   2063.8999   1126.7561    -89.6700
179.8000        158.2750      0.3524    409.7600     61.6800     41.6706     33.7155      0.3676   2093.0000    148.5354    -86.8650
180.0000        155.7500      0.3446    409.3600     65.9700     36.6294     29.3650      0.3672   2092.0000     64.8381    -85.3350
180.2000        157.0000      0.3360    415.9200     66.8700     32.1981     26.7812      0.3642   2095.0000     40.9100    -83.0400
180.4000        157.0000      0.3364    430.7200     64.2750     24.8788     23.3254      0.3634   2085.0000     59.6802    -77.4300
180.6000        157.0000      0.3407    449.2400     65.8800     23.3254     20.5036      0.3718   2067.8999     94.5867    -76.6650
180.8000        155.7500      0.3469    452.1200     70.3800     23.1116     19.4013      0.3924   2086.0000     69.1560    -76.1550
181.0000        158.2750      0.3373    448.8000     73.0800     25.5758     20.1294      0.3892   2140.0000     24.8788    -70.3050
181.2000        157.0000      0.3240    430.9200     69.7800     27.2791     21.4699      0.3736   2109.0000     26.0513    -70.3050
181.4000        157.0000      0.3137    442.2400     65.5800     30.1877     23.7591      0.3896   2094.0000     29.6367    -72.3450
181.6000        157.0000      0.3266    459.7200     61.2750     34.9808     27.2791      0.4162   2075.8999     35.3045    -74.3700
181.8000        160.8250      0.3334    457.8400     57.2700     46.1137     37.6556      0.4164   2065.8999     90.3296    -78.1950
182.0000        162.0750      0.3409    440.8000     56.2800     47.8443     40.5350      0.4068   2045.9000    316.1039    -80.2350
182.2000        162.0750      0.3486    470.6000     57.6750     42.8381     38.3557      0.4158   2034.9000    717.5132    -82.0200
182.4000        159.5500      0.3575    467.3200     66.7800     30.1877     24.6507      0.4114   2049.8999    136.7193    -83.0400
182.6000        157.0000      0.3631    464.0400     74.2800     24.6507     20.1294      0.3920   2072.8999     45.6909    -82.7850
182.8000        155.7500      0.3612    457.4400     81.8850     21.0780     17.0541      0.3700   2098.0000     22.6898    -82.7850
183.0000        157.0000      0.3516    462.4000     92.0850     15.5536     14.0550      0.3700   2139.0000     13.4224    -76.6650
183.2000        162.0750      0.3380    471.8400     96.0750     13.9261     13.2993      0.3666   2172.1001     11.7986    -73.1100
183.4000        164.6250      0.3279    487.8800     97.5750     12.7008     12.4690      0.3528   2169.1001     13.6719    -72.0900
183.6000        164.6250      0.3130    480.4800    101.6850     11.6904     11.1643      0.3464   2202.1001     21.2731    -68.7750
183.8000        168.4250      0.3000    466.4800    104.6850     11.5832     10.8600      0.3554   2226.2000     16.1373    -63.6750
184.0000        168.4250      0.2846    457.8400    106.4850     11.6904     10.7604      0.3626   2218.1001     12.5843    -60.3600
184.2000        160.8250      0.2733    458.0800     96.8850     12.8183     11.3718      0.3544   2193.1001     10.4672    -61.3800
184.4000        164.6250      0.2681    452.1200     86.6850     14.3163     12.4690      0.3690   2158.1001     10.2761    -63.6750
184.6000        167.1750      0.2706    440.6000     74.0850     16.2866     14.5824      0.3950   2142.0000     11.1643    -67.7550
184.8000        158.2750      0.2795    444.0800     61.1700     18.8725     17.6942      0.4096   2106.0000     14.9910    -72.6000
185.0000        162.0750      0.2930    453.3200     44.0700     28.5647     26.5357      0.4288   2047.9000    109.6049    -80.4900
185.2000        162.0750      0.3098    468.1200     44.7750     39.4303     31.9029      0.4456   2017.9000    248.7883    -82.0200
185.4000        162.0750      0.3217    471.8400     46.1700     56.9941     38.3557      0.4396   2013.9000    224.8174    -82.0200
185.6000        162.0750      0.3355    469.1600     49.7700    107.6044     51.5027      0.4192   2025.9000    197.6196    -82.2750
185.8000        163.3500      0.3541    467.7200     51.8700    122.4137     56.9941      0.4018   2017.9000    301.8769    -83.2950
186.0000        163.3500      0.3680    470.6000     54.4800    125.8433     60.2324      0.3808   2012.9000    405.3498    -84.0600
186.2000        164.6250      0.3710    464.8400     58.4700     95.4619     59.6802      0.3708   2025.9000    630.7103    -84.8250
186.4000        164.6250      0.3697    465.6800     62.9700     67.8938     53.4355      0.3718   2026.9000    539.2994    -84.0600
186.6000        164.6250      0.3721    470.6000     69.2850     46.5404     41.6706      0.3712   2020.9000    585.9086    -82.7850
186.8000        160.8250      0.3693    468.1200     89.4750     24.6507     19.9448      0.3748   2016.9000     91.1654    -83.8050
187.0000        158.2750      0.3716    465.2400    102.9750     19.0471     14.5824      0.3764   2012.9000     27.5315    -81.0000
187.2000        159.5500      0.3661    458.2800    114.2850     15.5536     11.7986      0.3688   2048.8999     12.1291    -76.4100
187.4000        162.0750      0.3453    468.9600    114.8850     11.7986      9.6345      0.3776   2157.1001      7.1094    -72.3450
187.6000        162.0750      0.3207    491.1600    104.2800     10.6618      9.2009      0.3970   2201.1001      7.1094    -72.0900
187.8000        164.6250      0.2891    535.9600     95.3850      9.9044      8.8681      0.4382   2230.2000      7.9402    -72.0900
188.0000        162.0750      0.2703    553.2000     90.7800      9.3720      8.6264      0.4216   2213.1001      9.5462    -71.8350
188.2000        162.0750      0.2602    544.1600     90.6750      9.4587      8.3913      0.4028   2220.1001     11.6904    -71.0700
188.4000        165.9000      0.2541    536.7600     93.6750      9.5462      8.4690      0.4308   2251.2000     11.2676    -71.0700
