~VERSION INFORMATION
 VERS.                 2.0:   CWLS LOG ASCII STANDARD -VERSION 2.0
 WRAP.                  NO:   ONE LINE PER DEPTH STEP
~WELL INFORMATION BLOCK
#MNEM.UNIT           DATA                    DESCRIPTION OF MNEMONIC
#---------    -------------------            -------------------------------
# Generated from Intellog Unique Number	CX_WELLS/WELL/3142
WELL.         HUSKY OIL OPERATIONS           : Well_name    - WELL
LOC .         AA/07-33-089-09W4/0            : Location     - LOCATION
UWI .         AA/07-33-089-09W400            : Uwi          - UNIQUE WELL ID
ENTR.         JOETTE                         : Entered      - ENTERED BY
SRVC.         SCHLUMBERGER                   : Scn          - SERVICE COMPANY
DATE.         03/06/92                       : Date         - LOG DATE
STRT.M        15.240                         : top_depth    - START DEPTH
STOP.M        112.740                        : bot_depth    - STOP DEPTH
STEP.M        0.25                           : increment    - STEP LENGTH
 NULL. -999.2500:NULL Value
~CURVE INFORMATION BLOCK
#MNEM UNIT       ERCB CURVE CODE    CURVE DESCRIPTION
#-----------   ------------------   ----------------------------------
DEPT.M        00 001 00 00         : DEPTH        - DEPTH
GR  .API      00 310 00 00         : GR           - GAMMA RAY
CALI.MM       00 280 01 00         : CAL          - CALIPER
DPHI.V/V      00 890 00 00         : PHID         - DENSITY POROSITY (SANDSTONE)
ILD .OHMM     00 120 00 00         : RESD         - DEEP RESISTIVITY (DIL)
~PARAMETER INFORMATION
#MNEM.UNIT           DATA             DESCRIPTION OF MNEMONIC
#---------         -----------     ------------------------------
GL  .M        350.185              : gl           - GROUND LEVEL ELEVATION
EREF.M        350.215              : kb           - ELEVATION OF DEPTH REFERENCE
DATM.M        350.215              : datum        - DATUM ELEVATION
TDD .M        117.958              : tdd          - TOTAL DEPTH DRILLER
RUN .         ONE                  : Run          - RUN NUMBER
ENG .         JO                   : Engineer     - RECORDING ENGINEER
WIT .         TIM                  : Witness      - WITNESSED BY
MUD .         GEL                  : Mud_type     - MUD TYPE
MATR.         SANDSTONE            : Logunit      - NEUTRON MATRIX
TMAX.C        10                   : BHT          - MAXIMUM RECORDED TEMPERATURE
BHTD.M        117.958              : BHTDEP       - MAXIMUM RECORDED TEMPERATURE
RMT .C        18                   : MDTP         - TEMPERATURE OF MUD
MUDD.KG/M     1140                 : MWT          - MUD DENSITY
NEUT.         1                    : NEUTRON      - NEUTRON TYPE
RESI.         0                    : RESIST       - RESISTIVITY TYPE
RM  .OHMM     6.2                  : RM           - RESISTIVITY OF MUD
RMC .OHMM     6.2                  : RMC          - RESISTIVITY OF MUD CAKE
RMF .OHMM     6.2                  : RMF          - RESISTIVITY OF MUD FILTRATE
SUFT.C        4                    : SUFT         - SURFACE TEMPERATURE
~A  DEPTH       GR      CAL     PHID     RESD
# ...
   58.740  102.567  148.392    0.256    9.192
   58.990  110.560  148.355    0.253    9.959
   59.240  116.708  148.318    0.244    9.565
   59.490  103.806  148.253    0.256    8.012
   59.740   81.685  148.225    0.267    7.617
   59.990   82.302  148.188    0.258    8.384
   60.240  101.972  148.151    0.241    9.152
   60.490  102.590  149.109    0.247   10.308
   60.740   88.457  149.081    0.245   10.689
   60.990   79.857  150.039    0.229   11.072
   61.240   83.548  151.005    0.206   11.066
   61.490   81.093  150.968    0.203   10.283
   61.740   77.408  150.931    0.191    9.114
   61.990   94.619  150.903    0.178    8.722
   62.240  107.528  151.852    0.160    8.326
   62.490  105.073  151.815    0.165    7.934
   62.740   96.472  152.791    0.175    7.929
   62.990  105.079  153.757    0.178    7.921
   63.240  108.770  154.715    0.167    7.525
   63.490   95.867  155.682    0.170    7.133
   63.740   91.568  156.648    0.183    7.127
   63.990   87.884  157.625    0.188    7.119
   64.240   89.116  158.582    0.191    7.116
   64.490   77.443  157.541    0.189    7.110
   64.740   80.519  154.493    0.178    6.714
   64.990  111.865  152.439    0.171    6.709
   65.240  114.941  153.406    0.178    6.700
   65.490  114.329  157.384    0.184    6.695
   65.740  111.260  159.336    0.187    7.850
   65.990   84.836  159.308    0.177    9.394
   66.240   81.767  158.276    0.166   12.488
   66.490   84.843  155.209    0.161   18.678
   66.740   89.148  154.178    0.168   22.931
   66.990  103.900  154.150    0.180   18.665
   67.240  130.330  152.087    0.188   15.173
   67.490  124.188  151.055    0.193   14.005
   67.740  111.899  149.001    0.190   13.611
   67.990  104.529  148.964    0.228   14.767
   68.240  105.146  147.923    0.243   17.083
   68.490   91.013  148.899    0.235   15.528
   68.740   85.486  149.848    0.246   12.036
   68.990   83.031  150.824    0.244   10.094
   69.240   82.420  151.781    0.231    8.151
   69.490   84.881  152.748    0.216    6.983
   69.740   82.425  152.711    0.210   11.237
   69.990   80.585  152.665    0.213   16.266
   70.240   91.650  152.618    0.236   14.711
   70.490  115.622  152.600    0.233   11.990
   70.740  122.385  152.544    0.226   11.211
   70.990  116.857  152.526    0.217   10.428
   71.240  121.162  152.470    0.203   10.423
   71.490  121.780  152.452    0.190   10.418
   71.740  121.783  152.405    0.175   10.412
   71.990  108.880  152.359    0.171   11.179
   72.240   92.905  152.322    0.186   11.944
   72.490   83.075  152.285    0.217   12.327
   72.740  100.286  152.248    0.234   12.708
   72.990  124.257  152.211    0.241   12.702
   73.240  124.875  151.170    0.235   12.696
   73.490  116.889  151.124    0.228   12.690
   73.740  111.361  150.083    0.230   12.684
   73.990   97.229  150.036    0.250   13.449
   74.240   84.940  150.018    0.241   13.834
   74.490   64.663  148.977    0.231   11.116
   74.740   41.313  148.931    0.211   11.110
   74.990   43.774  148.894    0.216   13.039
   75.240   40.705  148.847    0.233   17.295
   75.490   33.333  148.801    0.251   14.576
   75.740   35.179  148.783    0.258   15.344
   75.990   59.151  148.736    0.258   19.210
   76.240   99.101  148.690    0.266   13.396
   76.490  105.250  149.647    0.256   11.453
   76.740  108.326  149.620    0.250   11.060
   76.990   84.361  149.592    0.259   17.637
   77.240   68.385  150.549    0.270   27.701
   77.490   48.722  150.522    0.277   24.209
   77.740   46.267  150.475    0.286   17.618
   77.990   60.406  150.429    0.283   13.351
   78.240   65.940  151.405    0.275    9.860
   78.490   57.953  151.368    0.260    7.916
   78.740   45.050  151.322    0.246    9.073
   78.990   45.668  152.298    0.241   14.876
   79.240   51.203  152.242    0.259   24.939
   79.490   58.581  153.218    0.277   26.482
   79.740   58.584  154.185    0.289   15.243
   79.990   54.900  156.146    0.296   10.203
   80.240   57.975  157.113    0.304    5.547
   80.490   63.510  157.085    0.301    3.991
   80.740   61.669  158.052    0.244    3.600
   80.990   61.673  159.010    0.208    2.818
   81.240   55.530  158.972    0.180    2.420
   81.490   62.908  159.930    0.169    2.417
   81.740   75.817  161.891    0.132    2.411
   81.990   83.809  162.867    0.155    2.405
   82.240   83.198  164.838    0.170    2.399
   82.490   78.284  165.805    0.167    2.393
   82.740   67.840  166.771    0.164    2.386
   82.990   57.396  167.738    0.160    2.380
   83.240   47.566  167.701    0.158    2.374
   83.490   35.892  167.655    0.165    2.367
   83.740   32.823  167.609    0.171    2.359
   83.990   35.284  167.590    0.173    2.354
   84.240   38.360  167.525    0.172    2.350
   84.490   37.134  167.507    0.171    2.350
   84.740   40.210  167.470    0.169    3.106
   84.990   46.359  167.423    0.160    3.490
   85.240   38.987  166.382    0.158    3.484
   85.490   43.907  165.342    0.164    3.479
   85.740   48.826  164.301    0.169    3.472
   85.990   48.830  163.241    0.170    3.467
   86.240   46.989  162.200    0.166    3.460
   86.490   46.377  161.169    0.160    3.452
   86.740   46.381  161.141    0.162    3.444
   86.990   42.697  160.091    0.164    3.441
   87.240   48.231  161.048    0.165    3.434
   87.490   48.849  163.010    0.165    3.429
   87.740   36.560  163.995    0.160    3.429
   87.990   29.189  166.969    0.156    2.250
   88.240   25.505  167.936    0.157    1.860
   88.490   21.820  167.899    0.155    1.852
   88.740   31.042  165.845    0.150    1.848
   88.990   48.867  163.782    0.143    1.839
   89.240   44.568  162.741    0.141    1.832
   89.490   42.728  160.706    0.142    1.828
   89.740   45.190  159.656    0.137    1.822
   89.990   47.651  159.628    0.130    1.814
   90.240   71.622  159.572    0.136    1.806
   90.490   87.604  160.558    0.153    2.189
   90.740   92.523  164.536    0.162    2.183
   90.990   94.370  165.493    0.153    2.564
   91.240   77.780  165.466    0.145    2.945
   91.490   71.638  165.419    0.152    3.325
   91.740   86.391  163.356    0.201    4.093
   91.990   96.841  162.324    0.222    5.249
   92.240   96.230  161.293    0.235    7.956
   92.490   95.618  159.239    0.257   13.759
   92.740   82.716  158.198    0.281   15.688
   92.990   72.272  158.152    0.324   15.683
   93.240   64.285  158.124    0.321   18.775
   93.490   64.903  158.087    0.335   34.261
   93.740   82.728  158.041    0.351   72.208
   93.990   82.117  158.013    0.346   87.306
   94.240   75.360  157.957    0.330  151.203
   94.490   75.363  158.933    0.338  171.724
   94.740   77.210  158.878    0.346  164.358
   94.990   71.068  158.878    0.322  157.768
   95.240   69.227  151.777    0.314   72.558
   95.490   66.772  156.777    0.291   43.505
   95.740   63.702  157.735    0.284   21.809
   95.990   46.498  157.698    0.288   12.508
   96.240   45.886  158.665    0.297   11.340
   96.490   55.722  161.621    0.317   73.300
   96.740   73.548  162.606    0.324   58.963
   96.990   83.999  167.569    0.342   50.825
   97.240   79.700  169.558    0.349   42.299
   97.490   66.797  170.507    0.353   55.073
   97.740   48.978  170.479    0.348  143.368
   97.990   71.105  169.438    0.338  152.270
   98.240   95.691  167.384    0.341  142.581
   98.490  123.964  166.343    0.343   20.966
   98.740  115.978  164.299    0.331   16.700
   98.990  115.981  162.254    0.325   14.368
   99.240  124.588  160.200    0.329   31.790
   99.490  120.904  159.159    0.335   44.177
   99.740   92.637  159.131    0.340   45.333
   99.990   76.047  159.094    0.324   27.124
  100.240   47.780  159.048    0.323   21.309
  100.490   63.762  159.011    0.310   19.366
  100.740  106.785  158.974    0.290   17.809
  100.990  104.330  158.928    0.295   12.768
  101.240  106.176  159.885    0.284    6.953
  101.490   93.888  159.867    0.281    6.172
  101.740   61.934  159.820    0.283   20.496
  101.990   44.115  159.792    0.296  137.065
