~VERSION INFORMATION
 VERS.                 2.0:   CWLS LOG ASCII STANDARD -VERSION 2.0
 WRAP.                  NO:   ONE LINE PER DEPTH STEP
~WELL INFORMATION BLOCK
#MNEM.UNIT           DATA                    DESCRIPTION OF MNEMONIC
#---------    -------------------            -------------------------------
# Generated from Intellog Unique Number	CN_94_101/WELL/3595
WELL.         08-30-096-16W4                 : Well_name    - WELL
LOC .         AA/08-30-096-16W4/0            : Location     - LOCATION
UWI .         AA/08-30-096-16W400            : Uwi          - UNIQUE WELL ID
ENTR.         JOETTE                         : Entered      - ENTERED BY
SRVC.         SCHLUMBERGER                   : Scn          - SERVICE COMPANY
DATE.         08/03/92                       : Date         - LOG DATE
STRT.M        200                            : top_depth    - START DEPTH
STOP.M        410                            : bot_depth    - STOP DEPTH
STEP.M        0.25                           : increment    - STEP LENGTH
 NULL. -999.2500:NULL Value
~CURVE INFORMATION BLOCK
#MNEM UNIT       ERCB CURVE CODE    CURVE DESCRIPTION
#-----------   ------------------   ----------------------------------
DEPT.M        00 001 00 00         : DEPTH        - DEPTH
GR  .API      00 310 00 00         : GR           - GAMMA RAY
ILD .OHMM     00 120 00 00         : RESD         - DEEP RESISTIVITY (DIL)
NPHI.V/V      00 330 00 00         : PHIN         - NEUTRON POROSITY (SANDSTONE)
DPHI.V/V      00 890 00 00         : PHID         - DENSITY POROSITY (SANDSTONE)
~PARAMETER INFORMATION
#MNEM.UNIT           DATA             DESCRIPTION OF MNEMONIC
#---------         -----------     ------------------------------
GL  .M        661.6                : gl           - GROUND LEVEL ELEVATION
EREF.M        665                  : kb           - ELEVATION OF DEPTH REFERENCE
DATM.M        665                  : datum        - DATUM ELEVATION
TDD .M        415                  : tdd          - TOTAL DEPTH DRILLER
RUN .         ONE                  : Run          - RUN NUMBER
ENG .         JO                   : Engineer     - RECORDING ENGINEER
WIT .         TIM                  : Witness      - WITNESSED BY
MUD .         GEL                  : Mud_type     - MUD TYPE
MATR.         SANDSTONE            : Logunit      - NEUTRON MATRIX
TMAX.C        10                   : BHT          - MAXIMUM RECORDED TEMPERATURE
BHTD.M        415                  : BHTDEP       - MAXIMUM RECORDED TEMPERATURE
RMT .C        10.1                 : MDTP         - TEMPERATURE OF MUD
MUDD.KG/M     1115                 : MWT          - MUD DENSITY
NEUT.         1                    : NEUTRON      - NEUTRON TYPE
RESI.         0                    : RESIST       - RESISTIVITY TYPE
RM  .OHMM     0.49                 : RM           - RESISTIVITY OF MUD
RMC .OHMM     0.49                 : RMC          - RESISTIVITY OF MUD CAKE
RMF .OHMM     0.731                : RMF          - RESISTIVITY OF MUD FILTRATE
SUFT.C        4                    : SUFT         - SURFACE TEMPERATURE
~A  DEPTH       GR     RESD     PHIN     PHID
# ...
  374.000   23.251  216.369    0.371    0.298
  374.250   20.935  226.426    0.357    0.298
  374.500   17.438  236.647    0.359    0.296
  374.750   17.609  257.500    0.369    0.293
  375.000   18.432  274.425    0.372    0.292
  375.250   19.214  286.812    0.368    0.296
  375.500   20.648  277.255    0.360    0.304
  375.750   21.345  262.502    0.352    0.306
  376.000   24.087  239.637    0.350    0.303
  376.250   24.783  218.203    0.355    0.301
  376.500   25.564  194.848    0.361    0.298
  376.750   26.999  164.312    0.366    0.297
  377.000   28.434  144.075    0.372    0.297
  377.250   28.519  136.584    0.377    0.296
  377.500   29.343  129.648    0.380    0.296
  377.750   29.555  127.470    0.382    0.295
  378.000   29.725  116.217    0.383    0.294
  378.250   29.938  101.904    0.382    0.290
  378.500   30.023   92.789    0.382    0.287
  378.750   30.847   79.789    0.380    0.284
  379.000   32.239   67.199    0.378    0.284
  379.250   33.632   71.707    0.372    0.281
  379.500   34.413   96.579    0.367    0.277
  379.750   32.750  104.955    0.370    0.270
  380.000   29.865  125.905    0.386    0.273
  380.250   26.937  210.707    0.389    0.281
  380.500   22.176  319.442    0.374    0.288
  380.750   15.625  465.758    0.357    0.293
  381.000   13.308  507.451    0.338    0.295
  381.250   12.910  519.443    0.324    0.294
  381.500   13.080  598.516    0.312    0.289
  381.750   13.250  732.131    0.311    0.284
  382.000   13.463  949.556    0.324    0.282
  382.250   13.590  973.244    0.336    0.283
  382.500   13.803  836.889    0.332    0.285
  382.750   14.584  704.829    0.335    0.286
  383.000   14.754  571.626    0.339    0.290
  383.250   14.313  436.681    0.340    0.294
  383.500   13.873  340.165    0.341    0.301
  383.750   15.265  254.841    0.343    0.306
  384.000   16.657  210.481    0.344    0.308
  384.250   19.925  191.901    0.347    0.309
  384.500   22.540  174.961    0.353    0.310
  384.750   24.543  159.312    0.357    0.311
  385.000   26.589  136.992    0.361    0.313
  385.250   28.592  117.648    0.359    0.315
  385.500   29.331   95.414    0.339    0.317
  385.750   30.112   85.201    0.301    0.319
  386.000   30.282   69.099    0.273    0.278
  386.250   29.230   58.196    0.300    0.260
  386.500   25.777   46.285    0.353    0.251
  386.750   23.503   41.331    0.374    0.277
  387.000   22.977   36.241    0.374    0.289
  387.250   20.703   33.693    0.373    0.303
  387.500   18.428   30.164    0.363    0.310
  387.750   17.419   30.241    0.356    0.308
  388.000   17.589   30.397    0.343    0.304
  388.250   17.759   37.183    0.333    0.301
  388.500   18.498   37.422    0.340    0.296
  388.750   21.155   34.746    0.364    0.289
  389.000   26.214   31.638    0.375    0.279
  389.250   33.148   27.206    0.385    0.271
  389.500   36.416   23.364    0.394    0.271
  389.750   38.419   18.582    0.401    0.274
  390.000   39.812   15.051    0.407    0.278
  390.250   41.858   12.207    0.406    0.282
  390.500   44.430   10.483    0.401    0.281
  390.750   48.309    8.840    0.390    0.278
  391.000   52.188    8.208    0.385    0.272
  391.250   56.678    7.781    0.381    0.265
  391.500   58.028    7.680    0.386    0.257
  391.750   60.684    7.570    0.393    0.234
  392.000   61.466    7.609    0.402    0.227
  392.250   61.636    7.639    0.409    0.209
  392.500   61.806    7.678    0.416    0.200
  392.750   60.754    8.035    0.419    0.223
  393.000   59.091    8.398    0.421    0.238
  393.250   57.386    8.799    0.418    0.247
  393.500   54.543    8.996    0.411    0.258
  393.750   52.226    9.402    0.401    0.263
  394.000   48.773    9.649    0.392    0.271
  394.250   48.247    9.698    0.378    0.278
  394.500   46.015    9.748    0.379    0.280
  394.750   46.185    9.621    0.382    0.276
  395.000   46.967    9.277    0.385    0.272
  395.250   48.970    7.672    0.387    0.267
  395.500   50.362    6.986    0.392    0.264
  395.750   51.144    6.369    0.393    0.262
  396.000   50.703    5.921    0.393    0.261
  396.250   50.873    5.837    0.390    0.260
  396.500   52.265    5.768    0.386    0.260
  396.750   56.144    5.671    0.383    0.255
  397.000   58.148    5.813    0.375    0.252
  397.250   61.416    6.075    0.370    0.248
  397.500   62.197    6.474    0.373    0.246
  397.750   62.367    7.036    0.380    0.249
  398.000   61.926    7.817    0.385    0.252
  398.250   59.652    8.012    0.393    0.256
  398.500   56.156    8.043    0.403    0.257
  398.750   53.228    8.084    0.408    0.263
  399.000   51.565    7.664    0.403    0.266
  399.250   52.346    7.125    0.389    0.265
  399.500   55.003    6.624    0.388    0.258
  399.750   57.618    6.279    0.391    0.251
  400.000   59.663    6.428    0.401    0.249
  400.250   58.612    6.744    0.410    0.256
  400.500   57.474    6.894    0.426    0.269
  400.750   55.243    7.215    0.437    0.280
  401.000   54.191    7.540    0.431    0.285
  401.250   53.139    7.719    0.427    0.286
  401.500   52.656    7.609    0.418    0.272
  401.750   51.604    6.946    0.406    0.277
  402.000   50.552    6.449    0.402    0.286
  402.250   48.974    6.106    0.399    0.288
  402.500   47.879    5.574    0.398    0.297
  402.750   46.870    5.089    0.394    0.298
  403.000   46.998    5.003    0.390    0.297
  403.250   47.168    4.743    0.386    0.293
  403.500   47.295    4.675    0.381    0.289
  403.750   48.119    4.989    0.377    0.278
  404.000   50.733    5.415    0.373    0.279
  404.250   55.224    6.134    0.380    0.284
  404.500   59.018    6.666    0.387    0.276
  404.750   71.494    6.967    0.393    0.264
  405.000   82.095    7.150    0.386    0.177
  405.250   91.474    7.177    0.375    0.159
  405.500   96.617    7.214    0.363    0.155
  405.750   94.954    7.102    0.367    0.165
  406.000   91.984    6.611    0.369    0.176
  406.250   89.710    6.268    0.370    0.190
  406.500   89.880    6.059    0.368    0.199
  406.750   85.773    5.965    0.367    0.200
  407.000   80.401    5.887    0.368    0.201
  407.250   73.196    5.796    0.367    0.203
  407.500   64.157    5.402    0.360    0.208
  407.750   45.911    5.114    0.356    0.210
  408.000   37.484    4.842    0.339    0.211
  408.250   32.197    4.591    0.318    0.209
  408.500   32.978    4.989    0.313    0.205
  408.750   42.925    8.019    0.307    0.184
  409.000   62.123   11.692    0.292    0.164
  409.250   67.224   33.874    0.235    0.127
  409.500   69.228   40.688    0.121    0.076
  409.750   70.009   37.001    0.116    0.011
  410.000   71.444   33.126    0.112    0.004
