~VERSION INFORMATION
 VERS.                 2.0:   CWLS LOG ASCII STANDARD -VERSION 2.0
 WRAP.                  NO:   ONE LINE PER DEPTH STEP
~WELL INFORMATION BLOCK
#MNEM.UNIT           DATA                    DESCRIPTION OF MNEMONIC
#---------    -------------------            -------------------------------
# Generated from Intellog Unique Number	CN_94_101/WELL/1179
WELL.         06-01-097-13W4                 : Well_name    - WELL
LOC .         AA/06-01-097-13W4/0            : Location     - LOCATION
UWI .         AA/06-01-097-13W400            : Uwi          - UNIQUE WELL ID
ENTR.         JOETTE                         : Entered      - ENTERED BY
SRVC.         SCHLUMBERGER                   : Scn          - SERVICE COMPANY
DATE.         08/17/92                       : Date         - LOG DATE
STRT.M        15.24                          : top_depth    - START DEPTH
STOP.M        191.99                         : bot_depth    - STOP DEPTH
STEP.M        0.25                           : increment    - STEP LENGTH
 NULL. -999.2500:NULL Value
~CURVE INFORMATION BLOCK
#MNEM UNIT       ERCB CURVE CODE    CURVE DESCRIPTION
#-----------   ------------------   ----------------------------------
DEPT.M        00 001 00 00         : DEPTH        - DEPTH
ILD .OHMM     00 120 00 00         : RESD         - DEEP RESISTIVITY (DIL)
GR  .API      00 310 00 00         : GR           - GAMMA RAY
NPHI.V/V      00 330 00 00         : PHIN         - NEUTRON POROSITY (SANDSTONE)
~PARAMETER INFORMATION
#MNEM.UNIT           DATA             DESCRIPTION OF MNEMONIC
#---------         -----------     ------------------------------
GL  .M        431.597              : gl           - GROUND LEVEL ELEVATION
EREF.M        431.597              : kb           - ELEVATION OF DEPTH REFERENCE
DATM.M        431.597              : datum        - DATUM ELEVATION
TDD .M        193.243              : tdd          - TOTAL DEPTH DRILLER
RUN .         ONE                  : Run          - RUN NUMBER
ENG .         JO                   : Engineer     - RECORDING ENGINEER
WIT .         TIM                  : Witness      - WITNESSED BY
MUD .         GEL                  : Mud_type     - MUD TYPE
MATR.         SANDSTONE            : Logunit      - NEUTRON MATRIX
TMAX.C        4.44444              : BHT          - MAXIMUM RECORDED TEMPERATURE
BHTD.M        193.243              : BHTDEP       - MAXIMUM RECORDED TEMPERATURE
RMT .C        4.44444              : MDTP         - TEMPERATURE OF MUD
MUDD.KG/M     1200                 : MWT          - MUD DENSITY
NEUT.         1                    : NEUTRON      - NEUTRON TYPE
RESI.         0                    : RESIST       - RESISTIVITY TYPE
RM  .OHMM     0.76                 : RM           - RESISTIVITY OF MUD
RMC .OHMM     0.76                 : RMC          - RESISTIVITY OF MUD CAKE
RMF .OHMM     0.76                 : RMF          - RESISTIVITY OF MUD FILTRATE
SUFT.C        4                    : SUFT         - SURFACE TEMPERATURE
~A  DEPTH     RESD       GR     PHIN
# ...
   69.490    8.728   77.615    0.451
   69.740    7.674   75.278    0.465
   69.990    6.148   72.169    0.474
   70.240    5.507   75.747    0.492
   70.490    7.020   74.205    0.488
   70.740    9.639   71.490    0.505
   70.990    8.015   78.210    0.468
   71.240    5.046   80.606    0.453
   71.490    4.518   86.957    0.442
   71.740    4.695   77.522    0.440
   71.990    9.012   70.467    0.402
   72.240    5.072   65.783    0.465
   72.490    3.438   76.056    0.518
   72.740    3.849   85.935    0.484
   72.990    4.471   90.317    0.464
   73.240    5.294   89.554    0.461
   73.490    4.920   86.840    0.510
   73.740    4.246   87.258    0.517
   73.990    3.734   88.867    0.500
   74.240    3.881   92.453    0.495
   74.490    6.070   90.518    0.467
   74.740    6.544   88.967    0.462
   74.990    6.314   87.828    0.460
   75.240    5.449   87.082    0.449
   75.490    5.160   85.146    0.454
   75.740    5.998   83.211    0.492
   75.990    6.467   82.063    0.485
   76.240    7.106   83.663    0.473
   76.490    8.103   86.462    0.463
   76.740   10.927   80.579    0.446
   76.990   11.781   77.077    0.428
   77.240   13.943   73.558    0.406
   77.490   13.965   72.803    0.398
   77.740   12.982   76.381    0.392
   77.990   12.068   74.445    0.389
   78.240   13.512   76.062    0.402
   78.490   15.124   73.339    0.387
   78.740   14.059   71.789    0.380
   78.990   13.065   73.012    0.410
   79.240   11.706   77.378    0.421
   79.490   11.301   75.442    0.444
   79.740   11.100   71.931    0.456
   79.990   10.913   70.389    0.424
   80.240   10.723   70.817    0.423
   80.490   10.539   71.244    0.417
   80.740   10.559   71.277    0.423
   80.990   10.378   71.713    0.416
   81.240   11.193   72.928    0.406
   81.490   11.631   75.324    0.412
   81.740   11.221   78.902    0.424
   81.990   11.025   75.785    0.421
   82.240   11.250   73.464    0.407
   82.490   12.828   71.126    0.406
   82.740   10.668   68.403    0.385
   82.990    8.238   65.679    0.380
   83.240    7.945   68.470    0.415
   83.490    8.572   72.458    0.428
   83.740    9.242   74.067    0.431
   83.990    9.787   72.131    0.418
   84.240   10.170   73.346    0.414
   84.490   10.569   71.796    0.422
   84.740    9.469   70.254    0.414
   84.990   10.401   72.256    0.429
   85.240   10.418   71.904    0.422
   85.490    7.464   69.575    0.422
   85.740    5.983   68.427    0.427
   85.990    7.080   69.642    0.424
   86.240   10.278   73.220    0.420
   86.490   11.300   72.072    0.438
   86.740   10.698   73.680    0.431
   86.990    9.582   74.903    0.425
   87.240    8.743   72.172    0.437
   87.490    9.259   69.851    0.432
   87.740    9.442   69.893    0.432
   87.990    9.283   68.745    0.456
   88.240    8.956   68.376    0.451
   88.490    8.481   67.228    0.447
   88.740    7.739   69.624    0.447
   88.990    7.466   73.596    0.452
   89.240    7.904   75.213    0.471
   89.490   11.479   72.096    0.445
   89.740   12.612   68.979    0.400
   89.990    6.352   68.618    0.391
   90.240    4.994   70.621    0.413
   90.490    3.028   74.199    0.521
   90.740    4.738   77.391    0.514
   90.990    7.005   75.455    0.481
   91.240    8.451   75.087    0.472
   91.490    8.947   78.279    0.446
   91.740    9.646   75.949    0.427
   91.990    5.431   69.682    0.443
   92.240    4.271   70.109    0.490
   92.490    2.950   76.050    0.545
   92.740    3.124   77.659    0.572
   92.990    3.306   72.572    0.572
   93.240    3.500   72.212    0.541
   93.490    3.992   73.829    0.524
   93.740    6.360   75.044    0.525
   93.990    7.252   74.290    0.541
   94.240    9.247   74.717    0.482
   94.490   10.544   76.326    0.454
   94.740    8.140   73.209    0.452
   94.990    6.524   69.698    0.441
   95.240    5.735   72.488    0.466
   95.490   12.300   78.437    0.460
   95.740   18.885   83.196    0.409
   95.990   10.053   85.995    0.362
   96.240    9.699   72.236    0.335
   96.490   13.571   78.579    0.281
   96.740   12.155   80.179    0.360
   96.990   11.095   78.244    0.396
   97.240   12.186   77.498    0.405
   97.490   12.202   81.469    0.393
   97.740   10.932   83.472    0.399
   97.990   12.237   80.355    0.410
   98.240   11.589   82.751    0.411
   98.490   12.498   83.975    0.408
   98.740   15.068   80.849    0.385
   98.990   16.872   79.307    0.397
   99.240   14.561   86.438    0.383
   99.490   14.048   89.228    0.384
   99.740   14.066   83.748    0.398
   99.990   13.825   79.449    0.411
  100.240   12.851   77.120    0.411
  100.490   13.869   74.799    0.421
  100.740   13.887   76.407    0.418
  100.990   11.985   77.229    0.402
  101.240   12.688   73.709    0.384
  101.490   12.237   74.137    0.393
  101.740   12.954   74.564    0.388
  101.990   12.268   78.544    0.392
  102.240   11.198   79.373    0.403
  102.490   11.636   80.588    0.422
  102.740   11.230   77.069    0.396
  102.990   11.034   75.133    0.386
  103.240   10.645   76.348    0.400
  103.490   12.602   81.116    0.423
  103.740   19.343   79.180    0.347
  103.990   29.152   76.071    0.317
  104.240   18.004   73.340    0.319
  104.490   12.667   69.427    0.340
  104.740   13.163   69.075    0.368
  104.990   14.472   69.904    0.416
  105.240   13.957   71.119    0.429
  105.490   11.393   70.365    0.396
  105.740   12.752   68.035    0.394
  105.990   14.016   65.706    0.394
  106.240   13.522   64.952    0.369
  106.490   11.455   63.401    0.362
  106.740   10.075   64.625    0.371
  106.990   11.066   68.605    0.388
  107.240   11.083   69.024    0.378
  107.490   11.730   65.119    0.376
  107.740   32.029   64.767    0.366
  107.990  173.996   63.225    0.331
  108.240  144.642   59.312    0.170
  108.490   84.515   52.642    0.112
  108.740   16.806   45.193    0.139
  108.990    6.648   47.589    0.158
  109.240    7.304   51.963    0.184
  109.490    6.545   61.842    0.224
  109.740    6.198   67.003    0.309
  109.990    6.208   71.369    0.406
  110.240    6.695   76.924    0.428
  110.490    8.221   76.957    0.426
  110.740    9.035   75.030    0.431
  110.990    9.744   75.449    0.424
  111.240   10.910   77.854    0.420
  111.490    9.952   77.100    0.421
  111.740   10.342   77.921    0.423
  111.990   12.239   77.946    0.419
  112.240   10.966   79.563    0.414
  112.490    8.622   79.999    0.407
  112.740    7.040   78.071    0.413
  112.990    6.920   76.906    0.378
  113.240    6.676   74.577    0.356
  113.490    5.979   73.823    0.370
  113.740    5.456   77.007    0.422
  113.990    4.887   81.774    0.458
  114.240    4.715   85.352    0.497
  114.490    5.277   82.629    0.496
  114.740    6.729   80.299    0.495
  114.990    8.265   80.341    0.508
  115.240   10.938   78.791    0.485
  115.490    9.617   83.156    0.474
  115.740    8.147   81.615    0.446
  115.990    7.031   79.285    0.433
  116.240    6.783   75.774    0.423
  116.490    7.453   73.839    0.432
  116.740    8.658   72.691    0.433
  116.990   10.067   75.883    0.423
  117.240    9.710   80.642    0.396
  117.490    8.700   83.432    0.382
  117.740    8.871   86.231    0.380
  117.990   16.093   83.114    0.404
  118.240   24.702   80.407    0.407
  118.490   22.970   79.243    0.355
  118.740   16.155   76.913    0.319
  118.990   11.579   73.410    0.268
  119.240    9.455   67.537    0.245
  119.490    9.641   65.584    0.248
  119.740    9.479   70.352    0.309
  119.990   10.035   77.080    0.384
  120.240   10.428   81.848    0.393
  120.490    9.000   80.708    0.385
  120.740    8.061   83.884    0.389
  120.990    7.493   83.917    0.392
  121.240    8.708   86.314    0.438
  121.490    9.747   85.166    0.428
  121.740    8.894   81.655    0.421
  121.990    7.822   85.635    0.417
  122.240    7.832   88.039    0.416
  122.490    7.698   87.285    0.403
  122.740    7.156   88.886    0.409
  122.990    6.654   90.100    0.424
  123.240    7.044   86.983    0.421
  123.490    7.740   84.260    0.424
