~Version : LASO    vs 4.00
VERS.                2.00:   CWLS Log ASCII Standard -VERSION 2.0
WRAP.                  NO:
~Well Information Block
#MNEM.UNIT       Data                        Description of Mnemonic
#----.----      -------------------------- : -----------------------------
STRT.M            13.0000:
STOP.M           191.0000:
STEP.M             0.2000:
NULL.           -999.2500:
COMP.  MOBIL OIL OF CANADA          :COMPANY
WELL.  MOBIL CLARKE OV 4-1          :WELL
FLD.                                :FIELD
LOC.   04-01-091-08W4               :LOCATION
CTRY.  CANADA                       :COUNTRY
PROV.  ALBERTA                      :PROVINCE
SRVC.  SCHLUMBERGER                 :SERVICE COMPANY
DATE.  12-FEB-81                    :LOG DATE
UWI.   AA/04-01-091-08W400          :UNIQUE WELL ID
~Parameter Information Block
#MNEM.UNIT       Data                        Description of Mnemonic
#----.----      -------------------------- : -----------------------------
RUN .                   1                 : Run Number
GL  .M           444.1000                 : Ground Level Elevation
DREF.                  GD                 : Depth Reference
EREF.M           444.1000                 : Elevation of Depth Reference
TDL .M           191.5000                 : Total Depth Logger
TDD .M           192.0000                 : Total Depth Driller
CSGL.M            15.0000                 : Casing Bottom Logger
CSGD.M            15.0000                 : Casing Bottom Driller
CSGS.MM          179.0000                 : Casing Size
CSGW.KG/M          0.0000                 : Casing Weight
BHT .DEGC         12.0000                 : Bottom Hole Temperature
BS  .MM          158.0000                 : Bit Size
DFD .           1080.0000                 : Mud Weight (Density)
DFV .             85.0000                 : Mud Viscosity
DFPH.             12.6000                 : Mud pH
~Curve Information Block
#MNEM.UNIT        API CODE    Curve Description
#---------    ------------    -------------------------------------------
DEPT.M                    :   DEPTH
CALI.MM       42 280  1  1:   3 DENSITY CALIPER
DPHI.V/V                  :   DPHI
DT  .US/M     60 520  0  1:   2 SONIC INTERVAL TRANSIT TIME (COMPENSATED)
GR  .GAPI     42 310  1  1:   4 GAMMA RAY
ILD .OHMM      5 120 46  1:   7 DEEP INDUCTION
ILM .OHMM      5 120 44  1:   8 MEDIUM INDUCTION
NPHI.V/V      42 890  3  1:   5 NEUTRON POROSITY (SANDSTONE)
RHOB.K/M3     42 350  1  1:   6 BULK DENSITY
SFLU.OHMM      5 220  1  1:   9 FOCUSSED RESISTIVITY
SP  .MV        5  10  1  1:   10 SPONTANEOUS POTENTIAL
~A  Depth           CALI        DPHI          DT          GR         ILD         ILM        NPHI        RHOB        SFLU          SP
# ...
135.0000        166.0250      0.1589    446.9600     96.9450      8.7062    421.7256      0.4322   2401.8999     15.1297    -57.9450
135.2000        168.5000      0.1670    451.0000     99.7500      8.7868    417.8592      0.4456   2403.8999      9.1165    -55.9500
135.4000        172.2250      0.1750    460.5600    103.7550      8.7868    399.0524      0.4661   2370.2000      6.9796    -54.6900
135.6000        175.9250      0.1806    473.2800    103.7550      8.7868    429.5660      0.4719   2394.0000      9.7237    -55.2000
135.8000        169.7500      0.1773    473.4400    101.2500      8.9501    410.2324      0.4575   2350.3999     10.1819    -55.2000
136.0000        167.2750      0.1772    469.2400     99.7500      9.1165    395.3939      0.4525   2350.3999     10.7604    -55.6950
136.2000        173.4500      0.1733    455.9600     95.7450      9.8136    381.0921      0.4398   2379.2000     17.2119    -57.7050
136.4000        168.5000      0.1656    454.0000     97.8450     10.3712    395.3939      0.4256   2383.1001     14.1850    -57.1950
136.6000        168.5000      0.1641    450.0400     98.5500     10.5640    410.2324      0.4295   2401.8999     10.9605    -56.1900
136.8000        170.9750      0.1749    446.3600     96.1500     10.4672    406.4713      0.4418   2407.8999     11.4770    -56.7000
137.0000        169.7500      0.1844    451.6400     92.6400     10.4672    402.7448      0.4431   2368.3000     15.1297    -57.9450
137.2000        172.2250      0.1903    462.2000     94.1400     10.7604    388.1771      0.4326   2356.3999     12.2414    -58.4550
137.4000        170.9750      0.1876    468.9200     96.4500     10.9605    402.7448      0.4322   2346.5000     11.6904    -59.4600
137.6000        163.5500      0.1800    467.1600     90.4350     10.9605    406.4713      0.4493   2379.2000     17.5319    -61.9650
137.8000        163.5500      0.1724    451.0400     88.8300     10.9605    395.3939      0.4431   2380.1001     16.5894    -62.9700
138.0000        162.3000      0.1660    450.4400     88.5300     10.8600    410.2324      0.4242   2388.1001     17.6942    -63.7200
138.2000        159.8250      0.1629    452.1600     87.1350     10.3712    388.1771      0.4081   2374.2000     19.5808    -62.9700
138.4000        161.0750      0.1683    448.0400     88.0350     10.0886    410.2324      0.4159   2413.8000     15.1297    -60.2100
138.6000        162.3000      0.1569    440.9200     91.6350      9.9044    417.8592      0.4242   2419.7000     13.6719    -58.4550
138.8000        159.8250      0.1551    437.8400    100.4550      9.9961    406.4713      0.4558   2362.3000      9.0330    -57.1950
139.0000        159.8250      0.1726    440.9200    100.8450     10.2761    417.8592      0.4653   2358.3999      7.5133    -57.9450
139.2000        159.8250      0.1788    446.0400     99.7500     10.7604    417.8592      0.4624   2368.3000     10.4672    -60.2100
139.4000        161.0750      0.1776    449.4400     89.6400     12.0179    414.0282      0.4162   2362.3000     16.4373    -64.9650
139.6000        164.7750      0.1783    448.2800     86.1300     12.9369    402.7448      0.3995   2361.3000     18.8725    -66.2250
139.8000        163.5500      0.1821    443.9200     83.4300     13.4224    425.6277      0.3995   2372.2000     25.3414    -66.9750
140.0000        163.5500      0.1913    442.2800     80.7300     13.9261    384.6183      0.4012   2345.5000     39.4303    -66.7200
140.2000        163.5500      0.1960    449.9200     78.3300     14.8535    417.8592      0.3995   2328.7000     20.1294    -62.9700
140.4000        162.3000      0.1921    450.8400     81.9300     14.9910    414.0282      0.3917   2362.3000     14.5824    -62.9700
140.6000        161.0750      0.1906    450.9600     85.0350     14.8535    417.8592      0.3901   2369.3000     16.2866    -63.9750
140.8000        159.8250      0.1800    453.3200     80.9250     14.3163    399.0524      0.4087   2350.3999     25.3414    -65.9700
141.0000        161.0750      0.1805    457.2000     80.2350     14.1850    417.8592      0.4130   2362.3000     27.7863    -67.7250
141.2000        161.0750      0.1836    462.9600     78.7200     13.5466    425.6277      0.4157   2353.3999     29.6367    -69.7350
141.4000        161.0750      0.1782    458.3600     76.2300     12.1291    395.3939      0.4246   2394.0000     30.4670    -69.9900
141.6000        163.5500      0.1718    450.9600     79.8300     11.3718    406.4713      0.4303   2376.2000     20.8848    -68.7300
141.8000        164.7750      0.1732    450.8400     85.6350     10.5640    384.6183      0.4240   2370.2000     13.1774    -66.2250
142.0000        172.2250      0.1745    455.0400     94.6500      9.9961    417.8592      0.4313   2362.3000      8.9501    -61.9650
142.2000        172.2250      0.1644    454.8400     96.2400      9.8136    421.7256      0.4346   2386.1001      8.0878    -61.4550
142.4000        175.9250      0.1429    450.4800     96.0450      9.8136    406.4713      0.4270   2449.5000      8.6264    -61.9650
142.6000        180.9000      0.1318    433.5200     92.6400     10.2761    399.0524      0.4378   2421.7000     15.5536    -65.7300
142.8000        161.0750      0.1389    434.8800     87.6300     10.8600    406.4713      0.4474   2385.1001     17.5319    -66.9750
143.0000        156.1250      0.1391    435.3600     83.7300     11.5832    421.7256      0.4406   2378.2000     18.0231    -66.9750
143.2000        158.6000      0.1504    435.6400     81.4350     12.4690    414.0282      0.4188   2380.1001     17.0541    -67.9800
143.4000        161.0750      0.1671    450.6800     78.1200     14.5824    425.6277      0.4196   2336.6001     16.8978    -72.9900
143.6000        161.0750      0.1733    461.2000     74.0250     15.8427    384.6183      0.4180   2336.6001     19.5808    -77.2500
143.8000        157.3500      0.1812    466.4400     66.1200     17.3872    388.1771      0.4217   2302.8999     30.4670    -81.0150
144.0000        158.6000      0.1913    458.5200     48.4950     21.6885    410.2324      0.4110   2279.2000    107.6044    -84.5250
144.2000        156.1250      0.2032    451.2800     43.3950     24.2231    402.7448      0.4016   2267.3000    216.6855    -84.2700
144.4000        157.3500      0.2173    436.4000     41.0850     27.8119    395.3939      0.3913   2262.3000    539.2994    -85.2750
144.6000        156.1250      0.2299    423.7600     41.4900     31.6395    406.4713      0.3853   2257.3999    319.0288    -84.2700
144.8000        157.3500      0.2385    415.6000     43.3950     31.9323    421.7256      0.3835   2255.3999    203.1561    -83.7750
145.0000        157.3500      0.2335    414.1200     44.7900     31.3495    406.4713      0.3804   2267.3000    265.3566    -83.5200
145.2000        157.3500      0.2379    412.5600     44.8950     29.1226    406.4713      0.3830   2278.2000    666.5457    -82.5150
145.4000        157.3500      0.2361    411.0000     45.3000     26.5601    381.0921      0.3886   2263.3000    285.6472    -81.5250
145.6000        157.3500      0.2357    405.2400     48.6900     23.5630    384.6183      0.3902   2259.3000    190.4715    -79.2600
145.8000        156.1250      0.2388    400.3600     56.5050     18.3751    410.2324      0.3894   2244.5000     81.6263    -78.0150
146.0000        156.1250      0.2472    402.0800     61.4100     17.0541    402.7448      0.3941   2250.3999     40.9100    -76.5000
146.2000        157.3500      0.2269    412.2000     68.1150     15.8427    402.7448      0.3923   2262.3000     22.6898    -72.9900
146.4000        157.3500      0.2067    425.5200     74.5200     14.7174    402.7448      0.3797   2310.8000     14.5824    -69.9900
146.6000        159.8250      0.1965    430.2000     85.2300     13.7984    429.5660      0.3933   2331.6001     18.1899    -72.2400
146.8000        164.7750      0.1999    420.9600     81.0300     14.1850    406.4713      0.4130   2341.5000     21.4699    -75.0000
147.0000        166.0250      0.1864    406.8400     72.2250     15.4110    395.3939      0.4163   2382.1001     20.8848    -76.0050
