~Version : LASO    vs 4.00
VERS.                2.00:   CWLS Log ASCII Standard -VERSION 2.0
WRAP.                  NO:
~Well Information Block
#MNEM.UNIT       Data                        Description of Mnemonic
#----.----      -------------------------- : -----------------------------
STRT.M            13.0000:
STOP.M           191.0000:
STEP.M             0.2000:
NULL.           -999.2500:
COMP.  MOBIL OIL OF CANADA          :COMPANY
WELL.  MOBIL CLARKE OV 4-1          :WELL
FLD.                                :FIELD
LOC.   04-01-091-08W4               :LOCATION
CTRY.  CANADA                       :COUNTRY
PROV.  ALBERTA                      :PROVINCE
SRVC.  SCHLUMBERGER                 :SERVICE COMPANY
DATE.  12-FEB-81                    :LOG DATE
UWI.   AA/04-01-091-08W400          :UNIQUE WELL ID
~Parameter Information Block
#MNEM.UNIT       Data                        Description of Mnemonic
#----.----      -------------------------- : -----------------------------
RUN .                   1                 : Run Number
GL  .M           444.1000                 : Ground Level Elevation
DREF.                  GD                 : Depth Reference
EREF.M           444.1000                 : Elevation of Depth Reference
TDL .M           191.5000                 : Total Depth Logger
TDD .M           192.0000                 : Total Depth Driller
CSGL.M            15.0000                 : Casing Bottom Logger
CSGD.M            15.0000                 : Casing Bottom Driller
CSGS.MM          179.0000                 : Casing Size
CSGW.KG/M          0.0000                 : Casing Weight
BHT .DEGC         12.0000                 : Bottom Hole Temperature
BS  .MM          158.0000                 : Bit Size
DFD .           1080.0000                 : Mud Weight (Density)
DFV .             85.0000                 : Mud Viscosity
DFPH.             12.6000                 : Mud pH
~Curve Information Block
#MNEM.UNIT        API CODE    Curve Description
#---------    ------------    -------------------------------------------
DEPT.M                    :   DEPTH
CALI.MM       42 280  1  1:   3 DENSITY CALIPER
DPHI.V/V                  :   DPHI
DT  .US/M     60 520  0  1:   2 SONIC INTERVAL TRANSIT TIME (COMPENSATED)
GR  .GAPI     42 310  1  1:   4 GAMMA RAY
ILD .OHMM      5 120 46  1:   7 DEEP INDUCTION
ILM .OHMM      5 120 44  1:   8 MEDIUM INDUCTION
NPHI.V/V      42 890  3  1:   5 NEUTRON POROSITY (SANDSTONE)
RHOB.K/M3     42 350  1  1:   6 BULK DENSITY
SFLU.OHMM      5 220  1  1:   9 FOCUSSED RESISTIVITY
SP  .MV        5  10  1  1:   10 SPONTANEOUS POTENTIAL
~A  Depth           CALI        DPHI          DT          GR         ILD         ILM        NPHI        RHOB        SFLU          SP
# ...
183.8000        157.3500   -999.2500    315.4400     60.9150     15.1297    381.0921      0.2418   2733.6001     23.5413    -57.7050
184.0000        158.6000   -999.2500    317.5200     60.4050     14.4487    406.4713      0.2488   2718.8000     21.8691    -58.4550
184.2000        158.6000   -999.2500    321.6000     60.4050     13.5466    414.0282      0.2561   2698.0000     16.5894    -59.9550
184.4000        158.6000   -999.2500    325.1600     60.6150     13.1774    410.2324      0.2638   2726.7000     15.8427    -59.9550
184.6000        158.6000   -999.2500    331.9600     60.6150     12.7008    395.3939      0.2765   2738.6001     15.8427    -59.2050
184.8000        158.6000   -999.2500    339.4800     60.4050     12.4690    417.8592      0.2862   2697.0000     15.9893    -58.4550
185.0000        161.0750   -999.2500    352.8400     59.8050     12.4690    406.4713      0.3039   2666.3000     16.7429    -57.4500
185.2000        158.6000   -999.2500    359.1600     59.5050     12.5843    395.3939      0.3028   2622.7000     16.7429    -56.9550
185.4000        157.3500   -999.2500    363.2800     59.4150     12.5843    402.7448      0.3035   2623.7000     17.0541    -56.9550
185.6000        157.3500   -999.2500    363.3600     59.5050     12.7008    388.1771      0.3086   2623.7000     17.2119    -56.7000
185.8000        156.1250   -999.2500    362.6800     59.6100     12.8183    402.7448      0.3071   2623.7000     19.0471    -56.7000
186.0000        156.1250   -999.2500    361.9600     59.5050     12.7008    406.4713      0.3064   2615.8000     19.0471    -56.7000
186.2000        154.8750   -999.2500    361.5200     59.6100     12.9369    399.0524      0.2934   2598.0000     16.1373    -56.9550
186.4000        156.1250   -999.2500    361.4800     59.6100     13.0566    395.3939      0.2924   2623.7000     16.7429    -56.9550
186.6000        158.6000   -999.2500    361.0800   -999.2500     13.4224    402.7448      0.2950   2629.6001     18.0231    -57.1950
186.8000        158.6000   -999.2500    354.8000   -999.2500     14.7174    410.2324      0.2993   2703.8999     16.5894    -58.2000
187.0000        157.3500   -999.2500    353.1600   -999.2500     15.4110    395.3939      0.2992   2716.8000     17.8579    -58.2000
187.2000        157.3500   -999.2500    352.5200   -999.2500     15.6975    406.4713   -999.2500   2696.0000     24.2008    -57.4500
187.4000        157.3500   -999.2500    344.2400   -999.2500     16.8978    384.6183   -999.2500   2724.7000     34.0275    -56.7000
187.6000        156.1250   -999.2500    339.4000   -999.2500     17.7105    406.4713   -999.2500   2758.3999     30.4670    -56.1900
187.8000        156.1250   -999.2500    338.3600   -999.2500     18.3751    402.7448   -999.2500   2736.6001     28.5647    -55.6950
188.0000        157.3500   -999.2500    338.2400   -999.2500     18.5451    406.4713   -999.2500   2695.0000     28.3028    -54.9450
188.2000        157.3500   -999.2500   -999.2500   -999.2500     18.3751    388.1771   -999.2500   2724.7000     30.4670    -53.6850
188.4000        157.3500   -999.2500   -999.2500   -999.2500     18.3751    402.7448   -999.2500   2691.0000     33.7155    -52.9350
188.6000        157.3500   -999.2500   -999.2500   -999.2500     18.3751    410.2324   -999.2500   2706.8999     33.7155    -52.6800
188.8000        156.1250   -999.2500   -999.2500   -999.2500     18.3751    410.2324   -999.2500   2702.8999     30.4670    -52.4400
189.0000        157.3500   -999.2500   -999.2500   -999.2500     18.2066    417.8592   -999.2500   2722.7000     29.9109    -52.1850
189.2000        156.1250   -999.2500   -999.2500   -999.2500     18.3751    384.6183   -999.2500   2736.6001     30.7489    -52.4400
189.4000        156.1250   -999.2500   -999.2500   -999.2500     18.2066    410.2324   -999.2500   2726.7000     30.4670    -53.4450
189.6000        156.1250   -999.2500   -999.2500   -999.2500     18.3751    410.2324   -999.2500   2730.6001     30.4670    -54.1950
189.8000        156.1250   -999.2500   -999.2500   -999.2500     18.2066    406.4713   -999.2500   2729.6001     30.4670    -54.9450
190.0000        156.1250   -999.2500   -999.2500   -999.2500     18.0397    395.3939   -999.2500   2710.8000     30.7489    -55.2000
190.2000        156.1250   -999.2500   -999.2500   -999.2500     18.0397    406.4713   -999.2500   2734.6001     30.4670    -55.2000
190.4000        156.1250   -999.2500   -999.2500   -999.2500     18.0397    410.2324   -999.2500   2708.8999     30.7489    -55.2000
190.6000        154.8750   -999.2500   -999.2500   -999.2500   -999.2500   -999.2500   -999.2500   2655.3999   -999.2500   -999.2500
190.8000        138.7750   -999.2500   -999.2500   -999.2500   -999.2500   -999.2500   -999.2500   2650.3999   -999.2500   -999.2500
191.0000        138.7750   -999.2500   -999.2500   -999.2500   -999.2500   -999.2500   -999.2500   2665.3000   -999.2500   -999.2500
