~VERSION INFORMATION
 VERS.                 2.0:   CWLS LOG ASCII STANDARD -VERSION 2.0
 WRAP.                  NO:   ONE LINE PER DEPTH STEP
~WELL INFORMATION BLOCK
#MNEM.UNIT           DATA                    DESCRIPTION OF MNEMONIC
#---------    -------------------            -------------------------------
# Generated from Intellog Unique Number	CN_91_93/WELL/2960
NULL.         -999.25                        :  NULL VALUE
COMP.         SYNCRUDE CANADA LTD            :  COMPANY
WELL.         58-30-0-0                      : Well_name    - WELL              
LOC .         01-35-092-12W4                 : Location     - LOCATION          
UWI .         AA/01-35-092-12W400            : Uwi          - UNIQUE WELL ID    
ENTR.         JOETTE                         : Entered      - ENTERED BY        
SRVC.         BPB                            : Scn          - SERVICE COMPANY   
DATE.         09 JAN 87                      : Date         - LOG DATE          
STRT.M        10                             : top_depth    - START DEPTH       
STOP.M        98                             : bot_depth    - STOP DEPTH        
STEP.M        0.25                           : increment    - STEP LENGTH       
~CURVE INFORMATION BLOCK
#MNEM UNIT       ERCB CURVE CODE    CURVE DESCRIPTION
#-----------   ------------------   ----------------------------------
DEPT.M        00 001 00 00         : DEPTH        - DEPTH                       
GR  .API      00 310 00 00         : GR           - GAMMA RAY                   
NPHI.V/V      00 330 00 00         : PHIN         - NEUTRON POROSITY (SANDSTONE)
DPHI.V/V      00 890 00 00         : PHID         - DENSITY POROSITY (SANDSTONE)
ILD .OHMM     00 120 00 00         : RESD         - DEEP RESISTIVITY (DIL)      
~PARAMETER INFORMATION       
#MNEM.UNIT           DATA             DESCRIPTION OF MNEMONIC
#---------         -----------     ------------------------------
GL  .M        361.7                : gl           - GROUND LEVEL ELEVATION      
EREF.M        361.7                : kb           - ELEVATION OF DEPTH REFERENCE
DATM.M        361.7                : datum        - DATUM ELEVATION             
TDD .M        100.5                : tdd          - TOTAL DEPTH DRILLER         
RUN .         ONE                  : Run          - RUN NUMBER                  
ENG .         JO                   : Engineer     - RECORDING ENGINEER          
WIT .         TIM                  : Witness      - WITNESSED BY                
MUD .         GEL                  : Mud_type     - MUD TYPE                    
MATR.         SANDSTONE            : Logunit      - NEUTRON MATRIX              
TMAX.C        8                    : BHT          - MAXIMUM RECORDED TEMPERATURE
BHTD.M        100.5                : BHTDEP       - MAXIMUM RECORDED TEMPERATURE
RMT .C        7                    : MDTP         - TEMPERATURE OF MUD          
MUDD.KG/M     1.02                 : MWT          - MUD DENSITY                 
NEUT.         1                    : NEUTRON      - NEUTRON TYPE                
RESI.         0                    : RESIST       - RESISTIVITY TYPE            
RM  .OHMM     6.4                  : RM           - RESISTIVITY OF MUD          
RMC .OHMM     6.4                  : RMC          - RESISTIVITY OF MUD CAKE     
RMF .OHMM     6.4                  : RMF          - RESISTIVITY OF MUD FILTRATE 
SUFT.C        4                    : SUFT         - SURFACE TEMPERATURE         
~A  DEPTH       GR     PHIN     PHID     RESD
   10.000   70.029    0.449    0.303   10.524
   10.250   76.529    0.475    0.306   31.724
   10.500   73.909    0.443    0.284   34.667
   10.750   82.174    0.453    0.257   33.087
   11.000   83.673    0.505    0.271   23.452
   11.250   78.403    0.472    0.279   29.739
   11.500   79.610    0.509    0.279   27.816
   11.750   84.931    0.477    0.280   34.799
   12.000   77.609    0.465    0.279   37.011
   12.250   74.689    0.495    0.280   37.040
   12.500   69.124    0.450    0.265   32.158
   12.750  103.871    0.453    0.265   28.881
   13.000  105.961    0.483    0.246   27.013
   13.250  109.222    0.490    0.260   28.345
   13.500   86.299    0.474    0.279   26.331
   13.750   89.563    0.486    0.275   26.174
   14.000   87.237    0.473    0.272   21.674
   14.250   90.207    0.524    0.271   16.887
   14.500   73.757    0.444    0.235   18.454
   14.750   82.908    0.381    0.192   26.614
   15.000   66.163    0.372    0.155   30.285
   15.250   76.488    0.399    0.255   31.140
   15.500   73.574    0.462    0.287   23.457
   15.750   73.310    0.458    0.290   23.634
   16.000   81.279    0.462    0.283   23.178
   16.250   82.778    0.469    0.275   19.061
   16.500   78.098    0.480    0.244   19.077
   16.750   72.827    0.470    0.223   16.790
   17.000   78.742    0.393    0.176   21.289
   17.250   72.000    0.415    0.277   25.402
   17.500   84.091    0.447    0.305   20.336
   17.750   80.296    0.455    0.324   17.777
   18.000   83.263    0.465    0.322   16.852
   18.250   88.587    0.448    0.289    9.816
   18.500  104.502    0.476    0.287   10.093
   18.750  106.000    0.527    0.300    8.415
   19.000   99.850    0.525    0.318    8.253
   19.250  102.820    0.542    0.317    8.204
   19.500   98.143    0.638    0.320    7.830
   19.750   95.223    0.673    0.331    7.032
   20.000  108.787    0.637    0.336    6.622
   20.250   95.279    0.525    0.309    7.139
   20.500   89.717    0.504    0.275    7.048
   20.750   89.745    0.469    0.237   14.646
   21.000   86.533    0.484    0.259    8.192
   21.250   83.031    0.456    0.270    9.135
   21.500   92.473    0.483    0.257    8.486
   21.750  101.330    0.471    0.269    7.831
   22.000   87.233    0.497    0.274    8.384
   22.250   88.732    0.495    0.294   10.489
   22.500  103.764    0.513    0.314    9.295
   22.750   92.612    0.520    0.303   10.225
   23.000   85.870    0.498    0.295    9.694
   23.250  105.612    0.570    0.295   10.522
   23.500  115.055    0.514    0.272    8.772
   23.750  110.967    0.512    0.266    8.205
   24.000   93.337    0.493    0.241    8.322
   24.250   99.248    0.462    0.205   11.602
   24.500  105.454    0.412    0.264   15.117
   24.750  117.545    0.452    0.297   13.668
   25.000  111.982    0.464    0.288    7.802
   25.250  117.894    0.454    0.284    6.417
   25.500  101.153    0.516    0.289    6.336
   25.750  104.417    0.536    0.292    6.047
   26.000  110.328    0.577    0.301    5.505
   26.250  100.645    0.570    0.311    5.012
   26.500   97.142    0.542    0.318    4.784
   26.750  111.880    0.568    0.338    4.691
   27.000  104.847    0.612    0.352    4.569
   27.250  111.641    0.585    0.356    4.420
   27.500  105.491    0.510    0.347    4.163
   27.750  112.874    0.599    0.337    4.397
   28.000  102.896    0.554    0.299    4.461
   28.250   99.393    0.492    0.241    4.841
   28.500  114.131    0.479    0.288    6.749
   28.750  124.165    0.559    0.306    5.704
   29.000  124.190    0.576    0.299    5.632
   29.250  116.862    0.543    0.274    5.830
   29.500  108.358    0.545    0.250    5.795
   29.750  113.976    0.531    0.248    6.375
   30.000  114.303    0.507    0.238    7.763
   30.250  111.969    0.525    0.241    8.716
   30.500  130.829    0.537    0.239    7.934
   30.750  109.377    0.545    0.239    6.982
   31.000  118.819    0.484    0.250    7.839
   31.250  115.908    0.450    0.262    8.624
   31.500  124.465    0.454    0.249    8.573
   31.750  118.020    0.478    0.243    8.756
   32.000  112.455    0.467    0.223    8.821
   32.250  116.013    0.435    0.189    8.421
   32.500  108.392    0.464    0.150    8.775
   32.750   91.353    0.438    0.175   20.876
   33.000  116.097    0.458    0.219    8.325
   33.250  118.187    0.415    0.181   13.839
   33.500  108.206    0.428    0.205    8.116
   33.750  109.117    0.457    0.218    7.094
   34.000  125.623    0.506    0.222    7.100
   34.250  132.126    0.492    0.238    6.963
   34.500  106.552    0.450    0.264    6.556
   34.750  133.355    0.486    0.281    6.174
   35.000  123.380    0.499    0.241    6.095
   35.250  112.225    0.491    0.212    7.032
   35.500  107.543    0.525    0.214    9.099
   35.750  115.220    0.529    0.234    8.453
   36.000  112.309    0.499    0.246    7.695
   36.250  100.860    0.523    0.243    7.806
   36.500  101.770    0.480    0.264    7.300
   36.750  105.328    0.499    0.260    6.875
   37.000  120.066    0.443    0.270    8.093
   37.250  122.742    0.470    0.262    7.268
   37.500  133.655    0.432    0.269    6.484
   37.750  116.913    0.463    0.276    7.182
   38.000  129.298    0.485    0.275    7.285
   38.250  114.613    0.457    0.247    7.048
   38.500  106.994    0.452    0.225    7.150
   38.750  107.902    0.527    0.225    6.732
   39.000  117.638    0.465    0.194    6.514
   39.250   95.598    0.487    0.125    6.834
   39.500   82.090    0.442    0.093    9.399
   39.750   98.595    0.493    0.233   12.754
   40.000  105.390    0.486    0.248    6.231
   40.250  122.776    0.591    0.291    4.921
   40.500  117.214    0.652    0.287    4.826
   40.750  114.888    0.577    0.287    4.134
   41.000  121.094    0.533    0.299    4.026
   41.250  112.887    0.608    0.273    4.613
   41.500  115.851    0.516    0.249    5.394
   41.750  109.115    0.519    0.252    5.934
   42.000  113.553    0.472    0.276    6.484
   42.250  125.055    0.506    0.252    4.985
   42.500  103.900    0.488    0.223    5.266
   42.750   87.749    0.454    0.161    6.412
   43.000   84.829    0.385    0.147    8.186
   43.250   94.566    0.526    0.270    8.707
   43.500   91.066    0.543    0.290    4.645
   43.750   81.379    0.520    0.341    4.229
   44.000   72.875    0.618    0.374    3.250
   44.250   89.673    0.635    0.389    2.939
   44.500   81.757    0.667    0.390    3.002
   44.750   85.021    0.669    0.375    3.347
   45.000   84.169    0.641    0.352    3.047
   45.250   83.309    0.667    0.334    2.812
   45.500   77.747    0.568    0.321    3.243
   45.750   85.129    0.504    0.286    4.225
   46.000   95.160    0.488    0.285    5.077
   46.250   90.481    0.536    0.304    4.812
   46.500   74.913    0.512    0.273    5.781
   46.750   80.239    0.563    0.173    5.669
   47.000  101.450    0.443    0.199    8.287
   47.250  108.538    0.460    0.271    4.730
   47.500  104.447    0.526    0.272    4.191
   47.750  109.185    0.520    0.279    4.138
   48.000  122.155    0.551    0.275    3.767
   48.250  117.770    0.606    0.274    3.571
   48.500  103.379    0.555    0.279    3.902
   48.750   97.820    0.522    0.280    3.959
   49.000  113.734    0.529    0.279    3.989
   49.250  104.933    0.501    0.281    4.359
   49.500  114.375    0.530    0.284    4.828
   49.750  103.224    0.521    0.288    4.577
   50.000  103.546    0.530    0.261    4.281
   50.250   98.866    0.547    0.263    4.461
   50.500  109.777    0.500    0.270    4.842
   50.750  130.990    0.567    0.268    4.781
   51.000  118.370    0.548    0.265    4.151
   51.250  129.574    0.584    0.264    4.043
   51.500  112.241    0.518    0.246    4.243
   51.750   91.378    0.495    0.171    4.961
   52.000   66.690    0.402    0.223    7.105
   52.250   66.129    0.475    0.284    8.307
   52.500   44.677    0.437    0.291    5.849
   52.750   25.582    0.387    0.288    7.620
   53.000   19.431    0.370    0.289    9.533
   53.250   23.284    0.366    0.296    7.788
