~Version : LASO    vs 4.00
VERS.                2.00:   CWLS Log ASCII Standard -VERSION 2.0
WRAP.                  NO:
~Well Information Block
#MNEM.UNIT       Data                        Description of Mnemonic
#----.----      -------------------------- : -----------------------------
STRT.M            11.0000:
STOP.M           176.0000:
STEP.M             0.1000:
NULL.           -999.2500:
COMP.  MOBIL OIL CANADA LTD.  :COMPANY
WELL.  MOBIL CLARKE OV 5-32   :WELL
FLD.   CLARKE                 :FIELD
LOC.   05-32-089-08W4         :LOCATION
CTRY.  CANADA                 :COUNTRY
PROV.  ALBERTA                :PROVINCE
SRVC.  SCHLUMBERGER           :SERVICE COMPANY
DATE.  04-MAR-81              :LOG DATE
UWI.   AA/05-32-089-08W400    :UNIQUE WELL ID
~Parameter Information Block
#MNEM.UNIT       Data                        Description of Mnemonic
#----.----      -------------------------- : -----------------------------
RUN .                   1                 : Run Number
GL  .M           391.1000                 : Ground Level Elevation
DREF.                  KB                 : Depth Reference
EREF.M           394.5000                 : Elevation of Depth Reference
TDL .M           176.5000                 : Total Depth Logger
TDD .M           174.0000                 : Total Depth Driller
CSGL.M            16.0000                 : Casing Bottom Logger
CSGD.M            14.6000                 : Casing Bottom Driller
CSGS.MM          219.0000                 : Casing Size
CSGW.KG/M          0.0000                 : Casing Weight
BHT .DEGC         23.0000                 : Bottom Hole Temperature
BS  .MM          159.0000                 : Bit Size
DFD .           1110.0000                 : Mud Weight (Density)
DFV .             90.0000                 : Mud Viscosity
DFPH.             10.0000                 : Mud pH
RM  .OHMM          1.9600                 : Mud Resistivity
RMT .DEGC         20.0000                 : Mud Resistivity Temperature
~Curve Information Block
#MNEM.UNIT        API CODE    Curve Description
#---------    ------------    -------------------------------------------
DEPT.M                    :   DEPTH
CALI.MM       42 280  1  1:   3 DENSITY CALIPER
DPHI.V/V                  :   DPHI
DT  .US/M     60 520  0  1:   2 SONIC INTERVAL TRANSIT TIME (COMPENSATED)
GR  .GAPI     42 310  1  1:   4 GAMMA RAY
ILD .OHMM      5 120 46  1:   6 DEEP INDUCTION
ILM .OHMM      5 120 44  1:   7 MEDIUM INDUCTION
NPHI.V/V                  :   NPHI
RHOB.K/M3     42 350  1  1:   5 BULK DENSITY
SFLU.OHMM      5 220  1  1:   8 FOCUSSED RESISTIVITY
SP  .MV        5  10  1  1:   9 SPONTANEOUS POTENTIAL
~A  Depth           CALI        DPHI          DT          GR         ILD         ILM        NPHI        RHOB        SFLU          SP
# ...
65.9000         176.2000      0.2168    500.4000     99.9150     10.3712      8.8681      0.4921   2276.0000      8.3913    -97.2600
66.0000         174.9250      0.2415    500.4000    101.4600      9.2860      7.5133      0.4924   2283.0000      7.0442    -96.0000
66.1000         174.9250      0.2469    503.8000    103.3050      9.2860      7.5133      0.4885   2283.0000      7.0442    -96.0000
66.2000         173.6500      0.2535    512.3600    102.6900      8.4690      7.0442      0.4862   2272.8999      5.6994    -95.0100
66.3000         173.6500      0.2529    513.8800    101.6850      8.4690      7.0442      0.4829   2272.8999      5.6994    -95.0100
66.4000         176.2000      0.2512    515.4000     99.9000      7.4444      7.0442      0.4790   2240.0000      6.1352    -94.5000
66.5000         176.2000      0.2494    516.9200    100.3950      7.4444      7.0442      0.4750   2240.0000      6.1352    -94.5000
66.6000         177.5000      0.2474    517.8800    100.9500      7.1094      6.7271      0.4720   2233.0000      7.5828    -95.0100
66.7000         177.5000      0.2454    518.4400    101.3850      7.1094      6.7271      0.4681   2233.0000      7.5828    -95.0100
66.8000         177.5000      0.2452    518.7600    100.3800      6.9796      6.4838      0.4653   2230.0000      7.8674    -96.0000
66.9000         177.5000      0.2496    517.3200     99.7200      6.9796      6.4838      0.4623   2230.0000      7.8674    -96.0000
67.0000         177.5000      0.2518    516.2800    102.1200      6.9796      6.4838      0.4609   2247.0000      7.0442    -96.0000
67.1000         177.5000      0.2506    515.1200    104.2500      6.9796      6.4838      0.4605   2247.0000      7.0442    -96.0000
67.2000         176.2000      0.2489    513.3600    106.9050      6.9796      6.5438      0.4627   2228.0000      6.5438    -96.2550
67.3000         176.2000      0.2461    512.6801    109.2900      6.9796      6.5438      0.4647   2228.0000      6.5438    -96.2550
67.4000         180.0250      0.2433    512.4400    111.2400      6.8522      6.3655      0.4666   2232.0000      6.9796    -96.0000
67.5000         180.0250      0.2406    513.1600    113.0250      6.8522      6.3655      0.4684   2232.0000      6.9796    -96.0000
67.6000         182.5750      0.2368    514.0400    113.5650      6.7271      6.1920      0.4703   2240.0000      7.1751    -95.0100
67.7000         182.5750      0.2352    514.9200    112.6950      6.7271      6.1920      0.4683   2240.0000      7.1751    -95.0100
67.8000         182.5750      0.2323    515.7200    111.2550      6.3655      5.9133      0.4652   2252.0000      5.6994    -92.0100
67.9000         182.5750      0.2301    516.2800    111.1200      6.3655      5.9133      0.4631   2252.0000      5.6994    -92.0100
68.0000         182.5750      0.2280    516.8400    112.9650      6.1920      5.7521      0.4632   2255.0000      5.4933    -91.7550
68.1000         182.5750      0.2251    517.4000    113.7600      6.1920      5.7521      0.4614   2255.0000      5.4933    -91.7550
68.2000         182.5750      0.2227    517.9200    113.9850      5.9680      5.5954      0.4618   2268.0000      5.5441    -91.5000
68.3000         182.5750      0.2270    518.1200    114.2100      5.9680      5.5954      0.4640   2268.0000      5.5441    -91.5000
68.4000         183.8750      0.2297    518.3200    112.5750      5.6472      5.1979      0.4675   2285.8999      5.1979    -91.5000
68.5000         183.8750      0.2344    518.6000    110.9400      5.6472      5.1979      0.4721   2285.8999      5.1979    -91.5000
68.6000         183.8750      0.2337    518.1200    109.3050      5.5954      5.0563      0.4736   2276.0000      4.7844    -91.0050
68.7000         183.8750      0.2302    517.4800    108.0600      5.5954      5.0563      0.4751   2276.0000      4.7844    -91.0050
68.8000         183.8750      0.2263    514.7600    106.8750      5.5441      4.9640      0.4695   2258.0000      4.5272    -90.7500
68.9000         183.8750      0.2223    510.4000    107.1600      5.5441      4.9640      0.4660   2258.0000      4.5272    -90.7500
69.0000         183.8750      0.2202    505.1200    107.4450      5.8054      5.1503      0.4611   2277.0000      4.6114    -90.2550
69.1000         183.8750      0.2194    500.2800    108.1650      5.8054      5.1503      0.4588   2277.0000      4.6114    -90.2550
69.2000         183.8750      0.2185    499.7600    109.2600      6.0232      5.3930      0.4591   2272.8999      4.6971    -90.2550
69.3000         183.8750      0.2166    498.2800    108.5550      6.0232      5.3930      0.4610   2272.8999      4.6971    -90.2550
69.4000         182.5750      0.2147    490.8000    107.6700      6.3071      5.7521      0.4658   2288.0000      4.9185    -90.7500
69.5000         182.5750      0.2260    488.9200    106.5600      6.3071      5.7521      0.4682   2288.0000      4.9185    -90.7500
69.6000         177.5000      0.2359    489.6000    105.2100      6.9156      6.7894      0.4669   2280.0000      7.3085    -93.0000
69.7000         177.5000      0.2416    490.3600    104.2500      6.9156      6.7894      0.4663   2280.0000      7.3085    -93.0000
69.8000         174.9250      0.2461    491.1200    107.6850      7.1751      7.1094      0.4671   2252.0000      9.2009    -94.7550
69.9000         174.9250      0.2498    492.2400    110.2650      7.1751      7.1094      0.4650   2252.0000      9.2009    -94.7550
70.0000         177.5000      0.2408    493.4800    111.9300      7.3762      7.1751      0.4649   2246.0000     10.2761    -95.7600
70.1000         177.5000      0.2259    494.6400    112.0800      7.3762      7.1751      0.4656   2246.0000     10.2761    -95.7600
70.2000         177.5000      0.2185    494.3200    112.2300      7.4444      7.0442      0.4649   2246.0000      9.5462    -95.2650
70.3000         177.5000      0.2139    494.0400    112.4700      7.4444      7.0442      0.4639   2246.0000      9.5462    -95.2650
70.4000         177.5000      0.2142    492.4800    112.8900      7.4444      6.6655      0.4635   2237.0000      6.3071    -91.2600
70.5000         177.5000      0.2159    493.0400    113.2650      7.4444      6.6655      0.4616   2237.0000      6.3071    -91.2600
70.6000         182.5750      0.2141    494.6400    112.9200      7.1751      6.6655      0.4596   2238.0000      5.6994    -90.2550
70.7000         182.5750      0.2121    497.0800    112.6050      7.1751      6.6655      0.4576   2238.0000      5.6994    -90.2550
70.8000         182.5750      0.2101    499.4000    111.7800      6.8522      6.6043      0.4573   2263.0000      6.2493    -90.0000
70.9000         182.5750      0.2103    501.3600    110.6100      6.8522      6.6043      0.4583   2263.0000      6.2493    -90.0000
71.0000         180.0250      0.2120    501.4000    109.4400      6.2493      5.8591      0.4652   2305.0000      6.5438    -90.5100
71.1000         180.0250      0.2138    501.4400    108.2700      6.2493      5.8591      0.4713   2305.0000      6.5438    -90.5100
71.2000         182.5750      0.2129    500.7200    107.5950      6.0790      5.6472      0.4769   2296.0000      5.4933    -90.2550
71.3000         182.5750      0.2164    500.4000    107.3550      6.0790      5.6472      0.4824   2296.0000      5.4933    -90.2550
71.4000         183.8750      0.2201    501.4400    110.4150      5.9680      5.4933      0.4879   2295.0000      5.0099    -90.0000
71.5000         183.8750      0.2214    502.8800    112.3650      5.9680      5.4933      0.4898   2295.0000      5.0099    -90.0000
71.6000         182.5750      0.2210    503.6000    112.6500      5.7521      5.1979      0.4908   2287.0000      5.1503    -89.5050
71.7000         182.5750      0.2183    504.1600    112.9350      5.7521      5.1979      0.4909   2287.0000      5.1503    -89.5050
71.8000         182.5750      0.2136    503.0800    113.2500      5.7521      5.1503      0.4909   2291.0000      4.9185    -89.2500
71.9000         182.5750      0.2085    501.7200    113.7000      5.7521      5.1503      0.4942   2291.0000      4.9185    -89.2500
