~VERSION INFORMATION
 VERS.                 2.0:   CWLS LOG ASCII STANDARD -VERSION 2.0
 WRAP.                  NO:   ONE LINE PER DEPTH STEP
~WELL INFORMATION BLOCK
#MNEM.UNIT           DATA                    DESCRIPTION OF MNEMONIC
#---------    -------------------            -------------------------------
# Generated from Intellog Unique Number	CC_88_90/WELL/1067
WELL.         06-35-090-10W4                 : Well_name    - WELL
LOC .         AA/06-35-090-10W4/0            : Location     - LOCATION
UWI .         AA/06-35-090-10W400            : Uwi          - UNIQUE WELL ID
ENTR.         DW                             : Entered      - ENTERED BY
SRVC.         SCHLUMBERGER                   : Scn          - SERVICE COMPANY
STRT.M        15                             : top_depth    - START DEPTH
STOP.M        114.75                         : bot_depth    - STOP DEPTH
STEP.M        0.25                           : increment    - STEP LENGTH
 NULL. -999.2500:NULL Value
~CURVE INFORMATION BLOCK
#MNEM UNIT       ERCB CURVE CODE    CURVE DESCRIPTION
#-----------   ------------------   ----------------------------------
DEPT.M        00 001 00 00         : DEPTH        - DEPTH
GR  .API      00 310 00 00         : GR           - GAMMA RAY
DPHI.V/V      00 890 00 00         : PHID         - DENSITY POROSITY (SANDSTONE)
NPHI.V/V      00 330 00 00         : PHIN         - NEUTRON POROSITY (SANDSTONE)
ILD .OHMM     00 120 00 00         : RESD         - DEEP RESISTIVITY (DIL)
~PARAMETER INFORMATION
#MNEM.UNIT           DATA             DESCRIPTION OF MNEMONIC
#---------         -----------     ------------------------------
GL  .M        346.73               : gl           - GROUND LEVEL ELEVATION
EREF.M        0                    : kb           - ELEVATION OF DEPTH REFERENCE
DATM.M        346.73               : datum        - DATUM ELEVATION
TDD .M        154                  : tdd          - TOTAL DEPTH DRILLER
RUN .         ONE                  : Run          - RUN NUMBER
ENG .         BILL                 : Engineer     - RECORDING ENGINEER
WIT .         JIM                  : Witness      - WITNESSED BY
MUD .         GEL                  : Mud_type     - MUD TYPE
MATR.         SANDSTONE            : Logunit      - NEUTRON MATRIX
TMAX.C        5.4                  : BHT          - MAXIMUM RECORDED TEMPERATURE
BHTD.M        154                  : BHTDEP       - MAXIMUM RECORDED TEMPERATURE
MATR.         1                    : LOGUNIT      - NEUTRON MATRIX
RMT .C        25                   : MDTP         - TEMPERATURE OF MUD
NEUT.         1                    : NEUTRON      - NEUTRON TYPE
RESI.         0                    : RESIST       - RESISTIVITY TYPE
RMC .OHMM     0.25                 : RMC          - RESISTIVITY OF MUD CAKE
RMF .OHMM     0.25                 : RMF          - RESISTIVITY OF MUD FILTRATE
SUFT.C        4                    : SUFT         - SURFACE TEMPERATURE
~A  DEPTH       GR     PHID     PHIN     RESD
   15.000   76.549    0.191    0.380   48.949
   15.250   67.986    0.231    0.413   50.177
   15.500   86.314    0.242    0.382   47.001
   15.750   80.313    0.202    0.363   34.014
   16.000   68.960    0.172    0.367   32.796
   16.250   78.051    0.186    0.373   45.069
   16.500   80.219    0.187    0.384   40.823
   16.750   77.667    0.182    0.389   36.003
   17.000   70.058    0.172    0.374   32.655
   17.250   67.736    0.163    0.345   43.008
   17.500   75.268    0.150    0.329   53.557
   17.750   76.697    0.143    0.340   50.986
   18.000   63.972    0.155    0.344   48.897
   18.250   66.495    0.152    0.309   47.389
   18.500   69.656    0.141    0.298   46.491
   18.750   69.147    0.120    0.328   46.267
   19.000   70.655    0.117    0.335   46.475
   19.250   73.587    0.133    0.342   43.548
   19.500   74.487    0.137    0.410   37.049
   19.750   77.263    0.171    0.392   37.530
   20.000   77.379    0.197    0.400   37.428
   20.250   79.886    0.218    0.434   34.458
   20.500   89.663    0.227    0.453   28.613
   20.750   89.054    0.215    0.442   21.556
   21.000   68.821    0.185    0.390   21.942
   21.250   70.754    0.143    0.336   34.124
   21.500   72.189    0.106    0.316   33.737
   21.750   74.034    0.130    0.315   47.260
   22.000   84.208    0.177    0.321   61.092
   22.250   89.214    0.214    0.333   51.684
   22.500   80.577    0.268    0.336   43.893
   22.750   82.632    0.255    0.335   46.275
   23.000   80.793    0.154    0.358   51.411
   23.250   78.546    0.128    0.372   47.116
   23.500   70.464    0.177    0.431   39.276
   23.750   64.089    0.221    0.493   33.625
   24.000   77.404    0.279    0.443   25.508
   24.250   79.055    0.314    0.470   23.924
   24.500   84.493    0.330    0.466   20.849
   24.750   91.391    0.316    0.475   17.948
   25.000   88.221    0.284    0.466   20.140
   25.250   78.999    0.270    0.423   25.086
   25.500   76.716    0.281    0.457   26.726
   25.750   81.066    0.280    0.494   24.778
   26.000   86.956    0.276    0.462   23.426
   26.250   89.081    0.280    0.487   24.097
   26.500   84.797    0.286    0.513   25.321
   26.750   81.101    0.300    0.494   27.652
   27.000   82.874    0.334    0.543   31.993
   27.250   76.798    0.359    0.552   32.965
   27.500   77.073    0.376    0.590   30.531
   27.750   73.652    0.369    0.550   29.785
   28.000   62.895    0.401    0.553   30.622
   28.250   56.056    0.499    0.674   33.185
   28.500   57.288    0.566    0.704   36.157
   28.750   61.199    0.556    0.653   28.609
   29.000   67.477    0.521    0.517   30.774
   29.250   74.325    0.437    0.456   35.636
   29.500   78.313    0.350    0.483   25.111
   29.750   88.166    0.314    0.492    9.968
   30.000  106.395    0.298    0.497   12.816
   30.250  104.872    0.286    0.546   17.035
   30.500  113.556    0.288    0.508   20.141
   30.750  109.862    0.288    0.510   18.461
   31.000  104.214    0.286    0.527   13.957
   31.250  115.000    0.290    0.487   12.467
   31.500  116.287    0.289    0.492   13.172
   31.750  107.932    0.285    0.513   10.855
   32.000  103.417    0.283    0.551    8.948
   32.250  108.329    0.282    0.556    8.717
   32.500  107.646    0.276    0.544    9.347
   32.750  106.120    0.261    0.533    9.209
   33.000  118.089    0.246    0.487    8.259
   33.250  108.436    0.256    0.472   10.416
   33.500  109.424    0.259    0.461   12.559
   33.750  109.317    0.243    0.514   10.606
   34.000  109.449    0.236    0.555    9.332
   34.250  114.997    0.248    0.515   10.650
   34.500  108.688    0.261    0.505    8.172
   34.750  103.834    0.286    0.544    3.978
   35.000  105.958    0.302    0.535    1.140
   35.250  111.293    0.301    0.555    0.966
   35.500  115.941    0.283    0.600    2.124
   35.750  121.166    0.261    0.613    3.530
   36.000  128.537    0.255    0.595    5.853
   36.250  129.035    0.252    0.488    8.219
   36.500  110.653    0.247    0.482    8.029
   36.750  110.768    0.246    0.532    7.603
   37.000  117.486    0.251    0.526    8.356
   37.250  106.365    0.233    0.486   10.158
   37.500  101.714    0.185    0.485   11.272
   37.750  106.306    0.195    0.494    7.038
   38.000  103.782    0.215    0.535    5.376
   38.250  102.936    0.235    0.519    6.966
   38.500  103.647    0.228    0.480   10.459
   38.750  101.589    0.192    0.475    9.444
   39.000   99.778    0.203    0.465    0.368
   39.250   88.429    0.301    0.501   -0.288
   39.500   85.236    0.349    0.578    0.245
   39.750   84.156    0.339    0.614    0.091
   40.000   83.394    0.322    0.602    0.344
   40.250   86.645    0.312    0.606    0.605
   40.500   88.513    0.294    0.628    1.337
   40.750   89.479    0.280    0.584    2.458
   41.000   91.496    0.278    0.557    1.436
   41.250   95.056    0.295    0.539    0.680
   41.500   93.268    0.312    0.515    2.054
   41.750   81.996    0.326    0.520    3.874
   42.000   69.151    0.344    0.556    4.556
   42.250   64.546    0.311    0.553    5.199
   42.500   68.358    0.279    0.502    4.748
   42.750   72.490    0.286    0.452    4.782
   43.000   80.229    0.328    0.490    5.458
   43.250   88.206    0.297    0.525    6.197
   43.500   85.893    0.156    0.423    5.882
   43.750   91.273    0.169    0.437    1.193
   44.000  101.511    0.230    0.538    0.043
   44.250   98.386    0.262    0.564    0.656
   44.500   91.453    0.269    0.544    0.872
   44.750   93.943    0.272    0.571    1.206
   45.000  100.770    0.278    0.581    0.836
   45.250  115.812    0.271    0.521    0.426
   45.500  109.424    0.278    0.523    0.497
   45.750   92.092    0.285    0.591    0.559
   46.000   94.067    0.276    0.626    0.487
   46.250  106.387    0.268    0.608    0.545
   46.500   96.959    0.274    0.588    0.725
   46.750   86.944    0.262    0.529    1.179
   47.000   95.254    0.257    0.529    2.328
   47.250  105.977    0.257    0.519    2.799
   47.500  109.977    0.261    0.528    1.854
   47.750  109.206    0.264    0.552    0.685
   48.000  103.740    0.260    0.489    1.050
   48.250  101.009    0.269    0.479    2.584
   48.500   94.431    0.277    0.497    1.332
   48.750  101.192    0.280    0.527    0.337
   49.000  113.069    0.282    0.506    0.802
   49.250  111.166    0.273    0.485    3.668
   49.500  101.188    0.234    0.536    8.740
   49.750   87.996    0.162    0.435    7.172
   50.000   73.514    0.141    0.422    7.634
   50.250   72.319    0.191    0.453    9.026
   50.500   77.194    0.228    0.442    8.809
   50.750   69.879    0.221    0.425   11.960
   51.000   59.430    0.217    0.436   17.483
   51.250   69.807    0.166    0.436   10.708
   51.500   73.240    0.137    0.383    7.792
   51.750   73.159    0.168    0.401    6.243
   52.000   79.190    0.208    0.430    8.922
   52.250   84.755    0.233    0.400   18.298
   52.500   83.013    0.267    0.407   19.762
   52.750   80.074    0.259    0.404   10.147
   53.000   81.453    0.246    0.385   13.708
   53.250   88.844    0.205    0.407   10.061
   53.500  106.461    0.182    0.463    3.140
   53.750  121.230    0.218    0.510    6.496
   54.000  115.305    0.250    0.537    6.495
   54.250  112.051    0.237    0.505    6.667
   54.500  114.477    0.215    0.451    6.970
   54.750  119.875    0.210    0.454    7.111
   55.000  117.254    0.215    0.497    7.221
   55.250  104.725    0.219    0.493    7.369
   55.500   96.574    0.224    0.439    7.625
   55.750   95.691    0.232    0.432    7.877
   56.000   96.500    0.231    0.449    7.989
   56.250   93.719    0.223    0.463    7.007
   56.500   92.728    0.210    0.487   14.880
   56.750   96.620    0.214    0.483   52.751
   57.000   94.640    0.247    0.418  106.132
   57.250   76.113    0.252    0.415  105.763
   57.500   45.919    0.266    0.432   90.747
   57.750   42.261    0.280    0.451   74.276
   58.000   55.838    0.284    0.454   65.075
   58.250   59.559    0.287    0.440   86.419
