~VERSION INFORMATION
 VERS.                 2.0:   CWLS LOG ASCII STANDARD -VERSION 2.0
 WRAP.                  NO:   ONE LINE PER DEPTH STEP
~WELL INFORMATION BLOCK
#MNEM.UNIT           DATA                    DESCRIPTION OF MNEMONIC
#---------    -------------------            -------------------------------
# Generated from Intellog Unique Number	CN_94_101/WELL/3218
WELL.         01-03-096-07W4                 : Well_name    - WELL
LOC .         AA/01-03-096-07W4/0            : Location     - LOCATION
UWI .         AA/01-03-096-07W400            : Uwi          - UNIQUE WELL ID
ENTR.         JOETTE                         : Entered      - ENTERED BY
SRVC.         SCHLUMBERGER                   : Scn          - SERVICE COMPANY
DATE.         07/20/92                       : Date         - LOG DATE
STRT.M        25                             : top_depth    - START DEPTH
STOP.M        180                            : bot_depth    - STOP DEPTH
STEP.M        0.25                           : increment    - STEP LENGTH
 NULL. -999.2500:NULL Value
~CURVE INFORMATION BLOCK
#MNEM UNIT       ERCB CURVE CODE    CURVE DESCRIPTION
#-----------   ------------------   ----------------------------------
DEPT.M        00 001 00 00         : DEPTH        - DEPTH
ILD .OHMM     00 120 00 00         : RESD         - DEEP RESISTIVITY (DIL)
GR  .API      00 310 00 00         : GR           - GAMMA RAY
NPHI.V/V      00 330 00 00         : PHIN         - NEUTRON POROSITY (SANDSTONE)
DPHI.V/V      00 890 00 00         : PHID         - DENSITY POROSITY (SANDSTONE)
~PARAMETER INFORMATION
#MNEM.UNIT           DATA             DESCRIPTION OF MNEMONIC
#---------         -----------     ------------------------------
GL  .M        438.36               : gl           - GROUND LEVEL ELEVATION
EREF.M        439.66               : kb           - ELEVATION OF DEPTH REFERENCE
DATM.M        439.66               : datum        - DATUM ELEVATION
TDD .M        181                  : tdd          - TOTAL DEPTH DRILLER
RUN .         ONE                  : Run          - RUN NUMBER
ENG .         JO                   : Engineer     - RECORDING ENGINEER
WIT .         TIM                  : Witness      - WITNESSED BY
MUD .         GEL                  : Mud_type     - MUD TYPE
MATR.         SANDSTONE            : Logunit      - NEUTRON MATRIX
TMAX.C        16                   : BHT          - MAXIMUM RECORDED TEMPERATURE
BHTD.M        181                  : BHTDEP       - MAXIMUM RECORDED TEMPERATURE
RMT .C        27.8                 : MDTP         - TEMPERATURE OF MUD
MUDD.KG/M     1110                 : MWT          - MUD DENSITY
NEUT.         1                    : NEUTRON      - NEUTRON TYPE
RESI.         0                    : RESIST       - RESISTIVITY TYPE
RM  .OHMM     16.5                 : RM           - RESISTIVITY OF MUD
RMC .OHMM     16.5                 : RMC          - RESISTIVITY OF MUD CAKE
RMF .OHMM     16.5                 : RMF          - RESISTIVITY OF MUD FILTRATE
SUFT.C        4                    : SUFT         - SURFACE TEMPERATURE
~A  DEPTH     RESD       GR     PHIN     PHID
# ...
  112.000  152.513   53.687    0.386    0.294
  112.250  103.898   63.303    0.387    0.272
  112.500   60.711   70.507    0.393    0.262
  112.750   59.518   72.272    0.400    0.253
  113.000   61.790   71.052    0.406    0.254
  113.250   65.401   67.406    0.402    0.261
  113.500   67.909   68.583    0.395    0.262
  113.750   69.175   73.376    0.390    0.267
  114.000   67.827   75.759    0.394    0.267
  114.250   65.222   79.332    0.404    0.261
  114.500   61.547   79.317    0.406    0.254
  114.750   58.060   81.090    0.396    0.249
  115.000   58.010   81.061    0.386    0.250
  115.250   57.990   77.415    0.394    0.256
  115.500   60.214   73.762    0.397    0.265
  115.750   61.336   71.924    0.384    0.269
  116.000   63.678   73.711    0.380    0.265
  116.250   63.645   75.490    0.379    0.264
  116.500   64.831   76.064    0.379    0.267
  116.750   64.776   74.823    0.376    0.265
  117.000   63.492   74.801    0.373    0.261
  117.250   62.255   79.587    0.382    0.264
  117.500   59.864   80.771    0.393    0.263
  117.750   57.574   79.536    0.400    0.252
  118.000   53.281   77.096    0.400    0.246
  118.250   51.252   71.635    0.397    0.255
  118.500   46.538   69.202    0.398    0.262
  118.750   43.076   70.981    0.396    0.264
  119.000   39.878   75.775    0.399    0.256
  119.250   34.188   81.171    0.405    0.246
  119.500   29.310   86.567    0.400    0.232
  119.750   27.124   84.119    0.408    0.228
  120.000   27.625   80.481    0.418    0.231
  120.250   28.685   76.821    0.422    0.241
  120.500   28.665   82.224    0.427    0.248
  120.750   26.024   88.230    0.443    0.258
  121.000   25.037   94.229    0.440    0.270
  121.250   21.876   96.008    0.438    0.266
  121.500   20.252   97.185    0.446    0.246
  121.750   18.390   97.149    0.432    0.233
  122.000   16.696   97.120    0.435    0.199
  122.250   15.750   94.680    0.464    0.222
  122.500   15.445   91.637    0.473    0.230
  122.750   15.139   87.388    0.446    0.236
  123.000   15.720   87.962    0.423    0.230
  123.250   16.323   90.947    0.415    0.222
  123.500   16.627   95.130    0.423    0.214
  123.750   17.265   98.718    0.460    0.216
  124.000   17.256  101.710    0.466    0.226
  124.250   17.238  102.284    0.442    0.226
  124.500   16.902   98.028    0.438    0.218
  124.750   16.570   97.404    0.439    0.210
  125.000   15.634  100.992    0.448    0.204
  125.250   14.751  104.579    0.472    0.209
  125.500   14.184  105.749    0.451    0.214
  125.750   13.905  103.309    0.446    0.222
  126.000   13.898   99.067    0.447    0.212
  126.250   13.889   99.038    0.471    0.211
  126.500   14.148  101.421    0.471    0.212
  126.750   14.138  101.384    0.464    0.208
  127.000   14.680   95.327    0.473    0.206
  127.250   16.139   88.668    0.482    0.205
  127.500   17.085   80.803    0.453    0.204
  127.750   18.433   77.760    0.425    0.239
  128.000   18.421   83.758    0.413    0.251
  128.250   18.411   92.169    0.404    0.244
  128.500   17.038   98.770    0.414    0.223
  128.750   16.078  104.769    0.429    0.203
  129.000   15.167  102.329    0.439    0.201
  129.250   15.450   99.882    0.432    0.204
  129.500   16.037  101.051    0.422    0.198
  129.750   16.342  101.037    0.417    0.203
  130.000   16.643  101.000    0.421    0.214
  130.250   17.282   98.560    0.432    0.224
  130.500   17.607   94.922    0.437    0.226
  130.750   17.935   93.680    0.435    0.221
  131.000   18.270   93.651    0.436    0.215
  131.250   19.711   91.204    0.439    0.203
  131.500   22.097   94.189    0.429    0.203
  131.750   25.247   95.365    0.414    0.196
  132.000   25.717   92.925    0.410    0.185
  132.250   25.216   90.492    0.417    0.175
  132.500   24.721   92.874    0.417    0.186
  132.750   23.775   94.051    0.413    0.200
  133.000   22.428   95.227    0.408    0.201
  133.250   21.165   99.411    0.407    0.208
  133.500   19.218   98.183    0.408    0.213
  133.750   17.788   99.360    0.440    0.202
  134.000   17.776   70.390    0.450    0.197
  134.250   28.133   54.086    0.459    0.211
  134.500   71.880   38.384    0.425    0.247
  134.750   88.682   27.498    0.399    0.302
  135.000  154.462   27.462    0.389    0.329
  135.250  166.621   28.035    0.380    0.319
  135.500  183.277   29.205    0.389    0.310
  135.750  273.862   29.793    0.399    0.316
  136.000  312.950   29.161    0.393    0.320
  136.250  350.892   28.522    0.393    0.308
  136.500  416.636   29.103    0.397    0.294
  136.750  440.829   31.478    0.397    0.300
  137.000  407.960   33.861    0.392    0.312
  137.250  385.042   35.037    0.382    0.310
  137.500  363.287   33.810    0.372    0.299
  137.750  336.257   30.164    0.378    0.289
  138.000  585.677   24.695    0.392    0.293
  138.250  631.673   24.078    0.393    0.326
  138.500  643.671   23.446    0.391    0.331
  138.750 1613.640   24.020    0.392    0.322
  139.000 1643.730   24.587    0.392    0.320
  139.250 1642.320   26.962    0.382    0.322
  139.500 1462.980   30.557    0.405    0.334
  139.750  959.175   34.152    0.425    0.345
  140.000  616.932   40.753    0.404    0.294
  140.250  281.069   45.547    0.389    0.287
  140.500  180.719   49.737    0.395    0.280
  140.750  198.749   53.325    0.397    0.293
  141.000  214.468   53.899    0.395    0.299
  141.250  264.598   53.267    0.402    0.298
  141.500  314.121   50.210    0.418    0.304
  141.750  326.222   46.564    0.431    0.314
  142.000  351.842   47.740    0.410    0.319
  142.250  365.459   50.115    0.402    0.324
  142.500  401.853   51.902    0.401    0.322
  142.750  433.561   53.689    0.402    0.302
  143.000  386.283   56.071    0.405    0.296
  143.250  268.241   61.467    0.402    0.291
  143.500  208.961   66.863    0.394    0.281
  143.750   70.056   71.054    0.399    0.266
  144.000   67.365   69.819    0.418    0.254
  144.250   69.948   62.557    0.423    0.252
  144.500   79.932   54.089    0.415    0.285
  144.750   82.997   50.443    0.412    0.309
  145.000   81.366   51.017    0.413    0.315
  145.250   78.254   50.385    0.412    0.307
  145.500   82.826   49.150    0.408    0.302
  145.750   92.868   43.086    0.409    0.303
  146.000   85.958   44.256    0.421    0.309
  146.250   76.572   49.659    0.413    0.314
  146.500   66.916   57.474    0.400    0.287
  146.750   56.279   66.486    0.401    0.277
  147.000   39.075   61.635    0.415    0.263
  147.250   30.439   59.783    0.449    0.262
  147.500   28.720   57.343    0.461    0.268
  147.750   30.986   51.896    0.435    0.278
  148.000   36.093   41.620    0.408    0.290
  148.250  558.446   32.549    0.386    0.301
  148.500  729.736   27.691    0.379    0.310
  148.750  850.166   27.066    0.384    0.310
  149.000 1294.940   26.427    0.400    0.310
  149.250 1479.510   26.391    0.398    0.310
  149.500 1450.690   26.369    0.396    0.310
  149.750 1317.050   26.936    0.398    0.309
  150.000  880.199   28.708    0.402    0.303
  150.250  424.735   29.892    0.407    0.299
  150.500  324.592   31.678    0.415    0.299
  150.750  156.576   32.848    0.422    0.308
  151.000  134.258   31.613    0.421    0.313
  151.250  112.918   27.364    0.411    0.317
  151.500   98.679   27.336    0.402    0.320
  151.750   76.871   28.512    0.402    0.315
  152.000   61.031   29.681    0.410    0.296
  152.250   57.593   29.667    0.403    0.233
  152.500   63.339   29.035    0.327    0.191
  152.750   82.766   27.801    0.313    0.181
  153.000  168.035   28.977    0.319    0.175
  153.250  281.674   30.757    0.328    0.164
  153.500  361.086   29.522    0.322    0.187
  153.750  353.992   27.067    0.319    0.226
  154.000  309.300   27.038    0.319    0.236
  154.250  280.903   28.208    0.328    0.233
  154.500  275.336   29.392    0.361    0.234
  154.750  297.112   30.576    0.381    0.247
  155.000  339.519   31.752    0.376    0.262
  155.250  387.978   33.524    0.380    0.287
