~VERSION INFORMATION
 VERS.                 2.0:   CWLS LOG ASCII STANDARD -VERSION 2.0
 WRAP.                  NO:   ONE LINE PER DEPTH STEP
~WELL INFORMATION BLOCK
#MNEM.UNIT           DATA                    DESCRIPTION OF MNEMONIC
#---------    -------------------            -------------------------------
# Generated from Intellog Unique Number	CC_80_83/WELL/2365
NULL.         -999.25                        : NULL_VALUE
WELL.         PEX PCEJ HANGST OV             : Well_name    - WELL
LOC .         10-23-082-08W4                 : Location     - LOCATION          
UWI .         AA/10-23-082-08W4/0            : Uwi          - UNIQUE WELL ID    
ENTR.         DW                             : Entered      - ENTERED BY        
SRVC.         DRESSER ATLAS                  : Scn          - SERVICE COMPANY   
DATE.         29 FEB 80                      : Date         - LOG DATE
STRT.M        275                            : top_depth    - START DEPTH       
STOP.M        509.89                         : bot_depth    - STOP DEPTH        
STEP.M        0.3                            : increment    - STEP LENGTH       
~CURVE INFORMATION BLOCK
#MNEM UNIT       ERCB CURVE CODE    CURVE DESCRIPTION
#-----------   ------------------   ----------------------------------
DEPT.M        00 001 00 00         : DEPTH        - DEPTH                       
DPHI.V/V      00 890 00 00         : PHID         - DENSITY POROSITY (LIMESTONE)
NPHI.V/V      00 330 00 00         : PHIN         - NEUTRON POROSITY (LIMESTONE)
GR  .API      00 310 00 00         : GR           - GAMMA RAY                   
ILD .OHMM     00 120 00 00         : RESD         - DEEP RESISTIVITY (DIL)      
~PARAMETER INFORMATION       
#MNEM.UNIT           DATA             DESCRIPTION OF MNEMONIC
#---------         -----------     ------------------------------
GL  .M        740.12               : gl           - GROUND LEVEL ELEVATION      
EREF.M        743.77               : kb           - ELEVATION OF DEPTH REFERENCE
DATM.M        743.77               : datum        - DATUM ELEVATION             
TDD .M        512                  : tdd          - TOTAL DEPTH DRILLER         
RUN .         ONE                  : Run          - RUN NUMBER                  
ENG .         BILL                 : Engineer     - RECORDING ENGINEER          
WIT .         JIM                  : Witness      - WITNESSED BY                
MUD .         GEL                  : Mud_type     - MUD TYPE                    
MATR.         LIMESTONE            : Logunit      - NEUTRON MATRIX              
TMAX.C        16.8                 : BHT          - MAXIMUM RECORDED TEMPERATURE
BHTD.M        512                  : BHTDEP       - MAXIMUM RECORDED TEMPERATURE
MATR.         1                    : LOGUNIT      - NEUTRON MATRIX              
RMT .C        25                   : MDTP         - TEMPERATURE OF MUD          
NEUT.         1                    : NEUTRON      - NEUTRON TYPE                
RESI.         0                    : RESIST       - RESISTIVITY TYPE            
RMC .OHMM     0.25                 : RMC          - RESISTIVITY OF MUD CAKE     
RMF .OHMM     0.25                 : RMF          - RESISTIVITY OF MUD FILTRATE 
SUFT.C        15                   : SUFT         - SURFACE TEMPERATURE         
~A  DEPTH     PHID     PHIN       GR     RESD
# ...
  327.198    0.258    0.315   82.051   16.841
  327.498    0.261    0.320   89.545   17.821
  327.798    0.262    0.331   83.853   18.504
  328.098    0.269    0.336   56.799   18.502
  328.398    0.260    0.338   64.293   17.812
  328.698    0.254    0.350   77.443   16.200
  328.998    0.260    0.353   70.487   13.661
  329.298    0.212    0.343   72.336   13.150
  329.598    0.207    0.332   76.068   13.916
  329.898    0.252    0.348   74.139   14.179
  330.198    0.263    0.351   74.099   13.393
  330.498    0.244    0.340   75.942   12.414
  330.798    0.223    0.338   85.951   11.507
  331.098    0.215    0.356   87.171   10.466
  331.398    0.194    0.369   96.543    9.341
  331.698    0.198    0.373  102.781    7.877
  331.998    0.194    0.392  107.773    6.642
  332.298    0.185    0.408  113.385    6.274
  332.598    0.178    0.413  122.769    6.273
  332.898    0.173    0.386  123.353    6.514
  333.198    0.178    0.368  120.164    7.577
  333.498    0.198    0.372  117.623    9.329
  333.798    0.226    0.348  106.899   11.059
  334.098    0.228    0.325  103.715   12.864
  334.398    0.224    0.319   99.904   12.620
  334.698    0.226    0.325   96.726   11.698
  334.998    0.225    0.347   95.424   10.053
  335.298    0.223    0.378   94.130    8.972
  335.598    0.242    0.387  104.760    8.475
  335.898    0.291    0.373  100.954    8.313
  336.198    0.314    0.376   98.398    8.312
  336.497    0.354    0.398   93.968    8.311
  336.797    0.327    0.403  102.089    8.963
  337.097    0.241    0.388  103.302   10.231
  337.397    0.254    0.355   94.473   11.901
  337.697    0.239    0.370   92.543   14.652
  337.997    0.224    0.362   96.901   15.505
  338.297    0.222    0.336   86.802   14.926
  338.597    0.222    0.320   79.858   14.643
  338.897    0.247    0.323   80.438   14.920
  339.197    0.253    0.367   81.028   16.090
  339.497    0.242    0.354   77.220   18.022
  339.797    0.243    0.319   74.041   18.362
  340.097    0.267    0.336   53.897   18.358
  340.397    0.265    0.343   52.595   18.012
  340.697    0.265    0.347   51.296   17.013
  340.997    0.266    0.335   48.740   17.010
  341.297    0.269    0.341   49.956   17.007
  341.597    0.269    0.350   50.543   17.995
  341.897    0.273    0.345   46.108   18.686
  342.197    0.273    0.345   52.348   19.041
  342.497    0.275    0.349   56.074   19.399
  342.797    0.276    0.357   57.297   19.398
  343.097    0.279    0.346   53.485   19.392
  343.397    0.282    0.340   54.068   19.026
  343.697    0.284    0.338   55.281   17.972
  343.997    0.288    0.334   53.986   17.969
  344.297    0.287    0.348   52.677   18.310
  344.597    0.286    0.349   54.529   19.012
  344.897    0.291    0.343   57.006   20.502
  345.197    0.300    0.361   59.479   20.890
  345.497    0.303    0.351   58.178   20.887
  345.797    0.303    0.334   55.629   21.280
  346.097    0.301    0.319   63.124   21.277
  346.397    0.292    0.353   64.968   21.273
  346.697    0.290    0.361   58.017   21.674
  346.997    0.293    0.375   59.852   21.671
  347.297    0.300    0.375   60.448   21.261
  347.597    0.306    0.355   56.010   20.856
  347.897    0.309    0.343   54.711   20.462
  348.197    0.307    0.354   56.552   19.699
  348.497    0.300    0.337   57.771   18.964
  348.797    0.296    0.338   52.704   19.323
  349.097    0.299    0.338   53.286   20.064
  349.397    0.308    0.345   52.620   21.231
  349.697    0.316    0.348   57.607   21.633
  349.997    0.308    0.343   62.591   20.825
  350.297    0.301    0.342   48.097   20.432
  350.597    0.295    0.342   49.307   19.299
  350.897    0.291    0.339   49.904   18.935
  351.197    0.295    0.345   50.489   18.576
  351.497    0.296    0.360   51.076   18.925
  351.797    0.294    0.350   47.895   19.283
  352.097    0.295    0.347   44.706   19.280
  352.397    0.300    0.350   46.554   19.277
  352.697    0.304    0.355   51.540   18.210
  352.997    0.304    0.384   62.808   16.561
  353.297    0.301    0.366   50.831   16.559
  353.597    0.297    0.350   46.389   17.523
  353.897    0.293    0.350   54.510   17.855
  354.197    0.292    0.355   52.581   18.893
  354.497    0.295    0.344   50.026   18.536
  354.797    0.298    0.349   48.106   18.185
  355.097    0.300    0.360   49.957   17.507
  355.397    0.301    0.368   50.542   17.174
  355.697    0.297    0.347   54.272   17.171
  355.997    0.295    0.346   52.346   17.497
  356.297    0.298    0.341   51.669   18.167
  356.597    0.300    0.346   52.259   18.864
  356.897    0.302    0.351   49.703   18.862
  357.197    0.300    0.348   46.524   19.216
  357.497    0.295    0.346   47.740   19.214
  357.797    0.293    0.343   50.204   18.850
  358.097    0.301    0.341   50.167   19.206
  358.397    0.307    0.338   52.632   19.570
  358.697    0.309    0.338   52.601   19.566
  358.997    0.307    0.352   49.411   19.562
  359.297    0.301    0.368   50.637   19.931
  359.597    0.299    0.363   53.109   19.928
  359.897    0.296    0.352   53.067   19.924
  360.197    0.293    0.351   53.016   19.921
  360.497    0.291    0.353   56.754   18.817
  360.797    0.291    0.353   57.340   18.462
  361.096    0.292    0.354   59.186   14.989
  361.396    0.293    0.357   61.024   11.942
  361.696    0.295    0.379   64.755    6.640
  361.996    0.302    0.401   68.484    5.290
  362.296    0.322    0.458   74.097    4.721
  362.596    0.369    0.469   87.874    4.903
  362.896    0.379    0.445   92.234    5.388
  363.196    0.381    0.431   80.881    5.702
  363.496    0.370    0.441   85.866    6.266
  363.796    0.351    0.432   93.363    6.758
  364.096    0.285    0.432   92.065    7.151
  364.396    0.307    0.440   81.344    7.016
  364.696    0.345    0.437   81.932    6.883
  364.996    0.341    0.435   80.636    6.752
  365.296    0.340    0.441   79.327    6.624
  365.596    0.347    0.410   88.095    6.750
  365.896    0.346    0.399   93.703    7.279
  366.196    0.385    0.403   90.524    6.621
  366.496    0.349    0.384   81.685    5.798
  366.796    0.291    0.429   81.011    4.983
  367.096    0.383    0.451   82.863    4.447
  367.396    0.410    0.446   89.729    4.363
  367.696    0.415    0.407   88.431    4.530
  367.996    0.280    0.387   86.504    5.577
  368.296    0.325    0.387   83.319    5.902
  368.596    0.287    0.397   87.682    5.169
  368.896    0.245    0.397   91.403    2.164
  369.196    0.252    0.413   93.880    2.006
  369.496    0.290    0.450   86.299    1.968
  369.796    0.373    0.463   94.424    2.005
  370.096    0.364    0.451   96.890    2.162
  370.396    0.357    0.456   94.347    2.515
  370.696    0.393    0.456   88.017    3.156
  370.996    0.430    0.452   89.231    3.960
  371.296    0.297    0.446   89.190    5.359
  371.596    0.241    0.428   88.525    5.564
  371.896    0.239    0.410   87.214    5.357
  372.196    0.254    0.519   88.439    4.781
  372.496    0.279    0.537   89.032    4.187
  372.796    0.382    0.535   92.757    3.464
  373.096    0.359    0.535   96.489    3.273
  373.396    0.353    0.535   95.181    3.033
  373.696    0.358    0.532   95.775    2.976
  373.996    0.376    0.512   95.732    2.975
  374.296    0.407    0.496   89.411    3.090
  374.596    0.432    0.492   90.627    3.089
  374.896    0.386    0.491   93.729    2.974
  375.196    0.314    0.475  100.598    2.809
  375.496    0.292    0.519  104.320    2.756
  375.796    0.256    0.514   94.860    2.703
  376.096    0.237    0.467   96.078    2.703
  376.396    0.242    0.464  106.089    2.754
  376.696    0.317    0.476  101.022    2.806
  376.996    0.338    0.488   91.554    2.914
  377.296    0.349    0.497   80.833    3.142
  377.596    0.367    0.507   77.653    3.389
  377.896    0.454    0.508   82.640    3.586
  378.196    0.494    0.528   69.405    4.017
  378.496    0.460    0.467   73.128    4.762
  378.796    0.378    0.437   81.254    4.761
  379.096    0.308    0.366   81.200    4.330
