~VERSION INFORMATION
 VERS.                 2.0:   CWLS LOG ASCII STANDARD -VERSION 2.0
 WRAP.                  NO:   ONE LINE PER DEPTH STEP
~WELL INFORMATION BLOCK
#MNEM.UNIT           DATA                    DESCRIPTION OF MNEMONIC
#---------    -------------------            -------------------------------
# Generated from Intellog Unique Number	CC_80_83/WELL/2348
NULL.         -999.25                        : NULL_VALUE
WELL.         PEX PCEJ KEANE OV              : Well_name    - WELL
LOC .         10-11-080-15W4                 : Location     - LOCATION          
UWI .         AA/10-11-080-15W4/0            : Uwi          - UNIQUE WELL ID    
ENTR.         DW                             : Entered      - ENTERED BY        
SRVC.         SCHLUMBERGER                   : Scn          - SERVICE COMPANY   
DATE.         08 JAN 81                      : Date         - LOG DATE
STRT.M        200                            : top_depth    - START DEPTH       
STOP.M        430.093                        : bot_depth    - STOP DEPTH        
STEP.M        0.3                            : increment    - STEP LENGTH       
~CURVE INFORMATION BLOCK
#MNEM UNIT       ERCB CURVE CODE    CURVE DESCRIPTION
#-----------   ------------------   ----------------------------------
DEPT.M        00 001 00 00         : DEPTH        - DEPTH                       
DPHI.V/V      00 890 00 00         : PHID         - DENSITY POROSITY (LIMESTONE)
NPHI.V/V      00 330 00 00         : PHIN         - NEUTRON POROSITY (LIMESTONE)
GR  .API      00 310 00 00         : GR           - GAMMA RAY                   
ILD .OHMM     00 120 00 00         : RESD         - DEEP RESISTIVITY (DIL)      
~PARAMETER INFORMATION       
#MNEM.UNIT           DATA             DESCRIPTION OF MNEMONIC
#---------         -----------     ------------------------------
GL  .M        612                  : gl           - GROUND LEVEL ELEVATION      
EREF.M        615                  : kb           - ELEVATION OF DEPTH REFERENCE
DATM.M        615                  : datum        - DATUM ELEVATION             
TDD .M        440                  : tdd          - TOTAL DEPTH DRILLER         
RUN .         ONE                  : Run          - RUN NUMBER                  
ENG .         BILL                 : Engineer     - RECORDING ENGINEER          
WIT .         JIM                  : Witness      - WITNESSED BY                
MUD .         GEL                  : Mud_type     - MUD TYPE                    
MATR.         LIMESTONE            : Logunit      - NEUTRON MATRIX              
TMAX.C        27                   : BHT          - MAXIMUM RECORDED TEMPERATURE
BHTD.M        440                  : BHTDEP       - MAXIMUM RECORDED TEMPERATURE
MATR.         1                    : LOGUNIT      - NEUTRON MATRIX              
RMT .C        25                   : MDTP         - TEMPERATURE OF MUD          
NEUT.         1                    : NEUTRON      - NEUTRON TYPE                
RESI.         0                    : RESIST       - RESISTIVITY TYPE            
RMC .OHMM     0.25                 : RMC          - RESISTIVITY OF MUD CAKE     
RMF .OHMM     0.25                 : RMF          - RESISTIVITY OF MUD FILTRATE 
SUFT.C        15                   : SUFT         - SURFACE TEMPERATURE         
~A  DEPTH     PHID     PHIN       GR     RESD
# ...
  356.596    0.302    0.436   68.968    7.900
  356.896    0.297    0.431   65.835    8.206
  357.196    0.298    0.439   72.117    8.362
  357.496    0.297    0.460   79.026    8.361
  357.796    0.294    0.479   77.148    7.892
  358.096    0.294    0.476   75.269    7.450
  358.396    0.328    0.464   79.668    6.514
  358.696    0.390    0.474   70.256    5.919
  358.996    0.461    0.485   69.005    5.176
  359.296    0.464    0.501   79.054    4.613
  359.596    0.439    0.490   85.336    4.525
  359.896    0.422    0.474   88.480    4.524
  360.196    0.398    0.456   82.207    5.170
  360.496    0.298    0.472   87.862    5.910
  360.796    0.297    0.459   82.844    7.433
  361.096    0.293    0.440   67.782    8.335
  361.396    0.275    0.432   72.181    8.995
  361.696    0.262    0.442   79.092    8.992
  361.996    0.256    0.455   79.097    8.991
  362.296    0.258    0.463   80.986    8.651
  362.596    0.251    0.466   83.501    8.484
  362.896    0.196    0.435   74.715    8.322
  363.196    0.319    0.411   82.253    8.319
  363.496    0.372    0.477   89.165    8.318
  363.796    0.381    0.483   91.052    8.158
  364.096    0.374    0.481   87.918    8.155
  364.396    0.343    0.480   81.644    8.312
  364.696    0.370    0.475   84.788    8.633
  364.996    0.397    0.476   85.421    8.798
  365.296    0.385    0.471   86.053    9.314
  365.596    0.417    0.471   87.313    9.493
  365.896    0.426    0.508   86.689    9.860
  366.196    0.360    0.486   77.905   10.242
  366.496    0.344    0.467   85.444   10.438
  366.796    0.352    0.461   85.448   10.635
  367.096    0.314    0.452   75.408   10.633
  367.396    0.369    0.406   80.437   10.232
  367.696    0.435    0.438   81.068    9.120
  367.996    0.450    0.488   82.329    7.975
  368.296    0.365    0.497   87.983    7.246
  368.596    0.400    0.511   89.871    6.335
  368.896    0.438    0.528   88.620    6.214
  369.196    0.453    0.559   86.112    5.866
  369.496    0.387    0.527   88.002    5.130
  369.796    0.366    0.512   88.633    4.401
  370.096    0.365    0.502   69.805    3.240
  370.396    0.442    0.572   69.809    2.526
  370.696    0.545    0.596   71.697    2.251
  370.996    0.534    0.614   71.702    2.208
  371.296    0.489    0.591   66.684    2.338
  371.596    0.492    0.571   65.434    2.830
  371.896    0.448    0.539   71.716    4.069
  372.196    0.452    0.505   68.582    5.740
  372.496    0.432    0.493   60.426    7.501
  372.796    0.451    0.500   59.802    9.081
  373.096    0.525    0.555   60.434   10.783
  373.396    0.554    0.586   62.324   11.202
  373.696    0.456    0.546   64.838   10.987
  373.996    0.469    0.515   68.609    9.425
  374.296    0.480    0.502   74.264    6.807
  374.596    0.443    0.489   81.802    5.307
  374.896    0.428    0.478   82.434    4.822
  375.196    0.480    0.474   70.512    4.551
  375.496    0.516    0.538   69.889    4.464
  375.796    0.484    0.541   72.406    4.637
  376.096    0.474    0.540   75.548    4.377
  376.396    0.454    0.530   77.436    3.976
  376.696    0.433    0.523   84.346    3.901
  376.996    0.411    0.512   92.511    4.052
  377.296    0.381    0.505   98.166    4.373
  377.596    0.350    0.488   91.265    4.719
  377.896    0.328    0.467   83.736    4.902
  378.196    0.414    0.477   91.902    4.627
  378.496    0.408    0.509   98.812    4.453
  378.796    0.399    0.501   98.189    4.537
  379.096    0.413    0.509   92.543    4.804
  379.396    0.415    0.489  100.083    5.598
  379.696    0.442    0.527   98.204    7.896
  379.996    0.415    0.480   91.302   11.139
  380.296    0.414    0.483   66.196   13.229
  380.595    0.320    0.414   52.390   13.480
  380.895    0.354    0.473   56.788   12.725
  381.195    0.442    0.505   68.723   12.013
  381.495    0.504    0.493   70.609   10.504
  381.795    0.432    0.478   64.336    9.915
  382.095    0.461    0.489   63.085   10.105
  382.395    0.456    0.462   68.112   11.117
  382.695    0.403    0.433   62.466   15.093
  382.995    0.366    0.413   67.494   15.981
  383.295    0.425    0.424   65.615   20.099
  383.595    0.475    0.478   52.436   33.043
  383.895    0.322    0.427   40.513   43.178
  384.195    0.313    0.373   23.568   44.851
  384.495    0.322    0.368   31.106   30.584
  384.795    0.385    0.390   43.038   23.845
  385.095    0.436    0.409   61.248   21.254
  385.395    0.446    0.415   84.480   20.448
  385.695    0.304    0.409   97.040   20.840
  385.995    0.296    0.417   98.928   24.280
  386.295    0.312    0.420   95.795   29.960
  386.595    0.303    0.424   66.293   37.682
  386.895    0.291    0.400   66.926   44.750
  387.195    0.273    0.392   76.348   39.129
  387.495    0.260    0.395   80.120   32.309
  387.795    0.247    0.378   85.145   25.674
  388.095    0.245    0.370   88.289   22.884
  388.395    0.241    0.372   77.621   21.602
  388.695    0.231    0.368   86.414   20.787
  388.995    0.227    0.372   91.441   22.009
  389.295    0.237    0.375   69.474   26.642
  389.595    0.262    0.377   60.062   32.252
  389.895    0.271    0.377   62.578   35.479
  390.195    0.297    0.378   61.327   35.471
  390.495    0.297    0.409   60.076   33.483
  390.795    0.291    0.420   68.242   31.009
  391.095    0.282    0.400   76.407   29.836
  391.395    0.258    0.396   81.435   30.992
  391.695    0.242    0.389   83.950   32.191
  391.995    0.271    0.383   82.699   32.185
  392.295    0.256    0.380   58.220   30.969
  392.595    0.237    0.374   63.875   28.137
  392.895    0.228    0.349   80.202   25.080
  393.195    0.249    0.349   94.018   21.930
  393.495    0.293    0.381   92.767   21.101
  393.795    0.254    0.393   83.355   21.920
  394.095    0.165    0.366   48.832   28.644
  394.395    0.258    0.343   48.210   47.092
  394.695    0.319    0.385   43.192   54.865
  394.995    0.315    0.396   41.314   55.910
  395.295    0.317    0.408   45.712   48.886
  395.595    0.319    0.399   55.133   42.751
  395.895    0.310    0.404   70.832   34.631
  396.195    0.299    0.411   82.764   28.052
  396.495    0.298    0.400   87.163   24.530
  396.795    0.386    0.405   68.963   25.973
  397.095    0.330    0.410   58.923   34.595
  397.395    0.320    0.407   40.722   78.733
  397.695    0.331    0.407   36.333   89.989
  397.995    0.335    0.425   40.731   78.689
  398.295    0.329    0.402   50.153   54.698
  398.595    0.325    0.389   60.201   34.551
  398.895    0.323    0.399   73.389   25.435
  399.195    0.364    0.387   87.833   21.000
  399.495    0.369    0.391   92.231   20.208
  399.795    0.347    0.412   83.448   22.659
  400.095    0.310    0.411   51.646   51.501
  400.395    0.308    0.400   39.038   55.546
  400.695    0.302    0.387   40.914   54.469
  400.995    0.298    0.379   52.870   47.632
  401.295    0.295    0.390   57.897   42.468
  401.595    0.294    0.405   62.295   35.761
  401.895    0.283    0.389   56.616   26.860
  402.195    0.272    0.381   73.609   22.187
  402.495    0.274    0.369   81.785   21.755
  402.795    0.395    0.405   86.811   24.375
  403.095    0.308    0.401   89.321   30.610
  403.395    0.256    0.325   88.679   34.958
  403.695    0.305    0.409   70.403   39.162
  403.995    0.281    0.421   83.615   39.142
  404.295    0.272    0.423   77.938   37.648
  404.595    0.263    0.409   86.113   36.219
  404.895    0.292    0.408   90.511   36.197
  405.194    0.296    0.405   84.831   29.906
  405.494    0.288    0.393   77.262   23.782
  405.794    0.250    0.379   81.029   20.024
  406.094    0.210    0.398   98.654   18.195
  406.394    0.211    0.378  103.049   17.500
  406.694    0.253    0.366   99.258   16.520
  406.994    0.285    0.413   96.729   14.730
  407.294    0.303    0.439  101.756   12.884
  407.594    0.352    0.453  111.821   12.631
  407.894    0.312    0.433  109.922   13.365
  408.194    0.249    0.378   77.788   14.693
  408.494    0.254    0.383   84.706   16.461
