~VERSION INFORMATION
 VERS.                 2.0:   CWLS LOG ASCII STANDARD -VERSION 2.0
 WRAP.                  NO:   ONE LINE PER DEPTH STEP
~WELL INFORMATION BLOCK
#MNEM.UNIT           DATA                    DESCRIPTION OF MNEMONIC
#---------    -------------------            -------------------------------
# Generated from Intellog Unique Number	CN_94_101/WELL/5024
WELL.         TEXACO                         : Well_name    - WELL
LOC .         AA/11-29-100-12W4/0            : Location     - LOCATION
UWI .         AA/11-29-100-12W400            : Uwi          - UNIQUE WELL ID
ENTR.         TIM                            : Entered      - ENTERED BY
SRVC.         SCHLUMBERGER                   : Scn          - SERVICE COMPANY
DATE.         08/13/92                       : Date         - LOG DATE
STRT.M        325                            : top_depth    - START DEPTH
STOP.M        575                            : bot_depth    - STOP DEPTH
STEP.M        0.25                           : increment    - STEP LENGTH
 NULL. -999.2500:NULL Value
~CURVE INFORMATION BLOCK
#MNEM UNIT       ERCB CURVE CODE    CURVE DESCRIPTION
#-----------   ------------------   ----------------------------------
DEPT.M        00 001 00 00         : DEPTH        - DEPTH
GR  .API      00 310 00 00         : GR           - GAMMA RAY
ILD .OHMM     00 120 00 00         : RESD         - DEEP RESISTIVITY (DIL)
NPHI.V/V      00 330 00 00         : PHIN         - NEUTRON POROSITY (SANDSTONE)
DPHI.V/V      00 890 00 00         : PHID         - DENSITY POROSITY (SANDSTONE)
~PARAMETER INFORMATION
#MNEM.UNIT           DATA             DESCRIPTION OF MNEMONIC
#---------         -----------     ------------------------------
GL  .M        776.4                : gl           - GROUND LEVEL ELEVATION
EREF.M        779.8                : kb           - ELEVATION OF DEPTH REFERENCE
DATM.M        779.8                : datum        - DATUM ELEVATION
TDD .M        634                  : tdd          - TOTAL DEPTH DRILLER
RUN .         ONE                  : Run          - RUN NUMBER
ENG .         BILL                 : Engineer     - RECORDING ENGINEER
WIT .         JIM                  : Witness      - WITNESSED BY
MUD .         GEL                  : Mud_type     - MUD TYPE
MATR.         SANDSTONE            : Logunit      - NEUTRON MATRIX
TMAX.C        28                   : BHT          - MAXIMUM RECORDED TEMPERATURE
BHTD.M        57634                : BHTDEP       - MAXIMUM RECORDED TEMPERATURE
RMT .C        25                   : MDTP         - TEMPERATURE OF MUD
MUDD.KG/M     1090                 : MWT          - MUD DENSITY
NEUT.         1                    : NEUTRON      - NEUTRON TYPE
RESI.         0                    : RESIST       - RESISTIVITY TYPE
RM  .OHMM     4.6                  : RM           - RESISTIVITY OF MUD
RMC .OHMM     4.6                  : RMC          - RESISTIVITY OF MUD CAKE
RMF .OHMM     4.6                  : RMF          - RESISTIVITY OF MUD FILTRATE
SUFT.C        4                    : SUFT         - SURFACE TEMPERATURE
~A  DEPTH       GR     RESD     PHIN     PHID
# ...
  542.500   53.959    5.643    0.372    0.313
  542.750   54.547    5.011    0.365    0.313
  543.000   53.207    4.116    0.352    0.314
  543.250   51.893    3.451    0.346    0.318
  543.500   48.628    2.836    0.353    0.320
  543.750   47.314    2.197    0.358    0.320
  544.000   45.974    1.952    0.363    0.321
  544.250   45.298    1.733    0.363    0.321
  544.500   44.622    1.698    0.362    0.323
  544.750   43.283    1.630    0.358    0.327
  545.000   43.245    1.595    0.354    0.328
  545.250   42.544    1.562    0.350    0.328
  545.500   41.855    1.500    0.342    0.326
  545.750   41.128    1.498    0.335    0.324
  546.000   40.452    1.466    0.335    0.327
  546.250   39.776    1.407    0.337    0.326
  546.500   38.449    1.406    0.342    0.321
  546.750   37.135    1.376    0.350    0.317
  547.000   36.447    1.348    0.356    0.318
  547.250   35.758    1.345    0.356    0.323
  547.500   35.044    1.317    0.355    0.328
  547.750   35.656    1.315    0.355    0.332
  548.000   36.868    1.313    0.354    0.334
  548.250   38.093    1.389    0.354    0.336
  548.500   38.693    1.470    0.357    0.336
  548.750   39.280    1.556    0.366    0.336
  549.000   42.419    1.584    0.369    0.340
  549.250   48.109    1.582    0.371    0.345
  549.500   55.062    1.578    0.372    0.345
  549.750   52.447    1.576    0.371    0.342
  550.000   49.219    1.543    0.370    0.340
  550.250   44.691    1.482    0.365    0.338
  550.500   41.463    1.451    0.358    0.350
  550.750   38.861    1.393    0.351    0.353
  551.000   35.595    1.337    0.344    0.353
  551.250   34.294    1.309    0.329    0.350
  551.500   34.218    1.283    0.332    0.345
  551.750   34.180    1.256    0.336    0.341
  552.000   34.116    1.229    0.337    0.333
  552.250   34.091    1.203    0.338    0.331
  552.500   34.014    1.201    0.340    0.333
  552.750   33.951    1.176    0.347    0.337
  553.000   33.913    1.175    0.357    0.342
  553.250   33.862    1.150    0.365    0.347
  553.500   33.824    1.148    0.371    0.354
  553.750   33.760    1.124    0.382    0.354
  554.000   33.709    1.122    0.387    0.354
  554.250   33.646    1.099    0.386    0.354
  554.500   34.258    1.076    0.385    0.353
  554.750   34.195    1.073    0.381    0.349
  555.000   34.144    1.072    0.368    0.344
  555.250   35.356    1.092    0.355    0.336
  555.500   35.969    1.111    0.359    0.326
  555.750   37.181    1.109    0.361    0.321
  556.000   39.044    1.128    0.351    0.321
  556.250   41.557    1.126    0.353    0.319
  556.500   46.597    1.125    0.353    0.310
  556.750   49.735    1.146    0.352    0.303
  557.000   56.076    1.213    0.351    0.298
  557.250   63.042    1.283    0.337    0.298
  557.500   68.732    1.587    0.320    0.268
  557.750   73.147    1.816    0.349    0.216
  558.000   78.849    2.077    0.381    0.190
  558.250  127.291    2.242    0.390    0.182
  558.500  134.257    2.421    0.404    0.177
  558.750  138.033    2.560    0.412    0.203
  559.000  142.435    2.607    0.460    0.207
  559.250  144.936    2.653    0.475    0.228
  559.500  144.885    2.647    0.488    0.233
  559.750  142.920    2.645    0.497    0.242
  560.000  140.318    2.641    0.502    0.214
  560.250  137.703    2.741    0.496    0.203
  560.500  135.764    2.845    0.484    0.206
  560.750  131.873    2.839    0.474    0.213
  561.000  127.357    2.892    0.460    0.225
  561.250  122.841    3.061    0.453    0.231
  561.500  112.571    3.433    0.439    0.238
  561.750  111.895    3.706    0.420    0.247
  562.000  115.021    3.847    0.400    0.256
  562.250  120.073    3.621    0.393    0.264
  562.500  124.500    3.479    0.389    0.256
  562.750  129.552    3.210    0.396    0.245
  563.000  137.156    3.024    0.413    0.237
  563.250  142.846    2.791    0.441    0.237
  563.500  146.623    2.680    0.461    0.238
  563.750  149.749    2.625    0.456    0.239
  564.000  150.986    2.570    0.456    0.243
  564.250  153.474    2.567    0.489    0.246
  564.500  154.699    2.514    0.510    0.251
  564.750  155.299    2.559    0.506    0.250
  565.000  155.223    2.555    0.482    0.242
  565.250  153.271    2.651    0.472    0.229
  565.500  150.044    2.805    0.437    0.211
  565.750  144.890    2.970    0.421    0.172
  566.000  137.809    3.332    0.403    0.168
  566.250  130.742    3.738    0.393    0.157
  566.500  117.933    4.115    0.389    0.143
  566.750  105.750    4.354    0.389    0.073
  567.000  107.612    4.885    0.388    0.054
  567.250  110.113    5.378    0.379    0.084
  567.500  113.252    6.397    0.355    0.094
  567.750  110.012    7.177    0.323    0.099
  568.000  104.220    8.366    0.290    0.093
  568.250  102.893    8.687    0.271    0.054
  568.500  102.179    8.670    0.264    0.042
  568.750  102.141    8.495    0.267    0.048
  569.000  102.741    8.154    0.272    0.053
  569.250  105.216    7.827    0.278    0.060
  569.500  105.828    7.670    0.283    0.069
  569.750  107.678    7.365    0.288    0.075
  570.000  108.253    7.211    0.292    0.079
  570.250  108.189    7.193    0.296    0.075
  570.500  106.225    7.182    0.296    0.068
  570.750  105.549    7.308    0.295    0.063
  571.000  102.934    7.302    0.294    0.057
  571.250  100.344    7.433    0.290    0.067
  571.500   98.392    7.716    0.288    0.076
  571.750   95.152    8.006    0.283    0.076
  572.000   91.899    8.636    0.276    0.068
  572.250   87.995    8.971    0.266    0.061
  572.500   87.332   10.066    0.253    0.054
  572.750   82.816   11.517    0.244    0.043
  573.000   78.300   13.968    0.235    0.037
  573.250   73.146   15.981    0.213    0.030
  573.500   66.704   17.593    0.179    0.024
  573.750   61.550   20.515    0.158    0.019
  574.000   57.671   20.884    0.151    0.016
  574.250   55.707   20.850    0.154    0.010
  574.500   54.380   20.816    0.161    0.009
  574.750   56.243   20.782    0.169    0.016
  575.000   57.468   20.739    0.171    0.020
