~Version : LASO    vs 4.00 - DATA COPYRIGHT - RILEYS DATASHARE INTERNATIONAL
 VERS.                2.0 :   CWLS Log ASCII Standard -VERSION 2.0
 WRAP.                 NO :   One line per depth step
~Well Information Block
#MNEM.UNIT       Data                        Description of Mnemonic
#----.----      -------------------------- : -----------------------------
 STRT.FT           30.0000                 : Start Depth
 STOP.FT          463.0000                 : End Depth
 STEP.FT            0.5000                 : Depth Increment
 NULL.           -999.25                   : NULL Value
 COMP.    PACIFIC PETROLEUMS LIMITED       : COMPANY
 WELL.    BAYSEL-ASHLAND STPBK CH#21 13-30 : WELL NAME
 FLD .    STPBK. OIL SANDS                 : FIELD NAME
 LOC .    13-30-091-08W4                     : WELL LOCATION
 PROV.    ALBERTA                          : PROVINCE
 SRVC.    SCHLUMBERGER                     : LOGGING SERVICE COMPANY
 DATE.    01-MAR-73                        : DATE LOGGED
 UWI .    AA/13-30-091-08W400              : UNIQUE WELL ID
~Curve Information Block
#MNEM.UNIT        API CODE                   Curve Description
#----.----      LG--CV-CL--M               : -----------------
 DEPT.FT         0   1  0  0               : 1 DEPTH
 CALI.IN        45 280  1  1               : 2 DENSITY CALIPER
 DPHI.%         45 890 12  1               : 3 DENSITY POROSITY (SANDSTONE)
 GR  .GAPI      45 310  1  1               : 4 GAMMA RAY
 RHOB.G/C3      45 350  1  1               : 5 BULK DENSITY
 LLS .OHMM      11 220  9  1               : 6 FOCUSSED RESISTIVITY
 SP  .MV        11  10  1  1               : 7 SPONTANEOUS POTENTIAL
 NPHI.%         41 890  3  1               : 8 NEUTRON POROSITY (SANDSTONE)
~Parameter Information Block
#MNEM.UNIT       Data                        Description of Mnemonic
#----.----      -------------------------- : -----------------------------
 RUN .                   1                 : Run Number
 GL  .FT         1240.0000                 : Ground Level Elevation
 DREF.                  KB                 : Depth Reference
 EREF.FT         1244.0000                 : Elevation of Depth Reference
 TDL .FT          464.0000                 : Total Depth Logger
 TDD .FT          455.0000                 : Total Depth Driller
 CSGL.FT            0.0000                 : Casing Bottom Logger
 CSGD.FT            0.0000                 : Casing Bottom Driller
 CSGS.IN          219.0000                 : Casing Size
 CSGW.LBS           0.0000                 : Casing Weight
 BHT .DEGF         52.0000                 : Bottom Hole Temperature
 BS  .IN            6.2500                 : Bit Size
 DFD .           1110.0000                 : Mud Weight (Density)
 DFV .             89.0000                 : Mud Viscosity
 DFL .              4.5000                 : Mud Fluid Loss
 DFPH.              9.0000                 : Mud pH
 RM  .OHMM          4.6200                 : Mud Resistivity
 RMT .DEGF         49.0000                 : Mud Resistivity Temperature
 RMF .OHMM          5.0000                 : Mud Filtrate Resistivity
 RMFT.DEGF         20.0000                 : RMF Temperature
 RMC .OHMM          5.3000                 : Mud Cake Resistivity
 RMCT.DEGF         20.0000                 : RMC Temperature
~Asc DEPTH      CALI       DPHI       GR         RHOB       LLS        SP         NPHI 
   30.0000  -999.2500  -999.2500  -999.2500  -999.2500  -999.2500  -999.2500    37.5000
   30.5000  -999.2500  -999.2500  -999.2500  -999.2500  -999.2500  -999.2500    37.2000
   31.0000     7.7100    27.6600    36.6000     2.1870  -999.2500    47.9850    35.7240
   31.5000     7.7530    27.5940    34.1400     2.1897  -999.2500    47.6850    33.9900
   32.0000     7.8280    27.5280    33.4000     2.1923  -999.2500    47.4000    32.4720
   32.5000     7.9040    27.3300    35.0500     2.1950  -999.2500    47.0250    31.9380
   33.0000     7.3670    27.0480    36.1200     2.1978  -999.2500    46.6500    33.4980
   33.5000     7.1260    26.6160    37.2000     2.2019  -999.2500    45.9150    33.8640
   34.0000     6.9990    26.4660    37.4700     2.2073  -999.2500    44.4600    33.4680
   34.5000     7.0650    28.2420    37.6400     2.1930  -999.2500    43.8750    32.5860
   35.0000     7.3210    30.1260    36.0900     2.1677  -999.2500    43.5300    34.2960
   35.5000     7.8420    31.3740    33.4400     2.1310  -999.2500    46.3650    36.1800
   36.0000     8.6570    31.9080    34.1600     2.1181  -999.2500    50.1450    38.7420
   36.5000     8.3650    31.3800    35.6500     2.1270  -999.2500    49.9050    38.9100
   37.0000     7.9220    30.7200    37.6900     2.1371  -999.2500    49.6050    39.0120
   37.5000     7.4790    30.0060    39.3800     2.1485  -999.2500    49.5750    35.6700
   38.0000     7.2940    29.1360    40.5000     2.1606  -999.2500    49.5450    33.9600
   38.5000     7.2110    29.3520    39.3900     2.1638  -999.2500    50.2050    33.1980
   39.0000     7.0830    30.9180    39.5100     2.1374  -999.2500    49.4250    33.1860
   39.5000     7.1640    33.0720    37.0400     2.1134  -999.2500    49.5600    38.3580
   40.0000     7.3190    33.0540    34.9800     2.0928   145.0207    49.7250    39.1380
   40.5000     7.5010    32.5500    33.7200     2.1109   143.4267    49.0800    39.7440
   41.0000     7.6680    31.8300    33.9700     2.1193   136.3421    48.4050    40.0920
   41.5000     8.1770    30.8220    34.1900     2.1227   123.4326    48.4800    40.1040
   42.0000     8.7410    29.4000    33.9900     2.1436   104.6719    48.5850    38.5920
   42.5000     7.5380    27.7320    34.1600     2.1824    98.4079    47.7900    36.8040
   43.0000     6.5800    25.8000    34.5200     2.2234   103.9034    46.8750    34.3920
   43.5000     6.0870    24.1560    35.9700     2.2628   110.5172    45.9000    31.8840
   44.0000     8.0070    22.8840    38.6700     2.2727   116.1529    44.9100    29.3760
   44.5000     8.6120    22.0200    43.9000     2.2834    86.2641    45.2700    27.4740
   45.0000     8.7450    25.4640    46.4400     2.2497    56.8892    45.8100    34.0680
   45.5000     8.4610    27.6720    49.5400     2.2015    34.1531    46.5300    39.1860
   46.0000     7.7160    28.8360    54.4700     2.1562    26.1716    46.4100    42.8160
   46.5000     7.6180    29.7480    59.6200     2.1671    24.3125    46.1700    45.6000
   47.0000     7.4840    27.6780    55.6500     2.1966    33.3449    45.7500    43.3620
   47.5000     7.1890    25.9800    49.8900     2.2318    51.3606    47.4300    39.9480
   48.0000     6.9260    24.2820    44.1300     2.2523    76.2483    48.8400    36.1080
   48.5000     6.8050    22.9080    40.0400     2.2698   103.1407    50.0250    32.2680
   49.0000     6.9190    21.9060    39.2900     2.2967   106.5197    54.5400    29.1360
   49.5000     6.9520    20.5500    38.3200     2.3129   108.8003    58.5300    28.7880
   50.0000     6.8290    20.9760    38.9200     2.3051   112.3647    58.7850    28.5420
   50.5000     6.8980    21.5400    39.2300     2.2934   114.8762    58.1100    29.4300
   51.0000     7.1020    21.1980    38.0100     2.2972   102.6668    56.9700    29.5200
   51.5000     7.3160    20.7060    36.2600     2.2960    96.5228    55.9200    29.1900
   52.0000     7.3400    21.4740    38.9000     2.3052    91.3335    55.0200    29.1720
   52.5000     6.9200    22.8180    41.3300     2.2767   102.6668    53.8950    33.5760
   53.0000     6.9950    22.2780    42.7900     2.2839    81.9275    52.2150    35.3640
   53.5000     7.2770    23.1960    44.0100     2.2842    54.7306    50.2800    34.5240
   54.0000     7.4630    24.4860    47.1500     2.2443    42.0175    48.0150    36.4980
   54.5000     7.4320    24.3600    52.3700     2.2452    30.7489    46.7700    37.2420
   55.0000     7.5360    24.0060    54.2300     2.2494    27.1538    45.8100    38.7840
   55.5000     7.6020    23.6640    54.4600     2.2552    26.6091    47.0700    37.8420
   56.0000     7.4530    25.0020    53.7400     2.2353    28.5910    48.3300    39.3960
   56.5000     7.4050    25.3320    52.4000     2.2292    28.8025    51.1800    41.2920
   57.0000     7.3360    24.8340    53.0100     2.2391    29.2840    54.1350    41.3340
   57.5000     7.3410    24.0540    54.5200     2.2564    30.1599    55.1850    39.2880
   58.0000     7.3500    23.1720    57.0100     2.2667    30.1321    56.1000    38.7780
   58.5000     7.3560    22.0020    58.5400     2.2778    30.1044    56.9850    38.2140
   59.0000     7.2600    20.4660    58.7100     2.3172    39.1048    58.3650    35.4840
   59.5000     7.1660    18.8640    58.6300     2.3441    54.3288    58.2300    32.9520
   60.0000     7.3130    17.2620    52.8800     2.3695    73.3550    58.0500    31.2240
   60.5000     7.2310    15.6600    45.8800     2.3953    92.7748    57.8550    29.5740
   61.0000     7.1490    14.2920    43.8100     2.4058   105.5431    57.5550    27.7500
   61.5000     7.1180    12.4680    43.4700     2.4429    93.9788    57.1650    25.4760
   62.0000     7.1430    13.9080    44.6900     2.4110    77.9525    57.4200    23.2020
   62.5000     7.1860    16.3920    45.8600     2.3697    65.3777    57.7650    23.0220
   63.0000     7.1460    18.7380    46.0600     2.3408    53.1900    57.4200    27.7980
   63.5000     7.1000    19.6560    46.5000     2.3270    55.5431    56.6100    32.7900
   64.0000     7.0920    20.0280    48.0300     2.3174    60.5661    53.8200    33.9000
   64.5000     7.0900    19.1940    50.3900     2.3170    64.0663    52.6200    35.2560
   65.0000     7.0670    18.0120    53.2700     2.3522    63.0130    52.1250    35.6880
   65.5000     7.0270    18.4380    49.6400     2.3435    60.5104    52.0350    34.4640
   66.0000     7.0030    17.7480    47.0100     2.3554    51.5977    51.9450    32.6700
   66.5000     7.0840    16.7940    46.9400     2.3662    50.4696    52.6950    30.6120
   67.0000     7.1180    17.5380    46.1300     2.3719    52.5085    53.7600    28.3980
   67.5000     7.0710    18.4920    47.4900     2.3343    42.4844    55.0050    28.5300
   68.0000     7.1410    18.8640    49.1800     2.3369    34.2476    57.0300    28.6680
   68.5000     7.2070    19.3260    50.8000     2.3371    30.4109    59.1600    28.7340
   69.0000     7.2220    20.3220    51.9200     2.3131    30.1599    61.0350    30.4320
   69.5000     7.2370    19.4040    51.1500     2.3300    39.1769    62.7750    32.3340
   70.0000     7.2330    18.4140    50.0400     2.3411    44.0788    63.7050    31.6680
   70.5000     7.2290    20.6040    49.2700     2.3029    47.5368    64.0650    30.3360
   71.0000     7.4830    21.9840    52.3300     2.2879    47.6244    63.0450    30.3360
   71.5000     7.1500    22.6860    53.5200     2.2831    37.1048    62.1000    34.9860
   72.0000     7.2330    21.9120    54.2600     2.2769    38.1795    61.0350    37.6500
   72.5000     7.1880    20.3700    53.4200     2.3258    40.3116    59.9700    35.7660
   73.0000     7.0990    18.8280    51.7700     2.3427    41.3647    59.5350    33.8820
   73.5000     7.0630    19.0740    50.3600     2.3313    43.5542    59.1750    31.9980
   74.0000     7.2130    18.7380    50.1000     2.3380    41.2126    58.9650    30.4140
   74.5000     7.2770    18.5100    52.9000     2.3484    39.1408    59.9850    28.8840
   75.0000     7.2850    18.4020    54.9200     2.3391    37.0365    59.9250    27.4020
