~VERSION INFORMATION
 VERS.                 2.0:   CWLS LOG ASCII STANDARD -VERSION 2.0
 WRAP.                  NO:   ONE LINE PER DEPTH STEP
~WELL INFORMATION BLOCK
#MNEM.UNIT           DATA                    DESCRIPTION OF MNEMONIC
#---------    -------------------            -------------------------------
# Generated from Intellog Unique Number	CX_WELLS/WELL/3472
WELL.         AMOCO GREGGIRE                 : Well_name    - WELL
LOC .         AA/16-05-085-07W4/0            : Location     - LOCATION
UWI .         AA/16-05-085-07W400            : Uwi          - UNIQUE WELL ID
ENTR.         T                              : Entered      - ENTERED BY
SRVC.         SCHLUMBERGER                   : Scn          - SERVICE COMPANY
STRT.F        150                            : top_depth    - START DEPTH
STOP.F        911.975                        : bot_depth    - STOP DEPTH
STEP.F        0.82                           : increment    - STEP LENGTH
 NULL. -999.2500:NULL Value
~CURVE INFORMATION BLOCK
#MNEM UNIT       ERCB CURVE CODE    CURVE DESCRIPTION
#-----------   ------------------   ----------------------------------
DEPT.F        00 001 00 00         : DEPTH        - DEPTH
GR  .API      00 310 00 00         : GR           - GAMMA RAY
DPHI.V/V      00 890 00 00         : PHID         - DENSITY POROSITY (SANDSTONE)
ILD .OHMM     00 120 00 00         : RESD         - DEEP RESISTIVITY (OTHER)
~PARAMETER INFORMATION
#MNEM.UNIT           DATA             DESCRIPTION OF MNEMONIC
#---------         -----------     ------------------------------
GL  .F        1647                 : gl           - GROUND LEVEL ELEVATION
EREF.F        1657                 : kb           - ELEVATION OF DEPTH REFERENCE
DATM.F        1657                 : datum        - DATUM ELEVATION
TDD .F        934                  : tdd          - TOTAL DEPTH DRILLER
RUN .         ONE                  : Run          - RUN NUMBER
ENG .         BILL                 : Engineer     - RECORDING ENGINEER
WIT .         JIM                  : Witness      - WITNESSED BY
MUD .         GEL                  : Mud_type     - MUD TYPE
MATR.         SANDSTONE            : Logunit      - NEUTRON MATRIX
TMAX.F        64.4                 : BHT          - MAXIMUM RECORDED TEMPERATURE
BHTD.F        934                  : BHTDEP       - MAXIMUM RECORDED TEMPERATURE
MATR.         1                    : LOGUNIT      - NEUTRON MATRIX
RMT .F        50                   : MDTP         - TEMPERATURE OF MUD
NEUT.         1                    : NEUTRON      - NEUTRON TYPE
RESI.         9.8                  : RESIST       - RESISTIVITY TYPE
RMC .OHMM     9.7                  : RMC          - RESISTIVITY OF MUD CAKE
RMF .OHMM     8.7                  : RMF          - RESISTIVITY OF MUD FILTRATE
SUFT.F        39.2                 : SUFT         - SURFACE TEMPERATURE
~A  DEPTH       GR     PHID     RESD
# ...
  327.986   84.621    0.231   15.501
  328.806   81.752    0.245   15.114
  329.626   77.146    0.252   15.319
  330.446   76.584    0.262   15.519
  331.266   76.609    0.268   15.920
  332.087   76.043    0.277   17.307
  332.907   75.490    0.267   20.270
  333.727   75.498    0.252   22.444
  334.547   77.247    0.252   22.452
  335.367   79.579    0.253   21.079
  336.188   82.488    0.253   19.117
  337.008   84.819    0.249   18.138
  337.828   85.405    0.244   17.948
  338.648   86.585    0.238   16.968
  339.469   87.183    0.233   14.810
  340.289   88.347    0.228   15.603
  341.109   90.101    0.229   16.004
  341.929   90.117    0.236   15.813
  342.749   87.830    0.241   15.426
  343.570   86.682    0.245   14.845
  344.390   83.236    0.253   15.444
  345.210   79.785    0.263   16.432
  346.030   75.179    0.274   18.212
  346.850   71.732    0.280   18.418
  347.671   72.900    0.280   17.636
  348.491   75.231    0.274   21.189
  349.311   76.985    0.266   23.168
  350.131   77.575    0.258   22.978
  350.951   78.747    0.256   20.226
  351.772   78.185    0.256   21.613
  352.592   75.890    0.256   19.056
  353.412   73.025    0.259   16.305
  354.232   70.153    0.265   20.255
  355.052   69.591    0.267   22.822
  355.873   74.226    0.270   18.298
  356.693   78.868    0.272   20.667
  357.513   80.040    0.271   17.718
  358.333   77.171    0.276   15.167
  359.154   74.294    0.277   16.157
  359.974   69.114    0.283   19.316
  360.794   67.397    0.286   20.505
  361.614   67.413    0.291   22.484
  362.434   65.122    0.292   22.490
  363.255   63.405    0.286   25.058
  364.075   70.933    0.278   25.856
  364.895   74.994    0.272   21.329
  365.715   71.543    0.273   16.804
  366.535   68.092    0.280   15.431
  367.356   69.850    0.286   19.379
  368.176   74.485    0.287   29.241
  368.996   79.123    0.279   29.838
  369.816   85.504    0.256   30.829
  370.636   89.572    0.229   30.443
  371.457   88.425    0.213   22.960
  372.277   85.552    0.220   17.843
  373.097   75.746    0.242   14.109
  373.917   74.028    0.247   14.706
  374.738   70.004    0.257   19.246
  375.558   65.975    0.266   20.827
  376.378   70.610    0.277   31.870
  377.198   79.297    0.282   37.198
  378.018   83.358    0.284   32.476
  378.839   86.263    0.287   26.571
  379.659   92.640    0.283   18.300
  380.479   97.278    0.241   14.760
  381.299   97.294    0.237   14.770
  382.119   94.426    0.244   15.564
  382.940   90.983    0.254   16.359
  383.760   88.684    0.274   15.379
  384.580   85.807    0.283   15.387
  385.400   79.467    0.284   17.758
  386.220   91.040    0.284   19.341
  387.041   93.953    0.280   21.517
  387.861   91.666    0.276   16.794
  388.681   89.941    0.274   16.606
  389.501   87.064    0.273   17.793
  390.322   83.044    0.267   18.786
  391.142   81.326    0.263   18.397
  391.962   81.924    0.262   17.617
  392.782   81.936    0.260   15.653
  393.602   82.531    0.260   16.448
  394.423   84.858    0.260   18.031
  395.243   88.341    0.260   19.223
  396.063   87.783    0.261   18.244
  396.883   86.648    0.265   16.279
  397.703   86.086    0.274   17.862
  398.524   86.099    0.281   20.039
  399.344   85.537    0.279   19.847
  400.164   84.402    0.279   18.080
  400.984   83.840    0.276   18.286
  401.804   85.594    0.275   19.670
  402.625   87.343    0.274   21.649
  403.445   88.515    0.274   22.049
  404.265   90.269    0.272   22.253
  405.085   90.859    0.274   22.854
  405.906   93.190    0.275   23.056
  406.726   96.677    0.276   23.064
  407.546   99.001    0.278   22.282
  408.366  102.488    0.280   21.499
  409.186  105.971    0.277   21.508
  410.007  110.032    0.273   16.980
  410.827  114.096    0.270   13.046
  411.647  116.420    0.265   10.296
  412.467  119.907    0.261    9.910
  413.287  122.820    0.247   10.902
  414.108  123.988    0.225   11.892
  414.928  124.578    0.229   11.309
  415.748  124.594    0.234    9.739
  416.568  123.463    0.226    8.171
  417.388  122.327    0.210    7.981
  418.209  122.340    0.201    7.790
  419.029  122.356    0.193    7.795
  419.849  124.109    0.189    7.805
  420.669  124.707    0.189    7.614
  421.490  124.715    0.190    7.820
  422.310  123.580    0.194    7.825
  423.130  123.596    0.196    7.834
  423.950  121.879    0.202    7.838
  424.770  116.117    0.205    7.844
  425.591  107.466    0.211    7.853
  426.411  102.860    0.216    7.858
  427.231   98.836    0.225    8.457
  428.051   98.274    0.227    9.452
  428.871   97.139    0.227   10.046
  429.692   95.995    0.228   10.644
  430.512   94.856    0.231    9.472
  431.332   93.147    0.241    8.491
  432.152   92.581    0.253    8.892
  432.972   92.019    0.274   10.477
  433.793   91.462    0.288   10.682
  434.613   92.060    0.262   10.294
  435.433   94.387    0.260   10.102
  436.253   97.866    0.253   10.308
  437.073  106.550    0.247   10.313
  437.894  115.237    0.237    9.336
  438.714  121.035    0.226    7.963
  439.534  125.100    0.207    6.590
  440.354  125.690    0.203    6.006
  441.175  125.706    0.207    6.211
  441.995  125.145    0.212    6.416
  442.815  125.161    0.213    6.423
  443.635  126.918    0.213    6.429
  444.455  126.935    0.213    6.436
  445.276  125.791    0.212    6.441
  446.096  122.926    0.211    6.648
  446.916  121.787    0.209    6.653
  447.736  124.110    0.208    6.858
  448.556  127.593    0.209    7.063
  449.377  131.076    0.210    7.070
  450.197  134.568    0.212    7.076
  451.017  136.895    0.214    7.083
  451.837  139.800    0.214    7.091
  452.657  141.550    0.214    6.899
  453.478  142.148    0.214    6.709
  454.298  142.160    0.212    6.520
  455.118  142.758    0.209    6.526
  455.938  142.774    0.213    6.531
  456.759  142.795    0.218    6.934
  457.579  142.229    0.224    7.336
  458.399  141.093    0.224    7.341
  459.219  141.687    0.218    7.154
  460.039  144.593    0.216    6.962
  460.860  149.231    0.214    6.773
  461.680  150.981    0.208    6.581
  462.500  149.268    0.199    6.394
  463.320  148.128    0.195    6.400
  464.140  147.567    0.198    6.208
  464.961  147.583    0.199    5.824
  465.781  145.870    0.203    5.630
  466.601  143.009    0.205    5.443
  467.421  140.706    0.203    5.446
  468.241  138.407    0.203    5.650
  469.062  134.378    0.206    6.446
  469.882  129.202    0.221    7.243
  470.702  126.903    0.226    7.642
  471.522  126.346    0.231    8.436
  472.343  126.358    0.233    9.036
  473.163  128.685    0.233    8.845
  473.983  134.484    0.233    8.064
  474.803  136.811    0.232    7.085
  475.623  137.983    0.221    5.913
  476.444  139.155    0.210    5.721
  477.264  139.757    0.201    5.138
  478.084  139.769    0.191    4.750
  478.904  140.945    0.192    4.757
  479.724  141.535    0.200    4.763
  480.545  143.292    0.212    4.771
  481.365  143.309    0.229    4.581
  482.185  143.325    0.250    4.589
  483.005  143.341    0.255    4.594
  483.825  145.095    0.255    4.799
  484.646  146.844    0.253    5.001
  485.466  148.590    0.252    5.208
  486.286  147.450    0.249    5.410
  487.106  139.377    0.253    5.415
  487.927  118.015    0.256    5.621
  488.747  101.279    0.263    5.827
  489.567   98.984    0.270    6.225
  490.387   99.582    0.290    7.218
  491.207  100.171    0.296    8.604
  492.028  102.503    0.303   10.583
  492.848  105.994    0.307   10.984
  493.668  107.162    0.305   11.187
  494.488  108.334    0.300   11.591
  495.308  104.883    0.290   11.200
  496.129   99.699    0.264   10.419
  496.949   94.519    0.118   10.031
  497.769   90.486    0.059   15.557
  498.589   88.195    0.004   19.504
  499.409   91.674   -0.032   58.923
  500.230  102.677    0.023   57.550
  501.050  105.578    0.067   54.995
  501.870  110.217    0.142   51.258
  502.690  114.859    0.179   46.536
  503.510  112.564    0.265   23.882
  504.331  101.025    0.311   13.444
  505.151   98.730    0.314   12.664
