~VERSION INFORMATION
 VERS.                 2.0:   CWLS LOG ASCII STANDARD -VERSION 2.0
 WRAP.                  NO:   ONE LINE PER DEPTH STEP
~WELL INFORMATION BLOCK
#MNEM.UNIT           DATA                    DESCRIPTION OF MNEMONIC
#---------    -------------------            -------------------------------
# Generated from Intellog Unique Number	CC_84_87/WELL/2550
WELL.         ARCO ACT MCMURRAY              : Well_name    - WELL
LOC .         AA/15-29-084-12W4/0            : Location     - LOCATION
UWI .         AA/15-29-084-12W400            : Uwi          - UNIQUE WELL ID
ENTR.         DW                             : Entered      - ENTERED BY
SRVC.         SCHLUMBERGER                   : Scn          - SERVICE COMPANY
STRT.M        213.36                         : top_depth    - START DEPTH
STOP.M        286.36                         : bot_depth    - STOP DEPTH
STEP.M        0.25                           : increment    - STEP LENGTH
 NULL. -999.2500:NULL Value
~CURVE INFORMATION BLOCK
#MNEM UNIT       ERCB CURVE CODE    CURVE DESCRIPTION
#-----------   ------------------   ----------------------------------
DEPT.M        00 001 00 00         : DEPTH        - DEPTH
ILD .OHMM     00 120 00 00         : RESD         - DEEP RESISTIVITY (DIL)
NPHI.V/V      00 330 00 00         : PHIN         - NEUTRON POROSITY (SANDSTONE)
DPHI.V/V      00 890 00 00         : PHID         - DENSITY POROSITY (SANDSTONE)
GR  .API      00 310 00 00         : GR           - GAMMA RAY
~PARAMETER INFORMATION
#MNEM.UNIT           DATA             DESCRIPTION OF MNEMONIC
#---------         -----------     ------------------------------
GL  .M        558.119              : gl           - GROUND LEVEL ELEVATION
EREF.M        559.796              : kb           - ELEVATION OF DEPTH REFERENCE
DATM.M        559.796              : datum        - DATUM ELEVATION
TDD .M        288.646              : tdd          - TOTAL DEPTH DRILLER
RUN .         ONE                  : Run          - RUN NUMBER
ENG .         BILL                 : Engineer     - RECORDING ENGINEER
WIT .         JIM                  : Witness      - WITNESSED BY
MUD .         GEL                  : Mud_type     - MUD TYPE
MATR.         SANDSTONE            : Logunit      - NEUTRON MATRIX
TMAX.C        0                    : BHT          - MAXIMUM RECORDED TEMPERATURE
BHTD.M        288.646              : BHTDEP       - MAXIMUM RECORDED TEMPERATURE
MATR.         1                    : LOGUNIT      - NEUTRON MATRIX
RMT .C        25                   : MDTP         - TEMPERATURE OF MUD
NEUT.         1                    : NEUTRON      - NEUTRON TYPE
RESI.         0                    : RESIST       - RESISTIVITY TYPE
RMC .OHMM     0.25                 : RMC          - RESISTIVITY OF MUD CAKE
RMF .OHMM     0.25                 : RMF          - RESISTIVITY OF MUD FILTRATE
SUFT.C        15                   : SUFT         - SURFACE TEMPERATURE
~A  DEPTH     RESD     PHIN     PHID       GR
# ...
  256.860    4.578    0.426    0.198  104.047
  257.110    4.795    0.445    0.251  105.733
  257.360    4.773    0.447    0.270  106.507
  257.610    4.528    0.454    0.247  106.497
  257.860    4.334    0.472    0.245  104.376
  258.110    4.078    0.498    0.256  103.763
  258.360    3.921    0.535    0.265  109.001
  258.610    3.851    0.561    0.293  113.368
  258.860    3.807    0.563    0.318  115.601
  259.110    3.829    0.532    0.314  120.846
  259.360    4.010    0.470    0.312  121.797
  259.610    4.384    0.436    0.299   99.147
  259.860    4.882    0.395    0.284   81.694
  260.110    6.809    0.367    0.270   78.096
  260.360    9.700    0.361    0.249   80.737
  260.610   11.138    0.339    0.220   87.501
  260.860   10.773    0.324    0.189   90.919
  261.110    9.269    0.401    0.188   82.665
  261.360    8.551    0.452    0.229   69.981
  261.610    8.630    0.440    0.276   63.288
  261.860    8.869    0.415    0.288   56.950
  262.110   10.220    0.372    0.274   40.610
  262.360   13.438    0.349    0.270   33.081
  262.610   20.184    0.346    0.313   32.500
  262.860   28.917    0.359    0.339   36.231
  263.110   34.507    0.378    0.329   45.007
  263.360   32.805    0.378    0.326   54.452
  263.610   26.427    0.366    0.316   57.749
  263.860   23.632    0.384    0.303   61.823
  264.110   22.818    0.353    0.298   55.788
  264.360   22.688    0.325    0.296   50.585
  264.610   23.486    0.347    0.287   56.378
  264.860   23.424    0.335    0.276   59.534
  265.110   22.482    0.325    0.269   62.002
  265.360   21.126    0.307    0.264   64.529
  265.610   18.945    0.292    0.261   68.882
  265.860   16.504    0.301    0.256   74.339
  266.110   15.003    0.322    0.250   74.203
  266.360   14.145    0.327    0.244   64.550
  266.610   13.261    0.334    0.248   59.556
  266.860   12.954    0.315    0.264   56.525
  267.110   13.122    0.303    0.267   58.156
  267.360   13.371    0.309    0.257   64.414
  267.610   13.801    0.299    0.260   68.729
  267.860   14.215    0.329    0.263   79.057
  268.110   14.821    0.353    0.264   91.083
  268.360   15.580    0.340    0.283   99.778
  268.610   16.840    0.324    0.298   94.632
  268.860   19.690    0.334    0.290   72.950
  269.110   24.412    0.339    0.296   56.198
  269.360   28.399    0.345    0.311   64.279
  269.610   31.072    0.337    0.312   74.668
  269.860   31.564    0.314    0.300   72.601
  270.110   30.236    0.305    0.283   63.232
  270.360   28.390    0.325    0.270   60.208
  270.610   25.250    0.332    0.265   73.189
  270.860   22.201    0.316    0.270   79.375
  271.110   20.288    0.302    0.269   79.151
  271.360   19.588    0.307    0.256   79.615
  271.610   19.307    0.326    0.257   83.150
  271.860   18.439    0.338    0.290   84.531
  272.110   17.556    0.353    0.298   62.118
  272.360   19.152    0.336    0.286   46.398
  272.610   22.563    0.333    0.298   46.627
  272.860   25.922    0.346    0.325   52.582
  273.110   28.098    0.332    0.325   60.711
  273.360   27.828    0.337    0.311   72.389
  273.610   25.819    0.349    0.290   91.305
  273.860   22.791    0.347    0.267  103.957
  274.110   19.127    0.332    0.253  107.148
  274.360   16.207    0.319    0.245  103.209
  274.610   16.124    0.317    0.239   85.865
  274.860   18.637    0.332    0.272   61.415
  275.110   21.548    0.330    0.297   58.373
  275.360   23.305    0.331    0.307   66.352
  275.610   24.096    0.339    0.312   67.317
  275.860   24.858    0.331    0.307   64.040
  276.110   25.358    0.324    0.289   62.952
  276.360   24.091    0.322    0.271   64.917
  276.610   22.820    0.322    0.257   71.052
  276.860   20.648    0.323    0.248   80.107
  277.110   17.875    0.328    0.241   92.043
  277.360   17.249    0.324    0.237  105.268
  277.610   15.915    0.289    0.234  109.102
  277.860   14.074    0.280    0.228  107.610
  278.110   13.644    0.294    0.219   89.375
  278.360   14.787    0.305    0.232   63.963
  278.610   16.167    0.315    0.278   56.943
  278.860   17.198    0.330    0.305   67.408
  279.110   17.455    0.315    0.304   80.939
  279.360   16.695    0.303    0.287   87.270
  279.610   16.548    0.297    0.269   87.540
  279.860   18.037    0.315    0.254   76.361
  280.110   20.425    0.369    0.250   51.548
  280.360   23.501    0.373    0.286   41.453
  280.610   26.309    0.367    0.311   43.947
  280.860   32.885    0.368    0.313   45.811
  281.110   41.593    0.372    0.319   43.474
  281.360   46.263    0.378    0.339   41.250
  281.610   46.823    0.381    0.347   41.724
  281.860   47.706    0.362    0.344   47.165
  282.110   46.977    0.351    0.340   52.552
  282.360   45.646    0.365    0.338   50.900
  282.610   45.107    0.381    0.335   44.283
  282.860   43.591    0.372    0.331   40.955
  283.110   40.477    0.369    0.327   42.433
  283.360   37.765    0.379    0.323   48.854
  283.610   36.427    0.379    0.317   52.449
  283.860   35.074    0.355    0.311   52.436
  284.110   32.073    0.335    0.307   53.162
  284.360   27.955    0.343    0.296   49.745
  284.610   24.436    0.338    0.298   31.604
  284.860   21.015    0.328    0.291   14.473
  285.110   18.589    0.327    0.279    7.016
  285.360   17.659    0.343    0.295    6.012
  285.610   17.167    0.368    0.327    6.632
  285.860   16.080    0.364    0.315    6.657
  286.110   12.996    0.329    0.283    6.595
  286.360   10.365    0.284    0.249    6.857
