~VERSION INFORMATION
 VERS.                 2.0:   CWLS LOG ASCII STANDARD -VERSION 2.0
 WRAP.                  NO:   ONE LINE PER DEPTH STEP
~WELL INFORMATION BLOCK
#MNEM.UNIT           DATA                    DESCRIPTION OF MNEMONIC
#---------    -------------------            -------------------------------
# Generated from Intellog Unique Number	CN_94_101/WELL/3078
WELL.         11-09-094-13W4                 : Well_name    - WELL
LOC .         AA/11-09-094-13W4/0            : Location     - LOCATION
UWI .         AA/11-09-094-13W400            : Uwi          - UNIQUE WELL ID
ENTR.         JOETTE                         : Entered      - ENTERED BY
SRVC.         SCHLUMBERGER                   : Scn          - SERVICE COMPANY
DATE.         03/16/92                       : Date         - LOG DATE
STRT.M        60                             : top_depth    - START DEPTH
STOP.M        115                            : bot_depth    - STOP DEPTH
STEP.M        0.25                           : increment    - STEP LENGTH
 NULL. -999.2500:NULL Value
~CURVE INFORMATION BLOCK
#MNEM UNIT       ERCB CURVE CODE    CURVE DESCRIPTION
#-----------   ------------------   ----------------------------------
DEPT.M        00 001 00 00         : DEPTH        - DEPTH
GR  .API      00 310 00 00         : GR           - GAMMA RAY
ILD .OHMM     00 120 00 00         : RESD         - DEEP RESISTIVITY (DIL)
DPHI.V/V      00 890 00 00         : PHID         - DENSITY POROSITY (SANDSTONE)
NPHI.V/V      00 330 00 00         : PHIN         - NEUTRON POROSITY (SANDSTONE)
~PARAMETER INFORMATION
#MNEM.UNIT           DATA             DESCRIPTION OF MNEMONIC
#---------         -----------     ------------------------------
GL  .M        377.9                : gl           - GROUND LEVEL ELEVATION
EREF.M        381.25               : kb           - ELEVATION OF DEPTH REFERENCE
DATM.M        381.25               : datum        - DATUM ELEVATION
TDD .M        123                  : tdd          - TOTAL DEPTH DRILLER
RUN .         ONE                  : Run          - RUN NUMBER
ENG .         BILL                 : Engineer     - RECORDING ENGINEER
WIT .         JIM                  : Witness      - WITNESSED BY
MUD .         GEL                  : Mud_type     - MUD TYPE
MATR.         SANDSTONE            : Logunit      - NEUTRON MATRIX
TMAX.C        18.3                 : BHT          - MAXIMUM RECORDED TEMPERATURE
BHTD.M        123                  : BHTDEP       - MAXIMUM RECORDED TEMPERATURE
RMT .C        15.6                 : MDTP         - TEMPERATURE OF MUD
MUDD.KG/M     1020                 : MWT          - MUD DENSITY
NEUT.         1                    : NEUTRON      - NEUTRON TYPE
RESI.         0                    : RESIST       - RESISTIVITY TYPE
RM  .OHMM     0.78                 : RM           - RESISTIVITY OF MUD
RMC .OHMM     0.78                 : RMC          - RESISTIVITY OF MUD CAKE
RMF .OHMM     0.78                 : RMF          - RESISTIVITY OF MUD FILTRATE
SUFT.C        4                    : SUFT         - SURFACE TEMPERATURE
~A  DEPTH       GR     RESD     PHID     PHIN
   60.000  108.480    9.244    0.454    0.673
   60.250  107.805    9.952    0.456    0.666
   60.500  105.860   11.123    0.485    0.659
   60.750  102.013   11.110    0.499    0.668
   61.000  101.338   10.481    0.500    0.677
   61.250  101.275    9.518    0.495    0.686
   61.500   98.707    8.979    0.504    0.694
   61.750   92.968    8.633    0.519    0.697
   62.000   84.671    7.992    0.544    0.697
   62.250   82.716    7.399    0.567    0.691
   62.500   84.577    6.844    0.579    0.680
   62.750   87.062    6.839    0.580    0.676
   63.000   88.934    6.827    0.566    0.685
   63.250   90.172    6.814    0.524    0.695
   63.500   92.667    7.064    0.510    0.704
   63.750   94.529    7.464    0.468    0.709
   64.000   93.843    7.455    0.476    0.698
   64.250   91.909    7.027    0.491    0.675
   64.500   89.330    7.022    0.508    0.674
   64.750   90.547    7.274    0.517    0.685
   65.000   91.784    7.545    0.524    0.692
   65.250   92.377    7.819    0.534    0.689
   65.500   88.520    7.810    0.541    0.649
   65.750   89.757    7.794    0.512    0.662
   66.000   96.058    7.787    0.457    0.661
   66.250   99.812    7.775    0.452    0.647
   66.500   97.244    7.762    0.424    0.645
   66.750   90.850    7.750    0.521    0.651
   67.000   86.358    7.038    0.554    0.656
   67.250   89.498    6.393    0.557    0.661
   67.500   97.702    5.595    0.528    0.672
   67.750  104.003    4.623    0.438    0.686
   68.000  107.778    3.822    0.395    0.678
   68.250  103.921    3.888    0.383    0.647
   68.500   94.999    4.599    0.362    0.625
   68.750   89.249    4.590    0.373    0.661
   69.000   85.403    4.586    0.489    0.686
   69.250   80.911    4.755    0.514    0.703
   69.500   77.064    5.024    0.526    0.702
   69.750   71.927    5.016    0.537    0.688
   70.000   70.638    5.007    0.573    0.697
   70.250   70.597    4.999    0.587    0.699
   70.500   77.532    4.542    0.585    0.702
   70.750   81.296    4.365    0.586    0.695
   71.000   77.439    4.196    0.585    0.690
   71.250   75.505    3.960    0.590    0.690
   71.500   73.540    3.336    0.594    0.691
   71.750   72.875    2.556    0.594    0.695
   72.000   71.565    2.153    0.589    0.701
   72.250   69.621    1.991    0.583    0.705
   72.500   67.676    1.952    0.575    0.706
   72.750   64.453    1.949    0.558    0.702
   73.000   63.143    2.264    0.495    0.695
   73.250   63.102    3.694    0.477    0.674
   73.500   66.242    8.000    0.484    0.655
   73.750   74.446   14.338    0.504    0.634
   74.000   79.468   22.107    0.384    0.607
   74.250   81.350   22.071    0.353    0.587
   74.500   85.115   17.896    0.345    0.576
   74.750   89.513   12.963    0.355    0.560
   75.000   97.083    6.682    0.375    0.559
   75.250  104.653    4.840    0.378    0.587
   75.500  113.491    3.571    0.355    0.599
   75.750  119.158    3.564    0.347    0.598
   76.000  115.935    3.695    0.356    0.593
   76.250  114.001    4.131    0.369    0.586
   76.500  110.788    4.369    0.379    0.577
   76.750  110.736    4.529    0.363    0.569
   77.000  111.339    4.437    0.313    0.564
   77.250  113.825    4.344    0.308    0.552
   77.500  115.686    4.339    0.304    0.536
   77.750  116.279    4.498    0.295    0.547
   78.000  114.979    4.405    0.295    0.540
   78.250  114.293    4.237    0.287    0.535
   78.500  114.241    4.149    0.279    0.546
   78.750  111.652    4.730    0.291    0.562
   79.000  109.095    5.494    0.313    0.568
   79.250  103.979    6.501    0.323    0.567
   79.500   98.863    7.548    0.339    0.571
   79.750   92.479    8.600    0.362    0.582
   80.000   85.451    9.799    0.380    0.580
   80.250   72.724   12.041    0.394    0.537
   80.500   68.243   13.725    0.390    0.510
   80.750   63.127   16.865    0.389    0.472
   81.000   56.098   24.101    0.392    0.460
   81.250   52.885   34.455    0.388    0.422
   81.500   48.394   36.389    0.394    0.444
   81.750   49.621   33.688    0.405    0.488
   82.000   53.395   35.593    0.421    0.517
   82.250   60.965   32.335    0.439    0.556
   82.500   68.535   29.935    0.453    0.585
   82.750   76.115   35.420    0.465    0.563
   83.000   81.137   44.371    0.319    0.529
   83.250   78.569   53.502    0.325    0.486
   83.500   72.175   62.122    0.332    0.438
   83.750   62.619   74.906    0.337    0.403
   84.000   51.795   93.797    0.347    0.399
   84.250   43.488  106.916    0.346    0.396
   84.500   42.178  110.850    0.343    0.408
   84.750   42.136  102.580    0.350    0.421
   85.000   42.729   98.620    0.356    0.434
   85.250   40.785   91.263    0.363    0.446
   85.500   38.840   84.490    0.372    0.456
   85.750   37.531   76.787    0.385    0.464
   86.000   36.855   62.289    0.402    0.496
   86.250   34.911   48.656    0.422    0.521
   86.500   34.245   25.559    0.446    0.556
   86.750   32.925   18.160    0.485    0.580
   87.000   34.142   14.185    0.510    0.601
   87.250   36.648   11.507    0.532    0.613
   87.500   39.788   11.488    0.552    0.626
   87.750   47.358   13.085    0.562    0.625
   88.000   70.784   16.084    0.533    0.616
   88.250   76.451   17.640    0.425    0.551
   88.500   84.021   15.438    0.312    0.522
   88.750   96.675   13.506    0.279    0.480
   89.000  111.846   10.751    0.259    0.469
   89.250  114.986    9.053    0.239    0.493
   89.500  115.579    9.034    0.236    0.557
   89.750  113.624    9.367    0.242    0.549
   90.000  111.680    9.534    0.269    0.519
   90.250  111.649    9.877    0.288    0.529
   90.500  112.855    9.869    0.292    0.526
   90.750  112.834    9.849    0.297    0.513
   91.000  112.783    9.833    0.279    0.520
   91.250  111.473   10.004    0.265    0.521
   91.500  110.807   10.368    0.253    0.520
   91.750  108.208   10.552    0.258    0.530
   92.000  106.898   10.936    0.276    0.548
   92.250  105.598   10.927    0.289    0.558
   92.500  103.644   11.117    0.285    0.567
   92.750  102.968   11.306    0.284    0.579
   93.000  101.024   11.722    0.290    0.582
   93.250   99.704   12.385    0.300    0.499
   93.500   99.049   13.842    0.311    0.504
   93.750   99.007   14.363    0.304    0.513
   94.000   99.600   15.471    0.271    0.526
   94.250  101.461   15.440    0.256    0.509
   94.500  104.591   13.507    0.262    0.494
   94.750  110.258   10.752    0.274    0.488
   95.000  125.439    8.559    0.289    0.478
   95.250  127.935    7.627    0.292    0.488
   95.500  128.527    7.329    0.278    0.551
   95.750  126.573    7.320    0.269    0.571
   96.000  123.370    7.448    0.271    0.528
   96.250  121.426    7.581    0.272    0.520
   96.500  119.482    8.003    0.269    0.519
   96.750  115.635    8.145    0.275    0.526
   97.000  111.767    8.290    0.283    0.533
   97.250  116.810    8.116    0.297    0.547
   97.500  115.500    8.106    0.310    0.565
   97.750  111.653    7.938    0.323    0.575
   98.000  107.806    7.929    0.325    0.547
   98.250  103.325    8.060    0.291    0.519
   98.500   98.833    8.363    0.257    0.480
   98.750   96.265    9.173    0.269    0.486
   99.000   97.492   10.260    0.289    0.473
   99.250  103.159   11.472    0.277    0.479
   99.500  111.997   11.239    0.272    0.488
   99.750  118.288   10.015    0.272    0.496
  100.000  117.623    8.925    0.274    0.507
  100.250  113.765    8.587    0.277    0.512
  100.500  109.294    8.256    0.283    0.501
  100.750  104.168    8.549    0.289    0.506
  101.000  100.311    8.871    0.300    0.513
  101.250   98.367    9.555    0.304    0.518
  101.500   97.057   10.882    0.294    0.518
  101.750   95.737   11.292    0.306    0.501
  102.000   95.716   11.921    0.309    0.476
  102.250   95.674   11.906    0.288    0.478
  102.500   96.891   11.887    0.289    0.502
  102.750   98.129   12.099    0.320    0.520
  103.000   99.335   12.079    0.330    0.496
  103.250   99.948   12.050    0.299    0.470
