~VERSION INFORMATION
 VERS.                 2.0:   CWLS LOG ASCII STANDARD -VERSION 2.0
 WRAP.                  NO:   ONE LINE PER DEPTH STEP
~WELL INFORMATION BLOCK
#MNEM.UNIT           DATA                    DESCRIPTION OF MNEMONIC
#---------    -------------------            -------------------------------
# Generated from Intellog Unique Number	CN_94_101/WELL/3226
WELL.         11-05-096-08W4                 : Well_name    - WELL
LOC .         AA/11-05-096-08W4/0            : Location     - LOCATION
UWI .         AA/11-05-096-08W400            : Uwi          - UNIQUE WELL ID
ENTR.         JOETTE                         : Entered      - ENTERED BY
SRVC.         SCHLUMBERGER                   : Scn          - SERVICE COMPANY
DATE.         07/20/92                       : Date         - LOG DATE
STRT.F        10                             : top_depth    - START DEPTH
STOP.F        470.138                        : bot_depth    - STOP DEPTH
STEP.F        0.8202                         : increment    - STEP LENGTH
 NULL. -999.2500:NULL Value
~CURVE INFORMATION BLOCK
#MNEM UNIT       ERCB CURVE CODE    CURVE DESCRIPTION
#-----------   ------------------   ----------------------------------
DEPT.F        00 001 00 00         : DEPTH        - DEPTH
GR  .API      00 310 00 00         : GR           - GAMMA RAY
ILD .OHMM     00 120 00 00         : RESD         - DEEP RESISTIVITY (DIL)
NPHI.V/V      00 330 00 00         : PHIN         - NEUTRON POROSITY (SANDSTONE)
~PARAMETER INFORMATION
#MNEM.UNIT           DATA             DESCRIPTION OF MNEMONIC
#---------         -----------     ------------------------------
GL  .M        331.909              : gl           - GROUND LEVEL ELEVATION
EREF.M        333.433              : kb           - ELEVATION OF DEPTH REFERENCE
DATM.M        333.433              : datum        - DATUM ELEVATION
TDD .M        146.609              : tdd          - TOTAL DEPTH DRILLER
RUN .         ONE                  : Run          - RUN NUMBER
ENG .         BILL                 : Engineer     - RECORDING ENGINEER
WIT .         JIM                  : Witness      - WITNESSED BY
MUD .         GEL                  : Mud_type     - MUD TYPE
MATR.         SANDSTONE            : Logunit      - NEUTRON MATRIX
TMAX.F        40                   : BHT          - MAXIMUM RECORDED TEMPERATURE
BHTD.F        481                  : BHTDEP       - MAXIMUM RECORDED TEMPERATURE
RMT .F        40                   : MDTP         - TEMPERATURE OF MUD
MUDD.LB/G     1.02                 : MWT          - MUD DENSITY
NEUT.         1                    : NEUTRON      - NEUTRON TYPE
RESI.         0                    : RESIST       - RESISTIVITY TYPE
RM  .OHMM     9.5                  : RM           - RESISTIVITY OF MUD
RMC .OHMM     9.5                  : RMC          - RESISTIVITY OF MUD CAKE
RMF .OHMM     9.5                  : RMF          - RESISTIVITY OF MUD FILTRATE
SUFT.F        5                    : SUFT         - SURFACE TEMPERATURE
~A  DEPTH       GR     RESD     PHIN
# ...
  187.986   26.524  360.997    0.323
  188.806   24.296  417.695    0.326
  189.626   22.819  601.044    0.321
  190.446   24.389  624.011    0.307
  191.266   26.341  476.126    0.319
  192.087   27.542  443.545    0.326
  192.907   26.457  685.992    0.321
  193.727   26.122  969.080    0.318
  194.547   24.263 1163.390    0.320
  195.367   23.155 1298.630    0.328
  196.188   22.451 1503.070    0.324
  197.008   22.890 1425.810    0.332
  197.828   23.675  958.028    0.337
  198.648   26.031  598.908    0.342
  199.469   26.828  801.558    0.338
  200.289   28.017  927.745    0.337
  201.109   26.540  789.163    0.351
  201.929   20.490 1545.140    0.363
  202.749   21.691 1957.950    0.342
  203.570   22.869 1606.220    0.349
  204.390   24.462 1579.380    0.342
  205.210   25.282 2075.830    0.333
  206.030   25.306 2041.150    0.342
  206.850   24.590 1557.420    0.340
  207.671   21.588 1210.050    0.352
  208.491   20.492 1029.620    0.362
  209.311   21.300 1170.320    0.345
  210.131   23.286 1379.320    0.333
  210.951   23.310 1567.800    0.334
  211.772   22.975 1815.190    0.327
  212.592   22.259 2026.180    0.323
  213.412   21.163 2065.840    0.329
  214.232   20.447 1959.040    0.340
  215.052   21.660 2351.110    0.337
  215.873   21.706 2822.530    0.346
  216.693   20.229 2153.620    0.357
  217.513   19.120 2005.610    0.351
  218.333   17.262 3102.880    0.357
  219.154   18.844 2499.770    0.350
  219.974   20.795 1872.510    0.342
  220.794   22.758 1281.580    0.353
  221.614   21.662 1538.560    0.360
  222.434   21.708 1357.450    0.348
  223.255   23.660 1688.700    0.349
  224.075   27.135 2519.620    0.358
  224.895   27.193 2969.590    0.361
  225.715   23.418 2667.100    0.359
  226.535   20.797 2439.210    0.356
  227.356   19.319 2151.410    0.361
  228.176   22.414 1797.180    0.374
  228.996   26.663 1474.800    0.371
  229.816   25.947 1706.970    0.364
  230.636   22.184 2086.700    0.363
  231.457   18.824 2371.840    0.362
  232.277   18.097 2554.140    0.360
  233.097   19.667 2211.640    0.369
  233.917   20.095 1657.200    0.367
  234.738   19.772 1410.100    0.340
  235.558   19.807 1490.280    0.335
  236.378   19.865 1788.530    0.337
  237.198   20.292 2186.410    0.328
  238.018   20.350 2671.950    0.336
  238.839   20.766 2724.250    0.327
  239.659   21.586 3270.490    0.319
  240.479   22.383 3854.560    0.313
  241.299   23.584 1836.270    0.326
  242.119   24.392 1234.610    0.346
  242.940   24.439 1454.630    0.352
  243.760   23.354 2210.060    0.358
  244.580   23.400 2512.060    0.339
  245.400   25.351 2175.880    0.355
  246.220   27.291 1134.850    0.363
  247.041   27.742  671.706    0.365
  247.861   29.682  331.801    0.376
  248.681   28.204  398.332    0.379
  249.501   27.488  477.900    0.373
  250.322   31.738  406.513    0.372
  251.142   35.213  278.226    0.377
  251.962   34.497  415.126    0.382
  252.782   28.448  471.852    0.380
  253.602   25.077  843.855    0.370
  254.423   23.980  976.700    0.361
  255.243   25.562  759.096    0.349
  256.063   26.728  719.623    0.368
  256.883   29.846  928.846    0.384
  257.703   27.987  964.339    0.387
  258.524   26.510 1019.490    0.375
  259.344   27.318  136.600    0.364
  260.164   30.805   95.201    0.376
  260.984   35.031   75.319    0.381
  261.804   43.090   60.679    0.364
  262.625   56.102   53.520    0.365
  263.445   45.862   64.231    0.373
  264.265   43.610   70.410    0.372
  265.085   36.037   75.846    0.360
  265.906   33.035   71.902    0.378
  266.726   27.747   64.598    0.387
  267.546   22.841   72.152    0.369
  268.366   19.065   74.886    0.366
  269.186   19.504   80.616    0.346
  270.007   21.075   82.194    0.348
  270.827   22.657   82.272    0.342
  271.647   23.084   93.514    0.344
  272.467   24.285  120.702    0.352
  273.287   25.463  173.630    0.363
  274.108   25.509  245.359    0.371
  274.928   24.424  305.425    0.368
  275.748   25.983  269.389    0.364
  276.568   26.803  290.002    0.344
  277.388   26.088  367.480    0.334
  278.209   27.658  681.663    0.329
  279.029   28.859  747.239    0.345
  279.849   28.525  149.102    0.350
  280.669   25.904   88.252    0.357
  281.490   24.438   71.121    0.365
  282.310   27.140  149.717    0.369
  283.130   33.675  203.975    0.367
  283.950   30.281  339.287    0.357
  284.770   26.910  245.185    0.334
  285.591   26.194  156.029    0.347
  286.411   25.859  116.915    0.339
  287.231   27.811  137.837    0.337
  288.051   34.346  162.453    0.354
  288.871   37.440  162.659    0.372
  289.692   38.284  135.878    0.380
  290.512   38.307  141.070    0.373
  291.332   39.496  157.567    0.365
  292.152   41.448  149.421    0.349
  292.972   36.160  149.563    0.326
  293.793   28.967  186.119    0.329
  294.613   24.811  277.698    0.331
  295.433   21.821  453.623    0.313
  296.253   22.237  754.307    0.311
  297.073   23.449  653.569    0.327
  297.894   21.960   87.543    0.357
  298.714   18.970  123.669    0.376
  299.534   17.492  140.657    0.386
  300.354   17.158  126.290    0.365
  301.175   18.728  121.950    0.349
  301.995   20.299  149.032    0.355
  302.815   21.107  175.702    0.366
  303.635   21.916  126.971    0.360
  304.455   24.629   73.803    0.357
  305.276   29.259   67.497    0.373
  306.096   35.783  108.278    0.377
  306.916   30.876   95.503    0.365
  307.736   24.826   82.722    0.368
  308.556   22.206   67.861    0.366
  309.377   24.169   58.780    0.363
  310.197   25.358   50.000    0.354
  311.017   22.345   50.978    0.352
  311.837   24.689   70.745    0.371
  312.657   30.450   41.886    0.369
  313.478   46.522   21.839    0.368
  314.298   62.583   15.220    0.382
  315.118  104.586   13.920    0.398
  315.938  107.311   17.022    0.425
  316.759  105.441   17.672    0.444
  317.579  102.821   19.721    0.430
  318.399  101.724   22.013    0.426
  319.219  104.449   22.048    0.347
  320.039  107.924   18.087    0.358
  320.860  109.495   22.508    0.335
  321.680  106.112   25.583    0.340
  322.500   97.395   20.241    0.364
  323.320   90.953   14.106    0.353
  324.140   81.855   15.468    0.371
  324.961   76.960   17.903    0.373
  325.781   84.234   17.288    0.382
  326.601   93.817   16.100    0.396
  327.421  100.353   16.125    0.410
  328.241  100.399   18.000    0.413
  329.062  101.219   20.099    0.418
  329.882   98.968   20.124    0.416
  330.702   96.347   18.399    0.398
  331.522  101.358   16.233    0.375
  332.343  104.072   15.394    0.383
  333.163  101.832   14.078    0.409
  333.983  103.045   13.599    0.430
  334.803  104.984   16.614    0.446
  335.623   87.112   22.642    0.449
  336.444   76.478   21.471    0.417
  337.264   71.572   15.237    0.404
  338.084   75.428   11.213    0.398
  338.904   78.534   13.215    0.425
  339.724   73.997   16.150    0.435
  340.545   67.947   14.509    0.396
  341.365   72.958   13.269    0.369
  342.185   79.101   14.033    0.383
  343.005   81.826   12.377    0.378
  343.825   83.777   10.913    0.398
  344.646   82.681    9.286    0.409
  345.466   86.930    9.638    0.441
  346.286   89.643   10.568    0.479
  347.106   94.654   11.381    0.499
  347.927  100.035   10.989    0.481
  348.747   94.747   10.050    0.463
  349.567   88.317    9.189    0.486
  350.387   83.779    9.038    0.500
  351.207   72.776    9.730    0.507
  352.028   76.252   10.666    0.519
  352.848   78.989   10.303    0.545
  353.668   80.547    8.924    0.567
  354.488   84.404    8.935    0.564
  355.308   84.843    9.110    0.559
  356.129   75.353    9.288    0.556
  356.949   71.970   10.750    0.569
  357.769   64.777   17.882    0.570
  358.589   66.728   20.326    0.562
  359.409   69.823   22.695    0.534
  360.230   79.037   23.993    0.506
  361.050   81.358   24.918    0.439
  361.870   84.464   26.343    0.261
  362.690   82.986   27.859    0.269
  363.510   80.365   30.538    0.261
  364.331   73.935   31.705    0.255
  365.151   73.981   30.066    0.249
