~VERSION INFORMATION
 VERS.                 2.0:   CWLS LOG ASCII STANDARD -VERSION 2.0
 WRAP.                  NO:   ONE LINE PER DEPTH STEP
~WELL INFORMATION BLOCK
#MNEM.UNIT           DATA                    DESCRIPTION OF MNEMONIC
#---------    -------------------            -------------------------------
# Generated from Intellog Unique Number	CN_94_101/WELL/5005
WELL.         10-18-098-10W4                 : Well_name    - WELL
LOC .         AA/10-18-098-10W4/0            : Location     - LOCATION
UWI .         AA/10-18-098-10W400            : Uwi          - UNIQUE WELL ID
ENTR.         TIM                            : Entered      - ENTERED BY
SRVC.         SCHLUMBERGER                   : Scn          - SERVICE COMPANY
DATE.         08/11/92                       : Date         - LOG DATE
STRT.M        0                              : top_depth    - START DEPTH
STOP.M        80                             : bot_depth    - STOP DEPTH
STEP.M        0.25                           : increment    - STEP LENGTH
 NULL. -999.2500:NULL Value
~CURVE INFORMATION BLOCK
#MNEM UNIT       ERCB CURVE CODE    CURVE DESCRIPTION
#-----------   ------------------   ----------------------------------
DEPT.M        00 001 00 00         : DEPTH        - DEPTH
GR  .API      00 310 00 00         : GR           - GAMMA RAY
ILD .OHMM     00 120 00 00         : RESD         - DEEP RESISTIVITY (DIL)
NPHI.V/V      00 330 00 00         : PHIN         - NEUTRON POROSITY (SANDSTONE)
DPHI.V/V      00 890 00 00         : PHID         - DENSITY POROSITY (SANDSTONE)
~PARAMETER INFORMATION
#MNEM.UNIT           DATA             DESCRIPTION OF MNEMONIC
#---------         -----------     ------------------------------
GL  .M        275.76               : gl           - GROUND LEVEL ELEVATION
EREF.M        275.76               : kb           - ELEVATION OF DEPTH REFERENCE
DATM.M        275.76               : datum        - DATUM ELEVATION
TDD .M        81                   : tdd          - TOTAL DEPTH DRILLER
RUN .         ONE                  : Run          - RUN NUMBER
ENG .         BILL                 : Engineer     - RECORDING ENGINEER
WIT .         JIM                  : Witness      - WITNESSED BY
MUD .         GEL                  : Mud_type     - MUD TYPE
MATR.         SANDSTONE            : Logunit      - NEUTRON MATRIX
TMAX.C        10                   : BHT          - MAXIMUM RECORDED TEMPERATURE
BHTD.M        81                   : BHTDEP       - MAXIMUM RECORDED TEMPERATURE
RMT .C        10                   : MDTP         - TEMPERATURE OF MUD
MUDD.KG/M     1090                 : MWT          - MUD DENSITY
NEUT.         1                    : NEUTRON      - NEUTRON TYPE
RESI.         0                    : RESIST       - RESISTIVITY TYPE
RM  .OHMM     13.1                 : RM           - RESISTIVITY OF MUD
RMC .OHMM     13.1                 : RMC          - RESISTIVITY OF MUD CAKE
RMF .OHMM     13.1                 : RMF          - RESISTIVITY OF MUD FILTRATE
SUFT.C        4                    : SUFT         - SURFACE TEMPERATURE
~A  DEPTH       GR     RESD     PHIN     PHID
    0.000   69.536  177.893    0.079    0.484
    0.250   69.530  170.388    0.080    0.486
    0.500   68.301  158.634    0.081    0.491
    0.750   66.463  147.702    0.096    0.493
    1.000   65.847  129.904    0.116    0.497
    1.250   65.840  117.549    0.145    0.499
    1.500   65.828  107.876    0.164    0.491
    1.750   63.383  109.377    0.232    0.429
    2.000   61.545  109.349    0.248    0.433
    2.250   65.807  112.469    0.249    0.430
    2.500   67.629  117.335    0.237    0.436
    2.750   65.182  120.692    0.238    0.453
    3.000   65.174  125.914    0.232    0.467
    3.250   64.556  125.872    0.219    0.351
    3.500   62.109  122.269    0.225    0.319
    3.750   59.659  120.512    0.236    0.297
    4.000   57.212  120.492    0.160    0.290
    4.250   56.596  118.730    0.161    0.325
    4.500   56.588  117.033    0.204    0.407
    4.750   58.410  118.661    0.223    0.456
    5.000   60.231  120.332    0.159    0.478
    5.250   60.223  127.326    0.148    0.486
    5.500   58.995  136.670    0.181    0.491
    5.750   62.648  255.553    0.204    0.491
    6.000   65.080  320.785    0.233    0.490
    6.250   65.072  339.433    0.244    0.489
    6.500   65.063  344.154    0.234    0.491
    6.750   64.445  344.069    0.224    0.489
    7.000   63.827  343.983    0.240    0.490
    7.250   66.260  338.982    0.242    0.495
    7.500   69.304  334.081    0.227    0.498
    7.750   72.344  324.600    0.189    0.500
    8.000   69.898  315.387    0.171    0.499
    8.250   63.791  302.107    0.159    0.498
    8.500   59.511  285.296    0.189    0.497
    8.750   60.114  258.162    0.198    0.496
    9.000   61.936  211.461    0.209    0.490
    9.250   60.098  173.208    0.198    0.488
    9.500   59.481  145.970    0.255    0.482
    9.750   60.083  130.221    0.338    0.471
   10.000   60.685  116.171    0.427    0.460
   10.250   58.238  105.113    0.485    0.451
   10.500   55.790   89.838    0.500    0.451
   10.750   55.172   86.070    0.524    0.451
   11.000   56.995   81.267    0.539    0.451
   11.250   57.597   80.106    0.557    0.450
   11.500   60.027   75.648    0.569    0.447
   11.750   60.632   71.439    0.565    0.446
   12.000   61.844   67.464    0.563    0.446
   12.250   60.616   64.623    0.576    0.447
   12.500   58.167   60.165    0.571    0.447
   12.750   57.549   55.218    0.560    0.448
   13.000   58.151   51.409    0.557    0.450
   13.250   59.972   49.244    0.551    0.446
   13.500   59.966   47.171    0.535    0.435
   13.750   58.738   45.184    0.556    0.429
   14.000   59.341   43.902    0.562    0.433
   14.250   58.113   42.656    0.565    0.438
   14.500   56.275   42.039    0.548    0.442
   14.750   58.708   41.428    0.551    0.445
   15.000   59.920   40.252    0.552    0.448
   15.250   58.082   39.667    0.542    0.446
   15.500   56.243   39.660    0.537    0.428
   15.750   58.065   39.084    0.532    0.428
   16.000   58.057   37.975    0.524    0.430
   16.250   57.440   36.376    0.524    0.433
   16.500   56.822   34.844    0.521    0.435
   16.750   58.034   33.855    0.503    0.435
   17.000   60.467   33.368    0.534    0.439
   17.250   64.119   31.958    0.558    0.442
   17.500   68.991   31.056    0.584    0.447
   17.750   83.013   28.100    0.594    0.451
   18.000  102.523   26.536    0.593    0.453
   18.250  100.077   25.060    0.589    0.410
   18.500  102.507   24.695    0.588    0.398
   18.750  100.060   23.993    0.592    0.397
   19.000   98.224   23.316    0.592    0.411
   19.250   99.434   22.016    0.588    0.422
   19.500  103.088   21.087    0.594    0.434
   19.750  103.079   20.786    0.599    0.436
   20.000  100.633   20.193    0.601    0.443
   20.250  103.675   19.621    0.600    0.453
   20.500  103.056   18.794    0.608    0.431
   20.750  100.608   18.262    0.613    0.385
   21.000  101.212   17.742    0.608    0.368
   21.250  108.523   17.241    0.602    0.373
   21.500  112.175   16.512    0.602    0.378
   21.750  109.117   16.272    0.604    0.384
   22.000  105.448   16.270    0.608    0.389
   22.250  104.220   16.035    0.611    0.392
   22.500  102.992   16.256    0.610    0.398
   22.750  102.985   16.253    0.605    0.406
   23.000  107.249   16.717    0.605    0.409
   23.250  109.069   17.944    0.607    0.430
   23.500  106.012   19.537    0.607    0.434
   23.750  102.344   21.271    0.607    0.442
   24.000   98.677   25.223    0.601    0.372
   24.250   95.619   30.339    0.570    0.338
   24.500   92.563   37.014    0.488    0.355
   24.750   95.606   49.184    0.478    0.379
   25.000  101.698   55.886    0.541    0.386
   25.250  102.298   49.151    0.565    0.396
   25.500   99.240   44.473    0.591    0.320
   25.750  102.893   42.002    0.592    0.318
   26.000  115.695   38.007    0.593    0.327
   26.250  118.125   35.889    0.593    0.266
   26.500  114.459   36.913    0.595    0.289
   26.750  110.790   39.062    0.601    0.298
   27.000  112.614   41.932    0.606    0.311
   27.250  117.482   48.328    0.603    0.308
   27.500  113.817   58.129    0.581    0.305
   27.750  107.101   71.937    0.546    0.357
   28.000   97.944  111.785    0.525    0.370
   28.250   88.786  194.650    0.510    0.383
   28.500   77.799  311.178    0.498    0.385
   28.750   62.538  311.075    0.506    0.389
   29.000   61.920  302.221    0.514    0.392
   29.250   61.913  289.519    0.515    0.396
   29.500   62.517  233.814    0.514    0.400
   29.750   63.119  183.514    0.511    0.401
   30.000   64.331  163.714    0.515    0.370
   30.250   66.154  168.370    0.513    0.357
   30.500   66.756  175.655    0.520    0.355
   30.750   66.748  173.115    0.531    0.364
   31.000   67.960  158.882    0.542    0.373
   31.250   69.783  147.934    0.559    0.385
   31.500   73.433  131.962    0.599    0.395
   31.750   78.307  124.629    0.532    0.395
   32.000   97.819  106.536    0.580    0.390
   32.250  105.741  106.501    0.595    0.376
   32.500  104.513  111.109    0.600    0.356
   32.750  101.456  126.248    0.597    0.347
   33.000   94.736  131.710    0.588    0.379
   33.250   89.849  139.378    0.566    0.398
   33.500   77.641  170.046    0.546    0.370
   33.750   65.434  225.955    0.546    0.365
   34.000   58.717  235.711    0.551    0.394
   34.250   57.489  213.311    0.542    0.412
   34.500   62.971  169.821    0.529    0.384
   34.750   66.621  133.276    0.518    0.363
   35.000   72.106  135.141    0.525    0.354
   35.250   75.148  155.755    0.533    0.379
   35.500   71.480  184.696    0.566    0.397
   35.750   69.033  206.913    0.587    0.415
   36.000   67.805  238.455    0.562    0.412
   36.250   65.356  255.932    0.549    0.397
   36.500   62.298  252.253    0.541    0.394
   36.750   57.410  228.262    0.532    0.397
   37.000   58.623  206.552    0.528    0.400
   37.250   63.495  197.854    0.552    0.403
   37.500   65.315  206.398    0.561    0.407
   37.750   65.308  221.562    0.582    0.415
   38.000   66.520  248.194    0.588    0.419
   38.250   68.342  286.052    0.599    0.420
   38.500   65.286  307.044    0.605    0.415
   38.750   59.179  311.341    0.600    0.418
   39.000   61.609  277.749    0.553    0.420
   39.250   67.093  237.427    0.513    0.420
   39.500   65.254  205.867    0.538    0.416
   39.750   64.026  197.198    0.549    0.410
   40.000   71.338  166.188    0.583    0.399
   40.250   81.090  126.766    0.558    0.374
   40.500   79.863  124.933    0.542    0.358
   40.750   71.925  139.950    0.572    0.342
   41.000   70.088  135.978    0.549    0.365
   41.250   77.400  117.893    0.518    0.375
   41.500   85.932  123.004    0.543    0.380
   41.750   81.654  175.498    0.556    0.353
   42.000   72.497  223.453    0.570    0.352
   42.250   65.779  292.725    0.518    0.362
   42.500   59.672  332.582    0.488    0.371
   42.750   59.054  332.472    0.485    0.379
   43.000   59.046  323.009    0.489    0.381
   43.250   59.039  322.955    0.493    0.384
