~VERSION INFORMATION
 VERS.                 2.0:   CWLS LOG ASCII STANDARD -VERSION 2.0
 WRAP.                  NO:   ONE LINE PER DEPTH STEP
~WELL INFORMATION BLOCK
#MNEM.UNIT           DATA                    DESCRIPTION OF MNEMONIC
#---------    -------------------            -------------------------------
# Generated from Intellog Unique Number	CN_94_101/WELL/3264
WELL.         10-11-095-06W4                 : Well_name    - WELL
LOC .         AA/10-11-095-06W4/0            : Location     - LOCATION
UWI .         AA/10-11-095-06W400            : Uwi          - UNIQUE WELL ID
ENTR.         TIM                            : Entered      - ENTERED BY
SRVC.         SCHLUMBERGER                   : Scn          - SERVICE COMPANY
DATE.         05/17/92                       : Date         - LOG DATE
STRT.M        100                            : top_depth    - START DEPTH
STOP.M        340                            : bot_depth    - STOP DEPTH
STEP.M        0.25                           : increment    - STEP LENGTH
 NULL. -999.2500:NULL Value
~CURVE INFORMATION BLOCK
#MNEM UNIT       ERCB CURVE CODE    CURVE DESCRIPTION
#-----------   ------------------   ----------------------------------
DEPT.M        00 001 00 00         : DEPTH        - DEPTH
GR  .API      00 310 00 00         : GR           - GAMMA RAY
NPHI.V/V      00 330 00 00         : PHIN         - NEUTRON POROSITY (SANDSTONE)
DPHI.V/V      00 890 00 00         : PHID         - DENSITY POROSITY (SANDSTONE)
ILD .OHMM     00 120 00 00         : RESD         - DEEP RESISTIVITY (DIL)
~PARAMETER INFORMATION
#MNEM.UNIT           DATA             DESCRIPTION OF MNEMONIC
#---------         -----------     ------------------------------
GL  .M        596.9                : gl           - GROUND LEVEL ELEVATION
EREF.M        599.8                : kb           - ELEVATION OF DEPTH REFERENCE
DATM.M        599.8                : datum        - DATUM ELEVATION
TDD .M        342                  : tdd          - TOTAL DEPTH DRILLER
RUN .         0                    : Run          - RUN NUMBER
ENG .         COMPANY:             : Engineer     - RECORDING ENGINEER
MUD .         GEL                  : Mud_type     - MUD TYPE
MATR.         SANDSTONE            : Logunit      - NEUTRON MATRIX
TMAX.C        18                   : BHT          - MAXIMUM RECORDED TEMPERATURE
BHTD.M        342                  : BHTDEP       - MAXIMUM RECORDED TEMPERATURE
RMT .C        18                   : MDTP         - TEMPERATURE OF MUD
MUDD.KG/M     1050                 : MWT          - MUD DENSITY
NEUT.         1                    : NEUTRON      - NEUTRON TYPE
RESI.         0                    : RESIST       - RESISTIVITY TYPE
RM  .OHMM     3.5                  : RM           - RESISTIVITY OF MUD
RMC .OHMM     3.5                  : RMC          - RESISTIVITY OF MUD CAKE
RMF .OHMM     3.5                  : RMF          - RESISTIVITY OF MUD FILTRATE
SUFT.C        4                    : SUFT         - SURFACE TEMPERATURE
~A  DEPTH       GR     PHIN     PHID     RESD
# ...
  274.000   49.415    0.359    0.305  269.715
  274.250   49.408    0.359    0.304  302.264
  274.500   50.045    0.361    0.303  332.353
  274.750   50.679    0.364    0.299  379.592
  275.000   51.316    0.366    0.295  394.237
  275.250   52.589    0.368    0.290  332.055
  275.500   53.226    0.368    0.284  254.285
  275.750   54.501    0.371    0.278  194.729
  276.000   55.138    0.373    0.285  149.122
  276.250   57.052    0.374    0.281  118.619
  276.500   58.329    0.374    0.269   98.026
  276.750   60.881    0.373    0.241   82.564
  277.000   62.157    0.374    0.241   75.045
  277.250   63.435    0.382    0.247   66.924
  277.500   65.990    0.385    0.257   59.681
  277.750   67.905    0.387    0.257   52.219
  278.000   69.820    0.387    0.250   48.372
  278.250   72.374    0.387    0.240   45.673
  278.500   73.651    0.388    0.221   41.513
  278.750   75.566    0.388    0.208   39.953
  279.000   77.481    0.388    0.214   37.012
  279.250   78.116    0.388    0.235   34.283
  279.500   78.752    0.387    0.247   33.629
  279.750   78.749    0.383    0.242   33.621
  280.000   79.384    0.379    0.235   32.975
  280.250   79.380    0.379    0.226   32.967
  280.500   78.095    0.382    0.224   32.958
  280.750   76.812    0.387    0.230   32.945
  281.000   74.886    0.393    0.240   33.566
  281.250   73.602    0.398    0.254   33.558
  281.500   72.959    0.402    0.268   34.191
  281.750   71.034    0.398    0.275   34.837
  282.000   70.389    0.387    0.269   34.830
  282.250   71.025    0.382    0.263   35.486
  282.500   73.579    0.383    0.269   35.473
  282.750   74.857    0.388    0.279   35.467
  283.000   77.411    0.393    0.277   36.136
  283.250   79.967    0.400    0.254   36.822
  283.500   77.403    0.419    0.244   36.808
  283.750   78.039    0.426    0.221   37.502
  284.000   78.033    0.425    0.258   37.493
  284.250   74.831    0.430    0.277   37.485
  284.500   70.986    0.431    0.287   37.474
  284.750   70.341    0.421    0.279   37.462
  285.000   71.617    0.401    0.269   37.451
  285.250   74.172    0.377    0.237   37.440
  285.500   78.647    0.367    0.208   36.723
  285.750   81.843    0.376    0.213   36.020
  286.000   85.038    0.386    0.218   34.661
  286.250   86.953    0.392    0.213   33.353
  286.500   87.588    0.397    0.212   32.103
  286.750   88.225    0.403    0.217   30.892
  287.000   88.859    0.409    0.218   29.729
  287.250   90.135    0.410    0.217   29.159
  287.500   93.329    0.409    0.211   27.532
  287.750   95.244    0.406    0.194   25.996
  288.000   96.520    0.405    0.184   24.545
  288.250   93.957    0.406    0.180   23.174
  288.500   89.472    0.407    0.178   22.732
  288.750   85.629    0.405    0.182   22.725
  289.000   81.145    0.400    0.189   24.054
  289.250   79.222    0.404    0.206   25.949
  289.500   74.098    0.411    0.234   30.210
  289.750   69.615    0.411    0.258   35.845
  290.000   64.490    0.410    0.273   45.029
  290.250   60.646    0.407    0.273   48.581
  290.500   58.082    0.404    0.262   54.444
  290.750   60.639    0.405    0.262   59.864
  291.000   65.754    0.410    0.259   64.582
  291.250   62.550    0.416    0.267   69.671
  291.500   59.985    0.421    0.287   75.156
  291.750   59.340    0.423    0.282   79.550
  292.000   59.335    0.414    0.276   82.607
  292.250   59.971    0.405    0.266   84.176
  292.500   60.607    0.400    0.259   84.157
  292.750   59.322    0.402    0.258   87.391
  293.000   56.119    0.409    0.259   92.493
  293.250   52.915    0.416    0.264   94.250
  293.500   48.429    0.420    0.272   96.040
  293.750   45.865    0.423    0.293  101.647
  294.000   44.584    0.419    0.307  103.578
  294.250   42.659    0.413    0.310  111.724
  294.500   40.734    0.410    0.310  116.034
  294.750   40.090    0.414    0.311  122.809
  295.000   39.446    0.416    0.313  130.008
  295.250   38.803    0.414    0.311  142.950
  295.500   38.797    0.410    0.307  160.189
  295.750   38.793    0.406    0.301  182.972
  296.000   38.788    0.405    0.296  201.201
  296.250   39.424    0.405    0.308  205.007
  296.500   40.700    0.408    0.327  166.220
  296.750   42.614    0.408    0.340  142.694
  297.000   44.531    0.406    0.338  129.698
  297.250   47.084    0.403    0.329  117.877
  297.500   49.001    0.394    0.319  111.299
  297.750   50.915    0.385    0.310  103.107
  298.000   52.192    0.391    0.296   99.225
  298.250   52.827    0.406    0.291   99.195
  298.500   50.263    0.405    0.289   99.159
  298.750   46.417    0.400    0.291   99.129
  299.000   45.135    0.391    0.295  102.946
  299.250   42.571    0.385    0.300  108.964
  299.500   40.008    0.377    0.306  119.802
  299.750   36.801    0.372    0.309  124.433
  300.000   36.158    0.368    0.314  134.240
  300.250   35.515    0.372    0.318  147.592
  300.500   36.148    0.377    0.319  153.274
  300.750   36.146    0.384    0.319  162.235
  301.000   37.421    0.388    0.317  171.720
  301.250   37.417    0.388    0.312  178.345
  301.500   37.411    0.385    0.305  192.400
  301.750   37.408    0.383    0.298  203.649
  302.000   37.402    0.376    0.290  223.921
  302.250   37.400    0.371    0.290  250.944
  302.500   38.036    0.360    0.286  250.850
  302.750   39.311    0.355    0.274  228.021
  303.000   41.226    0.355    0.257  192.056
  303.250   43.142    0.362    0.246  174.551
  303.500   45.694    0.366    0.255  161.715
  303.750   46.331    0.360    0.258  146.976
  304.000   48.247    0.356    0.251  131.070
  304.250   48.882    0.369    0.242  121.423
  304.500   49.518    0.389    0.243  116.860
  304.750   48.233    0.384    0.250  116.825
  305.000   45.668    0.365    0.262  130.914
  305.250   44.386    0.346    0.270  141.242
  305.500   41.182    0.331    0.266  161.329
  305.750   39.897    0.323    0.262  191.426
  306.000   38.611    0.319    0.258  274.773
  306.250   38.608    0.316    0.256  302.080
  306.500   38.605    0.319    0.258  307.818
  306.750   39.239    0.328    0.264  313.664
  307.000   39.875    0.341    0.270  351.517
  307.250   40.512    0.351    0.281  379.220
  307.500   39.866    0.364    0.291  409.106
  307.750   38.582    0.369    0.297  441.347
  308.000   36.657    0.369    0.299  504.078
  308.250   36.014    0.362    0.298  543.845
  308.500   34.089    0.352    0.295  609.431
  308.750   34.085    0.341    0.290  657.459
  309.000   34.080    0.331    0.284  695.897
  309.250   34.076    0.323    0.279  709.062
  309.500   34.711    0.318    0.275  722.475
  309.750   35.347    0.323    0.274  779.355
  310.000   35.342    0.328    0.271  794.157
  310.250   35.339    0.323    0.268  840.523
  310.500   35.334    0.317    0.265  856.488
  310.750   35.329    0.312    0.264  856.168
  311.000   34.686    0.312    0.261  855.976
  311.250   33.402    0.313    0.257  823.687
  311.500   32.116    0.316    0.255  792.676
  311.750   31.473    0.318    0.249  734.330
  312.000   30.829    0.320    0.244  706.682
  312.250   30.825    0.320    0.240  693.148
  312.500   30.181    0.318    0.240  679.822
  312.750   29.533    0.312    0.237  666.902
  313.000   29.531    0.303    0.235  641.793
  313.250   30.167    0.296    0.236  629.454
  313.500   32.083    0.308    0.244  594.376
  313.750   35.917    0.342    0.255  369.162
  314.000   38.473    0.353    0.244  299.318
  314.250   41.029    0.359    0.240  252.107
  314.500   44.223    0.365    0.271  220.568
  314.750   41.019    0.368    0.289  208.276
  315.000   37.814    0.365    0.296  208.199
  315.250   35.891    0.360    0.296  212.121
  315.500   33.325    0.351    0.294  216.150
  315.750   32.682    0.345    0.292  237.631
  316.000   32.035    0.335    0.291  251.562
  316.250   32.032    0.327    0.284  271.367
  316.500   32.029    0.316    0.277  281.836
  316.750   31.384    0.305    0.268  298.269
  317.000   31.381    0.294    0.256  298.224
  317.250   30.737    0.286    0.242  303.866
