~VERSION INFORMATION
 VERS.                 2.0:   CWLS LOG ASCII STANDARD -VERSION 2.0
 WRAP.                  NO:   ONE LINE PER DEPTH STEP
~WELL INFORMATION BLOCK
#MNEM.UNIT           DATA                    DESCRIPTION OF MNEMONIC
#---------    -------------------            -------------------------------
# Generated from Intellog Unique Number	CS_77_79/WELL/992
WELL.         PEX PCEJ LEISMER OV            : Well_name    - WELL
LOC .         AA/11-08-078-08W4/0            : Location     - LOCATION
UWI .         AA/11-08-078-08W4/0            : Uwi          - UNIQUE WELL ID
ENTR.         JHS                            : Entered      - ENTERED BY
SRVC.         SCHLUMBERGER                   : Scn          - SERVICE COMPANY
STRT.M        155                            : top_depth    - START DEPTH
STOP.M        375                            : bot_depth    - STOP DEPTH
STEP.M        0.25                           : increment    - STEP LENGTH
 NULL. -999.2500:NULL Value
~CURVE INFORMATION BLOCK
#MNEM UNIT       ERCB CURVE CODE    CURVE DESCRIPTION
#-----------   ------------------   ----------------------------------
DEPT.M        00 001 00 00         : DEPTH        - DEPTH
DPHI.V/V      00 890 00 00         : PHID         - DENSITY POROSITY (LIMESTONE)
NPHI.V/V      00 330 00 00         : PHIN         - NEUTRON POROSITY (LIMESTONE)
GR  .API      00 310 00 00         : GR           - GAMMA RAY
ILD .OHMM     00 120 00 00         : RESD         - DEEP RESISTIVITY (DIL)
RHOB.KG/M3    00 350 00 00         : DENS         - BULK DENSITY
~PARAMETER INFORMATION
#MNEM.UNIT           DATA             DESCRIPTION OF MNEMONIC
#---------         -----------     ------------------------------
GL  .M        587.96               : gl           - GROUND LEVEL ELEVATION
EREF.M        591.54               : kb           - ELEVATION OF DEPTH REFERENCE
DATM.M        591.54               : datum        - DATUM ELEVATION
TDD .M        377.6                : tdd          - TOTAL DEPTH DRILLER
RUN .         ONE                  : Run          - RUN NUMBER
ENG .         BILL                 : Engineer     - RECORDING ENGINEER
WIT .         JIM                  : Witness      - WITNESSED BY
MUD .         GEL                  : Mud_type     - MUD TYPE
MATR.         LIMESTONE            : Logunit      - NEUTRON MATRIX
TMAX.C        17                   : BHT          - MAXIMUM RECORDED TEMPERATURE
BHTD.M        377.6                : BHTDEP       - MAXIMUM RECORDED TEMPERATURE
MATR.         1                    : LOGUNIT      - NEUTRON MATRIX
RMT .C        25                   : MDTP         - TEMPERATURE OF MUD
NEUT.         1                    : NEUTRON      - NEUTRON TYPE
RESI.         0                    : RESIST       - RESISTIVITY TYPE
RMC .OHMM     0.25                 : RMC          - RESISTIVITY OF MUD CAKE
RMF .OHMM     0.25                 : RMF          - RESISTIVITY OF MUD FILTRATE
SUFT.C        15                   : SUFT         - SURFACE TEMPERATURE
~A  DEPTH     PHID     PHIN       GR     RESD     DENS
  155.000    0.294    0.615  129.550    0.000    0.000
  155.250    0.302    0.616  132.039    3.253    0.000
  155.500    0.302    0.616  125.232    3.254    0.000
  155.750    0.309    0.617  118.425    3.135    0.000
  156.000    0.327    0.618  114.096    3.078    0.000
  156.250    0.347    0.618  106.048    3.078    0.000
  156.500    0.349    0.618  123.414    3.022    0.000
  156.750    0.329    0.618  130.863    3.022    0.000
  157.000    0.326    0.618  127.775    3.023    0.000
  157.250    0.348    0.618  122.826    2.968    0.000
  157.500    0.350    0.618  132.135    2.968    0.000
  157.750    0.374    0.617  130.905    2.969    0.000
  158.000    0.382    0.617  118.520    2.969    0.000
  158.250    0.370    0.617  108.612    2.915    0.000
  158.500    0.346    0.616  112.342    2.916    0.000
  158.750    0.324    0.614  114.213    2.916    0.000
  159.000    0.320    0.614  118.562    2.972    0.000
  159.250    0.327    0.614  119.192    2.918    0.000
  159.500    0.326    0.614  120.443    2.973    0.000
  159.750    0.308    0.614  115.494    2.974    0.000
  160.000    0.311    0.614  116.125    2.919    0.000
  160.250    0.303    0.613  109.935    2.975    0.000
  160.500    0.305    0.613  123.584    2.976    0.000
  160.750    0.318    0.612  113.677    2.976    0.000
  161.000    0.320    0.612  119.265    3.034    0.000
  161.250    0.304    0.612  112.457    3.091    0.000
  161.500    0.303    0.610  109.990    3.210    0.000
  161.750    0.295    0.610  117.437    3.271    0.000
  162.000    0.287    0.609  119.928    3.461    0.000
  162.250    0.284    0.609  113.739    3.527    0.000
  162.500    0.279    0.608  113.750    3.663    0.000
  162.750    0.283    0.608  115.620    3.803    0.000
  163.000    0.286    0.607  123.688    3.949    0.000
  163.250    0.286    0.607  116.881    4.101    0.000
  163.500    0.213    0.607  111.933    4.258    0.000
  163.750    0.145    0.605  120.001    4.259    0.000
  164.000    0.207    0.597  111.333    4.260    0.000
  164.250    0.262    0.585  123.742    4.182    0.000
  164.500    0.256    0.580  120.033    4.029    0.000
  164.750    0.255    0.596  115.086    3.882    0.000
  165.000    0.259    0.589  116.335    3.740    0.000
  165.250    0.259    0.589  124.404    3.741    0.000
  165.500    0.256    0.587  124.414    3.957    0.000
  165.750    0.251    0.577  115.747    4.187    0.000
  166.000    0.261    0.575  121.956    4.267    0.000
  166.250    0.279    0.566  120.727    4.268    0.000
  166.500    0.268    0.554  117.637    4.190    0.000
  166.750    0.258    0.550  132.525    4.113    0.000
  167.000    0.260    0.559  124.477    4.191    0.000
  167.250    0.268    0.551  116.430    4.352    0.000
  167.500    0.265    0.559  115.201    4.520    0.000
  167.750    0.234    0.535   99.715    4.520    0.000
  168.000    0.179    0.502   95.387    4.607    0.000
  168.250    0.193    0.486  109.654    4.607    0.000
  168.500    0.243    0.512  123.920    4.357    0.000
  168.750    0.257    0.486  117.113    4.120    0.000
  169.000    0.259    0.495  115.885    4.120    0.000
  169.250    0.263    0.468  115.275    5.257    0.000
  169.500    0.269    0.435  105.987    6.107    0.000
  169.750    0.280    0.400   96.080    7.506    0.000
  170.000    0.287    0.430  127.083    8.720    0.000
  170.250    0.281    0.451  111.598    9.944    0.000
  170.500    0.271    0.455   99.211   10.719    0.000
  170.750    0.248    0.474  102.940   11.341    0.000
  171.000    0.241    0.492  112.870   11.999    0.000
  171.250    0.250    0.516  110.399   12.459    0.000
  171.500    0.266    0.546   81.897   12.697    0.000
  171.750    0.555    0.630   65.171   12.940    0.000
  172.000    0.298    0.612  105.472   13.437    0.000
  172.250    0.288    0.436  124.699   13.951    0.000
  172.500    0.305    0.421  119.130   15.040    0.000
  172.750    0.326    0.408  100.546   16.519    0.000
  173.000    0.313    0.401   77.623   18.144    0.000
  173.250    0.300    0.404   75.156   19.197    0.000
  173.500    0.304    0.426   72.065   19.934    0.000
  173.750    0.312    0.446   72.075   19.936    0.000
  174.000    0.315    0.436   82.003   19.941    0.000
  174.250    0.311    0.418   73.336   19.946    0.000
  174.500    0.306    0.415   75.205   19.951    0.000
  174.750    0.308    0.424   77.695   19.953    0.000
  175.000    0.312    0.403   69.028   20.719    0.000
  175.250    0.312    0.392   62.840   21.516    0.000
  175.500    0.314    0.410   62.851   21.518    0.000
  175.750    0.317    0.415   56.663   21.524    0.000
  176.000    0.314    0.434   62.871   20.738    0.000
  176.250    0.305    0.444   70.321   20.356    0.000
  176.500    0.299    0.433   78.391   19.613    0.000
  176.750    0.299    0.425   75.302   18.547    0.000
  177.000    0.302    0.450   80.271   17.869    0.000
  177.250    0.306    0.441   85.859   17.542    0.000
  177.500    0.306    0.428   77.812   17.544    0.000
  177.750    0.302    0.416   78.443   17.549    0.000
  178.000    0.302    0.422   82.173   17.551    0.000
  178.250    0.304    0.432   89.001   18.226    0.000
  178.500    0.308    0.440   93.352   18.573    0.000
  178.750    0.308    0.410   93.361   18.929    0.000
  179.000    0.305    0.423   89.653   19.290    0.000
  179.250    0.306    0.444   84.085   19.659    0.000
  179.500    0.313    0.445   76.656   20.035    0.000
  179.750    0.324    0.435   78.528   20.418    0.000
  180.000    0.327    0.423   83.497   20.808    0.000
  180.250    0.324    0.416   86.606   20.813    0.000
  180.500    0.319    0.441   87.237   20.817    0.000
  180.750    0.319    0.482   92.206   20.435    0.000
  181.000    0.319    0.450   96.555   20.060    0.000
  181.250    0.318    0.435  101.524   19.327    0.000
  181.500    0.316    0.446  104.014   18.972    0.000
  181.750    0.311    0.451  108.363   18.279    0.000
  182.000    0.301    0.455  116.433   17.285    0.000
  182.250    0.298    0.441  113.345   16.968    0.000
  182.500    0.297    0.430  105.916   16.657    0.000
  182.750    0.293    0.422  120.184   16.660    0.000
  183.000    0.287    0.411  128.252   16.978    0.000
  183.250    0.281    0.422  134.460   17.630    0.000
  183.500    0.273    0.387  123.933   18.653    0.000
  183.750    0.273    0.378  107.828   20.106    0.000
  184.000    0.281    0.348   84.904   23.361    0.000
  184.250    0.286    0.324   30.988   25.657    0.000
  184.500    0.294    0.329   24.802   28.182    0.000
  184.750    0.297    0.330   31.008   28.721    0.000
  185.000    0.292    0.329   35.361   27.671    0.000
  185.250    0.257    0.335   41.567   24.736    0.000
  185.500    0.244    0.349   52.118   21.301    0.000
  185.750    0.231    0.359   59.564   18.688    0.000
  186.000    0.228    0.385   78.790   16.092    0.000
  186.250    0.227    0.425  110.414   13.856    0.000
  186.500    0.227    0.476  128.399   11.071    0.000
  186.750    0.228    0.506  142.047    8.681    0.000
  187.000    0.228    0.524  148.256    6.681    0.000
  187.250    0.222    0.577  150.129    5.646    0.000
  187.500    0.210    0.589  142.698    4.862    0.000
  187.750    0.194    0.597  140.230    4.109    0.000
  188.000    0.201    0.585  148.919    3.743    0.000
  188.250    0.234    0.591  151.407    3.744    0.000
  188.500    0.248    0.520  143.361    3.961    0.000
  188.750    0.253    0.491  139.032    4.350    0.000
  189.000    0.251    0.442  121.686    5.655    0.000
  189.250    0.257    0.383   82.026    8.072    0.000
  189.500    0.270    0.371   75.838   11.309    0.000
  189.750    0.293    0.361   67.171   16.448    0.000
  190.000    0.293    0.365   72.761   20.985    0.000
  190.250    0.294    0.382   81.450   23.928    0.000
  190.500    0.305    0.395   80.840   23.054    0.000
  190.750    0.307    0.405   67.213   21.799    0.000
  191.000    0.307    0.417   68.465   19.856    0.000
  191.250    0.309    0.417   64.138   17.751    0.000
