~VERSION INFORMATION
 VERS.                 2.0:   CWLS LOG ASCII STANDARD -VERSION 2.0
 WRAP.                  NO:   ONE LINE PER DEPTH STEP
~WELL INFORMATION BLOCK
#MNEM.UNIT           DATA                    DESCRIPTION OF MNEMONIC
#---------    -------------------            -------------------------------
# Generated from Intellog Unique Number	CN_91_93/WELL/2691
WELL.         PETRO CANADA                   : Well_name    - WELL
LOC .         AA/10-29-091-15W4/0            : Location     - LOCATION
UWI .         AA/10-29-091-15W400            : Uwi          - UNIQUE WELL ID
ENTR.         JOETTE                         : Entered      - ENTERED BY
SRVC.         SCHLUMBERGER                   : Scn          - SERVICE COMPANY
DATE.         02/06/92                       : Date         - LOG DATE
STRT.F        250                            : top_depth    - START DEPTH
STOP.F        700.295                        : bot_depth    - STOP DEPTH
STEP.F        0.82                           : increment    - STEP LENGTH
 NULL. -999.2500:NULL Value
~CURVE INFORMATION BLOCK
#MNEM UNIT       ERCB CURVE CODE    CURVE DESCRIPTION
#-----------   ------------------   ----------------------------------
DEPT.F        00 001 00 00         : DEPTH        - DEPTH
GR  .API      00 310 00 00         : GR           - GAMMA RAY
CALI.MM       00 280 01 00         : CAL          - CALIPER
NPHI.V/V      00 330 00 00         : PHIN         - NEUTRON POROSITY (SANDSTONE)
DPHI.V/V      00 890 00 00         : PHID         - DENSITY POROSITY (SANDSTONE)
ILD .OHMM     00 120 00 00         : RESD         - DEEP RESISTIVITY (DIL)
~PARAMETER INFORMATION
#MNEM.UNIT           DATA             DESCRIPTION OF MNEMONIC
#---------         -----------     ------------------------------
GL  .M        479.755              : gl           - GROUND LEVEL ELEVATION
EREF.M        480.974              : kb           - ELEVATION OF DEPTH REFERENCE
DATM.M        480.974              : datum        - DATUM ELEVATION
TDD .M        100.584              : tdd          - TOTAL DEPTH DRILLER
RUN .         ONE                  : Run          - RUN NUMBER
ENG .         BILL                 : Engineer     - RECORDING ENGINEER
WIT .         JIM                  : Witness      - WITNESSED BY
MUD .         GEL                  : Mud_type     - MUD TYPE
MATR.         SANDSTONE            : Logunit      - NEUTRON MATRIX
TMAX.C        8.88889              : BHT          - MAXIMUM RECORDED TEMPERATURE
BHTD.M        100.584              : BHTDEP       - MAXIMUM RECORDED TEMPERATURE
RMT .C        9.44444              : MDTP         - TEMPERATURE OF MUD
MUDD.KG/M     8600                 : MWT          - MUD DENSITY
NEUT.         1                    : NEUTRON      - NEUTRON TYPE
RESI.         0                    : RESIST       - RESISTIVITY TYPE
RM  .OHMM     0.787                : RM           - RESISTIVITY OF MUD
RMC .OHMM     9.8                  : RMC          - RESISTIVITY OF MUD CAKE
RMF .OHMM     0.678                : RMF          - RESISTIVITY OF MUD FILTRATE
SUFT.C        4                    : SUFT         - SURFACE TEMPERATURE
~A  DEPTH       GR      CAL     PHIN     PHID     RESD
  250.000  108.731  145.357    0.602    0.305    3.734
  250.820  111.121  143.878    0.603    0.288    3.768
  251.640  113.808  142.399    0.576    0.284    3.734
  252.461  114.411  140.426    0.559    0.287    3.700
  253.281  113.226  141.429    0.565    0.292    3.633
  254.101  113.529  142.926    0.582    0.298    3.633
  254.921  115.025  144.925    0.597    0.291    3.838
  255.741  113.542  146.422    0.600    0.285    4.018
  256.562  112.953  148.419    0.597    0.297    4.323
  257.382  115.640  150.416    0.605    0.281    4.694
  258.202  113.560  151.419    0.607    0.275    5.050
  259.022  108.205  152.425    0.613    0.257    5.484
  259.843  102.552  153.428    0.590    0.239    6.585
  260.663   99.578  153.436    0.572    0.197    6.525
  261.483   94.818  153.454    0.556    0.136    6.009
  262.303   89.462  153.458    0.541    0.157    5.238
  263.123   83.511  153.458    0.517    0.250    5.191
  263.944   80.538  153.484    0.504    0.275    5.434
  264.764   84.715  153.488    0.546    0.276    6.706
  265.584   98.425  153.499    0.561    0.251    7.349
  266.404  100.814  153.517    0.526    0.226    8.665
  267.224   98.734  153.521    0.510    0.203    9.238
  268.045   96.062  153.533    0.494    0.195    9.670
  268.865   93.087  153.541    0.456    0.204    9.939
  269.685   89.221  153.057    0.476    0.256   10.123
  270.505   88.631  153.066    0.503    0.269   10.216
  271.325   95.489  153.078    0.505    0.273    9.582
  272.146   98.176  153.085    0.498    0.273    8.665
  272.966   99.673  153.096    0.499    0.273    8.127
  273.786   99.678  165.024    0.506    0.274   10.216
  274.606   98.195  164.043    0.527    0.261   12.267
  275.427   94.329  163.554    0.541    0.237   12.841
  276.247   86.589  169.523    0.528    0.233   13.691
  277.067   82.427  167.546    0.485    0.248   15.002
  277.887   79.155  166.564    0.473    0.285   15.002
  278.707   74.991  168.561    0.477    0.313   15.849
  279.528   68.444  168.075    0.482    0.336   16.591
  280.348   66.067  166.597    0.482    0.302   17.527
  281.168   64.583  168.097    0.470    0.278   16.743
  281.988   68.164  167.611    0.476    0.272   16.142
  282.808   69.959  165.635    0.475    0.288   16.591
  283.629   69.370  163.163    0.471    0.292   18.180
  284.449   69.076  160.690    0.471    0.278   19.031
  285.269   69.083  158.218    0.463    0.266   19.031
  286.089   69.685  156.242    0.435    0.269   18.180
  286.909   69.692  154.763    0.430    0.277   16.290
  287.730   70.293  154.774    0.453    0.266   13.691
  288.550   70.897  154.774    0.466    0.211   12.494
  289.370   70.604  154.800    0.470    0.166   11.935
  290.190   68.823  154.310    0.395    0.130   12.841
  291.010   68.233  153.823    0.387    0.190   13.691
  291.831   77.176  153.833    0.414    0.195   11.401
  292.651   81.651  153.843    0.458    0.213    8.127
  293.471   81.657  153.843    0.453    0.226    7.349
  294.291   88.813  155.357    0.441    0.249    6.120
  295.112   97.458  157.849    0.494    0.269    5.191
  295.932  102.529  160.340    0.519    0.274    4.651
  296.752  106.705  162.833    0.542    0.247    4.206
  297.572  109.691  165.326    0.570    0.233    3.803
  298.392  109.994  167.820    0.586    0.214    3.700
  299.213  110.002  168.822    0.578    0.195    3.633
  300.033  108.816  168.337    0.583    0.255    3.700
  300.853  106.439  167.353    0.580    0.269    4.129
  301.673  107.637  167.861    0.595    0.260    5.097
  302.493  110.623  172.836    0.596    0.273    6.176
  303.314  109.734  171.853    0.540    0.261    6.407
  304.134  106.166  170.374    0.520    0.247    6.768
  304.954   98.130  168.397    0.508    0.244    6.348
  305.774   91.880  165.430    0.489    0.262    5.740
  306.594   90.098  165.441    0.494    0.276    5.434
  307.415   97.552  167.933    0.501    0.266    5.384
  308.235   96.366  170.922    0.496    0.264    7.485
  309.055   92.202  172.920    0.526    0.271    8.906
  309.875   93.102  172.433    0.544    0.287    9.582
  310.696   94.300  167.975    0.567    0.283   11.826
  311.516   90.434  162.027    0.538    0.273   14.332
  312.336   83.886  157.568    0.489    0.244   17.367
  313.156   77.637  155.593    0.472    0.174   19.741
  313.976   71.685  154.611    0.457    0.123   23.063
  314.797   65.138  154.630    0.442    0.146   21.831
  315.617   62.465  154.137    0.425    0.168   18.858
  316.437   63.363  154.147    0.348    0.204   13.079
  317.257   63.965  154.156    0.372    0.268   12.608
  318.077   65.162  154.156    0.391    0.293   10.694
  318.898   77.681  154.675    0.471    0.260    8.665
  319.718   81.858  156.174    0.471    0.270    7.907
  320.538   87.226  159.162    0.480    0.296    6.956
  321.358   94.382  164.635    0.532    0.310    7.764
  322.178   94.388  168.121    0.539    0.326    9.408
  322.999   90.819  169.623    0.524    0.327   10.500
  323.819   81.889  167.645    0.511    0.322   10.992
  324.639   79.511  164.180    0.506    0.316   10.694
  325.459   77.135  161.709    0.510    0.302    9.849
  326.280   75.950  160.726    0.512    0.290    8.665
  327.100   78.341  161.232    0.508    0.248    7.764
  327.920   82.516  163.725    0.494    0.214    7.150
  328.740   95.034  166.714    0.523    0.172    6.893
  329.560   92.657  167.720    0.507    0.190    7.216
  330.381   89.090  166.734    0.518    0.217    7.150
  331.201   89.393  163.271    0.522    0.205    6.768
  332.021   91.186  164.275    0.501    0.280    6.407
  332.841   98.937  165.774    0.502    0.286    6.407
  333.661  104.605  169.259    0.508    0.262    6.830
  334.482  103.419  170.760    0.511    0.252    6.768
  335.302   95.978  171.762    0.517    0.245    6.465
  336.122   93.602  172.766    0.526    0.259    5.954
  336.942   93.012  172.779    0.530    0.273    5.636
  337.762   99.571  171.793    0.524    0.249    5.534
  338.583  102.259  170.812    0.530    0.246    6.009
  339.403  103.754  170.822    0.526    0.260    6.830
  340.223  103.165  172.323    0.517    0.250    6.893
  341.043   99.893  170.346    0.541    0.250    6.768
  341.864   94.240  166.883    0.543    0.256    6.233
  342.684   91.864  169.375    0.508    0.212    5.900
  343.504   92.764  165.414    0.463    0.259    5.143
  344.324   95.153  159.465    0.490    0.269    4.403
  345.144  101.712  156.993    0.527    0.242    4.244
  345.965  116.018  156.508    0.546    0.230    4.283
  346.785  120.492  156.517    0.548    0.217    4.525
  347.605  124.371  157.025    0.548    0.213    4.694
  348.425  124.081  157.532    0.533    0.218    4.737
  349.245  123.490  157.543    0.537    0.227    4.694
  350.066  122.007  158.547    0.545    0.198    4.737
  350.886  115.757  159.550    0.571    0.186    4.737
  351.706  110.700  159.065    0.576    0.182    4.780
  352.526  112.196  158.080    0.559    0.165    5.384
  353.346  111.010  156.603    0.553    0.214    6.064
  354.167  113.995  156.118    0.571    0.235    7.623
  354.987  110.128  156.118    0.588    0.252   10.123
  355.807   98.815  155.644    0.575    0.270   11.297
  356.627   89.884  155.652    0.527    0.275   12.608
  357.448   84.230  155.652    0.479    0.282   13.320
  358.268   80.662  155.177    0.491    0.280   13.442
  359.088   80.966  155.185    0.509    0.263   13.566
  359.908   79.185  155.203    0.486    0.296   13.566
  360.728   72.639  155.207    0.471    0.309   14.072
  361.549   67.580  155.207    0.476    0.294   14.866
  362.369   69.374  155.228    0.460    0.267   17.367
  363.189   73.253  155.239    0.460    0.241   23.063
  364.009   71.472  155.239    0.466    0.207   26.699
  364.829   67.009  155.258    0.450    0.169   27.694
  365.650   60.760  155.258    0.419    0.143   26.215
  366.470   59.576  155.284    0.394    0.119   24.814
  367.290   61.666  155.289    0.358    0.138   24.588
  368.110   63.459  155.289    0.333    0.161   30.347
  368.930   61.977  155.312    0.337    0.175   22.645
