~VERSION INFORMATION
 VERS.                 2.0:   CWLS LOG ASCII STANDARD -VERSION 2.0
 WRAP.                  NO:   ONE LINE PER DEPTH STEP
~WELL INFORMATION BLOCK
#MNEM.UNIT           DATA                    DESCRIPTION OF MNEMONIC
#---------    -------------------            -------------------------------
# Generated from Intellog Unique Number	CN_94_101/WELL/1163
WELL.         14-20-094-08W4                 : Well_name    - WELL
LOC .         AA/14-20-094-08W4/0            : Location     - LOCATION
UWI .         AA/14-20-094-08W400            : Uwi          - UNIQUE WELL ID
ENTR.         JOETTE                         : Entered      - ENTERED BY
SRVC.         SCHLUMBERGER                   : Scn          - SERVICE COMPANY
DATE.         04/22/92                       : Date         - LOG DATE
STRT.M        15                             : top_depth    - START DEPTH
STOP.M        110                            : bot_depth    - STOP DEPTH
STEP.M        0.25                           : increment    - STEP LENGTH
 NULL. -999.2500:NULL Value
~CURVE INFORMATION BLOCK
#MNEM UNIT       ERCB CURVE CODE    CURVE DESCRIPTION
#-----------   ------------------   ----------------------------------
DEPT.M        00 001 00 00         : DEPTH        - DEPTH
GR  .API      00 310 00 00         : GR           - GAMMA RAY
ILD .OHMM     00 120 00 00         : RESD         - DEEP RESISTIVITY (DIL)
DPHI.V/V      00 890 00 00         : PHID         - DENSITY POROSITY (SANDSTONE)
NPHI.V/V      00 330 00 00         : PHIN         - NEUTRON POROSITY (SANDSTONE)
CALI.MM       00 280 01 00         : CAL          - CALIPER
~PARAMETER INFORMATION
#MNEM.UNIT           DATA             DESCRIPTION OF MNEMONIC
#---------         -----------     ------------------------------
GL  .M        357.19               : gl           - GROUND LEVEL ELEVATION
EREF.M        357.19               : kb           - ELEVATION OF DEPTH REFERENCE
DATM.M        357.19               : datum        - DATUM ELEVATION
TDD .M        112.3                : tdd          - TOTAL DEPTH DRILLER
RUN .         ONE                  : Run          - RUN NUMBER
ENG .         BILL                 : Engineer     - RECORDING ENGINEER
WIT .         JIM                  : Witness      - WITNESSED BY
MUD .         GEL                  : Mud_type     - MUD TYPE
MATR.         SANDSTONE            : Logunit      - NEUTRON MATRIX
TMAX.C        7                    : BHT          - MAXIMUM RECORDED TEMPERATURE
BHTD.M        112.3                : BHTDEP       - MAXIMUM RECORDED TEMPERATURE
RMT .C        7                    : MDTP         - TEMPERATURE OF MUD
MUDD.KG/M     1050                 : MWT          - MUD DENSITY
NEUT.         1                    : NEUTRON      - NEUTRON TYPE
RESI.         0                    : RESIST       - RESISTIVITY TYPE
RM  .OHMM     14.7                 : RM           - RESISTIVITY OF MUD
RMC .OHMM     14.7                 : RMC          - RESISTIVITY OF MUD CAKE
RMF .OHMM     14.7                 : RMF          - RESISTIVITY OF MUD FILTRATE
SUFT.C        4                    : SUFT         - SURFACE TEMPERATURE
~A  DEPTH       GR     RESD     PHID     PHIN      CAL
   15.000   98.175    3.695    0.304    0.542  139.070
   15.250  100.310    4.759    0.313    0.551  139.308
   15.500   99.159    5.638    0.307    0.559  139.536
   15.750  104.869    6.258    0.300    0.545  139.171
   16.000  102.227    5.659    0.317    0.550  139.213
   16.250  110.925    5.363    0.311    0.528  139.251
   16.500  110.967    5.177    0.294    0.494  140.476
   16.750  111.606    5.045    0.292    0.518  141.511
   17.000  107.770    5.151    0.300    0.450  139.742
   17.250  116.474    5.987    0.286    0.495  139.376
   17.500  108.749    6.963    0.291    0.504  139.821
   17.750  115.956    6.848    0.277    0.498  138.854
   18.000   99.884    6.491    0.250    0.476  138.285
   18.250  102.015    6.440    0.191    0.443  138.518
   18.500   97.582    6.573    0.198    0.376  138.954
   18.750   78.826   14.383    0.224    0.464  138.390
   19.000  103.041   13.378    0.297    0.498  132.637
   19.250  101.592    8.499    0.303    0.502  134.067
   19.500  105.214    7.979    0.326    0.582  137.095
   19.750  101.974    8.534    0.333    0.675  137.128
   20.000  111.568    7.164    0.316    0.569  134.778
   20.250  105.047    4.948    0.300    0.582  135.401
   20.500  107.476    4.080    0.295    0.609  135.838
   20.750  100.364    4.241    0.288    0.581  135.867
   21.000  105.477    5.024    0.295    0.536  135.705
   21.250  108.204    5.577    0.292    0.577  137.537
   21.500   89.746    4.770    0.291    0.539  137.367
   21.750  113.061    4.355    0.289    0.509  137.604
   22.000  123.251    4.445    0.274    0.544  139.436
   22.250  130.154    4.454    0.264    0.470  141.264
   22.500  123.037    6.535    0.260    0.470  140.500
   22.750  132.034    6.859    0.251    0.500  139.134
   23.000  101.936    6.874    0.258    0.505  139.371
   23.250  110.336    6.885    0.264    0.474  139.010
   23.500   91.281    7.932    0.279    0.518  139.044
   23.750  109.824    8.405    0.254    0.438  139.077
   24.000  104.198    8.037    0.247    0.493  139.107
   24.250  112.598    8.052    0.245    0.445  146.720
   24.500  106.371    8.149    0.256    0.517  139.178
   24.750  104.623    8.010    0.278    0.526  138.019
   25.000  113.918    5.796    0.322    0.565  138.447
   25.250  110.380    3.581    0.344    0.648  137.094
   25.500  102.368    2.496    0.349    0.604  137.119
   25.750   94.351    1.910    0.350    0.596  137.161
   26.000   96.188    1.574    0.355    0.595  137.190
   26.250   93.546    1.205    0.338    0.661  137.826
   26.500   83.738    1.400    0.325    0.615  138.852
   26.750   81.096    1.998    0.336    0.645  139.089
   27.000   78.458    2.059    0.345    0.635  136.726
   27.250   94.907    2.307    0.309    0.616  136.959
   27.500   81.824    2.145    0.285    0.550  135.996
   27.750   91.710    2.541    0.290    0.613  136.233
   28.000   84.897    3.625    0.288    0.522  139.656
   28.250  103.434    4.936    0.295    0.490  137.297
   28.500  104.674    5.231    0.305    0.484  138.730
   28.750   98.452    6.735    0.297    0.544  139.761
   29.000   91.628    6.875    0.261    0.603  139.400
   29.250   91.079    3.835    0.229    0.505  139.230
   29.500   86.343    4.459    0.204    0.449  139.263
   29.750   95.638    5.849    0.161    0.344  143.687
   30.000   86.731    8.825    0.184    0.385  139.131
   30.250   91.844   16.794    0.264    0.506  138.570
   30.500  101.437    6.892    0.295    0.578  141.794
   30.750  103.573    4.027    0.288    0.599  138.841
   31.000  101.521    3.575    0.291    0.607  139.269
   31.250  121.257    3.616    0.300    0.574  139.303
   31.500  110.859    3.181    0.294    0.574  141.334
   31.750  107.918    3.629    0.300    0.505  140.969
   32.000  105.275    4.676    0.308    0.574  141.600
   32.250   98.754    4.640    0.301    0.585  139.844
   32.500  107.154    3.897    0.311    0.563  140.874
   32.750  109.881    4.205    0.311    0.595  144.696
   33.000  107.532    4.333    0.307    0.569  144.331
   33.250  103.099    3.707    0.302    0.582  139.384
   33.500   99.263    3.231    0.319    0.616  139.218
   33.750  106.470    3.148    0.318    0.613  138.454
   34.000  102.336    3.124    0.316    0.542  140.681
   34.250  105.068    4.063    0.332    0.517  139.921
   34.500   94.963    5.136    0.332    0.584  140.349
   34.750   95.900    6.616    0.302    0.584  144.570
   35.000  101.311    6.942    0.283    0.538  145.205
   35.250  101.061    5.166    0.279    0.528  140.849
   35.500   95.430    4.543    0.266    0.508  142.481
   35.750   96.074    4.639    0.249    0.538  141.717
   36.000   95.221    5.343    0.219    0.428  139.562
   36.250   93.175    7.208    0.187    0.423  139.994
   36.500   89.334   18.137    0.239    0.524  139.625
   36.750   89.680   14.671    0.289    0.540  136.070
   37.000  101.057    4.952    0.291    0.500  138.907
   37.250   97.520    4.357    0.300    0.479  138.932
   37.500  104.135    5.932    0.300    0.425  143.352
   37.750  106.857   11.719    0.282    0.463  138.800
   38.000   91.984   14.275    0.297    0.384  131.855
   38.250   69.344   46.158    0.312    0.414  119.719
   38.500   51.482   58.901    0.312    0.531  132.720
   38.750   89.724   43.417    0.304    0.528  136.944
   39.000   90.064    9.554    0.300    0.567  139.171
   39.250   95.476    7.518    0.306    0.530  135.819
   39.500   91.347   12.215    0.292    0.411  136.052
   39.750   83.329   10.069    0.283    0.465  134.088
   40.000   67.854   24.188    0.280    0.448  133.328
   40.250   75.956   24.241    0.260    0.457  135.351
   40.500   96.587   22.959    0.243    0.464  135.194
   40.750   97.225   19.825    0.251    0.485  134.629
   41.000   93.986   25.527    0.255    0.476  134.663
   41.250  105.966   22.666    0.259    0.436  134.696
   41.500  112.576   21.683    0.266    0.413  134.335
   41.750  104.559   23.626    0.251    0.421  133.762
   42.000  101.319   27.205    0.249    0.447  133.206
   42.250   93.312   22.639    0.274    0.434  132.837
   42.500  102.602   20.858    0.276    0.406  132.671
   42.750  103.241   25.645    0.273    0.424  132.709
   43.000  113.436   22.977    0.273    0.433  132.539
   43.250  111.981   20.983    0.279    0.427  132.173
   43.500  104.268   22.436    0.275    0.375  131.409
   43.750  101.321   23.996    0.262    0.408  131.651
   44.000   98.982   24.715    0.262    0.417  131.680
   44.250   90.374   24.534    0.281    0.436  131.518
   44.500   87.427   26.245    0.289    0.477  130.555
   44.750   85.680   29.119    0.295    0.480  130.385
   45.000   80.352   42.331    0.298    0.487  129.422
   45.250   86.062   30.064    0.314    0.484  128.259
   45.500   91.479   32.749    0.298    0.450  129.099
   45.750   86.152   42.181    0.286    0.453  130.324
   46.000   97.242   38.870    0.282    0.428  130.561
   46.250   99.069   34.521    0.274    0.416  131.388
   46.500   82.102   31.804    0.274    0.431  131.824
   46.750   76.775   33.072    0.282    0.417  132.057
   47.000   74.436   47.192    0.268    0.426  132.893
   47.250   77.754   51.900    0.269    0.425  133.130
   47.500   85.259   47.804    0.255    0.382  133.354
   47.750   83.511   43.252    0.262    0.353  133.201
   48.000   88.028   44.986    0.257    0.390  133.230
   48.250   92.848   42.618    0.255    0.435  133.459
   48.500   92.597   42.305    0.267    0.407  133.692
   48.750   89.353   42.396    0.265    0.398  133.725
   49.000   86.114   45.332    0.275    0.380  132.168
   49.250   89.139   52.238    0.259    0.403  133.203
   49.500   85.303   57.407    0.257    0.410  133.431
   49.750   87.732   64.334    0.265    0.430  132.468
   50.000   83.896   53.004    0.278    0.434  130.911
   50.250   82.446   51.179    0.275    0.396  131.339
   50.500   83.085   45.011    0.280    0.452  132.374
   50.750   92.684   38.885    0.286    0.452  129.815
   51.000   96.604   38.223    0.276    0.433  128.657
   51.250   87.095   36.908    0.289    0.404  128.292
