~VERSION INFORMATION
 VERS.                 2.0:   CWLS LOG ASCII STANDARD -VERSION 2.0
 WRAP.                  NO:   ONE LINE PER DEPTH STEP
~WELL INFORMATION BLOCK
#MNEM.UNIT           DATA                    DESCRIPTION OF MNEMONIC
#---------    -------------------            -------------------------------
# Generated from Intellog Unique Number	CX_WELLS/WELL/1172
WELL.         10-11-089-14W4                 : Well_name    - WELL
LOC .         AA/10-11-089-14W4/0            : Location     - LOCATION
UWI .         AA/10-11-089-14W400            : Uwi          - UNIQUE WELL ID
ENTR.         DW                             : Entered      - ENTERED BY
SRVC.         SCHLUMBERGER                   : Scn          - SERVICE COMPANY
STRT.M        70                             : top_depth    - START DEPTH
STOP.M        225                            : bot_depth    - STOP DEPTH
STEP.M        0.25                           : increment    - STEP LENGTH
 NULL. -999.2500:NULL Value
~CURVE INFORMATION BLOCK
#MNEM UNIT       ERCB CURVE CODE    CURVE DESCRIPTION
#-----------   ------------------   ----------------------------------
DEPT.M        00 001 00 00         : DEPTH        - DEPTH
GR  .API      00 310 00 00         : GR           - GAMMA RAY
NPHI.V/V      00 330 00 00         : PHIN         - NEUTRON POROSITY (SANDSTONE)
DPHI.V/V      00 890 00 00         : PHID         - DENSITY POROSITY (SANDSTONE)
ILD .OHMM     00 120 00 00         : RESD         - DEEP RESISTIVITY (DIL)
~PARAMETER INFORMATION
#MNEM.UNIT           DATA             DESCRIPTION OF MNEMONIC
#---------         -----------     ------------------------------
GL  .M        501.1                : gl           - GROUND LEVEL ELEVATION
EREF.M        504.1                : kb           - ELEVATION OF DEPTH REFERENCE
DATM.M        504.1                : datum        - DATUM ELEVATION
TDD .M        228                  : tdd          - TOTAL DEPTH DRILLER
RUN .         ONE                  : Run          - RUN NUMBER
ENG .         BILL                 : Engineer     - RECORDING ENGINEER
WIT .         JIM                  : Witness      - WITNESSED BY
MUD .         GEL                  : Mud_type     - MUD TYPE
MATR.         SANDSTONE            : Logunit      - NEUTRON MATRIX
TMAX.C        25                   : BHT          - MAXIMUM RECORDED TEMPERATURE
BHTD.M        230                  : BHTDEP       - MAXIMUM RECORDED TEMPERATURE
MATR.         1                    : LOGUNIT      - NEUTRON MATRIX
RMT .C        25                   : MDTP         - TEMPERATURE OF MUD
NEUT.         1                    : NEUTRON      - NEUTRON TYPE
RESI.         0                    : RESIST       - RESISTIVITY TYPE
RMC .OHMM     0.25                 : RMC          - RESISTIVITY OF MUD CAKE
RMF .OHMM     0.25                 : RMF          - RESISTIVITY OF MUD FILTRATE
SUFT.C        15                   : SUFT         - SURFACE TEMPERATURE
~A  DEPTH       GR     PHIN     PHID     RESD
# ...
  157.000  104.977    0.503    0.190    8.437
  157.250  106.818    0.505    0.198    8.293
  157.500  106.866    0.502    0.201    8.454
  157.750  104.535    0.498    0.202    8.790
  158.000  102.180    0.490    0.202    9.131
  158.250   98.654    0.478    0.200    9.489
  158.500   97.495    0.464    0.198    9.863
  158.750   98.738    0.445    0.193   10.060
  159.000  102.982    0.435    0.177    9.886
  159.250  105.408    0.458    0.174    9.360
  159.500  107.859    0.470    0.179    9.032
  159.750  107.321    0.485    0.188    9.037
  160.000  106.174    0.481    0.196    9.048
  160.250  107.417    0.447    0.218    9.405
  160.500  109.246    0.450    0.230    9.959
  160.750  111.684    0.449    0.232   10.155
  161.000  113.525    0.448    0.215   10.556
  161.250  114.171    0.443    0.211   10.763
  161.500  113.645    0.438    0.208   10.982
  161.750  111.290    0.431    0.203   11.201
  162.000  107.155    0.432    0.197   11.211
  162.250  103.617    0.438    0.160   11.224
  162.500  100.676    0.445    0.140   11.238
  162.750  101.919    0.451    0.147   11.251
  163.000  106.151    0.458    0.173   11.056
  163.250  111.578    0.468    0.183   11.073
  163.500  114.614    0.476    0.200   10.684
  163.750  118.869    0.482    0.213   10.500
  164.000  120.113    0.490    0.222   10.512
  164.250  121.368    0.499    0.222   10.521
  164.500  121.404    0.489    0.215   10.537
  164.750  121.440    0.480    0.206   10.549
  165.000  120.902    0.472    0.188   10.367
  165.250  119.755    0.474    0.177   10.379
  165.500  116.205    0.487    0.169   10.012
  165.750  110.886    0.515    0.174    9.655
  166.000  114.508    0.524    0.199    8.973
  166.250  119.349    0.542    0.205    8.037
  166.500  118.213    0.556    0.213    6.806
  166.750  115.871    0.574    0.208    6.093
  167.000  114.735    0.567    0.190    5.358
  167.250  114.759    0.504    0.178    5.363
  167.500  116.002    0.505    0.185    5.573
  167.750  118.441    0.515    0.196    6.012
  168.000  117.891    0.506    0.204    6.486
  168.250  118.549    0.495    0.200    6.738
  168.500  120.390    0.489    0.189    6.875
  168.750  121.633    0.497    0.199    7.008
  169.000  120.486    0.504    0.211    6.891
  169.250  119.948    0.509    0.213    6.770
  169.500  118.215    0.512    0.208    6.532
  169.750  117.641    0.512    0.201    6.416
  170.000  115.310    0.481    0.189    6.671
  170.250  115.358    0.469    0.173    7.062
  170.500  118.382    0.463    0.169    7.338
  170.750  121.419    0.458    0.181    7.625
  171.000  123.260    0.455    0.202    7.924
  171.250  122.710    0.460    0.209    8.082
  171.500  121.574    0.467    0.218    8.244
  171.750  121.622    0.480    0.225    8.566
  172.000  121.682    0.465    0.223    8.904
  172.250  121.718    0.450    0.214    9.082
  172.500  119.973    0.451    0.209    9.261
  172.750  118.826    0.450    0.203    9.623
  173.000  117.678    0.447    0.200   10.003
  173.250  115.933    0.441    0.200   10.200
  173.500  114.188    0.432    0.196   10.214
  173.750  113.041    0.437    0.163   10.419
  174.000  115.480    0.449    0.175   10.434
  174.250  116.723    0.458    0.186   10.446
  174.500  116.185    0.458    0.200   10.456
  174.750  115.038    0.442    0.216   10.275
  175.000  113.890    0.431    0.215   10.098
  175.250  113.341    0.427    0.196    9.923
  175.500  111.607    0.421    0.176    9.935
  175.750  109.862    0.411    0.158   10.327
  176.000  109.301    0.396    0.150   10.731
  176.250  109.958    0.378    0.160   11.363
  176.500  110.592    0.384    0.183   11.811
  176.750  113.652    0.410    0.192   12.040
  177.000  114.883    0.415    0.215   11.836
  177.250  115.517    0.423    0.227   11.417
  177.500  114.991    0.425    0.235   11.013
  177.750  113.844    0.430    0.240   10.820
  178.000  112.696    0.432    0.248   10.636
  178.250  112.756    0.438    0.233   10.449
  178.500  112.183    0.446    0.213   10.461
  178.750  111.633    0.452    0.212   10.284
  179.000  108.705    0.460    0.202   10.109
  179.250  106.350    0.470    0.208    9.935
  179.500  105.214    0.461    0.206    9.760
  179.750  103.469    0.447    0.196    9.415
  180.000  102.920    0.484    0.189    8.589
  180.250  104.773    0.531    0.237    7.273
  180.500  106.601    0.548    0.275    6.157
  180.750  109.052    0.547    0.289    5.214
  181.000  110.295    0.551    0.300    4.499
  181.250  111.550    0.574    0.305    3.954
  181.500  112.172    0.588    0.312    3.543
  181.750  114.049    0.600    0.301    3.681
  182.000  114.682    0.594    0.267    4.044
  182.250  115.304    0.558    0.248    4.698
  182.500  114.181    0.458    0.238    5.990
  182.750  113.619    0.434    0.232    7.224
  183.000  111.898    0.427    0.221    8.553
  183.250  110.727    0.440    0.224    8.250
  183.500  107.786    0.470    0.239    6.858
  183.750  103.651    0.499    0.276    4.912
  184.000   99.503    0.520    0.300    3.933
  184.250   95.367    0.541    0.405    3.150
  184.500   92.427    0.575    0.431    2.618
  184.750   88.901    0.593    0.457    2.345
  185.000   87.168    0.620    0.475    2.437
  185.250   85.997    0.603    0.497    2.885
  185.500   84.264    0.558    0.338    3.544
  185.750   81.921    0.502    0.330    4.603
  186.000   78.981    0.470    0.313    6.688
  186.250   77.833    0.458    0.280    8.370
  186.500   82.662    0.463    0.252    9.908
  186.750   91.077    0.471    0.238   11.514
  187.000  104.286    0.479    0.229    9.219
  187.250  110.908    0.523    0.254    6.245
  187.500  118.139    0.549    0.276    4.310
  187.750  117.590    0.575    0.268    3.452
  188.000  114.661    0.602    0.263    2.978
  188.250  112.916    0.598    0.260    2.820
  188.500  112.355    0.583    0.254    2.985
  188.750  111.207    0.569    0.246    3.220
  189.000  113.048    0.551    0.237    3.473
  189.250  116.096    0.548    0.231    3.609
  189.500  117.937    0.554    0.227    3.613
  189.750  117.399    0.559    0.233    3.616
  190.000  116.850    0.570    0.243    3.556
  190.250  115.714    0.582    0.245    3.495
  190.500  114.543    0.587    0.240    3.699
  190.750  113.981    0.583    0.235    3.917
  191.000  111.065    0.586    0.223    4.305
  191.250  109.906    0.581    0.213    4.640
  191.500  108.161    0.499    0.219    5.291
  191.750  107.025    0.446    0.229    6.503
  192.000  104.085    0.446    0.239    7.841
  192.250  101.133    0.445    0.262    9.456
  192.500   96.399    0.436    0.272   16.246
  192.750   91.068    0.421    0.289   17.846
  193.000   83.932    0.401    0.304   25.442
  193.250   73.820    0.377    0.321   41.329
  193.500   64.306    0.370    0.324   49.837
  193.750   59.572    0.371    0.317   63.547
  194.000   56.644    0.372    0.314   82.574
  194.250   55.497    0.373    0.313   95.938
  194.500   54.337    0.372    0.313  111.497
  194.750   53.190    0.369    0.311  122.509
  195.000   52.043    0.371    0.307  127.341
  195.250   51.505    0.373    0.306  129.885
  195.500   51.553    0.373    0.306  132.519
  195.750   52.796    0.374    0.307  135.087
  196.000   54.649    0.376    0.308  140.373
  196.250   55.294    0.380    0.311  143.178
  196.500   56.550    0.386    0.311  138.152
  196.750   57.183    0.389    0.315  133.264
  197.000   59.012    0.393    0.316  130.923
  197.250   60.853    0.396    0.317  128.662
  197.500   62.694    0.400    0.316  128.852
  197.750   65.132    0.402    0.311  121.966
  198.000   66.388    0.406    0.303  101.382
  198.250   67.631    0.407    0.289   89.134
  198.500   68.886    0.410    0.273   85.955
  198.750   69.520    0.411    0.275   81.409
  199.000   69.568    0.408    0.283   80.003
  199.250   69.030    0.405    0.287   80.098
  199.500   69.664    0.404    0.298   80.192
  199.750   70.907    0.404    0.304   81.843
  200.000   72.186    0.402    0.309   83.453
  200.250   72.210    0.400    0.307   86.719
