~VERSION INFORMATION
 VERS.                 2.0:   CWLS LOG ASCII STANDARD -VERSION 2.0
 WRAP.                  NO:   ONE LINE PER DEPTH STEP
~WELL INFORMATION BLOCK
#MNEM.UNIT           DATA                    DESCRIPTION OF MNEMONIC
#---------    -------------------            -------------------------------
# Generated from Intellog Unique Number	CN_94_101/WELL/4474
WELL.         11-27-096-14W4                 : Well_name    - WELL
LOC .         AA/11-27-096-14W4/0            : Location     - LOCATION
UWI .         AA/11-27-096-14W400            : Uwi          - UNIQUE WELL ID
ENTR.         JOETTE                         : Entered      - ENTERED BY
SRVC.         SCHLUMBERGER                   : Scn          - SERVICE COMPANY
DATE.         07/08/92                       : Date         - LOG DATE
STRT.M        75                             : top_depth    - START DEPTH
STOP.M        350                            : bot_depth    - STOP DEPTH
STEP.M        0.25                           : increment    - STEP LENGTH
 NULL. -999.2500:NULL Value
~CURVE INFORMATION BLOCK
#MNEM UNIT       ERCB CURVE CODE    CURVE DESCRIPTION
#-----------   ------------------   ----------------------------------
DEPT.M        00 001 00 00         : DEPTH        - DEPTH
GR  .API      00 310 00 00         : GR           - GAMMA RAY
ILD .OHMM     00 120 00 00         : RESD         - DEEP RESISTIVITY (DIL)
NPHI.V/V      00 330 00 00         : PHIN         - NEUTRON POROSITY (SANDSTONE)
DPHI.V/V      00 890 00 00         : PHID         - DENSITY POROSITY (SANDSTONE)
~PARAMETER INFORMATION
#MNEM.UNIT           DATA             DESCRIPTION OF MNEMONIC
#---------         -----------     ------------------------------
GL  .M        598                  : gl           - GROUND LEVEL ELEVATION
EREF.M        601                  : kb           - ELEVATION OF DEPTH REFERENCE
DATM.M        601                  : datum        - DATUM ELEVATION
TDD .M        354                  : tdd          - TOTAL DEPTH DRILLER
RUN .         ONE                  : Run          - RUN NUMBER
ENG .         BILL                 : Engineer     - RECORDING ENGINEER
WIT .         JIM                  : Witness      - WITNESSED BY
MUD .         GEL                  : Mud_type     - MUD TYPE
MATR.         SANDSTONE            : Logunit      - NEUTRON MATRIX
TMAX.C        25                   : BHT          - MAXIMUM RECORDED TEMPERATURE
BHTD.M        354                  : BHTDEP       - MAXIMUM RECORDED TEMPERATURE
RMT .C        14                   : MDTP         - TEMPERATURE OF MUD
MUDD.KG/M     1155                 : MWT          - MUD DENSITY
NEUT.         1                    : NEUTRON      - NEUTRON TYPE
RESI.         0                    : RESIST       - RESISTIVITY TYPE
RM  .OHMM     0.2                  : RM           - RESISTIVITY OF MUD
RMC .OHMM     0.2                  : RMC          - RESISTIVITY OF MUD CAKE
RMF .OHMM     0.2                  : RMF          - RESISTIVITY OF MUD FILTRATE
SUFT.C        4                    : SUFT         - SURFACE TEMPERATURE
~A  DEPTH       GR     RESD     PHIN     PHID
# ...
  249.000  112.006    3.898    0.432    0.242
  249.250  108.929    3.897    0.425    0.254
  249.500  107.083    3.969    0.417    0.260
  249.750  102.162    4.196    0.404    0.258
  250.000   96.626    4.274    0.391    0.249
  250.250   94.166    4.518    0.372    0.246
  250.500   96.007    4.688    0.368    0.244
  250.750   99.690    4.957    0.373    0.242
  251.000  101.531    5.241    0.368    0.237
  251.250  102.757    5.972    0.361    0.228
  251.500  102.754    6.932    0.372    0.231
  251.750  102.750    7.752    0.385    0.264
  252.000  102.747    8.044    0.392    0.298
  252.250   96.597    8.347    0.400    0.320
  252.500   96.593    8.501    0.407    0.316
  252.750   98.434    8.659    0.413    0.314
  253.000   99.661    8.655    0.418    0.315
  253.250  100.887    8.653    0.421    0.316
  253.500  100.269    8.487    0.417    0.315
  253.750   99.035    8.328    0.407    0.310
  254.000   98.416    8.171    0.397    0.303
  254.250   97.800    8.017    0.385    0.293
  254.500   97.182    7.864    0.382    0.271
  254.750   94.719    7.716    0.379    0.261
  255.000   94.102    7.571    0.376    0.274
  255.250   92.870    7.426    0.365    0.272
  255.500   92.866    7.425    0.364    0.268
  255.750   92.862    7.422    0.375    0.263
  256.000   93.474    7.419    0.384    0.259
  256.250   93.471    7.417    0.380    0.259
  256.500   94.082    7.414    0.372    0.256
  256.750   94.078    7.411    0.364    0.237
  257.000   93.460    7.408    0.361    0.214
  257.250   92.842    7.405    0.363    0.209
  257.500   92.839    7.265    0.370    0.238
  257.750   93.451    7.262    0.385    0.252
  258.000   95.904    7.260    0.396    0.266
  258.250   97.746    7.123    0.402    0.258
  258.500   99.587    7.119    0.405    0.253
  258.750  100.814    7.117    0.404    0.263
  259.000  103.267    7.114    0.397    0.267
  259.250  103.265    6.979    0.395    0.268
  259.500  103.262    6.977    0.387    0.276
  259.750  102.643    6.974    0.387    0.277
  260.000  101.411    6.842    0.387    0.275
  260.250  100.794    6.840    0.391    0.273
  260.500  100.176    6.711    0.402    0.276
  260.750  100.171    6.707    0.415    0.276
  261.000  100.168    6.581    0.425    0.277
  261.250  101.393    6.579    0.428    0.277
  261.500  102.006    6.577    0.426    0.276
  261.750  103.232    6.452    0.419    0.272
  262.000  103.228    6.329    0.410    0.267
  262.250  101.380    6.211    0.396    0.260
  262.500  100.149    6.208    0.383    0.244
  262.750   97.072    6.206    0.371    0.216
  263.000   95.839    6.204    0.340    0.183
  263.250   94.606    6.317    0.326    0.136
  263.500   92.144    6.316    0.373    0.235
  263.750   93.371    6.313    0.419    0.276
  264.000   98.900    6.430    0.460    0.285
  264.250  108.115    6.428    0.457    0.280
  264.500  110.571    5.744    0.438    0.277
  264.750  111.183    5.037    0.429    0.272
  265.000  109.335    4.673    0.458    0.260
  265.250  108.101    4.098    0.503    0.273
  265.500  107.484    3.594    0.515    0.285
  265.750  107.481    3.152    0.510    0.281
  266.000  106.862    2.979    0.487    0.275
  266.250  106.245    2.712    0.477    0.277
  266.500  105.011    2.563    0.466    0.276
  266.750  105.008    2.515    0.452    0.274
  267.000  104.392    2.422    0.439    0.271
  267.250  103.774    2.376    0.425    0.270
  267.500  103.771    2.331    0.414    0.266
  267.750  103.767    2.419    0.406    0.262
  268.000  103.149    3.385    0.396    0.248
  268.250   99.458    4.396    0.401    0.234
  268.500   94.537    5.103    0.409    0.208
  268.750   87.158    5.497    0.404    0.188
  269.000   80.393    5.921    0.307    0.159
  269.250   75.472    6.145    0.199    0.097
  269.500   82.231    6.496    0.223    0.081
  269.750   92.676    6.616    0.255    0.135
  270.000  100.049    6.739    0.280    0.197
  270.250  104.963    7.125    0.310    0.251
  270.500  106.803    7.533    0.332    0.274
  270.750  106.799    7.816    0.368    0.246
  271.000  106.797    7.962    0.377    0.248
  271.250  106.178    8.262    0.379    0.238
  271.500  106.175    8.414    0.379    0.245
  271.750  106.173    8.570    0.378    0.253
  272.000  106.167    8.728    0.374    0.245
  272.250  106.165    8.726    0.373    0.234
  272.500  106.162    8.887    0.374    0.228
  272.750  105.544    9.049    0.374    0.220
  273.000  105.540    9.048    0.373    0.212
  273.250  104.922    9.214    0.369    0.213
  273.500  104.919    9.209    0.367    0.207
  273.750  104.916    9.208    0.362    0.203
  274.000  104.913    9.377    0.357    0.203
  274.250  104.909    9.374    0.351    0.213
  274.500  104.906    9.369    0.350    0.227
  274.750  103.672    9.367    0.350    0.235
  275.000  103.055    9.539    0.354    0.227
  275.250  102.437    9.536    0.359    0.225
  275.500  102.434    9.710    0.367    0.229
  275.750  103.046    9.708    0.374    0.232
  276.000  104.887    9.705    0.381    0.234
  276.250  106.112    9.700    0.374    0.237
  276.500  107.953    9.698    0.371    0.237
  276.750  107.335    9.692    0.369    0.243
  277.000  103.028    9.690    0.371    0.249
  277.250  101.796    9.687    0.368    0.254
  277.500  101.793    9.681    0.363    0.260
  277.750  102.403    9.678    0.356    0.264
  278.000  103.629    9.496    0.348    0.258
  278.250  104.241    9.491    0.350    0.250
  278.500  105.467    9.488    0.355    0.243
  278.750   99.317    9.310    0.352    0.192
  279.000   96.240    9.133    0.341    0.155
  279.250   95.008    9.129    0.310    0.135
  279.500   93.161    9.126    0.260    0.110
  279.750   92.543    8.954    0.260    0.094
  280.000   93.155    8.951    0.304    0.191
  280.250   97.453    8.781    0.322    0.222
  280.500   98.064    8.779    0.331    0.250
  280.750   98.060    8.775    0.340    0.268
  281.000   98.058    8.771    0.352    0.268
  281.250   96.825    8.767    0.361    0.268
  281.500   96.207    8.765    0.362    0.264
  281.750   96.819    8.600    0.354    0.233
  282.000   98.658    8.596    0.344    0.191
  282.250   97.427    8.434    0.329    0.130
  282.500   96.194    8.430    0.345    0.090
  282.750  100.494    8.271    0.399    0.148
  283.000  106.637    8.268    0.421    0.202
  283.250  110.321    7.814    0.423    0.251
  283.500  112.776    7.385    0.416    0.247
  283.750  110.314    7.111    0.406    0.251
  284.000  107.852    6.847    0.409    0.252
  284.250  107.234    6.471    0.419    0.243
  284.500  107.845    6.350    0.419    0.241
  284.750  107.843    6.000    0.414    0.239
  285.000  105.994    5.888    0.408    0.230
  285.250  105.378    5.777    0.402    0.221
  285.500  104.144    5.667    0.397    0.191
  285.750  105.370    5.664    0.395    0.159
  286.000  107.825    5.663    0.401    0.138
  286.250  109.665    5.767    0.405    0.207
  286.500  110.892    5.765    0.408    0.240
  286.750  111.504    5.871    0.413    0.252
  287.000  111.500    5.870    0.418    0.256
  287.250  110.883    5.868    0.427    0.258
  287.500  109.650    5.757    0.434    0.258
  287.750  109.033    5.755    0.439    0.258
  288.000  109.029    5.438    0.439    0.256
  288.250  112.714    5.236    0.434    0.251
  288.500  113.325    4.949    0.428    0.248
  288.750  111.477    4.856    0.423    0.247
  289.000  110.245    4.589    0.421    0.240
  289.250  110.242    4.587    0.416    0.225
  289.500  110.853    4.941    0.405    0.216
  289.750  113.308    5.128    0.400    0.224
  290.000  114.534    5.322    0.400    0.230
  290.250  112.687    5.627    0.400    0.227
  290.500  109.609    5.838    0.400    0.224
  290.750  107.763    5.836    0.401    0.217
  291.000  104.685    5.943    0.399    0.199
  291.250  104.068    5.942    0.392    0.185
  291.500  104.679    6.165    0.385    0.168
  291.750  105.905    6.280    0.365    0.131
  292.000  107.747    6.396    0.349    0.100
  292.250  110.815    6.514    0.373    0.153
