~VERSION INFORMATION
 VERS.                 2.0:   CWLS LOG ASCII STANDARD -VERSION 2.0
 WRAP.                  NO:   ONE LINE PER DEPTH STEP
~WELL INFORMATION BLOCK
#MNEM.UNIT           DATA                    DESCRIPTION OF MNEMONIC
#---------    -------------------            -------------------------------
# Generated from Intellog Unique Number	CN_91_93/WELL/2890
WELL.         10-29-092-16W4                 : Well_name    - WELL
LOC .         AA/10-29-092-16W4/0            : Location     - LOCATION
UWI .         AA/10-29-092-16W400            : Uwi          - UNIQUE WELL ID
ENTR.         JOETTE                         : Entered      - ENTERED BY
SRVC.         SCHLUMBERGER                   : Scn          - SERVICE COMPANY
DATE.         03/31/92                       : Date         - LOG DATE
STRT.F        220                            : top_depth    - START DEPTH
STOP.F        780.203                        : bot_depth    - STOP DEPTH
STEP.F        0.82                           : increment    - STEP LENGTH
 NULL. -999.2500:NULL Value
~CURVE INFORMATION BLOCK
#MNEM UNIT       ERCB CURVE CODE    CURVE DESCRIPTION
#-----------   ------------------   ----------------------------------
DEPT.F        00 001 00 00         : DEPTH        - DEPTH
CALI.IN       00 280 01 00         : CAL          - CALIPER
GR  .API      00 310 00 00         : GR           - GAMMA RAY
NPHI.V/V      00 330 00 00         : PHIN         - NEUTRON POROSITY (SANDSTONE)
DPHI.V/V      00 890 00 00         : PHID         - DENSITY POROSITY (SANDSTONE)
ILD .OHMM     00 120 00 00         : RESD         - DEEP RESISTIVITY (DIL)
~PARAMETER INFORMATION
#MNEM.UNIT           DATA             DESCRIPTION OF MNEMONIC
#---------         -----------     ------------------------------
GL  .M        490.21               : gl           - GROUND LEVEL ELEVATION
EREF.M        493.319              : kb           - ELEVATION OF DEPTH REFERENCE
DATM.M        493.319              : datum        - DATUM ELEVATION
TDD .M        246.888              : tdd          - TOTAL DEPTH DRILLER
RUN .         ONE                  : Run          - RUN NUMBER
ENG .         BILL                 : Engineer     - RECORDING ENGINEER
WIT .         JIM                  : Witness      - WITNESSED BY
MUD .         GEL                  : Mud_type     - MUD TYPE
MATR.         SANDSTONE            : Logunit      - NEUTRON MATRIX
TMAX.F        82                   : BHT          - MAXIMUM RECORDED TEMPERATURE
BHTD.F        810                  : BHTDEP       - MAXIMUM RECORDED TEMPERATURE
RMT .F        60                   : MDTP         - TEMPERATURE OF MUD
MUDD.LB/G     8.6                  : MWT          - MUD DENSITY
NEUT.         1                    : NEUTRON      - NEUTRON TYPE
RESI.         0                    : RESIST       - RESISTIVITY TYPE
RM  .OHMM     0.81                 : RM           - RESISTIVITY OF MUD
RMC .OHMM     0.81                 : RMC          - RESISTIVITY OF MUD CAKE
RMF .OHMM     0.81                 : RMF          - RESISTIVITY OF MUD FILTRATE
SUFT.F        39.2                 : SUFT         - SURFACE TEMPERATURE
~A  DEPTH      CAL       GR     PHIN     PHID     RESD
# ...
  699.003    6.220   57.162    0.447    0.280   60.194
  699.823    6.222   60.267    0.420    0.272  109.577
  700.643    6.223   60.289    0.416    0.266  219.047
  701.463    6.224   55.376    0.439    0.273   72.591
  702.283    6.225   52.935    0.445    0.280   50.866
  703.104    6.227   57.886    0.455    0.280   43.793
  703.924    6.270   63.459    0.468    0.292   48.091
  704.744    6.271   70.883    0.432    0.286   56.917
  705.564    6.273   70.904    0.431    0.276   69.933
  706.385    6.274   65.374    0.443    0.270  118.124
  707.205    6.275   58.610    0.451    0.276  139.802
  708.025    6.277   53.697    0.444    0.280  421.883
  708.845    6.279   48.784    0.421    0.288  337.012
  709.665    6.280   44.493    0.417    0.300  249.792
  710.486    6.282   45.131    0.419    0.303   90.903
  711.306    6.283   51.321    0.432    0.295   62.516
  712.126    6.284   57.511    0.439    0.287   49.940
  712.946    6.286   63.700    0.450    0.277   46.338
  713.766    6.287   60.638    0.452    0.269   53.825
  714.587    6.288   59.436    0.451    0.277   67.384
  715.407    6.290   58.830    0.448    0.276   63.706
  716.227    6.292   59.468    0.445    0.281   56.940
  717.047    6.293   64.425    0.447    0.294   66.140
  717.867    6.294   60.745    0.424    0.263  129.763
  718.688    6.296   53.364    0.419    0.271  240.685
  719.508    6.298   48.451    0.442    0.295  127.365
  720.328    6.299   54.641    0.447    0.296   25.943
  721.148    6.300   63.920    0.448    0.260   14.521
  721.969    6.302   77.513    0.450    0.250   12.502
  722.789    6.303   97.273    0.453    0.235   12.979
  723.609    6.304  105.930    0.455    0.217   22.759
  724.429    6.306   92.386    0.453    0.213   35.669
  725.249    6.307   88.701    0.450    0.242   45.498
  726.070    6.309   75.769    0.453    0.268   39.911
  726.890    6.310   77.641    0.446    0.292   34.361
  727.710    6.312   85.682    0.435    0.290   30.711
  728.530    6.313   99.279    0.441    0.279   27.968
  729.350    6.315  106.091    0.446    0.269   25.470
  730.171    6.317  110.425    0.446    0.253   22.764
  730.991    6.318  116.615    0.436    0.231   20.731
  731.811    6.360  125.272    0.427    0.223   15.656
  732.631    6.362  128.995    0.418    0.208   12.507
  733.451    6.363  119.764    0.413    0.186   18.880
  734.272    6.365  106.831    0.397    0.203   20.733
  735.092    6.366  109.320    0.407    0.224   13.480
  735.912    6.368  120.450    0.418    0.220   12.048
  736.732    6.369  113.686    0.414    0.191   13.231
  737.552    6.371  106.917    0.411    0.180   18.883
  738.373    6.372   99.537    0.440    0.213   21.934
  739.193    6.373   88.455    0.445    0.246   20.737
  740.013    6.375   89.093    0.447    0.257   18.190
  740.833    6.377   94.672    0.442    0.271   19.605
  741.654    6.378   94.693    0.416    0.273   18.885
  742.474    6.380   92.252    0.410    0.269   16.880
  743.294    6.381   89.807    0.398    0.263   15.372
  744.114    6.382   95.374    0.391    0.237   15.663
  744.934    6.384  102.798    0.383    0.215   14.264
  745.755    6.386  105.292    0.379    0.200   15.088
  746.575    6.386  107.776    0.372    0.187   15.960
  747.395    6.389  111.498    0.368    0.180   15.664
  748.215    6.390  113.987    0.370    0.185   15.961
  749.035    6.391  113.397    0.375    0.211   18.540
  749.856    6.392  107.861    0.382    0.218   22.779
  750.676    6.394   99.864    0.383    0.241   26.961
  751.496    6.395  103.592    0.387    0.285   25.970
  752.316    6.397  108.553    0.389    0.288   23.651
  753.136    6.398  112.276    0.390    0.280   23.213
  753.957    6.358  115.993    0.394    0.264   22.360
  754.777    6.361  123.417    0.395    0.250   20.747
  755.597    6.362  128.990    0.391    0.236   17.862
  756.417    6.363  131.484    0.389    0.215   15.378
  757.238    6.365  127.182    0.384    0.174   15.094
  758.058    6.366  127.203    0.378    0.149   12.517
  758.878    6.326  129.086    0.373    0.121   10.381
  759.698    6.287  122.312    0.358    0.058    9.453
  760.518    6.288   95.809    0.301    0.006   12.996
  761.339    6.289   75.475    0.239    0.001   25.024
  762.159    6.291   73.029    0.214    0.013   33.138
  762.979    6.251   75.518    0.212    0.009   30.178
  763.799    6.253   81.091    0.221    0.012   28.530
  764.619    6.254   83.585    0.228    0.023   26.973
  765.440    6.255   82.984    0.239    0.034   25.501
  766.260    6.257   83.011    0.251    0.048   24.109
  767.080    6.218   83.660    0.261    0.048   21.548
  767.900    6.219   84.293    0.270    0.052   19.994
  768.720    6.220   84.931    0.279    0.053   19.624
  769.541    6.222   84.947    0.279    0.053   20.373
  770.361    6.223   80.651    0.276    0.053   21.550
  771.181    6.224   75.743    0.273    0.050   23.227
  772.001    6.226   77.615    0.266    0.047   23.666
  772.822    6.227   81.949    0.265    0.037   21.552
  773.642    6.229   88.139    0.263    0.026   19.263
  774.462    6.230   94.951    0.265    0.025   19.999
  775.282    6.232   96.823    0.264    0.022   22.376
  776.102    6.233  100.540    0.261    0.027   21.155
  776.923    6.234  109.819    0.258    0.032   18.213
  777.743    6.236  112.308    0.255    0.033   17.876
  778.563    6.238  105.544    0.259    0.045   20.764
  779.383    6.239  106.183    0.275    0.058   19.631
  780.203    6.199  111.756    0.303    0.068   15.978
