~VERSION INFORMATION
 VERS.                 2.0:   CWLS LOG ASCII STANDARD -VERSION 2.0
 WRAP.                  NO:   ONE LINE PER DEPTH STEP
~WELL INFORMATION BLOCK
#MNEM.UNIT           DATA                    DESCRIPTION OF MNEMONIC
#---------    -------------------            -------------------------------
# Generated from Intellog Unique Number	CN_94_101/WELL/3257
WELL.         10-02-095-06W4                 : Well_name    - WELL
LOC .         AA/10-02-095-06W4/0            : Location     - LOCATION
UWI .         AA/10-02-095-06W400            : Uwi          - UNIQUE WELL ID
ENTR.         TIM                            : Entered      - ENTERED BY
SRVC.         SCHLUMBERGER                   : Scn          - SERVICE COMPANY
DATE.         06/18/92                       : Date         - LOG DATE
STRT.M        100                            : top_depth    - START DEPTH
STOP.M        340                            : bot_depth    - STOP DEPTH
STEP.M        0.25                           : increment    - STEP LENGTH
 NULL. -999.2500:NULL Value
~CURVE INFORMATION BLOCK
#MNEM UNIT       ERCB CURVE CODE    CURVE DESCRIPTION
#-----------   ------------------   ----------------------------------
DEPT.M        00 001 00 00         : DEPTH        - DEPTH
GR  .API      00 310 00 00         : GR           - GAMMA RAY
NPHI.V/V      00 330 00 00         : PHIN         - NEUTRON POROSITY (SANDSTONE)
DPHI.V/V      00 890 00 00         : PHID         - DENSITY POROSITY (SANDSTONE)
ILD .OHMM     00 120 00 00         : RESD         - DEEP RESISTIVITY (DIL)
~PARAMETER INFORMATION
#MNEM.UNIT           DATA             DESCRIPTION OF MNEMONIC
#---------         -----------     ------------------------------
GL  .M        595.5                : gl           - GROUND LEVEL ELEVATION
EREF.M        598.5                : kb           - ELEVATION OF DEPTH REFERENCE
DATM.M        598.5                : datum        - DATUM ELEVATION
TDD .M        344                  : tdd          - TOTAL DEPTH DRILLER
RUN .         ONE                  : Run          - RUN NUMBER
ENG .         BILL                 : Engineer     - RECORDING ENGINEER
WIT .         JIM                  : Witness      - WITNESSED BY
MUD .         GEL                  : Mud_type     - MUD TYPE
MATR.         SANDSTONE            : Logunit      - NEUTRON MATRIX
TMAX.C        14                   : BHT          - MAXIMUM RECORDED TEMPERATURE
BHTD.M        344                  : BHTDEP       - MAXIMUM RECORDED TEMPERATURE
RMT .C        14                   : MDTP         - TEMPERATURE OF MUD
MUDD.KG/M     1050                 : MWT          - MUD DENSITY
NEUT.         1                    : NEUTRON      - NEUTRON TYPE
RESI.         0                    : RESIST       - RESISTIVITY TYPE
RM  .OHMM     3.15                 : RM           - RESISTIVITY OF MUD
RMC .OHMM     3.15                 : RMC          - RESISTIVITY OF MUD CAKE
RMF .OHMM     3.15                 : RMF          - RESISTIVITY OF MUD FILTRATE
SUFT.C        4                    : SUFT         - SURFACE TEMPERATURE
~A  DEPTH       GR     PHIN     PHID     RESD
# ...
  143.500   72.736    0.402    0.135   33.377
  143.750   72.805    0.393    0.125   29.823
  144.000   72.228    0.382    0.118   27.682
  144.250   71.692    0.346    0.109   26.703
  144.500   71.142    0.333    0.101   26.242
  144.750   70.592    0.334    0.098   26.791
  145.000   70.633    0.331    0.107   27.351
  145.250   70.084    0.324    0.111   27.384
  145.500   69.562    0.311    0.116   27.968
  145.750   68.998    0.322    0.111   28.541
  146.000   69.053    0.336    0.093   29.137
  146.250   69.109    0.347    0.083   30.331
  146.500   69.178    0.343    0.083   31.560
  146.750   69.839    0.316    0.089   31.015
  147.000   69.275    0.306    0.102   31.067
  147.250   68.134    0.307    0.115   33.580
  147.500   67.570    0.308    0.130   36.297
  147.750   65.824    0.310    0.131   39.249
  148.000   65.260    0.306    0.123   41.625
  148.250   64.105    0.301    0.116   44.126
  148.500   61.767    0.296    0.113   46.796
  148.750   60.598    0.290    0.115   49.649
  149.000   58.824    0.285    0.118   51.682
  149.250   57.063    0.281    0.121   54.832
  149.500   55.894    0.277    0.127   55.932
  149.750   54.148    0.274    0.129   58.223
  150.000   53.584    0.267    0.127   58.343
  150.250   53.062    0.262    0.122   58.415
  150.500   53.103    0.257    0.095   57.384
  150.750   55.003    0.252    0.080   54.288
  151.000   56.241    0.245    0.060   50.390
  151.250   58.718    0.230    0.069   44.175
  151.500   61.195    0.242    0.088   39.472
  151.750   61.869    0.303    0.149   35.947
  152.000   63.149    0.340    0.151   32.750
  152.250   65.626    0.334    0.164   30.957
  152.500   67.470    0.323    0.174   27.661
  152.750   70.566    0.329    0.181   23.344
  153.000   74.859    0.361    0.190   20.473
  153.250   82.783    0.402    0.191   19.361
  153.500   89.511    0.435    0.191   17.632
  153.750   93.199    0.453    0.192   16.064
  154.000   95.084    0.459    0.193   14.910
  154.250   95.731    0.465    0.195   14.106
  154.500   97.616    0.468    0.196   13.350
  154.750   98.263    0.474    0.199   12.862
  155.000   99.571    0.479    0.200   12.402
  155.250  100.204    0.481    0.201   11.516
  155.500  101.470    0.482    0.195   10.895
  155.750  101.512    0.482    0.191   10.303
  156.000  102.806    0.482    0.186    9.567
  156.250  103.439    0.483    0.178    8.884
  156.500  104.127    0.484    0.172    8.559
  156.750  104.774    0.486    0.162    8.249
  157.000  106.040    0.488    0.151    7.961
  157.250  106.701    0.489    0.146    7.820
  157.500  107.362    0.490    0.147    7.547
  157.750  107.404    0.494    0.156    7.410
  158.000  108.065    0.500    0.164    7.283
  158.250  109.358    0.503    0.166    7.157
  158.500  110.005    0.511    0.166    7.034
  158.750  111.285    0.515    0.166    7.045
  159.000  113.776    0.513    0.170    6.927
  159.250  114.409    0.510    0.172    6.935
  159.500  114.492    0.506    0.176    6.818
  159.750  113.310    0.503    0.174    6.830
  160.000  111.549    0.499    0.173    6.712
  160.250  109.789    0.494    0.172    6.720
  160.500  109.267    0.488    0.170    6.734
  160.750  109.294    0.481    0.169    7.007
  161.000  110.588    0.476    0.164    7.434
  161.250  111.827    0.476    0.163    7.583
  161.500  113.698    0.480    0.161    8.045
  161.750  118.005    0.483    0.160    8.210
  162.000  119.890    0.484    0.160    8.230
  162.250  120.523    0.487    0.160    8.237
  162.500  121.212    0.490    0.160    7.949
  162.750  121.873    0.494    0.159    7.809
  163.000  121.323    0.495    0.158    7.671
  163.250  118.957    0.494    0.158    7.403
  163.500  117.169    0.494    0.162    7.409
  163.750  112.396    0.490    0.174    7.287
  164.000  110.030    0.487    0.185    7.293
  164.250  111.296    0.472    0.185    7.305
  164.500  111.943    0.483    0.184    7.461
  164.750  113.814    0.505    0.183    7.620
  165.000  112.659    0.504    0.184    7.782
  165.250  110.293    0.494    0.183    7.945
  165.500  107.941    0.477    0.183    7.951
  165.750  107.997    0.477    0.186    8.432
  166.000  107.433    0.480    0.195    8.947
  166.250  103.857    0.480    0.206    9.488
  166.500   94.832    0.470    0.214   10.251
  166.750   82.162    0.452    0.226   11.732
  167.000   70.717    0.442    0.230   13.685
  167.250   61.693    0.438    0.230   16.907
  167.500   58.735    0.439    0.227   20.100
  167.750   63.014    0.442    0.225   21.735
  168.000   67.321    0.444    0.222   21.762
  168.250   69.797    0.448    0.220   21.798
  168.500   70.445    0.451    0.217   21.422
  168.750   68.712    0.449    0.216   20.266
  169.000   67.543    0.447    0.216   19.173
  169.250   66.993    0.444    0.216   19.204
  169.500   68.259    0.434    0.214   21.175
  169.750   70.130    0.430    0.209   21.599
  170.000   72.621    0.429    0.205   22.051
  170.250   73.874    0.429    0.200   22.096
  170.500   76.969    0.429    0.201   21.314
  170.750   78.222    0.432    0.207   20.938
  171.000   80.093    0.434    0.210   20.577
  171.250   81.359    0.440    0.215   20.603
  171.500   80.823    0.443    0.216   20.662
  171.750   79.668    0.448    0.218   20.688
  172.000   79.118    0.452    0.223   21.111
  172.250   77.949    0.454    0.230   21.155
  172.500   77.400    0.457    0.239   21.190
  172.750   76.258    0.459    0.246   21.623
  173.000   75.695    0.462    0.251   21.677
  173.250   72.724    0.466    0.252   22.121
  173.500   70.358    0.469    0.252   23.017
  173.750   67.387    0.470    0.252   23.498
  174.000   63.824    0.467    0.251   24.451
  174.250   62.669    0.460    0.253   24.951
  174.500   63.316    0.453    0.252   26.461
  174.750   64.582    0.445    0.254   27.534
  175.000   68.283    0.443    0.253   28.661
  175.250   70.141    0.440    0.253   29.822
  175.500   69.000    0.440    0.255   31.031
  175.750   66.648    0.440    0.256   32.909
  176.000   65.479    0.441    0.256   34.242
  176.250   64.929    0.441    0.257   35.630
  176.500   65.604    0.443    0.259   37.074
  176.750   66.842    0.443    0.260   37.150
  177.000   69.333    0.446    0.260   34.483
  177.250   71.823    0.447    0.260   32.020
  177.500   71.851    0.447    0.261   30.862
  177.750   71.315    0.449    0.265   28.658
  178.000   70.174    0.450    0.263   27.621
  178.250   70.216    0.449    0.263   27.134
  178.500   70.257    0.444    0.262   27.189
  178.750   71.551    0.442    0.254   27.223
  179.000   72.198    0.443    0.244   27.815
  179.250   74.083    0.445    0.248   27.838
  179.500   74.744    0.448    0.251   27.895
  179.750   73.589    0.450    0.257   27.941
  180.000   71.829    0.452    0.259   27.459
  180.250   70.068    0.452    0.257   27.493
  180.500   69.518    0.448    0.258   27.030
  180.750   69.560    0.440    0.262   27.595
  181.000   72.037    0.435    0.267   29.828
  181.250   75.133    0.433    0.270   31.024
  181.500   75.780    0.433    0.275   32.281
  181.750   75.244    0.434    0.273   32.969
  182.000   75.285    0.437    0.260   33.010
  182.250   74.158    0.440    0.245   32.454
  182.500   74.200    0.443    0.232   31.907
  182.750   74.241    0.444    0.223   31.331
  183.000   74.930    0.442    0.224   30.235
  183.250   74.957    0.450    0.233   29.690
  183.500   74.408    0.461    0.253   28.628
  183.750   72.042    0.470    0.262   27.603
  184.000   67.255    0.460    0.260   26.649
  184.250   68.521    0.437    0.203   26.178
  184.500   70.392    0.419    0.162   25.232
  184.750   72.264    0.409    0.168   24.786
  185.000   73.544    0.415    0.173   23.909
  185.250   75.401    0.425    0.180   23.054
  185.500   77.287    0.437    0.190   23.102
  185.750   78.567    0.440    0.207   23.130
  186.000   79.833    0.444    0.224   23.178
  186.250   81.099    0.449    0.250   23.206
  186.500   81.141    0.454    0.273   23.701
  186.750   81.802    0.456    0.274   24.196
