~VERSION INFORMATION
 VERS.                 2.0:   CWLS LOG ASCII STANDARD -VERSION 2.0
 WRAP.                  NO:   ONE LINE PER DEPTH STEP
~WELL INFORMATION BLOCK
#MNEM.UNIT           DATA                    DESCRIPTION OF MNEMONIC
#---------    -------------------            -------------------------------
# Generated from Intellog Unique Number	CC_84_87/WELL/2336
NULL.         -999.25                        : NULL_VALUE
WELL.         SUN CHEECHAM                   : Well_name    - WELL              
LOC .         11-36-085-07W4                 : Location     - LOCATION          
UWI .         AA/11-36-085-07W400            : Uwi          - UNIQUE WELL ID    
ENTR.         DW                             : Entered      - ENTERED BY        
SRVC.         SCHLUMBERGER                   : Scn          - SERVICE COMPANY   
DATE.         28 MAR 80                      : Date         - LOG DATE
STRT.M        50                             : top_depth    - START DEPTH       
STOP.M        250.102                        : bot_depth    - STOP DEPTH        
STEP.M        0.3                            : increment    - STEP LENGTH       
~CURVE INFORMATION BLOCK
#MNEM UNIT       ERCB CURVE CODE    CURVE DESCRIPTION
#-----------   ------------------   ----------------------------------
DEPT.M        00 001 00 00         : DEPTH        - DEPTH                       
DPHI.V/V      00 890 00 00         : PHID         - DENSITY POROSITY (LIMESTONE)
NPHI.V/V      00 330 00 00         : PHIN         - NEUTRON POROSITY (LIMESTONE)
GR  .API      00 310 00 00         : GR           - GAMMA RAY                   
ILD .OHMM     00 120 00 00         : RESD         - DEEP RESISTIVITY (DIL)      
~PARAMETER INFORMATION       
#MNEM.UNIT           DATA             DESCRIPTION OF MNEMONIC
#---------         -----------     ------------------------------
GL  .M        487.6                : gl           - GROUND LEVEL ELEVATION      
EREF.M        489.66               : kb           - ELEVATION OF DEPTH REFERENCE
DATM.M        489.66               : datum        - DATUM ELEVATION             
TDD .M        249                  : tdd          - TOTAL DEPTH DRILLER         
RUN .         ONE                  : Run          - RUN NUMBER                  
ENG .         BILL                 : Engineer     - RECORDING ENGINEER          
WIT .         JIM                  : Witness      - WITNESSED BY                
MUD .         GEL                  : Mud_type     - MUD TYPE                    
MATR.         LIMESTONE            : Logunit      - NEUTRON MATRIX              
TMAX.C        18.5                 : BHT          - MAXIMUM RECORDED TEMPERATURE
BHTD.M        250                  : BHTDEP       - MAXIMUM RECORDED TEMPERATURE
MATR.         1                    : LOGUNIT      - NEUTRON MATRIX              
RMT .C        25                   : MDTP         - TEMPERATURE OF MUD          
NEUT.         1                    : NEUTRON      - NEUTRON TYPE                
RESI.         0                    : RESIST       - RESISTIVITY TYPE            
RMC .OHMM     0.25                 : RMC          - RESISTIVITY OF MUD CAKE     
RMF .OHMM     0.25                 : RMF          - RESISTIVITY OF MUD FILTRATE 
SUFT.C        4                    : SUFT         - SURFACE TEMPERATURE         
~A  DEPTH     PHID     PHIN       GR     RESD
# ...
  154.401    0.237    0.453   77.261    9.965
  154.701    0.232    0.413   76.642    9.936
  155.001    0.214    0.384   67.520    9.367
  155.301    0.117    0.304   66.293    8.506
  155.601    0.239    0.332   72.963    7.164
  155.901    0.254    0.420   82.671    6.148
  156.201    0.263    0.448   87.516    5.687
  156.501    0.215    0.469   92.974    5.674
  156.801    0.208    0.496   94.784    5.765
  157.101    0.210    0.493   90.519    5.745
  157.401    0.210    0.468   88.686    5.417
  157.701    0.214    0.446   88.064    4.479
  158.001    0.219    0.446   91.092    3.705
  158.301    0.221    0.484   92.901    2.840
  158.601    0.233    0.527   88.030    2.726
  158.901    0.251    0.594   82.549    2.772
  159.201    0.289    0.617   78.286    2.925
  159.501    0.257    0.550   76.452    3.450
  159.801    0.249    0.490   75.831    4.227
  160.101    0.249    0.470   75.820    4.716
  160.401    0.240    0.435   77.632    4.883
  160.701    0.241    0.426   81.263    4.779
  161.001    0.254    0.434   80.037    4.179
  161.301    0.256    0.450   78.811    3.654
  161.601    0.241    0.484   81.837    3.577
  161.901    0.241    0.506   86.685    4.065
  162.201    0.257    0.505   87.281    5.269
  162.501    0.268    0.488   79.372    5.452
  162.801    0.268    0.394   75.108    5.044
  163.101    0.222    0.366   74.489    4.171
  163.401    0.225    0.385   81.766    3.515
  163.701    0.247    0.455   89.043    3.190
  164.001    0.257    0.507   85.387    3.182
  164.301    0.246    0.507   80.515    3.114
  164.601    0.255    0.503   81.717    3.046
  164.901    0.245    0.513   84.135    2.981
  165.201    0.249    0.521   87.162    2.973
  165.501    0.262    0.541   90.794    3.021
  165.801    0.254    0.536   93.210    3.068
  166.101    0.244    0.514   93.806    3.175
  166.401    0.248    0.509   92.580    3.287
  166.701    0.251    0.510   90.138    3.467
  167.001    0.250    0.509   89.520    3.724
  167.301    0.235    0.513   89.506    3.930
  167.601    0.227    0.497   88.887    4.145
  167.901    0.207    0.481   87.661    4.374
  168.201    0.221    0.501   84.611    4.970
  168.501    0.233    0.506   82.778    5.756
  168.801    0.243    0.434   77.298    7.460
  169.101    0.270    0.347   66.961   10.615
  169.401    0.276    0.324   63.912   10.977
  169.701    0.292    0.335   64.507   10.951
  170.001    0.303    0.333   66.317   10.520
  170.301    0.305    0.340   71.772    9.914
  170.601    0.298    0.341   67.509    9.173
  170.901    0.286    0.341   71.140    7.730
  171.201    0.245    0.349   73.559    6.514
  171.501    0.245    0.371   71.117    6.256
  171.801    0.264    0.368   74.143    6.476
  172.101    0.275    0.378   77.168    8.236
  172.401    0.308    0.327   67.436   11.721
  172.701    0.345    0.193   53.455   13.568
  173.001    0.407    0.208   49.798   13.529
  173.301    0.354    0.246   54.037   12.519
  173.601    0.340    0.277   58.279   10.949
  173.901    0.353    0.258   60.088    9.943
  174.201    0.346    0.265   56.432    9.025
  174.501    0.315    0.313   60.063    8.836
  174.801    0.302    0.385   61.267    8.806
  175.101    0.297    0.394   63.079    9.116
  175.401    0.264    0.380   65.497    9.090
  175.701    0.261    0.375   71.559    8.572
  176.001    0.268    0.393   80.050    8.232
  176.301    0.269    0.404   84.291    8.844
  176.601    0.247    0.417   87.318   10.050
  176.901    0.268    0.402   84.876   11.644
  177.201    0.295    0.344   74.537   13.999
  177.501    0.306    0.313   65.411   17.476
  177.801    0.303    0.296   63.579   21.010
  178.101    0.301    0.281   62.959   24.342
  178.401    0.296    0.263   64.768   33.363
  178.701    0.312    0.263   62.329   44.037
  179.001    0.307    0.249   60.493   45.581
  179.301    0.319    0.195   56.836   42.974
  179.601    0.339    0.175   50.750   34.228
  179.901    0.351    0.172   45.879   23.466
  180.201    0.359    0.178   42.830   16.711
  180.501    0.348    0.219   40.996   14.078
  180.801    0.327    0.298   40.984   13.025
  181.101    0.314    0.355   54.944   12.746
  181.401    0.283    0.370   56.147   12.694
  181.701    0.293    0.355   41.556   12.911
  182.001    0.292    0.348   30.609   13.352
  182.301    0.288    0.358   33.632   13.578
  182.601    0.294    0.378   33.016   13.289
  182.901    0.301    0.363   31.788   13.004
  183.201    0.292    0.360   32.383   12.965
  183.501    0.310    0.391   35.410   13.167
  183.801    0.306    0.402   39.041   13.630
  184.101    0.325    0.423   40.853   13.853
  184.401    0.308    0.397   40.233   13.810
  184.701    0.264    0.366   35.967   14.292
  185.001    0.261    0.377   34.136   14.246
  185.301    0.283    0.375   31.691   14.474
  185.601    0.296    0.363   30.464   14.710
  185.901    0.288    0.352   30.451   14.651
  186.201    0.286    0.356   29.836   14.895
  186.501    0.277    0.351   26.784   14.862
  186.801    0.269    0.357   24.951   14.819
  187.101    0.272    0.349   24.939   15.333
  187.401    0.274    0.346   27.357   15.578
  187.701    0.287    0.357   31.599   15.527
  188.001    0.298    0.386   34.624   15.485
  188.301    0.299    0.376   37.042   15.438
  188.601    0.303    0.378   38.245   15.116
  188.901    0.306    0.390   33.979   15.059
  189.201    0.302    0.391   30.931   15.302
  189.501    0.282    0.373   31.527   15.264
  189.801    0.271    0.358   31.515   15.801
  190.101    0.278    0.350   27.859   16.670
  190.401    0.286    0.349   26.632   18.943
  190.701    0.289    0.361   27.831   22.776
  191.001    0.292    0.369   29.038   27.907
  191.301    0.303    0.363   29.633   42.007
  191.601    0.312    0.366   28.405   60.894
  191.901    0.303    0.372   27.176   76.026
  192.201    0.312    0.368   27.773   91.393
  192.501    0.318    0.354   28.977  116.241
  192.801    0.303    0.346   30.788  139.744
  193.101    0.296    0.351   31.991  158.874
  193.401    0.296    0.349   33.196  173.965
  193.701    0.293    0.359   28.930  179.966
  194.001    0.294    0.378   24.058  163.429
  194.301    0.296    0.395   23.438  123.128
  194.601    0.295    0.389   25.855   71.331
  194.901    0.288    0.377   27.669   47.997
  195.201    0.271    0.370   39.805   38.238
  195.501    0.260    0.394   42.224   34.075
  195.801    0.271    0.382   36.744   35.273
  196.101    0.272    0.373   33.086   38.582
  196.401    0.271    0.386   34.291   41.475
  196.701    0.270    0.374   33.668   42.932
  197.001    0.277    0.376   31.230   42.818
  197.301    0.298    0.396   32.432   41.142
  197.601    0.283    0.394   33.025   34.647
  197.901    0.297    0.403   31.190   32.050
  198.201    0.305    0.388   29.966   32.560
  198.501    0.305    0.374   28.134   34.349
  198.801    0.294    0.376   27.511   35.538
  199.101    0.293    0.381   29.322   34.807
  199.401    0.291    0.373   31.132   31.599
  199.701    0.287    0.363   32.945   28.698
  200.001    0.291    0.352   37.186   25.095
  200.301    0.278    0.363   42.034   24.095
  200.601    0.258    0.386   47.489   24.033
  200.901    0.280    0.389   39.580   25.824
  201.201    0.292    0.373   32.885   27.240
  201.501    0.279    0.357   31.049   28.705
  201.801    0.274    0.354   28.608   28.644
  202.101    0.269    0.356   26.774   28.010
  202.401    0.272    0.356   26.763   27.925
  202.701    0.285    0.357   27.356   27.858
  203.001    0.287    0.359   27.954   29.390
  203.301    0.282    0.361   27.941   30.991
  203.601    0.287    0.358   28.538   31.493
  203.901    0.291    0.352   29.134   31.403
  204.201    0.281    0.341   29.727   30.723
  204.501    0.275    0.342   30.323   31.220
  204.801    0.270    0.359   30.921   31.717
  205.101    0.275    0.375   32.730   31.029
  205.401    0.280    0.390   32.718   28.174
  205.701    0.289    0.389   32.708   25.593
  206.001    0.295    0.373   36.948   23.239
  206.301    0.295    0.369   38.759   21.902
