~VERSION INFORMATION
 VERS.                 2.0:   CWLS LOG ASCII STANDARD -VERSION 2.0
 WRAP.                  NO:   ONE LINE PER DEPTH STEP
~WELL INFORMATION BLOCK
#MNEM.UNIT           DATA                    DESCRIPTION OF MNEMONIC
#---------    -------------------            -------------------------------
# Generated from Intellog Unique Number	CS_77_79/WELL/964
WELL.         PEX PCEJ LEISMER OV            : Well_name    - WELL
LOC .         AA/10-26-079-08W4/0            : Location     - LOCATION
UWI .         AA/10-26-079-08W4/0            : Uwi          - UNIQUE WELL ID
ENTR.         JHS                            : Entered      - ENTERED BY
SRVC.         SCHLUMBERGER                   : Scn          - SERVICE COMPANY
STRT.M        175                            : top_depth    - START DEPTH
STOP.M        400                            : bot_depth    - STOP DEPTH
STEP.M        0.25                           : increment    - STEP LENGTH
 NULL. -999.2500:NULL Value
~CURVE INFORMATION BLOCK
#MNEM UNIT       ERCB CURVE CODE    CURVE DESCRIPTION
#-----------   ------------------   ----------------------------------
DEPT.M        00 001 00 00         : DEPTH        - DEPTH
DPHI.V/V      00 890 00 00         : PHID         - DENSITY POROSITY (LIMESTONE)
NPHI.V/V      00 330 00 00         : PHIN         - NEUTRON POROSITY (LIMESTONE)
GR  .API      00 310 00 00         : GR           - GAMMA RAY
ILD .OHMM     00 120 00 00         : RESD         - DEEP RESISTIVITY (DIL)
RHOB.KG/M3    00 350 00 00         : DENS         - BULK DENSITY
~PARAMETER INFORMATION
#MNEM.UNIT           DATA             DESCRIPTION OF MNEMONIC
#---------         -----------     ------------------------------
GL  .M        614.8                : gl           - GROUND LEVEL ELEVATION
EREF.M        618.45               : kb           - ELEVATION OF DEPTH REFERENCE
DATM.M        618.45               : datum        - DATUM ELEVATION
TDD .M        407.6                : tdd          - TOTAL DEPTH DRILLER
RUN .         ONE                  : Run          - RUN NUMBER
ENG .         BILL                 : Engineer     - RECORDING ENGINEER
WIT .         JIM                  : Witness      - WITNESSED BY
MUD .         GEL                  : Mud_type     - MUD TYPE
MATR.         LIMESTONE            : Logunit      - NEUTRON MATRIX
TMAX.C        19                   : BHT          - MAXIMUM RECORDED TEMPERATURE
BHTD.M        407.6                : BHTDEP       - MAXIMUM RECORDED TEMPERATURE
MATR.         1                    : LOGUNIT      - NEUTRON MATRIX
RMT .C        25                   : MDTP         - TEMPERATURE OF MUD
NEUT.         1                    : NEUTRON      - NEUTRON TYPE
RESI.         0                    : RESIST       - RESISTIVITY TYPE
RMC .OHMM     0.25                 : RMC          - RESISTIVITY OF MUD CAKE
RMF .OHMM     0.25                 : RMF          - RESISTIVITY OF MUD FILTRATE
SUFT.C        15                   : SUFT         - SURFACE TEMPERATURE
~A  DEPTH     PHID     PHIN       GR     RESD     DENS
  175.000    0.290    0.471  118.384    3.084    0.000
  175.250    0.296    0.454  116.515    3.084    0.000
  175.500    0.298    0.443  120.842    3.084    0.000
  175.750    0.298    0.445  111.534    3.084    0.000
  176.000    0.293    0.466  108.424    3.026    0.000
  176.250    0.292    0.478  107.173    3.026    0.000
  176.500    0.294    0.465  105.302    3.083    0.000
  176.750    0.292    0.466  107.771    3.141    0.000
  177.000    0.277    0.460  103.421    3.200    0.000
  177.250    0.273    0.471  104.029    3.261    0.000
  177.500    0.283    0.481  104.017    3.261    0.000
  177.750    0.276    0.460  103.389    3.322    0.000
  178.000    0.272    0.442  105.855    3.322    0.000
  178.250    0.272    0.443  110.183    3.199    0.000
  178.500    0.272    0.436  110.793    3.199    0.000
  178.750    0.271    0.443  113.261    3.321    0.000
  179.000    0.273    0.460  114.489    3.384    0.000
  179.250    0.283    0.437  112.619    3.513    0.000
  179.500    0.281    0.420  109.510    3.717    0.000
  179.750    0.249    0.429  108.878    3.859    0.000
  180.000    0.239    0.428  108.247    4.006    0.000
  180.250    0.244    0.436  103.278    4.082    0.000
  180.500    0.262    0.449  102.647    4.159    0.000
  180.750    0.277    0.434  107.593    4.317    0.000
  181.000    0.277    0.414  105.725    4.317    0.000
  181.250    0.278    0.433  103.855    4.317    0.000
  181.500    0.281    0.439  108.802    4.236    0.000
  181.750    0.287    0.432  107.550    4.080    0.000
  182.000    0.288    0.419  105.679    3.930    0.000
  182.250    0.280    0.425  106.290    3.785    0.000
  182.500    0.269    0.413  113.717    3.714    0.000
  182.750    0.263    0.405  111.846    3.714    0.000
  183.000    0.259    0.392  115.552    3.856    0.000
  183.250    0.259    0.384  110.585    4.003    0.000
  183.500    0.248    0.399  106.234    4.078    0.000
  183.750    0.256    0.414  105.603    4.234    0.000
  184.000    0.271    0.389  103.733    4.739    0.000
  184.250    0.253    0.367   95.045    5.303    0.000
  184.500    0.151    0.340   80.777    5.403    0.000
  184.750    0.194    0.357   72.708    5.403    0.000
  185.000    0.254    0.405   96.871    5.302    0.000
  185.250    0.259    0.403  108.015    5.107    0.000
  185.500    0.265    0.394  111.105    4.827    0.000
  185.750    0.319    0.375  111.091    4.394    0.000
  186.000    0.345    0.387  106.124    4.232    0.000
  186.250    0.303    0.394  101.154    4.231    0.000
  186.500    0.279    0.397  107.340    4.311    0.000
  186.750    0.251    0.407  107.331    4.561    0.000
  187.000    0.258    0.390   99.261    4.825    0.000
  187.250    0.263    0.398   98.012    5.201    0.000
  187.500    0.267    0.407  106.057    5.820    0.000
  187.750    0.263    0.398  102.948    6.514    0.000
  188.000    0.264    0.390  109.754    6.891    0.000
  188.250    0.276    0.393  112.842    7.289    0.000
  188.500    0.286    0.402  105.393    7.857    0.000
  188.750    0.295    0.404  104.764    8.312    0.000
  189.000    0.285    0.397  102.274    8.311    0.000
  189.250    0.278    0.395  114.659    8.005    0.000
  189.500    0.257    0.386  116.506    7.566    0.000
  189.750    0.218    0.402  123.314    7.287    0.000
  190.000    0.234    0.398  127.642    7.424    0.000
  190.250    0.255    0.381  130.730    8.003    0.000
  190.500    0.271    0.369  123.902    8.956    0.000
  190.750    0.275    0.364  118.930   10.805    0.000
  191.000    0.280    0.357  119.538   11.867    0.000
  191.250    0.280    0.371  121.389   13.034    0.000
  191.500    0.273    0.364  115.799   13.788    0.000
  191.750    0.269    0.359  113.310   13.531    0.000
  192.000    0.253    0.368  120.115   13.032    0.000
  192.250    0.242    0.367  124.444   12.317    0.000
  192.500    0.225    0.383  133.110   11.863    0.000
  192.750    0.219    0.389  128.760   11.212    0.000
  193.000    0.220    0.378  126.270   10.799    0.000
  193.250    0.225    0.368  120.680   10.597    0.000
  193.500    0.234    0.367  125.628   10.797    0.000
  193.750    0.251    0.357  115.080   11.859    0.000
  194.000    0.260    0.345  100.814   12.312    0.000
  194.250    0.278    0.352   88.407   14.040    0.000
  194.500    0.286    0.346   87.775   15.420    0.000
  194.750    0.282    0.335   85.285   17.258    0.000
  195.000    0.271    0.337   82.175   18.256    0.000
  195.250    0.250    0.334   82.162   18.953    0.000
  195.500    0.195    0.319   77.813   20.050    0.000
  195.750    0.219    0.310   75.325   20.429    0.000
  196.000    0.291    0.334   71.594   20.048    0.000
  196.250    0.305    0.357   73.439   18.949    0.000
  196.500    0.304    0.351   75.290   18.595    0.000
  196.750    0.307    0.362   75.280   18.248    0.000
  197.000    0.309    0.355   75.889   17.575    0.000
  197.250    0.304    0.349   78.356   17.247    0.000
  197.500    0.299    0.357   78.964   16.925    0.000
  197.750    0.297    0.358   74.616   16.924    0.000
  198.000    0.297    0.365   75.225   16.608    0.000
  198.250    0.302    0.374   74.594   16.607    0.000
  198.500    0.308    0.377   70.863   16.921    0.000
  198.750    0.306    0.361   67.753   17.240    0.000
  199.000    0.298    0.360   67.743   17.566    0.000
  199.250    0.295    0.367   75.788   17.898    0.000
  199.500    0.298    0.356   81.357   18.236    0.000
  199.750    0.308    0.352   80.105   18.580    0.000
  200.000    0.312    0.352   75.136   19.290    0.000
  200.250    0.311    0.350   76.366   19.654    0.000
  200.500    0.313    0.352   81.314   19.652    0.000
  200.750    0.318    0.361   77.582   19.651    0.000
  201.000    0.321    0.356   80.672   19.650    0.000
  201.250    0.321    0.356   88.718   19.648    0.000
  201.500    0.318    0.356   89.327   19.648    0.000
  201.750    0.313    0.350   90.554   19.281    0.000
  202.000    0.310    0.342   94.261   18.922    0.000
  202.250    0.308    0.359   96.731   18.568    0.000
  202.500    0.302    0.347  101.679   17.883    0.000
  202.750    0.301    0.343  103.528   17.549    0.000
  203.000    0.297    0.351  105.993   17.548    0.000
  203.250    0.299    0.370  105.984   17.221    0.000
  203.500    0.297    0.356  104.114   16.899    0.000
  203.750    0.293    0.363  102.864   16.899    0.000
  204.000    0.280    0.368  109.670   16.897    0.000
  204.250    0.266    0.368  110.899   17.216    0.000
  204.500    0.262    0.355  112.128   17.215    0.000
  204.750    0.261    0.349   96.002   17.540    0.000
  205.000    0.263    0.334   88.554   17.539    0.000
  205.250    0.267    0.330   84.822   17.871    0.000
  205.500    0.268    0.357  101.548   17.869    0.000
  205.750    0.264    0.364  104.015   17.869    0.000
  206.000    0.262    0.368  102.144   17.209    0.000
  206.250    0.257    0.357  104.612   15.963    0.000
  206.500    0.248    0.367  115.139   12.743    0.000
  206.750    0.242    0.371  126.285    8.920    0.000
  207.000    0.233    0.384  131.852    5.792    0.000
  207.250    0.221    0.421  128.741    4.711    0.000
  207.500    0.242    0.449  128.111    4.209    0.000
  207.750    0.245    0.428  130.580    3.691    0.000
  208.000    0.240    0.434  126.850    3.690    0.000
  208.250    0.255    0.413  128.698    4.130    0.000
  208.500    0.266    0.384  125.587    5.682    0.000
  208.750    0.274    0.369  118.139    7.389    0.000
  209.000    0.271    0.348  104.493    9.084    0.000
  209.250    0.260    0.324   90.225   12.037    0.000
  209.500    0.257    0.321   82.156   14.521    0.000
  209.750    0.279    0.325   74.087   16.873    0.000
  210.000    0.297    0.330   64.779   18.533    0.000
  210.250    0.299    0.330   62.909   20.740    0.000
  210.500    0.302    0.341   64.758   21.132    0.000
  210.750    0.305    0.352   64.747   21.131    0.000
  211.000    0.310    0.341   67.835   20.351    0.000
  211.250    0.312    0.348   59.147   19.599    0.000
