~VERSION INFORMATION
 VERS.                 2.0:   CWLS LOG ASCII STANDARD -VERSION 2.0
 WRAP.                  NO:   ONE LINE PER DEPTH STEP
~WELL INFORMATION BLOCK
#MNEM.UNIT           DATA                    DESCRIPTION OF MNEMONIC
#---------    -------------------            -------------------------------
# Generated from Intellog Unique Number	CW_82_90/WELL/1035
WELL.         14-17-082-21W4                 : Well_name    - WELL
LOC .         AA/14-17-082-21W4/0            : Location     - LOCATION
UWI .         AA/14-17-082-21W4/0            : Uwi          - UNIQUE WELL ID
ENTR.         JAYE                           : Entered      - ENTERED BY
SRVC.         SCHLUMBERGER                   : Scn          - SERVICE COMPANY
DATE.         1FEB 82                        : Date         - LOG DATE
STRT.M        220                            : top_depth    - START DEPTH
STOP.M        445                            : bot_depth    - STOP DEPTH
STEP.M        0.25                           : increment    - STEP LENGTH
 NULL. -999.2500:NULL Value
~CURVE INFORMATION BLOCK
#MNEM UNIT       ERCB CURVE CODE    CURVE DESCRIPTION
#-----------   ------------------   ----------------------------------
DEPT.M        00 001 00 00         : DEPTH        - DEPTH
CALI.MM       00 280 01 00         : CAL          - CALIPER
GR  .API      00 310 00 00         : GR           - GAMMA RAY
NPHI.V/V      00 330 00 00         : PHIN         - NEUTRON POROSITY (SANDSTONE)
DPHI.V/V      00 890 00 00         : PHID         - DENSITY POROSITY (SANDSTONE)
ILD .OHMM     00 120 00 00         : RESD         - DEEP RESISTIVITY (DIL)
~PARAMETER INFORMATION
#MNEM.UNIT           DATA             DESCRIPTION OF MNEMONIC
#---------         -----------     ------------------------------
GL  .M        619.5                : gl           - GROUND LEVEL ELEVATION
EREF.M        623.9                : kb           - ELEVATION OF DEPTH REFERENCE
DATM.M        619.5                : datum        - DATUM ELEVATION
TDD .M        453.5                : tdd          - TOTAL DEPTH DRILLER
RUN .         ONE                  : Run          - RUN NUMBER
ENG .         VANDENBRINK          : Engineer     - RECORDING ENGINEER
WIT .         WALKER               : Witness      - WITNESSED BY
BASE.         EDMONTON             : Branch       - HOME BASE OF LOGGING UNIT
MUD .         GEL CHEM             : Mud_type     - MUD TYPE
MATR.         SANDSTONE            : Logunit      - NEUTRON MATRIX
TMAX.C        22.2                 : BHT          - MAXIMUM RECORDED TEMPERATURE
BHTD.M        453.5                : BHTDEP       - MAXIMUM RECORDED TEMPERATURE
RMT .C        20.5                 : MDTP         - TEMPERATURE OF MUD
MUDD.KG/M     1070                 : MWT          - MUD DENSITY
NEUT.         1                    : NEUTRON      - NEUTRON TYPE
RESI.         0                    : RESIST       - RESISTIVITY TYPE
RM  .OHMM     4.89                 : RM           - RESISTIVITY OF MUD
RMC .OHMM     0.25                 : RMC          - RESISTIVITY OF MUD CAKE
RMF .OHMM     4.77                 : RMF          - RESISTIVITY OF MUD FILTRATE
SUFT.C        4                    : SUFT         - SURFACE TEMPERATURE
~A  DEPTH      CAL       GR     PHIN     PHID     RESD
  220.000  220.565   96.481    0.580    0.278    2.290
  220.250  217.584   94.397    0.579    0.272    2.237
  220.500  214.814   89.366    0.546    0.248    2.304
  220.750  210.991   87.715    0.494    0.179    2.311
  221.000  210.429   88.263    0.510    0.180    2.300
  221.250  214.395   92.251    0.575    0.221    2.252
  221.500  216.363   93.928    0.610    0.260    2.216
  221.750  217.378   97.729    0.604    0.267    2.244
  222.000  217.343   99.403    0.573    0.269    2.289
  222.250  213.512   99.507    0.548    0.263    2.375
  222.500  212.014   99.242    0.551    0.254    2.482
  222.750  208.608   93.648    0.547    0.256    2.490
  223.000  209.314   90.808    0.538    0.263    2.432
  223.250  207.906   90.916    0.535    0.271    2.538
  223.500  206.613   99.481    0.534    0.268    2.663
  223.750  203.944  102.783    0.544    0.258    2.774
  224.000  200.859  103.952    0.562    0.245    2.840
  224.250  197.140  101.619    0.538    0.249    2.881
  224.500  194.048  107.236    0.523    0.253    2.884
  224.750  192.861  110.351    0.520    0.252    2.755
  225.000  192.507  111.273    0.535    0.250    2.601
  225.250  191.529  104.928    0.544    0.249    2.480
  225.500  191.390  106.158    0.548    0.252    2.427
  225.750  192.827  100.254    0.561    0.252    2.580
  226.000  195.636   88.332    0.571    0.254    3.049
  226.250  193.387   80.044    0.562    0.264    3.636
  226.500  185.880   69.249    0.524    0.285    4.444
  226.750  179.218   62.590    0.409    0.294    5.009
  227.000  176.760   57.620    0.426    0.281    6.008
  227.250  175.569   50.961    0.439    0.262   10.018
  227.500  172.269   44.177    0.330    0.231   16.088
  227.750  171.078   41.901    0.358    0.277   21.120
  228.000  170.622   42.261    0.431    0.326   22.541
  228.250  170.481   42.681    0.453    0.354   22.609
  228.500  170.661   43.221    0.426    0.339   22.978
  228.750  171.678   43.581    0.434    0.330   23.886
  229.000  173.428   42.498    0.464    0.330   25.446
  229.250  175.386   41.103    0.466    0.344   27.776
  229.500  175.995   39.768    0.443    0.355   30.496
  229.750  178.063   39.061    0.427    0.354   33.349
  230.000  180.134   41.231    0.435    0.351   35.396
  230.250  182.202   42.719    0.460    0.346   35.902
  230.500  184.487   43.014    0.456    0.342   35.406
  230.750  186.231   44.626    0.440    0.353   33.943
  231.000  187.783   45.985    0.434    0.372   32.417
  231.250  190.382   48.347    0.457    0.390   34.336
  231.500  191.191   48.827    0.525    0.393   35.698
  231.750  183.683   46.682    0.501    0.376   35.798
  232.000  179.331   48.665    0.466    0.368   36.386
  232.250  178.140   49.838    0.468    0.357   36.910
  232.500  177.048   49.571    0.451    0.352   36.188
  232.750  175.543   48.612    0.446    0.348   34.563
  233.000  173.615   44.584    0.469    0.342   35.591
  233.250  171.888   43.938    0.454    0.335   38.781
  233.500  171.857   45.926    0.442    0.343   42.576
  233.750  171.719   45.906    0.462    0.358   44.676
  234.000  171.896   46.384    0.469    0.365   45.065
  234.250  172.176   49.003    0.460    0.365   43.039
  234.500  172.355   50.300    0.453    0.360   41.971
  234.750  172.000   50.593    0.464    0.354   41.229
  235.000  171.443   48.258    0.482    0.351   40.350
  235.250  170.463   47.175    0.476    0.345   38.250
  235.500  169.583   47.156    0.464    0.342   36.052
  235.750  169.443   48.390    0.465    0.349   33.724
  236.000  169.202   49.247    0.457    0.359   31.728
  236.250  168.741   49.607    0.449    0.363   34.445
  236.500  168.393   49.086    0.445    0.360   36.968
  236.750  168.357   47.501    0.440    0.359   37.012
  237.000  168.219   44.601    0.437    0.362   36.083
  237.250  168.182   44.645    0.460    0.355   34.012
  237.500  167.832   46.381    0.485    0.352   33.044
  237.750  167.900   46.613    0.499    0.354   35.462
  238.000  168.283   46.405    0.483    0.361   40.122
  238.250  168.360   45.573    0.452    0.365   41.243
  238.500  168.428   42.607    0.436    0.357   39.908
  238.750  168.179   44.467    0.465    0.351   36.704
  239.000  168.154   46.394    0.476    0.349   32.028
  239.250  167.902   49.758    0.459    0.330   27.374
  239.500  167.865   48.363    0.458    0.317   24.475
  239.750  168.049   50.593    0.469    0.323   21.843
  240.000  168.012   52.712    0.473    0.336   25.186
  240.250  168.185   56.389    0.485    0.351   27.445
  240.500  167.943   53.802    0.486    0.364   29.014
  240.750  168.113   48.020    0.493    0.375   32.215
  241.000  168.080   47.375    0.488    0.373   36.724
  241.250  168.466   47.600    0.464    0.375   41.313
  241.500  169.173   49.781    0.461    0.376   45.525
  241.750  169.563   48.632    0.469    0.373   48.770
  242.000  170.367   47.488    0.467    0.374   51.089
  242.250  170.965   47.719    0.457    0.373   52.318
  242.500  171.245   49.080    0.456    0.367   52.266
  242.750  171.634   49.373    0.474    0.359   53.215
  243.000  171.495   48.856    0.486    0.351   54.287
  243.250  171.038   48.586    0.491    0.348   52.930
  243.500  170.368   48.317    0.469    0.354   51.227
  243.750  168.855   48.362    0.444    0.349   50.990
  244.000  168.514   49.847    0.449    0.341   53.810
  244.250  168.370   48.634    0.469    0.342   60.324
  244.500  168.438   49.305    0.473    0.353   55.995
  244.750  168.726   54.302    0.462    0.350   33.847
  245.000  170.161   73.643    0.450    0.334   17.797
  245.250  171.288   84.212    0.463    0.303    9.736
  245.500  172.200   80.936    0.476    0.301    6.110
  245.750  171.008   81.292    0.476    0.296    4.105
  246.000  173.288   78.581    0.513    0.284    4.372
  246.250  173.776   71.734    0.542    0.273    3.953
  246.500  173.430   66.514    0.519    0.272    3.169
  246.750  170.865   64.241    0.445    0.283    4.939
  247.000  170.307   63.594    0.457    0.294    7.453
  247.250  171.010   69.341    0.440    0.285    7.969
  247.500  173.601   78.470    0.411    0.272    7.903
  247.750  176.517   87.285    0.465    0.254    6.704
  248.000  180.481   97.228    0.495    0.244    4.711
  248.250  182.132  103.536    0.483    0.250    3.741
  248.500  181.781   96.438    0.464    0.257    2.988
  248.750  182.378   92.724    0.443    0.242    3.700
  249.000  184.979   94.146    0.426    0.239    5.063
  249.250  189.258   94.003    0.422    0.256    6.176
  249.500  192.800  100.436    0.418    0.272    7.108
  249.750  192.453   99.793    0.416    0.288    7.833
  250.000  184.522   92.444    0.421    0.298    8.375
  250.250  172.910   88.663    0.412    0.294    8.957
  250.500  169.403   87.019    0.400    0.285    9.327
  250.750  168.522   81.048    0.399    0.265   10.072
  251.000  167.860   77.081    0.402    0.279   10.447
  251.250  167.508   74.867    0.410    0.300   10.736
  251.500  168.947   76.982    0.400    0.293   10.647
  251.750  171.324   82.225    0.394    0.274   10.284
  252.000  173.088   86.030    0.388    0.256    9.265
  252.250  173.254   94.156    0.388    0.240    7.741
  252.500  172.494  109.926    0.396    0.240    6.160
  252.750  171.298  122.313    0.470    0.237    4.864
  253.000  170.737  113.898    0.509    0.219    3.182
  253.250  170.495  109.746    0.510    0.185    2.397
  253.500  170.456  109.790    0.509    0.188    2.780
  253.750  170.529  110.210    0.508    0.201    3.011
  254.000  171.023  106.620    0.492    0.209    3.414
  254.250  172.035  107.790    0.493    0.194    4.026
  254.500  173.901  111.533    0.515    0.185    4.015
  254.750  174.177  105.750    0.534    0.208    3.631
  255.000  171.614   91.009    0.540    0.240    3.091
  255.250  167.482   81.154    0.519    0.272    2.549
  255.500  165.236   83.013    0.448    0.338    3.987
  255.750  164.146   87.630    0.429    0.340    7.074
  256.000  164.106   87.238    0.439    0.338    9.465
  256.250  163.973   78.323    0.460    0.339   10.954
