~VERSION INFORMATION
 VERS.                 2.0:   CWLS LOG ASCII STANDARD -VERSION 2.0
 WRAP.                  NO:   ONE LINE PER DEPTH STEP
~WELL INFORMATION BLOCK
#MNEM.UNIT           DATA                    DESCRIPTION OF MNEMONIC
#---------    -------------------            -------------------------------
# Generated from Intellog Unique Number	CC_80_83/WELL/2367
NULL.         -999.25                        : NULL_VALUE
WELL.         OIL BUTTES GRANOR OV           : Well_name    - WELL
LOC .         10-23-082-18W4                 : Location     - LOCATION          
UWI .         AA/10-23-082-18W400            : Uwi          - UNIQUE WELL ID    
ENTR.         DW                             : Entered      - ENTERED BY        
SRVC.         SCHLUMBERGER                   : Scn          - SERVICE COMPANY   
DATE.         29 FEB 80                      : Date         - LOG DATE
STRT.M        200                            : top_depth    - START DEPTH       
STOP.M        325.098                        : bot_depth    - STOP DEPTH        
STEP.M        0.3                            : increment    - STEP LENGTH       
~CURVE INFORMATION BLOCK
#MNEM UNIT       ERCB CURVE CODE    CURVE DESCRIPTION
#-----------   ------------------   ----------------------------------
DEPT.M        00 001 00 00         : DEPTH        - DEPTH                       
DPHI.V/V      00 890 00 00         : PHID         - DENSITY POROSITY (LIMESTONE)
NPHI.V/V      00 330 00 00         : PHIN         - NEUTRON POROSITY (LIMESTONE)
GR  .API      00 310 00 00         : GR           - GAMMA RAY                   
ILD .OHMM     00 120 00 00         : RESD         - DEEP RESISTIVITY (DIL)      
~PARAMETER INFORMATION       
#MNEM.UNIT           DATA             DESCRIPTION OF MNEMONIC
#---------         -----------     ------------------------------
GL  .M        552.95               : gl           - GROUND LEVEL ELEVATION      
EREF.M        556.35               : kb           - ELEVATION OF DEPTH REFERENCE
DATM.M        556.35               : datum        - DATUM ELEVATION             
TDD .M        327                  : tdd          - TOTAL DEPTH DRILLER         
RUN .         ONE                  : Run          - RUN NUMBER                  
ENG .         BILL                 : Engineer     - RECORDING ENGINEER          
WIT .         JIM                  : Witness      - WITNESSED BY                
MUD .         GEL                  : Mud_type     - MUD TYPE                    
MATR.         LIMESTONE            : Logunit      - NEUTRON MATRIX              
TMAX.C        23.3                 : BHT          - MAXIMUM RECORDED TEMPERATURE
BHTD.M        327                  : BHTDEP       - MAXIMUM RECORDED TEMPERATURE
MATR.         1                    : LOGUNIT      - NEUTRON MATRIX              
RMT .C        25                   : MDTP         - TEMPERATURE OF MUD          
NEUT.         1                    : NEUTRON      - NEUTRON TYPE                
RESI.         0                    : RESIST       - RESISTIVITY TYPE            
RMC .OHMM     0.25                 : RMC          - RESISTIVITY OF MUD CAKE     
RMF .OHMM     0.25                 : RMF          - RESISTIVITY OF MUD FILTRATE 
SUFT.C        15                   : SUFT         - SURFACE TEMPERATURE         
~A  DEPTH     PHID     PHIN       GR     RESD
# ...
  252.201    0.139    0.449   82.808    9.937
  252.501    0.174    0.465   81.550    9.387
  252.801    0.187    0.486   80.922    9.037
  253.101    0.204    0.509   80.896    8.537
  253.401    0.184    0.479   80.264    8.377
  253.701    0.168    0.448   80.242    8.377
  254.001    0.228    0.491   80.831    7.764
  254.301    0.275    0.517   81.421    7.764
  254.601    0.195    0.458   80.791    8.701
  254.901    0.171    0.448   78.312   10.721
  255.201    0.037    0.441   73.386   12.961
  255.501    0.000    0.457   67.229   16.905
  255.801    0.000    0.150   54.927   22.050
  256.101    0.000    0.154   44.474   28.760
  256.401    0.000    0.166   41.999   46.221
  256.701    0.000    0.204   50.563   48.928
  257.001    0.003    0.237   54.846   43.663
  257.301    0.050    0.275   59.119   33.475
  257.600    0.021    0.314   56.635   28.760
  257.900    0.000    0.238   54.165   27.689
  258.200    0.020    0.236   55.373   26.658
  258.500    0.036    0.233   60.255   30.445
  258.800    0.047    0.234   63.920   31.623
  259.100    0.065    0.247   63.282   30.445
  259.400    0.101    0.275   63.265   22.903
  259.700    0.128    0.336   65.079   15.086
  260.000    0.175    0.405   68.128   12.014
  260.300    0.214    0.462   68.112   10.127
  260.600    0.207    0.460   66.849    9.037
  260.900    0.264    0.468   66.829    8.537
  261.200    0.237    0.516   66.817    8.219
  261.500    0.255    0.531   76.006    7.913
  261.800    0.234    0.495   79.667    7.618
  262.100    0.224    0.488   82.100    7.197
  262.400    0.260    0.552   72.870    7.197
  262.700    0.424    0.505   75.917    7.913
  263.000    0.262    0.486   76.506    9.937
  263.300    0.256    0.493   75.262   11.788
  263.600    0.212    0.454   69.714   12.478
  263.900    0.182    0.446   69.695   12.717
  264.200    0.215    0.433   72.122   12.244
  264.500    0.198    0.416   72.101   11.349
  264.800    0.189    0.422   71.474   10.721
  265.100    0.170    0.438   72.677   10.321
  265.400    0.149    0.469   76.941   10.321
  265.700    0.125    0.469   78.768    9.937
  266.000    0.156    0.467   81.205    9.567
  266.300    0.185    0.466   86.705    9.387
  266.600    0.161    0.463   87.916    9.211
  266.900    0.151    0.482   82.984    9.387
  267.200    0.198    0.493   81.736    9.567
  267.500    0.169    0.481   89.694    9.567
  267.800    0.163    0.492   94.577    9.750
  268.100    0.154    0.472   91.485    9.567
  268.400    0.147    0.486   89.000    9.750
  268.700    0.129    0.467   88.372   10.127
  269.000    0.143    0.446   87.129   10.321
  269.300    0.174    0.433   85.258   10.321
  269.600    0.175    0.428   85.858    9.750
  269.900    0.148    0.447   90.122    9.387
  270.200    0.157    0.468   90.728    9.037
  270.500    0.146    0.454   91.316    8.868
  270.800    0.140    0.455   89.447    8.701
  271.100    0.153    0.490   88.204    8.868
  271.400    0.143    0.474   88.796    8.701
  271.700    0.161    0.472   91.846    8.701
  272.000    0.156    0.504  100.415    8.377
  272.300    0.173    0.473   96.098    7.764
  272.600    0.187    0.468   90.555    7.197
  272.900    0.115    0.464   84.385    7.335
  273.200    0.110    0.459   83.758    9.211
  273.500    0.094    0.446   85.579   11.788
  273.800    0.139    0.417   90.469   12.717
  274.100    0.156    0.408   93.514   12.014
  274.400    0.140    0.404   90.426   10.721
  274.700    0.153    0.425   87.951    9.211
  275.000    0.132    0.486   92.837    8.537
  275.300    0.132    0.512   94.043    8.868
  275.600    0.171    0.480   91.568   10.321
  275.900    0.158    0.456   87.251   11.349
  276.200    0.190    0.419   80.477   11.788
  276.500    0.156    0.410   81.681   12.014
  276.800    0.155    0.441   81.661   12.961
  277.100    0.174    0.448   65.683   14.524
  277.400    0.088    0.404   55.840   17.559
  277.700    0.020    0.323   49.678   17.896
  278.000    0.092    0.299   49.662   17.559
  278.300    0.164    0.385   61.300   16.587
  278.600    0.160    0.438   68.647   14.251
  278.900    0.184    0.434   73.532   12.961
  279.200    0.163    0.418   88.241   12.244
  279.500    0.148    0.429   88.831   11.788
  279.800    0.162    0.428   85.127   11.349
  280.100    0.182    0.446   79.583   11.788
  280.400    0.203    0.438   75.873   12.014
  280.700    0.192    0.431   74.629   12.244
  281.000    0.219    0.431   73.380   12.478
  281.300    0.238    0.444   72.749   12.961
  281.600    0.212    0.453   63.514   13.983
  281.900    0.162    0.442   63.491   14.802
  282.199    0.196    0.453   65.930   14.802
  282.499    0.227    0.446   69.591   13.983
  282.799    0.209    0.437   75.097   12.717
  283.099    0.191    0.442   81.827   10.926
  283.399    0.192    0.443   83.639   10.127
  283.699    0.191    0.466   83.011   10.519
  283.999    0.176    0.455   79.307   10.926
  284.299    0.203    0.434   79.899   12.014
  284.599    0.187    0.433   75.575   12.961
  284.899    0.187    0.441   73.105   12.961
  285.199    0.159    0.438   74.308   12.244
  285.499    0.175    0.439   77.967   11.349
  285.799    0.168    0.413   74.875   10.321
  286.099    0.150    0.434   73.626    9.750
  286.399    0.150    0.424   72.368    9.387
  286.699    0.164    0.427   72.963    9.211
  286.999    0.151    0.435   74.175    9.387
  287.299    0.141    0.423   74.774    9.567
  287.599    0.147    0.430   79.659    9.750
  287.899    0.173    0.435   84.552    9.567
  288.199    0.172    0.432   88.214    8.537
  288.499    0.187    0.464   88.802    7.913
  288.799    0.198    0.465   88.773    7.475
  289.099    0.168    0.446   92.442    6.799
  289.399    0.167    0.436   93.649    5.953
  289.699    0.139    0.451   89.948    5.518
  289.999    0.104    0.457   92.380    5.414
  290.299    0.162    0.474   97.264    5.414
  290.599    0.160    0.479   98.477    5.518
  290.899    0.133    0.473   99.062    5.623
  291.199    0.182    0.448   97.817    6.067
  291.499    0.156    0.438   94.726    6.929
  291.799    0.096    0.458   88.567    8.377
  292.099    0.000    0.363   69.521   10.519
  292.399    0.023    0.278   67.042   20.054
  292.699    0.153    0.346   78.070   21.635
  292.999    0.181    0.419   89.098   18.944
  293.299    0.166    0.431   89.070   16.905
  293.599    0.153    0.425   91.501   15.970
  293.899    0.144    0.430   95.779   15.970
  294.199    0.126    0.431   95.756   17.229
  294.499    0.092    0.408   86.536   20.054
  294.799    0.049    0.383   79.763   21.635
  295.099    0.138    0.407   85.871   22.050
  295.399    0.143    0.442   86.472   20.830
  295.699    0.148    0.412   85.219   18.944
  295.999    0.154    0.416   90.720   18.944
  296.299    0.143    0.402   86.407   20.054
  296.599    0.200    0.390   57.539   24.245
  296.899    0.190    0.374   50.762   29.311
  297.199    0.187    0.376   45.220   37.513
  297.499    0.230    0.389   36.600   48.928
  297.799    0.245    0.396   32.897   62.619
  298.099    0.257    0.417   33.478   65.041
  298.399    0.252    0.422   35.917   59.153
  298.699    0.243    0.406   37.132   54.829
  298.999    0.230    0.412   38.338   44.499
  299.299    0.217    0.394   38.314   43.663
  299.599    0.202    0.383   42.587   42.036
  299.899    0.227    0.374   44.407   41.246
  300.199    0.225    0.370   43.775   39.710
  300.499    0.243    0.383   44.986   37.513
  300.799    0.261    0.390   44.350   34.770
  301.099    0.231    0.397   49.230   31.028
  301.399    0.203    0.430   51.054   16.905
  301.699    0.232    0.454   53.486   14.251
  301.999    0.220    0.425   66.359   12.717
  302.299    0.201    0.420   76.767    9.750
  302.599    0.148    0.421   83.503    7.335
  302.899    0.123    0.424   85.931    6.183
  303.199    0.152    0.436   85.904    5.623
  303.499    0.132    0.450   87.728    5.018
  303.799    0.134    0.449   91.391    4.651
  304.099    0.172    0.430   93.211    4.311
