~VERSION INFORMATION
 VERS.                 2.0:   CWLS LOG ASCII STANDARD -VERSION 2.0
 WRAP.                  NO:   ONE LINE PER DEPTH STEP
~WELL INFORMATION BLOCK
#MNEM.UNIT           DATA                    DESCRIPTION OF MNEMONIC
#---------    -------------------            -------------------------------
# Generated from Intellog Unique Number	CN_94_101/WELL/5023
WELL.         11-27-101-13W4                 : Well_name    - WELL
LOC .         AA/11-27-101-13W4/0            : Location     - LOCATION
UWI .         AA/11-27-101-13W400            : Uwi          - UNIQUE WELL ID
ENTR.         TIM                            : Entered      - ENTERED BY
SRVC.         SCHLUMBERGER                   : Scn          - SERVICE COMPANY
DATE.         08/13/92                       : Date         - LOG DATE
STRT.M        330                            : top_depth    - START DEPTH
STOP.M        550                            : bot_depth    - STOP DEPTH
STEP.M        0.25                           : increment    - STEP LENGTH
NULL. -999.2500:NULL Value
~CURVE INFORMATION BLOCK
#MNEM UNIT       ERCB CURVE CODE    CURVE DESCRIPTION
#-----------   ------------------   ----------------------------------
DEPT.M        00 001 00 00         : DEPTH        - DEPTH
ILD .OHMM     00 120 00 00         : RESD         - DEEP RESISTIVITY (DIL)
NPHI.V/V      00 330 00 00         : PHIN         - NEUTRON POROSITY (SANDSTONE)
DPHI.V/V      00 890 00 00         : PHID         - DENSITY POROSITY (SANDSTONE)
GR  .API      00 310 00 00         : GR           - GAMMA RAY
~PARAMETER INFORMATION
#MNEM.UNIT           DATA             DESCRIPTION OF MNEMONIC
#---------         -----------     ------------------------------
GL  .M        766.7                : gl           - GROUND LEVEL ELEVATION
EREF.M        770.1                : kb           - ELEVATION OF DEPTH REFERENCE
DATM.M        770.1                : datum        - DATUM ELEVATION
TDD .M        555                  : tdd          - TOTAL DEPTH DRILLER
RUN .         ONE                  : Run          - RUN NUMBER
ENG .         BILL                 : Engineer     - RECORDING ENGINEER
WIT .         JIM                  : Witness      - WITNESSED BY
MUD .         GEL                  : Mud_type     - MUD TYPE
MATR.         SANDSTONE            : Logunit      - NEUTRON MATRIX
TMAX.C        28.4                 : BHT          - MAXIMUM RECORDED TEMPERATURE
BHTD.M        555                  : BHTDEP       - MAXIMUM RECORDED TEMPERATURE
RMT .C        28.4                 : MDTP         - TEMPERATURE OF MUD
MUDD.KG/M     1090                 : MWT          - MUD DENSITY
NEUT.         1                    : NEUTRON      - NEUTRON TYPE
RESI.         0                    : RESIST       - RESISTIVITY TYPE
RM  .OHMM     10                   : RM           - RESISTIVITY OF MUD
RMC .OHMM     4.6                  : RMC          - RESISTIVITY OF MUD CAKE
RMF .OHMM     4.6                  : RMF          - RESISTIVITY OF MUD FILTRATE
SUFT.C        4                    : SUFT         - SURFACE TEMPERATURE
~A  DEPTH     RESD     PHIN     PHID       GR
# ...
  504.000   30.723    0.398    0.305   47.754
  504.250   33.489    0.398    0.304   45.301
  504.500   36.651    0.396    0.307   45.334
  504.750   37.840    0.388    0.311   45.354
  505.000   38.043    0.384    0.315   45.994
  505.250   36.669    0.392    0.315   46.640
  505.500   35.098    0.397    0.318   46.687
  505.750   33.725    0.403    0.323   46.700
  506.000   33.928    0.407    0.324   46.107
  506.250   34.526    0.407    0.321   45.514
  506.500   35.124    0.402    0.319   45.540
  506.750   35.919    0.398    0.319   46.180
  507.000   35.925    0.394    0.321   49.313
  507.250   35.141    0.398    0.321   51.193
  507.500   33.569    0.408    0.317   54.939
  507.750   28.843    0.423    0.320   59.931
  508.000   21.750    0.432    0.323   64.297
  508.250   15.249    0.436    0.318   68.663
  508.500   12.495    0.431    0.300   72.409
  508.750   11.318    0.426    0.303   75.535
  509.000   10.141    0.425    0.306   76.182
  509.250    8.966    0.425    0.303   76.208
  509.500    8.380    0.416    0.294   76.242
  509.750    7.992    0.406    0.289   76.888
  510.000    7.604    0.400    0.279   77.528
  510.250    7.608    0.400    0.280   78.794
  510.500    7.616    0.408    0.286   79.441
  510.750    7.621    0.416    0.290   78.847
  511.000    7.628    0.426    0.295   77.028
  511.250    7.832    0.422    0.300   75.188
  511.500    8.234    0.418    0.302   73.968
  511.750    8.434    0.412    0.296   72.148
  512.000    9.230    0.407    0.286   71.542
  512.250    9.827    0.404    0.281   72.188
  512.500   10.424    0.410    0.280   74.074
  512.750   11.219    0.413    0.287   75.961
  513.000   11.422    0.414    0.301   77.227
  513.250   11.429    0.420    0.307   78.500
  513.500   11.238    0.424    0.309   79.767
  513.750   10.654    0.430    0.309   81.653
  514.000   10.070    0.431    0.309   81.060
  514.250    9.876    0.425    0.305   78.607
  514.500    9.685    0.420    0.299   79.253
  514.750    9.691    0.421    0.290   81.146
  515.000    9.896    0.425    0.280   79.933
  515.250   10.296    0.428    0.276   76.853
  515.500   10.894    0.433    0.288   74.394
  515.750   11.689    0.439    0.301   70.088
  516.000   12.088    0.438    0.309   68.868
  516.250   13.673    0.419    0.302   64.555
  516.500   14.864    0.401    0.299   60.862
  516.750   15.657    0.386    0.296   54.690
  517.000   17.242    0.384    0.301   48.517
  517.250   18.431    0.379    0.306   42.964
  517.500   18.832    0.371    0.311   38.652
  517.750   18.838    0.361    0.306   41.158
  518.000   18.647    0.363    0.297   45.524
  518.250   18.061    0.363    0.292   49.890
  518.500   17.279    0.364    0.283   54.882
  518.750   16.496    0.367    0.288   51.183
  519.000   15.714    0.365    0.294   43.151
  519.250   15.324    0.374    0.288   48.136
  519.500   14.541    0.390    0.286   54.982
  519.750   13.957    0.368    0.275   55.635
  520.000   13.768    0.363    0.265   50.696
  520.250   13.772    0.365    0.272   47.010
  520.500   13.976    0.374    0.282   48.270
  520.750   13.980    0.386    0.288   51.396
  521.000   14.384    0.390    0.295   52.675
  521.250   14.586    0.386    0.298   47.729
  521.500   14.986    0.362    0.293   41.557
  521.750   15.584    0.354    0.290   34.764
  522.000   16.379    0.357    0.289   26.732
  522.250   17.566    0.381    0.282   28.005
  522.500   18.757    0.404    0.275   29.885
  522.750   18.763    0.409    0.271   32.391
  523.000   18.768    0.416    0.271   34.904
  523.250   18.971    0.408    0.283   36.790
  523.500   19.965    0.403    0.295   38.050
  523.750   21.156    0.400    0.341   38.710
  524.000   21.555    0.397    0.346   37.503
  524.250   24.321    0.394    0.353   36.904
  524.500   27.680    0.389    0.349   35.070
  524.750   29.657    0.383    0.339   35.097
  525.000   31.636    0.375    0.330   34.510
  525.250   33.219    0.368    0.323   33.904
  525.500   34.014    0.363    0.314   33.310
  525.750   34.022    0.375    0.312   33.957
  526.000   33.239    0.385    0.314   35.223
  526.250   32.060    0.397    0.318   37.743
  526.500   30.095    0.410    0.328   38.383
  526.750   27.538    0.412    0.334   39.649
  527.000   21.825    0.413    0.332   41.542
  527.250   18.677    0.413    0.332   41.555
  527.500   16.119    0.422    0.336   40.962
  527.750   14.745    0.429    0.341   41.608
  528.000   13.371    0.442    0.350   42.875
  528.250   10.025    0.452    0.355   42.901
  528.500    9.441    0.453    0.355   42.308
  528.750    8.659    0.459    0.356   42.335
  529.000    8.269    0.464    0.356   44.228
  529.250    7.683    0.459    0.356   46.114
  529.500    7.693    0.448    0.356   48.007
  529.750    7.697    0.441    0.357   48.640
  530.000    7.703    0.435    0.354   51.160
  530.250    7.709    0.440    0.352   52.413
  530.500    7.911    0.448    0.344   54.306
  530.750    8.115    0.449    0.337   55.566
  531.000    8.318    0.445    0.330   62.411
  531.250    8.521    0.441    0.325   69.263
  531.500    8.725    0.436    0.320   74.249
  531.750    9.125    0.429    0.319   79.242
  532.000    9.527    0.424    0.319   83.601
  532.250    9.729    0.417    0.329   83.635
  532.500    9.932    0.416    0.340   81.801
  532.750   10.136    0.415    0.337   81.208
  533.000    9.749    0.412    0.330   84.328
  533.250    9.165    0.405    0.324   89.313
  533.500    8.971    0.398    0.321   95.539
  533.750    8.385    0.406    0.317  100.525
  534.000    7.801    0.412    0.314   97.459
  534.250    7.415    0.416    0.311   94.379
  534.500    7.419    0.417    0.302   93.166
  534.750    7.228    0.418    0.297   91.959
  535.000    7.036    0.418    0.291   91.979
  535.250    6.649    0.418    0.286   92.626
  535.500    6.261    0.414    0.278   94.519
  535.750    6.071    0.408    0.272   96.398
  536.000    5.879    0.402    0.268   98.305
  536.250    5.883    0.409    0.263   98.325
  536.500    5.889    0.415    0.262   97.111
  536.750    6.096    0.415    0.267   95.905
  537.000    6.099    0.411    0.268   95.305
  537.250    6.302    0.409    0.271   95.951
  537.500    5.914    0.407    0.267   96.591
  537.750    5.724    0.411    0.262   98.478
  538.000    5.142    0.416    0.260   99.124
  538.250    4.751    0.423    0.262   94.825
  538.500    4.363    0.428    0.266   92.365
  538.750    3.582    0.428    0.268   92.385
  539.000    3.389    0.420    0.268   94.898
  539.250    3.201    0.425    0.269   96.791
  539.500    3.207    0.429    0.269   96.804
  539.750    3.212    0.427    0.272   93.731
  540.000    3.218    0.421    0.274   81.359
  540.250    3.224    0.413    0.279   78.280
  540.500    3.230    0.408    0.282   73.347
  540.750    3.235    0.415    0.287   65.935
  541.000    3.242    0.424    0.292   53.563
  541.250    3.247    0.430    0.295   44.911
  541.500    3.057    0.419    0.303   35.639
  541.750    3.064    0.398    0.324   31.946
  542.000    3.268    0.387    0.326   33.213
  542.250    3.271    0.373    0.327   34.486
  542.500    3.476    0.370    0.327   34.519
  542.750    3.481    0.365    0.325   34.532
  543.000    3.686    0.358    0.324   35.179
  543.250    3.693    0.356    0.320   36.452
  543.500    3.698    0.363    0.314   38.338
  543.750    3.507    0.372    0.309   38.365
  544.000    3.513    0.379    0.311   37.765
  544.250    3.521    0.382    0.313   37.172
  544.500    3.524    0.381    0.315   35.958
  544.750    3.333    0.378    0.310   33.512
  545.000    3.143    0.377    0.306   31.685
  545.250    2.952    0.372    0.306   31.079
  545.500    2.761    0.360    0.306   32.345
  545.750    2.570    0.352    0.306   39.191
  546.000    2.576    0.351    0.299   60.301
  546.250    2.778    0.347    0.288   76.445
  546.500    3.179    0.344    0.277   91.350
  546.750    3.581    0.347    0.265  106.254
  547.000    3.980    0.349    0.251  114.346
  547.250    4.380    0.349    0.087  110.660
