~VERSION INFORMATION
 VERS.                 2.0:   CWLS LOG ASCII STANDARD -VERSION 2.0
 WRAP.                  NO:   ONE LINE PER DEPTH STEP
~WELL INFORMATION BLOCK
#MNEM.UNIT           DATA                    DESCRIPTION OF MNEMONIC
#---------    -------------------            -------------------------------
# Generated from Intellog Unique Number	CN_94_101/WELL/5060
WELL.         16-21-098-13W4                 : Well_name    - WELL
LOC .         AA/16-21-098-13W4/0            : Location     - LOCATION
UWI .         AA/16-21-098-13W400            : Uwi          - UNIQUE WELL ID
ENTR.         JOETTE                         : Entered      - ENTERED BY
SRVC.         SCHLUMBERGER                   : Scn          - SERVICE COMPANY
DATE.         08/28/92                       : Date         - LOG DATE
STRT.M        350                            : top_depth    - START DEPTH
STOP.M        560                            : bot_depth    - STOP DEPTH
STEP.M        0.25                           : increment    - STEP LENGTH
 NULL. -999.2500:NULL Value
~CURVE INFORMATION BLOCK
#MNEM UNIT       ERCB CURVE CODE    CURVE DESCRIPTION
#-----------   ------------------   ----------------------------------
DEPT.M        00 001 00 00         : DEPTH        - DEPTH
DPHI.V/V      00 890 00 00         : PHID         - DENSITY POROSITY (SANDSTONE)
NPHI.V/V      00 330 00 00         : PHIN         - NEUTRON POROSITY (SANDSTONE)
GR  .API      00 310 00 00         : GR           - GAMMA RAY
ILD .OHMM     00 120 00 00         : RESD         - DEEP RESISTIVITY (DIL)
~PARAMETER INFORMATION
#MNEM.UNIT           DATA             DESCRIPTION OF MNEMONIC
#---------         -----------     ------------------------------
GL  .M        790.35               : gl           - GROUND LEVEL ELEVATION
EREF.M        793.6                : kb           - ELEVATION OF DEPTH REFERENCE
DATM.M        793.6                : datum        - DATUM ELEVATION
TDD .M        494                  : tdd          - TOTAL DEPTH DRILLER
RUN .         ONE                  : Run          - RUN NUMBER
ENG .         BILL                 : Engineer     - RECORDING ENGINEER
WIT .         JIM                  : Witness      - WITNESSED BY
MUD .         GEL                  : Mud_type     - MUD TYPE
MATR.         SANDSTONE            : Logunit      - NEUTRON MATRIX
TMAX.C        21                   : BHT          - MAXIMUM RECORDED TEMPERATURE
BHTD.M        494                  : BHTDEP       - MAXIMUM RECORDED TEMPERATURE
RMT .C        16                   : MDTP         - TEMPERATURE OF MUD
MUDD.KG/M     1090                 : MWT          - MUD DENSITY
NEUT.         1                    : NEUTRON      - NEUTRON TYPE
RESI.         0                    : RESIST       - RESISTIVITY TYPE
RM  .OHMM     4.6                  : RM           - RESISTIVITY OF MUD
RMC .OHMM     4.3                  : RMC          - RESISTIVITY OF MUD CAKE
RMF .OHMM     4                    : RMF          - RESISTIVITY OF MUD FILTRATE
SUFT.C        4                    : SUFT         - SURFACE TEMPERATURE
~A  DEPTH     PHID     PHIN       GR     RESD
# ...
  524.000    0.255    0.366   55.747   56.896
  524.250    0.244    0.363   60.016   20.246
  524.500    0.233    0.359   64.291   17.756
  524.750    0.210    0.359   67.953   17.431
  525.000    0.193    0.367   69.795   14.723
  525.250    0.184    0.377   72.250   20.273
  525.500    0.212    0.380   73.486   20.666
  525.750    0.233    0.383   74.722   20.284
  526.000    0.233    0.388   74.138   18.821
  526.250    0.245    0.389   70.515   20.297
  526.500    0.258    0.389   66.897   37.748
  526.750    0.265    0.386   63.280  621.068
  527.000    0.265    0.383   60.887 1268.970
  527.250    0.266    0.378   59.691 1651.260
  527.500    0.269    0.376   59.101  722.508
  527.750    0.261    0.376   59.736   19.957
  528.000    0.255    0.382   62.786   12.957
  528.250    0.248    0.388   66.448   12.252
  528.500    0.237    0.391   70.723   15.646
  528.750    0.220    0.396   73.166   17.519
  529.000    0.205    0.400   77.446   13.470
  529.250    0.207    0.396   78.671    9.253
  529.500    0.204    0.390   79.300    8.115
  529.750    0.199    0.390   79.323    8.917
  530.000    0.209    0.395   75.099   13.488
  530.250    0.206    0.408   81.188   14.009
  530.500    0.202    0.405   89.703   13.752
  530.750    0.232    0.398   90.944   12.060
  531.000    0.240    0.394   92.792   13.253
  531.250    0.231    0.388   93.416   22.020
  531.500    0.224    0.385   94.045   21.616
  531.750    0.218    0.386   90.422   19.684
  532.000    0.214    0.387   69.819   17.263
  532.250    0.206    0.387   67.420   14.582
  532.500    0.196    0.383   66.224   12.788
  532.750    0.241    0.382   65.640   12.321
  533.000    0.238    0.384   66.881   13.287
  533.250    0.236    0.395   69.325   14.879
  533.500    0.236    0.404   72.386   15.451
  533.750    0.242    0.400   73.616   15.456
  534.000    0.249    0.403   74.858   14.075
  534.250    0.248    0.420   74.886   13.307
  534.500    0.240    0.418   74.903   11.671
  534.750    0.231    0.415   74.925   11.896
  535.000    0.221    0.414   74.341   23.407
  535.250    0.209    0.417   73.757   24.311
  535.500    0.201    0.419   73.779   13.328
  535.750    0.190    0.419   74.408   19.055
  536.000    0.219    0.420   75.037   17.027
  536.250    0.233    0.424   75.060   13.095
  536.500    0.238    0.428   75.683   13.599
  536.750    0.245    0.421   76.925   14.664
  537.000    0.259    0.414   77.560   15.232
  537.250    0.257    0.404   70.898   14.133
  537.500    0.254    0.398   67.292   14.681
  537.750    0.252    0.392   66.696   15.246
  538.000    0.251    0.389   66.118   15.541
  538.250    0.253    0.390   65.528   18.066
  538.500    0.255    0.392   64.944   17.735
  538.750    0.258    0.391   64.360   13.383
  539.000    0.255    0.391   61.961   12.418
  539.250    0.251    0.396   60.164   11.309
  539.500    0.249    0.403   61.400   10.493
  539.750    0.247    0.416   62.630   10.109
  540.000    0.238    0.424   64.472   11.318
  540.250    0.226    0.429   67.539   16.800
  540.500    0.220    0.432   68.764   18.119
  540.750    0.227    0.430   69.999   15.018
  541.000    0.238    0.421   68.814   13.935
  541.250    0.250    0.398   66.410   15.603
  541.500    0.244    0.386   64.618   15.905
  541.750    0.229    0.376   64.023   13.950
  542.000    0.234    0.363   61.018   13.693
  542.250    0.233    0.353   62.248   10.528
  542.500    0.222    0.346   65.304    9.954
  542.750    0.242    0.357   68.966    2.387
  543.000    0.243    0.366   72.028    1.906
  543.250    0.240    0.377   72.657    1.836
  543.500    0.241    0.388   69.651    1.769
  543.750    0.243    0.403   68.455    1.704
  544.000    0.243    0.402   66.663    1.705
  544.250    0.243    0.400   66.675    1.705
  544.500    0.241    0.396   67.927    1.946
  544.750    0.237    0.395   70.365    1.675
  545.000    0.231    0.393   75.853    1.675
  545.250    0.221    0.389   88.621    1.676
  545.500    0.208    0.388   91.665    1.676
  545.750    0.207    0.386  103.225    1.677
  546.000    0.226    0.387  105.056    1.677
  546.250    0.233    0.390  108.118    1.678
  546.500    0.239    0.391  101.461    1.678
  546.750    0.243    0.392   82.678    1.711
  547.000    0.241    0.393   78.454    1.711
  547.250    0.235    0.394   77.263    1.712
  547.500    0.233    0.393   79.106    1.778
  547.750    0.240    0.391   85.194    1.779
  548.000    0.243    0.389   90.677    1.746
  548.250    0.242    0.432   90.093    1.682
  548.500    0.237    0.443   85.869    1.620
  548.750    0.230    0.437   87.717    1.476
  549.000    0.234    0.428   89.553    1.369
  549.250    0.246    0.422   85.329    1.344
  549.500    0.248    0.417   76.252    1.295
  549.750    0.252    0.411   77.488    1.248
  550.000    0.261    0.400   78.117    1.248
  550.250    0.283    0.391   73.893    1.248
  550.500    0.296    0.389   67.849    1.249
  550.750    0.307    0.391   59.384    1.249
  551.000    0.310    0.392   56.980    1.480
  551.250    0.305    0.395   53.970    1.348
  551.500    0.299    0.397   53.380    1.453
  551.750    0.293    0.401   55.233    1.567
  552.000    0.286    0.398   57.070    1.690
  552.250    0.283    0.387   59.519    1.789
  552.500    0.295    0.375   60.755    1.823
  552.750    0.287    0.358   60.171    1.824
  553.000    0.283    0.308   57.166    1.757
  553.250    0.259    0.262   55.964    1.570
  553.500    0.190    0.248   54.779    1.457
  553.750    0.195    0.246   54.801    1.404
  554.000    0.203    0.246   57.245    1.404
  554.250    0.214    0.254   65.153    1.378
  554.500    0.226    0.356   71.242    1.303
  554.750    0.243    0.366   73.697    0.965
  555.000    0.248    0.382   74.321    0.895
  555.250    0.236    0.385   70.097    0.879
  555.500    0.282    0.380   61.626    0.896
  555.750    0.299    0.380   52.549    0.931
  556.000    0.303    0.379   48.331    1.023
  556.250    0.299    0.379   46.533    1.189
  556.500    0.302    0.377   51.403    1.576
  556.750    0.295    0.369   87.824    2.877
  557.000    0.289    0.361   99.985    6.962
  557.250    0.279    0.353  107.287   12.948
  557.500    0.261    0.341  115.196   15.630
  557.750    0.233    0.325  120.679   17.832
  558.000    0.196    0.280  124.347   19.597
  558.250    0.166    0.256  124.363   17.512
  558.500    0.137    0.240  123.173   17.192
  558.750   -0.014    0.222   60.099   18.892
  559.000   -0.016    0.200   55.274   15.956
  559.250   -0.016    0.189   55.291   24.135
  559.500   -0.017    0.614   57.133   33.230
  559.750   -0.017    0.614   58.981   21.575
  560.000   -0.017    0.614   60.818   18.920
