~VERSION INFORMATION
 VERS.                 2.0:   CWLS LOG ASCII STANDARD -VERSION 2.0
 WRAP.                  NO:   ONE LINE PER DEPTH STEP
~WELL INFORMATION BLOCK
#MNEM.UNIT           DATA                    DESCRIPTION OF MNEMONIC
#---------    -------------------            -------------------------------
# Generated from Intellog Unique Number	CX_WELLS/WELL/3859
WELL.         BAYSEL CORE                    : Well_name    - WELL
LOC .         AA/12-30-087-10W4/0            : Location     - LOCATION
UWI .         AA/12-30-087-10W400            : Uwi          - UNIQUE WELL ID
ENTR.         T                              : Entered      - ENTERED BY
SRVC.         SCHLUMBERGER                   : Scn          - SERVICE COMPANY
STRT.F        50                             : top_depth    - START DEPTH
STOP.F        510.138                        : bot_depth    - STOP DEPTH
STEP.F        0.8202                         : increment    - STEP LENGTH
 NULL. -999.2500:NULL Value
~CURVE INFORMATION BLOCK
#MNEM UNIT       ERCB CURVE CODE    CURVE DESCRIPTION
#-----------   ------------------   ----------------------------------
DEPT.F        00 001 00 00         : DEPTH        - DEPTH
GR  .API      00 310 00 00         : GR           - GAMMA RAY
NPHI.V/V      00 330 00 00         : PHIN         - NEUTRON POROSITY (SANDSTONE)
ILD .OHMM     00 120 00 00         : RESD         - DEEP RESISTIVITY (DIL)
~PARAMETER INFORMATION
#MNEM.UNIT           DATA             DESCRIPTION OF MNEMONIC
#---------         -----------     ------------------------------
GL  .F        1371                 : gl           - GROUND LEVEL ELEVATION
EREF.F        1371                 : kb           - ELEVATION OF DEPTH REFERENCE
DATM.F        1371                 : datum        - DATUM ELEVATION
TDD .F        521                  : tdd          - TOTAL DEPTH DRILLER
RUN .         ONE                  : Run          - RUN NUMBER
ENG .         BILL                 : Engineer     - RECORDING ENGINEER
WIT .         JIM                  : Witness      - WITNESSED BY
MUD .         GEL                  : Mud_type     - MUD TYPE
MATR.         SANDSTONE            : Logunit      - NEUTRON MATRIX
TMAX.F        53                   : BHT          - MAXIMUM RECORDED TEMPERATURE
BHTD.F        521                  : BHTDEP       - MAXIMUM RECORDED TEMPERATURE
MATR.         1                    : LOGUNIT      - NEUTRON MATRIX
RMT .F        77                   : MDTP         - TEMPERATURE OF MUD
NEUT.         1                    : NEUTRON      - NEUTRON TYPE
RESI.         0                    : RESIST       - RESISTIVITY TYPE
RMC .OHMM     7.5                  : RMC          - RESISTIVITY OF MUD CAKE
RMF .OHMM     7.5                  : RMF          - RESISTIVITY OF MUD FILTRATE
SUFT.F        32                   : SUFT         - SURFACE TEMPERATURE
~A  DEPTH       GR     PHIN     RESD
# ...
  227.986   68.955    0.467   18.528
  228.806   73.552    0.477   18.170
  229.626   76.381    0.498   18.171
  230.446   79.566    0.499   15.483
  231.266   83.108    0.502   14.229
  232.087   83.825    0.506   13.871
  232.907   83.485    0.517   13.692
  233.727   83.497    0.508   13.334
  234.547   83.156    0.503   12.976
  235.367   82.108    0.506   12.618
  236.188   81.415    0.513   12.439
  237.008   83.193    0.521   11.902
  237.828   85.669    0.519   11.902
  238.648   90.266    0.508   11.903
  239.469   86.049    0.502   11.903
  240.289   80.421    0.499   11.903
  241.109   76.556    0.496   12.083
  241.929   86.085    0.493   12.441
  242.749   85.744    0.494   12.621
  243.570   83.997    0.488   12.801
  244.390   83.657    0.481   12.622
  245.210   83.669    0.478   13.160
  246.030   83.328    0.475   14.056
  246.850   82.635    0.473   14.594
  247.671   80.536    0.471   14.953
  248.491   79.490    0.468   15.849
  249.311   81.262    0.468   16.566
  250.131   84.097    0.470   16.208
  250.951   85.868    0.472   15.671
  251.772   87.998    0.467   15.492
  252.592   87.657    0.457   15.851
  253.412   87.317    0.448   16.209
  254.232   87.329    0.444   16.926
  255.052   85.579    0.441   18.181
  255.873   82.419    0.441   19.973
  256.693   80.668    0.447   19.436
  257.513   85.615    0.453   18.361
  258.333   86.687    0.455   16.570
  259.154   85.992    0.457   16.032
  259.974   85.299    0.460   16.212
  260.794   86.371    0.474   16.391
  261.614   87.091    0.474   16.392
  262.434   87.100    0.471   16.213
  263.255   87.112    0.470   15.855
  264.075   87.124    0.467   16.213
  264.895   86.434    0.465   17.468
  265.715   85.386    0.460   20.694
  266.535   84.693    0.445   20.694
  267.356   85.413    0.430   19.799
  268.176   85.775    0.439   21.412
  268.996   84.377    0.445   24.100
  269.816   76.282    0.427   23.383
  270.636   74.532    0.366   21.592
  271.457   76.662    0.348   20.517
  272.277   75.969    0.295   20.876
  273.097   73.514    0.225   22.309
  273.917   66.477    0.253   27.506
  274.738   63.669    0.319   27.148
  275.558   57.337    0.447   24.640
  276.378   59.816    0.469   23.744
  277.198   66.172    0.469   23.924
  278.018   69.357    0.469   23.745
  278.839   74.656    0.471   21.595
  279.659   83.482    0.463   16.041
  280.479   84.907    0.460   16.758
  281.299   84.916    0.453   16.758
  282.119   85.633    0.462   16.579
  282.940   86.001    0.468   16.579
  283.760   85.660    0.466   17.655
  284.580   83.555    0.469   18.551
  285.400   74.755    0.470   17.655
  286.220   76.177    0.478   15.864
  287.041   80.069    0.489   13.356
  287.861   80.434    0.516   11.923
  288.681   81.859    0.525   11.385
  289.501   82.573    0.516   11.386
  290.322   84.703    0.501   11.744
  291.142   86.826    0.491   12.641
  291.962   88.956    0.483   13.178
  292.782   89.673    0.472   13.537
  293.602   87.923    0.457   13.717
  294.423   84.058    0.445   14.971
  295.243   80.898    0.448   16.584
  296.063   78.798    0.454   17.302
  296.883   78.458    0.466   16.764
  297.703   78.470    0.473   16.585
  298.524   79.892    0.457   16.765
  299.344   81.314    0.438   18.020
  300.164   80.621    0.439   21.783
  300.984   79.223    0.430   27.159
  301.804   77.825    0.419   26.084
  302.625   76.075    0.423   24.292
  303.445   75.033    0.458   25.726
  304.265   75.045    0.489   26.981
  305.085   76.819    0.508   25.906
  305.906   80.000    0.522   19.635
  306.726   79.307    0.547   14.976
  307.546   77.560    0.547   12.468
  308.366   75.454    0.515   10.677
  309.186   72.999    0.508   11.394
  310.007   69.134    0.497   11.931
  310.827   67.740    0.490   13.365
  311.647   70.924    0.490   14.620
  312.467   73.406    0.488   14.262
  313.287   74.831    0.485   13.725
  314.108   74.837    0.478   13.008
  314.928   72.382    0.469   13.188
  315.748   69.222    0.462   13.905
  316.568   66.062    0.453   14.801
  317.388   64.664    0.446   15.339
  318.209   64.323    0.453   15.877
  319.029   70.680    0.460   15.519
  319.849   71.400    0.497   15.161
  320.669   73.530    0.509   16.236
  321.490   76.711    0.514   13.728
  322.310   83.067    0.520   11.937
  323.130   86.610    0.525   11.579
  323.950   85.911    0.528   11.579
  324.770   83.811    0.520   11.579
  325.591   81.712    0.508   11.579
  326.411   81.019    0.503   11.938
  327.231   81.736    0.498   12.118
  328.051   82.805    0.492   12.118
  328.871   84.230    0.489   12.118
  329.692   84.589    0.488   12.119
  330.512   84.956    0.492   12.657
  331.332   83.561    0.494   12.836
  332.152   82.862    0.494   13.015
  332.972   80.413    0.495   13.016
  333.793   79.718    0.495   13.016
  334.613   81.492    0.499   12.837
  335.433   84.324    0.499   12.121
  336.253   87.511    0.498   11.405
  337.073   88.933    0.493   11.226
  337.894   88.945    0.477   11.226
  338.714   87.195    0.436   11.585
  339.534   84.384    0.420   12.123
  340.354   74.527    0.388   14.094
  341.175   68.900    0.353   16.961
  341.995   66.448    0.351   20.187
  342.815   65.047    0.414   20.546
  343.635   62.592    0.429   20.367
  344.455   65.779    0.439   20.726
  345.276   71.436    0.427   20.188
  346.096   68.623    0.379   20.189
  346.916   61.586    0.354   21.622
  347.736   57.720    0.396   25.565
  348.556   58.085    0.412   28.432
  349.377   60.212    0.421   28.074
  350.197   61.986    0.387   27.358
  351.017   67.990    0.324   27.716
  351.837   67.656    0.097   31.480
  352.657   61.320    0.000   50.474
  353.478   59.218   -0.026   54.416
  354.298   56.061   -0.041   62.122
  355.118   52.898   -0.038   69.110
  355.938   49.032   -0.029   75.382
  356.759   44.463    0.035   80.937
  357.579   43.417    0.342   80.938
  358.399   45.544    0.416   76.638
  359.219   49.433    0.444   71.800
  360.039   56.142    0.463   53.702
  360.860   62.501    0.457   46.177
  361.680   68.505    0.453   31.484
  362.500   72.397    0.441   21.629
  363.320   70.292    0.390   22.525
  364.140   67.840    0.344   23.242
  364.961   66.442    0.318   24.497
  365.781   65.397    0.271   27.364
  366.601   63.999    0.158   32.382
  367.421   62.248    0.266   39.191
  368.241   60.854    0.259   44.567
  369.062   60.513    0.230   48.510
  369.882   60.173    0.224   43.851
  370.702   58.420    0.275   39.372
  371.522   56.317    0.325   39.372
  372.343   57.034    0.378   39.731
  373.163   64.803    0.416   38.835
  373.983   70.804    0.420   36.864
  374.803   73.642    0.422   34.356
  375.623   75.766    0.419   32.206
  376.444   78.950    0.416   28.264
  377.264   77.905    0.413   24.143
  378.084   75.097    0.408   22.710
  378.904   76.166    0.399   22.890
  379.724   78.646    0.398   23.428
  380.545   79.718    0.388   23.249
  381.365   79.730    0.377   22.712
  382.185   78.332    0.411   22.533
  383.005   73.763    0.421   22.533
  383.825   78.709    0.421   22.713
  384.646   86.475    0.415   22.713
  385.466   91.069    0.402   22.713
  386.286   93.907    0.383   23.610
  387.106   95.329    0.389   24.864
  387.927   97.805    0.383   25.940
  388.747   97.465    0.370   26.119
  389.567   90.428    0.361   25.582
  390.387   86.210    0.353   25.045
  391.207   82.704    0.375   25.224
  392.028   83.767    0.365   25.762
  392.848   86.599    0.353   26.300
  393.668   87.316    0.345   26.480
  394.488   87.331    0.353   26.122
  395.308   88.756    0.362   26.122
  396.129   88.768    0.368   26.301
  396.949   87.021    0.369   26.839
  397.769   85.972    0.366   27.735
  398.589   85.632    0.365   27.736
  399.409   87.403    0.368   27.736
  400.230   90.235    0.360   27.736
  401.050   90.600    0.353   28.274
  401.870   90.967    0.350   28.991
  402.690   89.217    0.341   29.171
  403.510   87.819    0.340   28.992
  404.331   85.716    0.344   30.067
  405.151   81.146    0.348   32.397
