~VERSION INFORMATION
 VERS.                 2.0:   CWLS LOG ASCII STANDARD -VERSION 2.0
 WRAP.                  NO:   ONE LINE PER DEPTH STEP
~WELL INFORMATION BLOCK
#MNEM.UNIT           DATA                    DESCRIPTION OF MNEMONIC
#---------    -------------------            -------------------------------
# Generated from Intellog Unique Number	CC_84_87/WELL/2334
WELL.         ARCO ACT MCMURRAY              : Well_name    - WELL
LOC .         AA/11-29-084-09W4/0            : Location     - LOCATION
UWI .         AA/11-29-084-09W400            : Uwi          - UNIQUE WELL ID
ENTR.         JHS                            : Entered      - ENTERED BY
SRVC.         SCHLUMBERGER                   : Scn          - SERVICE COMPANY
STRT.M        210.312                        : top_depth    - START DEPTH
STOP.M        441.812                        : bot_depth    - STOP DEPTH
STEP.M        0.25                           : increment    - STEP LENGTH
 NULL. -999.2500:NULL Value
~CURVE INFORMATION BLOCK
#MNEM UNIT       ERCB CURVE CODE    CURVE DESCRIPTION
#-----------   ------------------   ----------------------------------
DEPT.M        00 001 00 00         : DEPTH        - DEPTH
GR  .API      00 310 00 00         : GR           - GAMMA RAY
DPHI.V/V      00 890 00 00         : PHID         - DENSITY POROSITY (SANDSTONE)
NPHI.V/V      00 330 00 00         : PHIN         - NEUTRON POROSITY (SANDSTONE)
ILD .OHMM     00 120 00 00         : RESD         - DEEP RESISTIVITY (DIL)
~PARAMETER INFORMATION
#MNEM.UNIT           DATA             DESCRIPTION OF MNEMONIC
#---------         -----------     ------------------------------
GL  .M        687.629              : gl           - GROUND LEVEL ELEVATION
EREF.M        690.677              : kb           - ELEVATION OF DEPTH REFERENCE
DATM.M        690.677              : datum        - DATUM ELEVATION
TDD .M        441.96               : tdd          - TOTAL DEPTH DRILLER
RUN .         ONE                  : Run          - RUN NUMBER
ENG .         BILL                 : Engineer     - RECORDING ENGINEER
WIT .         JIM                  : Witness      - WITNESSED BY
MUD .         GEL                  : Mud_type     - MUD TYPE
MATR.         SANDSTONE            : Logunit      - NEUTRON MATRIX
TMAX.C        20.5556              : BHT          - MAXIMUM RECORDED TEMPERATURE
BHTD.M        441.96               : BHTDEP       - MAXIMUM RECORDED TEMPERATURE
MATR.         1                    : LOGUNIT      - NEUTRON MATRIX
RMT .C        25                   : MDTP         - TEMPERATURE OF MUD
NEUT.         1                    : NEUTRON      - NEUTRON TYPE
RESI.         0                    : RESIST       - RESISTIVITY TYPE
RMC .OHMM     0.25                 : RMC          - RESISTIVITY OF MUD CAKE
RMF .OHMM     0.25                 : RMF          - RESISTIVITY OF MUD FILTRATE
SUFT.C        15                   : SUFT         - SURFACE TEMPERATURE
~A  DEPTH       GR     PHID     PHIN     RESD
# ...
  384.312   72.963    0.217    0.379    4.595
  384.562   71.742    0.184    0.360    4.673
  384.812   78.701    0.203    0.355    4.630
  385.062   83.387    0.249    0.401    4.503
  385.312   85.764    0.263    0.433    4.159
  385.562   88.962    0.251    0.414    3.773
  385.812   89.771    0.263    0.413    3.755
  386.062   91.131    0.282    0.420    3.858
  386.312   87.316    0.285    0.408    4.119
  386.562   81.443    0.291    0.390    4.531
  386.812   74.829    0.301    0.374    5.090
  387.062   71.502    0.303    0.360    5.729
  387.312   76.788    0.293    0.353    6.241
  387.562   80.365    0.268    0.356    6.526
  387.812   76.814    0.255    0.361    6.905
  388.062   73.032    0.259    0.358    7.357
  388.312   72.530    0.268    0.343    8.156
  388.562   71.302    0.279    0.323    9.400
  388.812   67.707    0.284    0.310   10.358
  389.062   67.783    0.282    0.308   10.380
  389.312   73.208    0.271    0.319   10.231
  389.562   83.310    0.255    0.335    9.927
  389.812   87.440    0.248    0.349    9.344
  390.062   82.842    0.252    0.350    8.874
  390.312   80.254    0.241    0.340    8.768
  390.562   80.875    0.211    0.350    8.510
  390.812   86.030    0.199    0.344    8.234
  391.062   92.456    0.215    0.353    8.042
  391.312   94.712    0.241    0.369    8.018
  391.562   92.026    0.256    0.364    8.194
  391.812   89.822    0.258    0.348    8.609
  392.062   90.360    0.263    0.327    9.428
  392.312   82.385    0.252    0.325   10.218
  392.562   66.436    0.254    0.325   10.957
  392.812   59.806    0.275    0.317   11.951
  393.062   67.322    0.277    0.309   12.992
  393.312   70.718    0.251    0.310   13.523
  393.562   61.737    0.248    0.321   13.738
  393.812   56.272    0.280    0.320   13.794
  394.062   56.340    0.304    0.298   13.568
  394.312   60.756    0.309    0.290   12.952
  394.562   62.183    0.302    0.304   12.155
  394.812   54.010    0.286    0.302   11.439
  395.062   51.616    0.284    0.301   10.745
  395.312   53.418    0.270    0.311   10.354
  395.562   57.719    0.240    0.325   10.105
  395.812   64.153    0.257    0.346    9.698
  396.062   67.017    0.281    0.334    9.903
  396.312   61.155    0.221    0.276   11.177
  396.562   54.330    0.212    0.289   11.551
  396.812   52.448    0.269    0.314   11.719
  397.062   54.583    0.287    0.315   11.798
  397.312   61.059    0.262    0.317   11.761
  397.562   70.201    0.260    0.336   11.780
  397.812   74.246    0.272    0.353   11.991
  398.062   69.677    0.254    0.349   12.551
  398.312   67.923    0.260    0.358   13.161
  398.562   68.418    0.293    0.337   14.881
  398.812   62.969    0.322    0.307   18.249
  399.062   52.346    0.335    0.320   25.138
  399.312   44.224    0.336    0.353   36.708
  399.562   37.847    0.330    0.357   50.248
  399.812   36.930    0.339    0.358   70.842
  400.062   39.681    0.347    0.359   80.928
  400.312   43.596    0.351    0.363   78.282
  400.562   43.337    0.359    0.374   72.933
  400.812   38.264    0.359    0.384   66.394
  401.062   42.809    0.351    0.388   60.452
  401.312   49.803    0.350    0.377   56.597
  401.562   51.813    0.355    0.360   53.249
  401.812   51.189    0.345    0.357   50.442
  402.062   53.255    0.321    0.365   46.569
  402.312   57.249    0.304    0.366   39.685
  402.562   59.033    0.288    0.363   34.255
  402.812   63.557    0.272    0.369   27.017
  403.062   67.726    0.262    0.372   20.822
  403.312   71.390    0.253    0.346   16.971
  403.562   74.799    0.236    0.310   14.371
  403.812   75.526    0.220    0.307   13.008
  404.062   77.716    0.232    0.318   11.886
  404.312   82.825    0.235    0.329   10.676
  404.562   85.321    0.234    0.332    9.751
  404.812   86.082    0.210    0.332    9.109
  405.062   87.492    0.197    0.339    8.626
  405.312   87.888    0.254    0.346    8.387
  405.562   90.037    0.291    0.344    8.235
  405.812   95.232    0.301    0.333    8.569
  406.062   94.064    0.295    0.339   10.286
  406.312   82.454    0.286    0.365   12.550
  406.562   70.505    0.280    0.374   14.813
  406.812   68.724    0.273    0.346   17.120
  407.062   70.834    0.281    0.336   17.469
  407.312   70.303    0.288    0.322   16.946
  407.562   67.121    0.300    0.318   16.623
  407.812   66.903    0.310    0.316   17.094
  408.062   68.508    0.322    0.308   19.491
  408.312   64.219    0.346    0.314   24.731
  408.562   56.911    0.348    0.334   31.274
  408.812   54.739    0.340    0.349   36.615
  409.062   54.485    0.332    0.345   43.125
  409.312   52.617    0.336    0.339   47.852
  409.562   50.049    0.346    0.343   48.163
  409.812   48.148    0.346    0.354   47.342
  410.062   47.098    0.337    0.367   46.005
  410.312   46.664    0.330    0.362   43.486
  410.562   48.199    0.328    0.352   40.810
  410.812   51.153    0.318    0.344   38.380
  411.062   53.047    0.304    0.340   36.194
  411.312   54.689    0.308    0.352   34.625
  411.562   59.892    0.319    0.354   33.876
  411.812   60.428    0.321    0.342   36.012
  412.062   56.985    0.320    0.331   39.200
  412.312   54.277    0.320    0.333   41.905
  412.562   53.985    0.324    0.348   44.492
  412.812   55.717    0.333    0.360   46.356
  413.062   59.255    0.331    0.353   45.135
  413.312   61.416    0.321    0.340   42.010
  413.562   63.803    0.315    0.335   38.851
  413.812   65.443    0.309    0.343   35.903
  414.062   65.865    0.298    0.349   32.481
  414.312   66.821    0.299    0.342   29.244
  414.562   66.927    0.321    0.328   28.240
  414.812   71.903    0.316    0.329   28.504
  415.062   75.244    0.320    0.327   29.328
  415.312   73.040    0.331    0.324   31.601
  415.562   69.832    0.322    0.332   36.432
  415.812   70.308    0.311    0.343   40.652
  416.062   75.182    0.299    0.346   37.392
  416.312   85.922    0.277    0.333   31.795
  416.562   88.442    0.265    0.308   26.621
  416.812   83.841    0.281    0.291   23.246
  417.062   80.847    0.306    0.296   22.735
  417.312   77.134    0.310    0.312   23.898
  417.562   72.475    0.293    0.316   24.017
  417.812   76.968    0.275    0.324   22.585
  418.062   82.364    0.268    0.316   20.335
  418.312   87.901    0.261    0.297   18.507
  418.562   95.066    0.253    0.290   17.126
  418.812  100.528    0.253    0.287   15.631
  419.062  111.010    0.251    0.278   15.125
  419.312  118.475    0.274    0.280   14.978
  419.562  117.912    0.294    0.283   15.591
  419.812  106.516    0.304    0.292   16.676
  420.062   93.681    0.318    0.305   18.790
  420.312   89.334    0.332    0.306   22.607
  420.562   80.853    0.337    0.313   26.792
  420.812   80.951    0.343    0.324   36.885
  421.062   86.015    0.347    0.332   50.294
  421.312   90.739    0.346    0.338   61.037
  421.562   87.860    0.341    0.349   65.141
  421.812   75.470    0.331    0.360   62.446
  422.062   76.670    0.319    0.353   57.010
  422.312   91.004    0.315    0.331   51.939
  422.562   96.468    0.332    0.311   47.385
  422.812   92.145    0.343    0.308   43.401
  423.062   88.468    0.336    0.323   40.472
  423.312   84.963    0.341    0.333   38.808
  423.562   78.785    0.351    0.332   38.252
  423.812   62.400    0.352    0.337   36.861
  424.062   45.494    0.347    0.333   34.741
  424.312   39.492    0.339    0.342   34.511
  424.562   44.232    0.340    0.359   41.175
  424.812   48.586    0.355    0.358   53.090
  425.062   41.594    0.366    0.379   58.137
  425.312   30.979    0.368    0.371   65.124
  425.562   26.997    0.362    0.357   72.467
  425.812   30.066    0.361    0.362   75.272
  426.062   34.462    0.364    0.365   74.476
  426.312   36.590    0.352    0.355   73.312
  426.562   36.608    0.332    0.353   70.478
  426.812   36.245    0.335    0.364   62.142
  427.062   34.874    0.344    0.359   55.257
  427.312   32.401    0.348    0.340   53.323
  427.562   30.055    0.353    0.338   53.934
