~VERSION INFORMATION
 VERS.                 2.0:   CWLS LOG ASCII STANDARD -VERSION 2.0
 WRAP.                  NO:   ONE LINE PER DEPTH STEP
~WELL INFORMATION BLOCK
#MNEM.UNIT           DATA                    DESCRIPTION OF MNEMONIC
#---------    -------------------            -------------------------------
# Generated from Intellog Unique Number	CW_82_90/WELL/927
WELL.         10-26-082-22W4                 : Well_name    - WELL
LOC .         AA/10-26-082-22W4/0            : Location     - LOCATION
UWI .         AA/10-26-082-22W4/0            : Uwi          - UNIQUE WELL ID
ENTR.         JAYE                           : Entered      - ENTERED BY
SRVC.         SCHLUMBERGER                   : Scn          - SERVICE COMPANY
DATE.         18 JAN 82                      : Date         - LOG DATE
STRT.M        225                            : top_depth    - START DEPTH
STOP.M        430                            : bot_depth    - STOP DEPTH
STEP.M        0.25                           : increment    - STEP LENGTH
 NULL. -999.2500:NULL Value
~CURVE INFORMATION BLOCK
#MNEM UNIT       ERCB CURVE CODE    CURVE DESCRIPTION
#-----------   ------------------   ----------------------------------
DEPT.M        00 001 00 00         : DEPTH        - DEPTH
CALI.MM       00 280 01 00         : CAL          - CALIPER
GR  .API      00 310 00 00         : GR           - GAMMA RAY
DPHI.V/V      00 890 00 00         : PHID         - DENSITY POROSITY (SANDSTONE)
NPHI.V/V      00 330 00 00         : PHIN         - NEUTRON POROSITY (SANDSTONE)
ILD .OHMM     00 120 00 00         : RESD         - DEEP RESISTIVITY (DIL)
~PARAMETER INFORMATION
#MNEM.UNIT           DATA             DESCRIPTION OF MNEMONIC
#---------         -----------     ------------------------------
GL  .M        626.3                : gl           - GROUND LEVEL ELEVATION
EREF.M        630.7                : kb           - ELEVATION OF DEPTH REFERENCE
DATM.M        626.3                : datum        - DATUM ELEVATION
TDD .M        436                  : tdd          - TOTAL DEPTH DRILLER
RUN .         ONE                  : Run          - RUN NUMBER
ENG .         GARTH                : Engineer     - RECORDING ENGINEER
WIT .         WALKER               : Witness      - WITNESSED BY
BASE.         EDMONTON             : Branch       - HOME BASE OF LOGGING UNIT
MUD .         GEL CHEM             : Mud_type     - MUD TYPE
MATR.         SANDSTONE            : Logunit      - NEUTRON MATRIX
TMAX.C        23.8                 : BHT          - MAXIMUM RECORDED TEMPERATURE
BHTD.M        436                  : BHTDEP       - MAXIMUM RECORDED TEMPERATURE
RMT .C        23.8                 : MDTP         - TEMPERATURE OF MUD
MUDD.KG/M     0                    : MWT          - MUD DENSITY
NEUT.         1                    : NEUTRON      - NEUTRON TYPE
RESI.         0                    : RESIST       - RESISTIVITY TYPE
RM  .OHMM     3.14                 : RM           - RESISTIVITY OF MUD
RMC .OHMM     0.25                 : RMC          - RESISTIVITY OF MUD CAKE
RMF .OHMM     1.628                : RMF          - RESISTIVITY OF MUD FILTRATE
SUFT.C        4                    : SUFT         - SURFACE TEMPERATURE
~A  DEPTH      CAL       GR     PHID     PHIN     RESD
# ...
  334.500  236.382   76.659    0.297    0.497    9.627
  334.750  236.261   81.874    0.286    0.491    9.146
  335.000  237.802   82.176    0.270    0.487    7.607
  335.250  238.821   80.674    0.266    0.499    7.811
  335.500  239.426   76.123    0.270    0.483    8.553
  335.750  238.995   72.317    0.268    0.482    8.754
  336.000  238.768   70.628    0.267    0.502    8.468
  336.250  238.340   72.672    0.272    0.512    8.195
  336.500  238.535   75.400    0.275    0.489    7.813
  336.750  238.829   79.246    0.272    0.473    6.898
  337.000  238.915   82.722    0.273    0.474    6.011
  337.250  238.898   84.017    0.277    0.490    5.358
  337.500  238.780   80.959    0.283    0.501    5.342
  337.750  238.765   78.461    0.276    0.518    7.196
  338.000  238.748   76.087    0.248    0.510    7.602
  338.250  239.041   78.567    0.219    0.484    7.300
  338.500  239.131   83.036    0.226    0.471    6.038
  338.750  239.736   90.492    0.272    0.481    5.040
  339.000  240.447   94.403    0.272    0.496    3.511
  339.250  240.842   93.583    0.275    0.504    3.059
  339.500  240.827   91.708    0.274    0.514    3.595
  339.750  240.916   89.271    0.276    0.516    4.934
  340.000  240.902   87.209    0.297    0.489    6.202
  340.250  240.783   84.338    0.291    0.479    7.441
  340.500  240.766   75.183    0.266    0.469    8.535
  340.750  240.749   63.851    0.240    0.457   10.200
  341.000  240.422   59.921    0.197    0.315   11.354
  341.250  240.198   65.013    0.100    0.328   11.470
  341.500  238.317   70.602    0.240    0.384   11.201
  341.750  236.847   75.758    0.261    0.460    8.099
  342.000  236.935   74.068    0.259    0.484    8.476
  342.250  238.373   70.449    0.256    0.495    8.872
  342.500  239.703   73.551    0.252    0.491    8.568
  342.750  240.204   78.455    0.249    0.492    7.566
  343.000  240.294   77.761    0.234    0.497    7.933
  343.250  240.279   71.967    0.213    0.489    8.028
  343.500  240.262   74.258    0.203    0.499    7.596
  343.750  240.140   80.408    0.224    0.495    6.923
  344.000  240.334   87.180    0.240    0.496    6.381
  344.250  240.940   92.645    0.251    0.503    6.730
  344.500  242.686   89.089    0.251    0.490    7.136
  344.750  244.537   88.022    0.247    0.496    7.330
  345.000  245.869   88.199    0.243    0.523    7.308
  345.250  246.784   82.776    0.236    0.524    7.494
  345.500  247.392   83.513    0.217    0.512    7.668
  345.750  248.411   82.757    0.225    0.501    7.687
  346.000  248.811   83.495    0.228    0.487    7.722
  346.250  249.314   86.408    0.231    0.474    7.671
  346.500  249.503   90.006    0.240    0.473    7.396
  346.750  249.385   91.429    0.240    0.470    6.932
  347.000  249.265   90.423    0.231    0.458    6.784
  347.250  249.144   92.778    0.227    0.483    6.650
  347.500  249.130   94.946    0.246    0.518    6.716
  347.750  248.596   91.826    0.253    0.527    6.709
  348.000  248.060   92.314    0.248    0.507    6.893
  348.250  247.734   93.112    0.238    0.491    7.447
  348.500  246.161   88.935    0.232    0.477    8.167
  348.750  244.591   84.010    0.224    0.465    9.007
  349.000  242.706   82.942    0.219    0.455   10.046
  349.250  241.239   83.804    0.224    0.443   11.120
  349.500  240.188   79.564    0.200    0.430   12.061
  349.750  240.067   78.683    0.207    0.425   13.883
  350.000  239.947   75.751    0.240    0.441   15.115
  350.250  239.725   70.328    0.210    0.450   16.546
  350.500  239.606   62.418    0.201    0.433   17.909
  350.750  239.174   59.297    0.193    0.410   19.383
  351.000  238.745   60.097    0.194    0.388   19.619
  351.250  238.002   62.139    0.199    0.380   19.340
  351.500  237.776   63.499    0.208    0.403   18.095
  351.750  237.864   63.737    0.238    0.425   16.743
  352.000  238.058   63.480    0.251    0.438   15.926
  352.250  237.833   62.351    0.252    0.448   16.579
  352.500  237.920   59.479    0.222    0.446   19.124
  352.750  237.801   51.320    0.188    0.219   22.141
  353.000  238.719   51.372    0.098    0.186   27.471
  353.250  239.219   51.487    0.041    0.162   37.352
  353.500  238.895   49.113    0.028    0.154   39.753
  353.750  238.152   46.739    0.080    0.153   41.141
  354.000  238.239   45.797    0.105    0.184   41.017
  354.250  238.741   45.974    0.124    0.281   40.442
  354.500  239.245   48.702    0.117    0.278   39.207
  354.750  239.228   52.798    0.106    0.257   37.373
  355.000  238.900   56.832    0.143    0.237   34.837
  355.250  238.886   60.429    0.206    0.289   23.990
  355.500  238.248   60.669    0.269    0.400   20.791
  355.750  238.853   63.522    0.289    0.446   19.523
  356.000  239.667   65.191    0.290    0.447   18.818
  356.250  240.274   64.623    0.281    0.454   18.348
  356.500  241.709   63.742    0.275    0.453   17.955
  356.750  243.871   65.287    0.272    0.448   17.439
  357.000  243.439   64.594    0.269    0.459   16.935
  357.250  243.418   63.900    0.270    0.461   16.055
  357.500  243.406   64.264    0.277    0.453   15.248
  357.750  243.285   65.374    0.278    0.443   14.214
  358.000  243.684   67.106    0.276    0.434   12.621
  358.250  244.397   71.452    0.271    0.425    9.776
  358.500  245.313   77.974    0.240    0.416    7.241
  358.750  245.193   83.190    0.217    0.413    7.207
  359.000  245.904   88.468    0.214    0.438    8.775
  359.250  246.404   88.334    0.217    0.461   10.294
  359.500  246.597   84.655    0.223    0.479   11.332
  359.750  246.580   87.630    0.226    0.466   11.189
  360.000  246.460   92.536    0.221    0.452   10.568
  360.250  246.962   89.353    0.221    0.461    9.210
  360.500  247.362   85.549    0.229    0.470    8.861
  360.750  248.381   86.783    0.232    0.467    8.640
  361.000  248.161   86.027    0.217    0.461    9.078
  361.250  247.935   86.453    0.196    0.457    9.589
  361.500  247.714   87.935    0.184    0.465    9.759
  361.750  247.592   88.860    0.196    0.458    9.786
  362.000  247.265   89.969    0.218    0.456    9.628
  362.250  247.143   90.894    0.222    0.482    9.456
  362.500  246.818   91.569    0.240    0.496    9.552
  362.750  246.282   89.941    0.248    0.471    9.906
  363.000  246.267   82.839    0.249    0.451   10.844
  363.250  246.148   75.924    0.224    0.456   12.579
  363.500  246.440   72.120    0.213    0.456   14.617
  363.750  246.325   71.550    0.203    0.447   15.472
  364.000  245.890   75.212    0.204    0.449   14.749
  364.250  245.252   81.237    0.227    0.453   12.708
  364.500  245.030   91.242    0.228    0.490    8.670
  364.750  245.016   90.984    0.237    0.502    7.669
  365.000  244.998   91.659    0.244    0.506    7.998
  365.250  245.084   95.631    0.241    0.514    8.403
  365.500  245.278   97.426    0.233    0.501    8.053
  365.750  245.159   96.979    0.230    0.490    7.465
  366.000  244.309   96.784    0.222    0.495    6.139
  366.250  243.570   96.028    0.217    0.507    6.785
  366.500  242.828   93.468    0.228    0.501    7.650
  366.750  242.086   87.859    0.239    0.478    8.518
  367.000  242.068   83.120    0.252    0.481   10.767
  367.250  241.639   76.455    0.267    0.465   13.816
  367.500  241.107   75.885    0.275    0.456   17.531
  367.750  240.780   74.569    0.278    0.445   20.680
  368.000  240.762   73.129    0.254    0.427   24.529
  368.250  240.846   72.682    0.145    0.403   28.933
  368.500  241.455   70.373    0.099    0.368   34.006
  368.750  241.232   67.376    0.092    0.334   35.995
  369.000  241.217   62.141    0.095    0.330   34.896
  369.250  240.683   61.198    0.092    0.311   31.393
  369.500  240.871   62.556    0.124    0.308   26.059
  369.750  240.750   66.839    0.128    0.308   21.674
  370.000  240.739   73.301    0.139    0.374   11.772
  370.250  240.719   86.604    0.169    0.414   11.714
  370.500  241.422   88.337    0.220    0.446   11.900
  370.750  241.619   85.589    0.234    0.463   11.028
