~VERSION INFORMATION
 VERS.                 2.0:   CWLS LOG ASCII STANDARD -VERSION 2.0
 WRAP.                  NO:   ONE LINE PER DEPTH STEP
~WELL INFORMATION BLOCK
#MNEM.UNIT           DATA                    DESCRIPTION OF MNEMONIC
#---------    -------------------            -------------------------------
# Generated from Intellog Unique Number	CS_77_79/WELL/933
WELL.         LEISMER OV                     : Well_name    - WELL
LOC .         AA/10-08-079-08W4/0            : Location     - LOCATION
UWI .         AA/10-08-079-08W4/0            : Uwi          - UNIQUE WELL ID
ENTR.         JHS                            : Entered      - ENTERED BY
SRVC.         SCHLUMBERGER                   : Scn          - SERVICE COMPANY
STRT.M        145                            : top_depth    - START DEPTH
STOP.M        400                            : bot_depth    - STOP DEPTH
STEP.M        0.25                           : increment    - STEP LENGTH
 NULL. -999.2500:NULL Value
~CURVE INFORMATION BLOCK
#MNEM UNIT       ERCB CURVE CODE    CURVE DESCRIPTION
#-----------   ------------------   ----------------------------------
DEPT.M        00 001 00 00         : DEPTH        - DEPTH
DPHI.V/V      00 890 00 00         : PHID         - DENSITY POROSITY (LIMESTONE)
NPHI.V/V      00 330 00 00         : PHIN         - NEUTRON POROSITY (LIMESTONE)
GR  .API      00 310 00 00         : GR           - GAMMA RAY
ILD .OHMM     00 120 00 00         : RESD         - DEEP RESISTIVITY (DIL)
RHOB.KG/M3    00 350 00 00         : DENS         - BULK DENSITY
~PARAMETER INFORMATION
#MNEM.UNIT           DATA             DESCRIPTION OF MNEMONIC
#---------         -----------     ------------------------------
GL  .M        611.36               : gl           - GROUND LEVEL ELEVATION
EREF.M        614.94               : kb           - ELEVATION OF DEPTH REFERENCE
DATM.M        614.94               : datum        - DATUM ELEVATION
TDD .M        407                  : tdd          - TOTAL DEPTH DRILLER
RUN .         ONE                  : Run          - RUN NUMBER
ENG .         BILL                 : Engineer     - RECORDING ENGINEER
WIT .         JIM                  : Witness      - WITNESSED BY
MUD .         GEL                  : Mud_type     - MUD TYPE
MATR.         LIMESTONE            : Logunit      - NEUTRON MATRIX
TMAX.C        17                   : BHT          - MAXIMUM RECORDED TEMPERATURE
BHTD.M        407                  : BHTDEP       - MAXIMUM RECORDED TEMPERATURE
MATR.         1                    : LOGUNIT      - NEUTRON MATRIX
RMT .C        25                   : MDTP         - TEMPERATURE OF MUD
NEUT.         1                    : NEUTRON      - NEUTRON TYPE
RESI.         0                    : RESIST       - RESISTIVITY TYPE
RMC .OHMM     0.25                 : RMC          - RESISTIVITY OF MUD CAKE
RMF .OHMM     0.25                 : RMF          - RESISTIVITY OF MUD FILTRATE
SUFT.C        15                   : SUFT         - SURFACE TEMPERATURE
~A  DEPTH     PHID     PHIN       GR     RESD     DENS
# ...
  327.500    0.267    0.359  104.124    5.721 2252.800
  327.750    0.307    0.360  105.360    5.211 2185.820
  328.000    0.330    0.365  105.369    5.020 2146.070
  328.250    0.349    0.366  102.917    4.929 2112.600
  328.500    0.335    0.358  100.466    4.930 2137.760
  328.750    0.319    0.357  101.705    5.025 2165.010
  329.000    0.305    0.368  106.015    5.123 2188.080
  329.250    0.299    0.376  109.095    5.221 2198.570
  329.500    0.304    0.377  110.332    5.423 2190.230
  329.750    0.311    0.370  111.568    5.632 2177.700
  330.000    0.287    0.368  115.265    5.960 2219.610
  330.250    0.240    0.355  117.731    6.308 2299.200
  330.500    0.206    0.354  118.354    6.310 2357.860
  330.750    0.208    0.360  118.976    6.195 2353.720
  331.000    0.217    0.370  120.828    5.968 2339.080
  331.250    0.233    0.375  119.606    5.435 2311.890
  331.500    0.260    0.372  116.542    4.950 2265.860
  331.750    0.279    0.385  113.474    4.593 2232.400
  332.000    0.292    0.393  110.408    4.029 2211.480
  332.250    0.298    0.400  108.573    3.534 2201.050
  332.500    0.294    0.409  107.351    3.042 2207.360
  332.750    0.296    0.419  106.742    2.619 2203.200
  333.000    0.306    0.436  104.292    2.297 2186.480
  333.250    0.323    0.442  101.226    1.978 2157.200
  333.500    0.326    0.430   99.389    1.870 2153.040
  333.750    0.322    0.420   99.399    1.802 2159.370
  334.000    0.323    0.418  100.019    1.802 2157.300
  334.250    0.326    0.416  100.641    1.872 2153.140
  334.500    0.326    0.414  100.648    1.908 2153.170
  334.750    0.322    0.408  100.043    1.982 2159.480
  335.000    0.315    0.408   98.820    2.058 2172.080
  335.250    0.308    0.411   98.828    2.137 2182.580
  335.500    0.294    0.404   99.450    2.262 2207.740
  335.750    0.280    0.384  100.688    2.485 2230.790
  336.000    0.267    0.383  102.541    2.835 2253.870
  336.250    0.257    0.397  103.161    3.358 2270.650
  336.500    0.237    0.399  104.398    3.831 2304.180
  336.750    0.214    0.384  105.636    4.537 2343.990
  337.000    0.192    0.366  103.799    5.274 2381.720
  337.250    0.185    0.354  100.119    5.905 2394.310
  337.500    0.185    0.346  101.971    6.019 2394.340
  337.750    0.208    0.339  102.593    5.482 2354.590
  338.000    0.249    0.358  105.060    4.992 2283.430
  338.250    0.258    0.379  109.370    4.462 2268.810
  338.500    0.259    0.389  111.839    3.841 2266.740
  338.750    0.260    0.395  113.075    3.632 2264.680
  339.000    0.260    0.398  114.925    3.370 2264.700
  339.250    0.254    0.398  118.624    3.187 2275.210
  339.500    0.255    0.391  119.246    3.128 2273.150
  339.750    0.252    0.389  118.637    2.958 2279.460
  340.000    0.251    0.395  117.416    2.904 2281.590
  340.250    0.257    0.406  118.038    2.798 2271.150
  340.500    0.260    0.415  118.045    2.852 2264.900
  340.750    0.261    0.402  113.751    2.907 2262.840
  341.000    0.271    0.392  112.528    3.076 2246.120
  341.250    0.271    0.392  114.382    3.195 2246.150
  341.500    0.268    0.395  113.160    3.318 2252.460
  341.750    0.264    0.392  115.011    3.383 2258.770
  342.000    0.266    0.383  114.403    3.513 2254.610
  342.250    0.282    0.383  111.338    3.717 2227.430
  342.500    0.291    0.385  107.657    4.085 2212.800
  342.750    0.288    0.372  104.592    4.573 2217.020
  343.000    0.259    0.353  101.524    5.120 2267.300
  343.250    0.234    0.342   99.072    5.418 2309.210
  343.500    0.229    0.348  102.155    5.954 2317.620
  343.750    0.265    0.356   99.090    6.301 2256.920
  344.000    0.245    0.345   94.794    6.544 2290.460
  344.250    0.206    0.321   89.882    6.925 2357.490
  344.500    0.172    0.302   81.283    7.754 2416.150
  344.750    0.195    0.313   79.449    7.756 2376.400
  345.000    0.237    0.325   80.686    7.472 2305.240
  345.250    0.224    0.324   82.537    7.200 2326.220
  345.500    0.217    0.321   85.003    7.068 2338.810
  345.750    0.215    0.324   87.470    7.070 2343.030
  346.000    0.218    0.328   89.325    7.074 2336.790
  346.250    0.224    0.333   89.944    7.075    0.000
  346.500    0.221    0.332   86.263    7.211 2332.660
  346.750    0.215    0.325   79.507    7.214 2343.150
  347.000    0.212    0.315   70.909    7.217 2347.380
  347.250    0.222    0.304   62.925    7.219 2330.650
  347.500    0.261    0.297   54.326    7.498 2263.680
  347.750    0.277    0.298   47.572    7.642 2236.500
  348.000    0.281    0.293   48.808    7.936 2230.250
  348.250    0.284    0.293   55.578    8.399 2223.990
  348.500    0.294    0.303   62.349    9.582 2207.270
  348.750    0.301    0.312   62.971   10.931 2194.740
  349.000    0.299    0.317   62.980   12.010 2198.960
  349.250    0.293    0.327   63.603   14.495 2209.470
  349.500    0.290    0.333   66.068   16.227 2213.680
  349.750    0.289    0.342   69.150   19.585 2215.810
  350.000    0.289    0.348   72.847   23.198 2215.840
  350.250    0.287    0.354   74.697   25.972 2220.050
  350.500    0.283    0.354   75.936   28.007 2226.360
  350.750    0.278    0.348   76.558   30.198 2234.770
  351.000    0.273    0.338   80.255   31.960 2243.180
  351.250    0.268    0.328   82.719   32.574 2251.590
  351.500    0.268    0.322   84.571   29.668 2251.620
  351.750    0.273    0.328   81.506   27.530 2243.280
  352.000    0.277    0.339   84.588   25.549 2237.020
  352.250    0.277    0.334   88.899   23.709 2237.050
  352.500    0.275    0.338   89.523   22.842 2239.180
  352.750    0.275    0.338   90.143   22.008 2239.210
  353.000    0.270    0.332   94.455   20.809 2247.630
  353.250    0.264    0.332   99.379   19.675 2258.120
  353.500    0.251    0.324  104.920   16.939 2281.180
  353.750    0.241    0.323  104.927   14.857 2297.970
  354.000    0.234    0.328  109.239   11.865 2310.560
  354.250    0.224    0.325  113.549    9.837 2327.350
  354.500    0.229    0.319  117.861    8.156 2319.000
  354.750    0.232    0.325  122.171    7.155 2312.740
  355.000    0.238    0.331  127.097    6.893 2302.310
  355.250    0.245    0.335  130.793    6.767 2291.870
  355.500    0.253    0.344  126.497    7.435 2277.240
  355.750    0.264    0.336  108.677    9.317 2258.430
  356.000    0.276    0.325   97.005   11.457 2237.520
  356.250    0.278    0.314   89.022   14.090 2235.460
  356.500    0.269    0.317   86.571   17.005 2250.150
  356.750    0.255    0.322   84.119   18.684 2273.220
  357.000    0.248    0.313   87.201   18.690 2285.810
  357.250    0.244    0.314   92.126   17.020 2292.120
  357.500    0.255    0.328   95.821   16.093 2273.310
  357.750    0.266    0.329   95.214   16.716 2254.500
  358.000    0.279    0.325   86.000   18.714 2233.590
  358.250    0.282    0.325   71.869   21.753 2227.330
  358.500    0.272    0.321   68.804   24.355 2244.120
  358.750    0.269    0.313   69.428   25.295 2250.430
  359.000    0.260    0.313   71.280   21.776 2265.120
  359.250    0.247    0.312   74.974   19.830 2288.180
  359.500    0.237    0.312   79.898   17.396 2304.970
  359.750    0.234    0.308   84.824   16.448 2309.180
  360.000    0.238    0.309   89.137   15.263 2302.930
  360.250    0.238    0.300   87.301   14.705 2302.960
  360.500    0.234    0.299   89.150   15.272 2309.280
  360.750    0.238    0.318   92.847   16.164 2303.030
  361.000    0.259    0.351   91.011   15.869 2267.460
  361.250    0.277    0.354   85.486   15.872 2236.090
  361.500    0.273    0.351   86.109   15.583 2242.410
  361.750    0.271    0.348   92.878   15.884 2246.630
  362.000    0.270    0.352   98.418   16.189 2248.740
  362.250    0.273    0.354   99.041   16.197 2242.500
  362.500    0.273    0.348   94.746   15.898 2242.530
  362.750    0.264    0.346   89.836   14.754 2259.310
  363.000    0.240    0.342   87.999   13.436 2299.130
  363.250    0.221    0.337   92.924   11.785 2332.660
  363.500    0.197    0.331  103.996    9.957 2372.480
  363.750    0.190    0.323  111.997    8.572 2385.070
