~Version : LASO    vs 4.00
VERS.                2.00:   CWLS Log ASCII Standard -VERSION 2.0
WRAP.                  NO:
~Well Information Block
#MNEM.UNIT       Data                        Description of Mnemonic
#----.----      -------------------------- : -----------------------------
STRT.M            15.0000:
STOP.M           206.4000:
STEP.M             0.2000:
NULL.           -999.2500:
COMP.  MOBIL OIL OF CANADA     :COMPANY
WELL.  MOBIL CLARKE OV 13-4    :WELL
FLD.                           :FIELD
LOC.   13-04-090-07W4          :LOCATION
CTRY.  CANADA                  :COUNTRY
PROV.  ALBERTA                 :PROVINCE
SRVC.  SCHLUMBERGER            :SERVICE COMPANY
DATE.  06-MAR-81               :LOG DATE
UWI.   AA/13-04-090-07W400     :UNIQUE WELL ID
~Parameter Information Block
#MNEM.UNIT       Data                        Description of Mnemonic
#----.----      -------------------------- : -----------------------------
RUN .                   1                 : Run Number
GL  .M           458.6000                 : Ground Level Elevation
DREF.                  KB                 : Depth Reference
EREF.M           458.6000                 : Elevation of Depth Reference
TDL .M           206.5000                 : Total Depth Logger
TDD .M           207.0000                 : Total Depth Driller
CSGL.M             0.0000                 : Casing Bottom Logger
CSGD.M             8.0000                 : Casing Bottom Driller
CSGS.MM          219.0000                 : Casing Size
CSGW.KG/M          0.0000                 : Casing Weight
BS  .MM          159.0000                 : Bit Size
DFD .            999.0000                 : Mud Weight (Density)
~Curve Information Block
#MNEM.UNIT        API CODE    Curve Description
#---------    ------------    ------------------------------
DEPT.M                    :   DEPTH
CALI.MM       42 280  1  1:   2 DENSITY CALIPER
DPHI.V/V                  :   DPHI
GR  .GAPI     42 310  1  1:   3 GAMMA RAY
LLD .Ohmm                 :   LLD
NPHI.V/V      42 890  3  1:   4 NEUTRON POROSITY (SANDSTONE)
RHOB.K/M3     42 350  1  1:   5 BULK DENSITY
~A  Depth           CALI        DPHI          GR         LLD        NPHI        RHOB
# ...
148.0000        172.8500      0.2646     85.7400     59.6830      0.4222   2331.0000
148.2000        171.7750      0.2573     89.2350     61.6514      0.4100   2337.0000
148.4000        171.7750      0.2595     97.4400     67.9664      0.4224   2263.0000
148.6000        171.7750      0.2685    100.3500     72.7327      0.4310   2255.0000
148.8000        171.7750      0.2893     98.2350     78.7897      0.4392   2244.0000
149.0000        173.9250      0.2982     84.0300     85.1245      0.4622   2166.0000
149.2000        173.9250      0.3011     75.5250     95.0845      0.4748   2132.0000
149.4000        176.0750      0.3058     71.3250    101.8942      0.4944   2019.0000
149.6000        173.9250      0.3120     71.9250    108.3217      0.5214   1898.0000
149.8000        172.8500      0.3196     85.5300    110.9906      0.5832   1787.0000
150.0000        171.7750      0.3146     93.8400    113.9373      0.5954   1812.0000
150.2000        173.9250      0.3084     98.5350    116.2562      0.6046   1933.0000
150.4000        184.6750      0.3032    104.1450    121.9414      0.5906   2173.0000
150.6000        181.4500      0.3002    107.3400    131.8253      0.5620   2159.0000
150.8000        180.3750      0.3106    108.9450    153.1283      0.5436   2169.0000
151.0000        178.2250      0.3201    110.3400    173.9086      0.5230   2210.0000
151.2000        177.1500      0.3159    109.5450    192.8079      0.5196   2215.0000
151.4000        176.0750      0.3054    107.5500    215.2611      0.5096   2238.0000
151.6000        183.6000      0.3078    106.6500    234.1905      0.5110   2229.0000
151.8000        182.5250      0.3272    105.4500    239.3920      0.5092   2218.0000
152.0000        179.3000      0.3356    104.9400    240.6704      0.5014   2210.0000
152.2000        178.2250      0.3310    105.7500    234.0441      0.4854   2237.0000
152.4000        178.2250      0.3291    104.6400    219.9729      0.4800   2195.0000
152.6000        177.1500      0.3322    105.1500    202.5069      0.4716   2211.0000
152.8000        180.3750      0.3408    104.4450    187.5191      0.4628   2285.8999
153.0000        184.6750      0.3576    105.0450    179.6263      0.4874   2277.0000
153.2000        184.6750      0.3654    104.0400    181.6989      0.4808   2270.0000
153.4000        183.6000      0.3514    100.0350    189.4703      0.4652   2277.0000
153.6000        192.2000      0.3316     96.3450    197.9052      0.4580   2261.0000
153.8000        187.9000      0.3198     95.2350    218.1372      0.4694   2258.0000
154.0000        185.7500      0.3136     94.8450    242.7061      0.4738   2249.0000
154.2000        180.3750      0.3150     98.0400    269.3021      0.4832   2210.0000
154.4000        186.8250      0.3222     99.7350    282.0329      0.4836   2215.0000
154.6000        184.6750      0.3320     99.5400    286.7213      0.4668   2272.8999
154.8000        179.3000      0.3424     96.8400    284.2642      0.4316   2274.0000
155.0000        181.4500      0.3573     96.0450    270.9159      0.4214   2293.0000
155.2000        183.6000      0.3537     94.3350    255.5989      0.4300   2309.0000
155.4000        185.7500      0.3431     90.4350    267.8225      0.4470   2287.0000
155.6000        178.2250      0.3364     89.3400    291.0320      0.4326   2272.8999
155.8000        181.4500      0.3372     89.1300    307.7437      0.4178   2266.0000
156.0000        179.3000      0.3372     88.7400    294.3974      0.4190   2278.0000
156.2000        173.9250      0.3391     87.5400    273.4412      0.4348   2261.0000
156.4000        175.0000      0.3469     86.8350    263.6313      0.4376   2310.0000
156.6000        173.9250      0.3570     87.8400    247.0407      0.4332   2328.0000
156.8000        173.9250      0.3639     93.4350    227.6307      0.4192   2296.8999
157.0000        171.7750      0.3667     92.3400    217.4144      0.4122   2315.0000
157.2000        175.0000      0.3554     88.4400    250.3573      0.4094   2305.0000
157.4000        175.0000      0.3440     85.3350    316.9196      0.4098   2283.0000
157.6000        176.0750      0.3317     81.7350    394.1223      0.4060   2255.0000
157.8000        173.9250      0.3280     77.8350    460.9912      0.4034   2282.0000
158.0000        175.0000      0.3346     74.3250    491.5103      0.4066   2296.8999
158.2000        172.8500      0.3423     73.8300    486.7066      0.4090   2261.8999
158.4000        175.0000      0.3407     75.1350    439.2840      0.4080   2233.0000
158.6000        168.5500      0.3418     78.8250    361.9197      0.4042   2233.0000
158.8000        171.7750      0.3526     77.8350    313.6311      0.3948   2245.0000
159.0000        173.9250      0.3631     76.3350    280.1626      0.3822   2259.0000
159.2000        173.9250      0.3693     74.3250    269.6088      0.3788   2242.0000
159.4000        175.0000      0.3668     71.3250    310.8541      0.3818   2265.0000
159.6000        177.1500      0.3574     69.4200    356.9072      0.3870   2274.0000
159.8000        173.9250      0.3406     69.4200    403.8241      0.3982   2274.0000
160.0000        171.7750      0.3288     72.6300    467.0321      0.4166   2228.0000
160.2000        171.7750      0.3174     75.5250    494.8990      0.4194   2201.0000
160.4000        173.9250      0.3219     77.5350    495.5395      0.4150   2180.0000
160.6000        178.2250      0.3269     81.4350    497.3381      0.3844   2241.0000
160.8000        181.4500      0.3331     83.0400    497.7018      0.3754   2272.8999
161.0000        178.2250      0.3298     81.8400    497.7508      0.3764   2283.0000
161.2000        185.7500      0.3338     79.7250    677.0366      0.3944   2280.0000
161.4000        185.7500      0.3474     76.6350    834.7441      0.4038   2338.0000
161.6000        182.5250      0.3717     76.7250   1014.8787      0.4064   2381.0000
161.8000        175.0000      0.3786     73.9350   1290.5846      0.3902   2425.0000
162.0000        177.1500      0.3722     74.6250   1062.7216      0.3874   2352.0000
162.2000        179.3000      0.3658     77.1300    853.9662      0.4052   2292.0000
162.4000        177.1500      0.3605     80.7300    631.6246      0.4134   2247.0000
162.6000        177.1500      0.3589     83.7300    518.8829      0.3856   2272.8999
162.8000        182.5250      0.3644     81.6300    377.0104      0.3822   2272.8999
163.0000        185.7500      0.3629     78.3300    282.0420      0.3922   2285.0000
163.2000        175.0000      0.3498     79.4250    332.7397      0.3996   2227.0000
163.4000        175.0000      0.3305     81.1350    396.7787      0.3938   2239.0000
163.6000        182.5250      0.3194     79.6350    449.9837      0.3916   2266.0000
163.8000        181.4500      0.3309     75.7350    481.0591      0.4228   2277.0000
164.0000        178.2250      0.3404     76.0350    488.1145      0.4368   2237.0000
164.2000        179.3000      0.3390     77.5350    489.4589      0.4368   2217.0000
164.4000        172.8500      0.3317     81.6300    489.6631      0.4006   2215.0000
164.6000        178.2250      0.3259     82.6350    489.6877      0.4052   2221.0000
164.8000        182.5250      0.3303     84.1350    489.6922      0.4104   2252.0000
165.0000        182.5250      0.3427     81.1350    489.6960      0.4312   2249.0000
165.2000        178.2250      0.3524     77.9250    629.9637      0.4330   2223.0000
165.4000        177.1500      0.3640     73.8300    742.1774      0.4388   2250.0000
165.6000        172.8500      0.3671     68.2200    842.6376      0.4388   2275.0000
165.8000        176.0750      0.3691     57.4200    821.4658      0.4526   2244.0000
166.0000        176.0750      0.3635     61.1250    781.3944      0.4542   2186.0000
166.2000        177.1500      0.3494     69.9300    683.8586      0.4430   2193.0000
166.4000        176.0750      0.3336     82.1400    597.1469      0.3694   2244.0000
166.6000        180.3750      0.3275     83.7300    492.5378      0.3652   2296.0000
166.8000        186.8250      0.3341     83.2350    425.2375      0.3888   2317.0000
