~VERSION INFORMATION
 VERS.                 2.0:   CWLS LOG ASCII STANDARD -VERSION 2.0
 WRAP.                  NO:   ONE LINE PER DEPTH STEP
~WELL INFORMATION BLOCK
#MNEM.UNIT           DATA                    DESCRIPTION OF MNEMONIC
#---------    -------------------            -------------------------------
# Generated from Intellog Unique Number	CN_91_93/WELL/3715
WELL.         10-12-093-07W4                 : Well_name    - WELL
LOC .         AA/10-12-093-07W4/0            : Location     - LOCATION
UWI .         AA/10-12-093-07W400            : Uwi          - UNIQUE WELL ID
ENTR.         JOETTE                         : Entered      - ENTERED BY
SRVC.         WESTERN ATLAS                  : Scn          - SERVICE COMPANY
DATE.         03/22/92                       : Date         - LOG DATE
STRT.F        50                             : top_depth    - START DEPTH
STOP.F        860.367                        : bot_depth    - STOP DEPTH
STEP.F        0.8202                         : increment    - STEP LENGTH
 NULL. -999.2500:NULL Value
~CURVE INFORMATION BLOCK
#MNEM UNIT       ERCB CURVE CODE    CURVE DESCRIPTION
#-----------   ------------------   ----------------------------------
DEPT.F        00 001 00 00         : DEPTH        - DEPTH
CALI.IN       00 280 01 00         : CAL          - CALIPER
GR  .API      00 310 00 00         : GR           - GAMMA RAY
NPHI.V/V      00 330 00 00         : PHIN         - NEUTRON POROSITY (SANDSTONE)
ILD .OHMM     00 120 00 00         : RESD         - DEEP RESISTIVITY (DIL)
~PARAMETER INFORMATION
#MNEM.UNIT           DATA             DESCRIPTION OF MNEMONIC
#---------         -----------     ------------------------------
GL  .M        520.111              : gl           - GROUND LEVEL ELEVATION
EREF.M        521.635              : kb           - ELEVATION OF DEPTH REFERENCE
DATM.M        521.635              : datum        - DATUM ELEVATION
TDD .M        267.31               : tdd          - TOTAL DEPTH DRILLER
RUN .         ONE                  : Run          - RUN NUMBER
ENG .         BILL                 : Engineer     - RECORDING ENGINEER
WIT .         JIM                  : Witness      - WITNESSED BY
MUD .         GEL                  : Mud_type     - MUD TYPE
MATR.         SANDSTONE            : Logunit      - NEUTRON MATRIX
TMAX.F        45                   : BHT          - MAXIMUM RECORDED TEMPERATURE
BHTD.F        877                  : BHTDEP       - MAXIMUM RECORDED TEMPERATURE
RMT .F        45                   : MDTP         - TEMPERATURE OF MUD
MUDD.LB/G     1.07                 : MWT          - MUD DENSITY
NEUT.         1                    : NEUTRON      - NEUTRON TYPE
RESI.         0                    : RESIST       - RESISTIVITY TYPE
RM  .OHMM     8.9                  : RM           - RESISTIVITY OF MUD
RMC .OHMM     8.9                  : RMC          - RESISTIVITY OF MUD CAKE
RMF .OHMM     8.9                  : RMF          - RESISTIVITY OF MUD FILTRATE
SUFT.F        39.2                 : SUFT         - SURFACE TEMPERATURE
~A  DEPTH      CAL       GR     PHIN     RESD
   50.000    8.905   70.169    0.313   34.624
   50.820    8.906   68.964    0.310   34.004
   51.640    8.907   69.590    0.307   34.009
   52.461    8.786   69.596    0.304   33.399
   53.281    8.705   72.059    0.301   32.199
   54.101    8.747   72.065    0.300   31.046
   54.921    8.788   71.467    0.306   31.052
   55.742    8.708   70.873    0.325   31.057
   56.562    8.546   69.665    0.341   31.063
   57.382    8.018   76.996    0.449   31.647
   58.202    7.856  116.671    0.476   38.737
   59.022    8.142  132.547    0.466   45.711
   59.843    8.468  119.746    0.456   45.720
   60.663    8.957   50.810    0.437   40.960
   61.483    9.161   44.724    0.424   38.065
   62.303    9.284   49.008    0.425   36.033
   63.123    9.326   51.461    0.431   34.109
   63.944    9.326   53.917    0.431   32.885
   64.764    9.328   56.370    0.424   31.704
   65.584    9.328   61.264    0.400   31.135
   66.404    9.451   64.937    0.369   30.573
   67.224    9.574   68.003    0.346   30.024
   68.045    9.697   70.456    0.329   30.032
   68.865    9.779   72.299    0.334   29.491
   69.685    9.373   64.987    0.341   30.044
   70.505    8.845   61.339    0.356   32.940
   71.326    8.439   56.470    0.388   37.465
   72.146    8.074   46.110    0.432   43.403
   72.966    7.749   47.953    0.445   49.367
   73.786    7.547   58.338    0.408   51.227
   74.606    7.629   62.628    0.328   48.493
   75.427    8.159   62.637    0.317   46.749
   76.247    8.485   63.870    0.313   41.121
   77.067    8.527   62.665    0.316   40.379
   77.887    8.446   59.624    0.322   43.468
   78.707    8.366   54.755    0.339   45.939
   79.528    8.245   49.887    0.374   46.798
   80.348    8.245   47.462    0.392   48.559
   81.168    8.450   46.260    0.406   49.471
   81.988    8.613   45.660    0.407   49.481
   82.808    8.655   42.008    0.406   49.491
   83.629    8.656   40.193    0.403   50.419
   84.449    8.616   39.596    0.402   50.431
   85.269    8.536   40.218    0.399   50.439
   86.089    8.496   40.838    0.396   51.389
   86.909    8.496   41.461    0.394   51.397
   87.730    8.456   42.083    0.392   51.410
   88.550    8.539   43.319    0.389   51.415
   89.370    8.621   45.162    0.387   51.425
   90.190    8.703   48.228    0.387   51.438
   91.010    8.745   50.068    0.389   50.513
   91.831    8.746   53.134    0.390   50.523
   92.651    8.584   55.587    0.393   49.616
   93.471    8.341   59.258    0.395   49.623
   94.291    8.179   62.324    0.399   49.633
   95.112    8.139   61.726    0.403   48.742
   95.932    8.181   62.352    0.410   48.750
   96.752    8.222   63.582    0.414   48.760
   97.572    8.264   66.645    0.416   48.772
   98.392    8.264   69.104    0.416   48.782
   99.213    8.306   70.337    0.415   48.791
  100.033    8.347   70.956    0.414   49.706
  100.853    8.348   71.579    0.411   50.637
  101.673    8.309   72.815    0.409   50.650
  102.493    8.350   72.828    0.405   50.658
  103.314    8.392   72.840    0.403   50.673
  104.134    8.474   72.853    0.400   51.620
  104.954    8.556   72.258    0.391   52.587
  105.774    8.598   71.657    0.387   53.575
  106.594    8.639   71.060    0.382   57.671
  107.415    8.437   74.736    0.374   62.077
  108.235    8.112   77.186    0.366   63.246
  109.055    7.950   80.255    0.362   63.256
  109.875    8.032   80.875    0.384   60.984
  110.696    8.237   80.887    0.409   58.796
  111.516    8.115   80.897    0.409   57.741
  112.336    7.953   78.469    0.402   62.155
  113.156    7.751   75.437    0.390   65.688
  113.976    7.711   74.223    0.377   64.509
  114.797    7.834   72.408    0.347   63.345
  115.617    8.160   69.983    0.331   57.805
  116.437    8.364   66.951    0.376   57.813
  117.257    8.447   66.347    0.386   56.770
  118.077    8.448   65.136    0.392   56.781
  118.898    8.449   63.322    0.395   56.793
  119.718    8.449   62.111    0.395   56.804
  120.538    8.491   59.079    0.393   56.821
  121.358    8.573   57.865    0.391   54.783
  122.178    8.655   56.050    0.387   53.797
  122.999    8.737   54.839    0.384   51.865
  123.819    8.820   54.245    0.380   50.005
  124.639    8.740   54.870    0.372   48.211
  125.459    8.618   56.710    0.366   45.638
  126.280    8.293   63.434    0.359   44.001
  127.100    8.010   67.718    0.351   41.653
  127.920    7.970   70.171    0.343   40.157
  128.740    8.133   71.406    0.328   36.641
  129.560    8.338   68.978    0.318   34.054
  130.381    8.013   64.113    0.298   32.833
  131.201    9.031   61.075    0.326   32.240
  132.021    8.992   59.260    0.352   32.250
  132.841    8.992   58.659    0.362   31.666
  133.661    9.033   58.672    0.326   31.672
  134.482    9.115   59.291    0.298   31.684
  135.302    9.238   60.524    0.315   31.110
  136.122    9.361   61.147    0.329   22.772
  136.942    9.484   64.216    0.346   20.778
  137.762    9.688   66.062    0.358   20.404
  138.583    9.730   66.072    0.351   19.672
  139.403    9.690   65.471    0.341   19.318
  140.223    9.610   64.876    0.339   19.323
  141.043    9.530   64.278    0.338   19.684
  141.864    9.530   64.291    0.339   20.805
  142.684    9.490   63.693    0.340   21.195
  143.504    9.329   63.706    0.339   21.590
  144.324    9.248   63.718    0.335   21.997
  145.144    9.086   63.731    0.329   22.000
  145.965    9.046   64.357    0.324   21.607
  146.785    9.128   64.369    0.332   21.215
  147.605    9.333   64.995    0.342   20.082
  148.425    9.334   65.611    0.345   18.664
  149.245    9.619   69.285    0.345   17.345
  150.066    9.945   73.574    0.346   18.331
  150.886    9.784   71.757    0.341   20.852
  151.706    9.581   68.715    0.334   21.242
  152.526    9.501   66.900    0.326   20.110
  153.346    9.542   66.300    0.321   19.386
  154.167    9.502   66.928    0.337   18.017
  154.987    9.503   66.938    0.357   18.021
  155.807    9.626   67.561    0.392   16.748
  156.627    9.667   66.963    0.405   15.854
  157.448    9.709   67.589    0.400   15.285
  158.268    9.710   69.431    0.390   14.737
  159.088    9.711   70.667    0.375   14.740
  159.908    9.671   70.674    0.363   16.161
  160.728    9.672   68.856    0.356   16.769
  161.549    9.591   66.428    0.353   17.722
  162.369    9.470   64.610    0.351   18.055
  163.189    9.390   64.015    0.349   17.408
  164.009    9.268   64.635    0.348   16.783
  164.829    9.351   66.484    0.347   16.480
  165.650    9.392   67.110    0.344   16.484
  166.470    9.434   67.726    0.337   17.104
  167.290    9.394   66.518    0.331   17.748
  168.110    9.273   63.480    0.323   19.819
  168.930    9.111   61.055    0.308   23.386
  169.751    8.868   59.844    0.295   27.094
  170.571    8.828   59.857    0.315   27.603
  171.391    9.073   60.483    0.338   27.608
  172.211    9.277   65.376    0.351   27.613
  173.031    9.481   70.273    0.331   26.138
  173.852    9.726   71.506    0.287   24.741
  174.672    9.646   71.518    0.271   22.166
  175.492    9.321   69.090    0.279   20.982
  176.312    9.322   66.052    0.294   19.145
  177.133    9.526   66.068    0.317   18.122
  177.953    9.853   69.738    0.333   16.536
  178.773   10.057   74.635    0.389   15.942
  179.593   10.098   75.870    0.422   14.022
  180.413   10.099   76.487    0.428   13.769
  181.234   10.059   75.889    0.427   15.097
  182.054   10.060   74.071    0.419   15.955
  182.874   10.061   72.253    0.412   16.863
  183.694   10.062   67.385    0.411   17.821
  184.514    9.737   64.963    0.417   18.155
  185.335    9.372   66.803    0.422   18.495
  186.155    9.455   68.649    0.437   18.842
  186.975    9.537   68.658    0.448   18.846
  187.795    9.741   67.454    0.449   18.852
  188.615    9.701   69.293    0.450   18.854
  189.436    9.499   69.916    0.444   17.523
  190.256    9.418   65.050    0.430   15.697
  191.076    9.419   65.670    0.431   14.062
  191.896    9.542   68.739    0.436   13.811
