~VERSION INFORMATION
 VERS.                 2.0:   CWLS LOG ASCII STANDARD -VERSION 2.0
 WRAP.                  NO:   ONE LINE PER DEPTH STEP
~WELL INFORMATION BLOCK
#MNEM.UNIT           DATA                    DESCRIPTION OF MNEMONIC
#---------    -------------------            -------------------------------
# Generated from Intellog Unique Number	CC_80_83/WELL/2441
NULL.         -999.25                        : NULL_VALUE
WELL.         PEX PCEJ HANGST OV             : Well_name    - WELL
LOC .         15-23-081-11W4                 : Location     - LOCATION          
UWI .         AA/15-23-081-11W400            : Uwi          - UNIQUE WELL ID    
ENTR.         DW                             : Entered      - ENTERED BY        
SRVC.         DRESSER ATLAS                  : Scn          - SERVICE COMPANY   
DATE.         28 FEB 80                      : Date         - LOG DATE
STRT.M        260                            : top_depth    - START DEPTH       
STOP.M        489.791                        : bot_depth    - STOP DEPTH        
STEP.M        0.3                            : increment    - STEP LENGTH       
~CURVE INFORMATION BLOCK
#MNEM UNIT       ERCB CURVE CODE    CURVE DESCRIPTION
#-----------   ------------------   ----------------------------------
DEPT.M        00 001 00 00         : DEPTH        - DEPTH                       
DPHI.V/V      00 890 00 00         : PHID         - DENSITY POROSITY (LIMESTONE)
NPHI.V/V      00 330 00 00         : PHIN         - NEUTRON POROSITY (LIMESTONE)
GR  .API      00 310 00 00         : GR           - GAMMA RAY                   
ILD .OHMM     00 120 00 00         : RESD         - DEEP RESISTIVITY (DIL)      
~PARAMETER INFORMATION       
#MNEM.UNIT           DATA             DESCRIPTION OF MNEMONIC
#---------         -----------     ------------------------------
GL  .M        700.26               : gl           - GROUND LEVEL ELEVATION      
EREF.M        703.98               : kb           - ELEVATION OF DEPTH REFERENCE
DATM.M        703.98               : datum        - DATUM ELEVATION             
TDD .M        500                  : tdd          - TOTAL DEPTH DRILLER         
RUN .         ONE                  : Run          - RUN NUMBER                  
ENG .         BILL                 : Engineer     - RECORDING ENGINEER          
WIT .         JIM                  : Witness      - WITNESSED BY                
MUD .         GEL                  : Mud_type     - MUD TYPE                    
MATR.         LIMESTONE            : Logunit      - NEUTRON MATRIX              
TMAX.C        18                   : BHT          - MAXIMUM RECORDED TEMPERATURE
BHTD.M        500                  : BHTDEP       - MAXIMUM RECORDED TEMPERATURE
MATR.         1                    : LOGUNIT      - NEUTRON MATRIX              
RMT .C        25                   : MDTP         - TEMPERATURE OF MUD          
NEUT.         1                    : NEUTRON      - NEUTRON TYPE                
RESI.         0                    : RESIST       - RESISTIVITY TYPE            
RMC .OHMM     0.25                 : RMC          - RESISTIVITY OF MUD CAKE     
RMF .OHMM     0.25                 : RMF          - RESISTIVITY OF MUD FILTRATE 
SUFT.C        15                   : SUFT         - SURFACE TEMPERATURE         
~A  DEPTH     PHID     PHIN       GR     RESD
# ...
  312.198    0.260    0.370   91.166  331.227
  312.498    0.266    0.341   88.649  342.202
  312.798    0.268    0.334   85.503  358.657
  313.098    0.267    0.326   75.400  377.849
  313.398    0.264    0.313   55.813  394.298
  313.698    0.266    0.315   52.038  405.274
  313.998    0.272    0.330   52.056  413.509
  314.298    0.288    0.335   47.642  416.271
  314.598    0.290    0.331   43.230  419.042
  314.898    0.289    0.349   53.367  419.067
  315.198    0.287    0.336   56.545  419.091
  315.498    0.280    0.326   51.503  416.380
  315.798    0.278    0.337   52.153  419.144
  316.098    0.284    0.338   53.436  421.907
  316.398    0.291    0.332   49.022  421.931
  316.698    0.293    0.341   47.144  424.692
  316.998    0.294    0.340   42.101  424.717
  317.298    0.294    0.327   45.277  427.482
  317.598    0.295    0.330   47.198  427.508
  317.898    0.296    0.326   47.208  427.541
  318.198    0.296    0.328   45.327  427.555
  318.498    0.297    0.328   45.344  427.586
  318.798    0.301    0.348   52.949  427.612
  319.098    0.302    0.358   60.556  427.631
  319.398    0.303    0.355   62.467  427.665
  319.698    0.302    0.355   59.958  424.952
  319.998    0.305    0.362   53.650  422.234
  320.298    0.307    0.368   49.237  419.529
  320.598    0.308    0.370   56.213  419.548
  320.898    0.303    0.331   56.228  419.583
  321.198    0.303    0.343   47.392  419.597
  321.497    0.306    0.342   45.510  419.622
  321.797    0.307    0.344   49.953  416.918
  322.097    0.307    0.349   48.073  414.204
  322.397    0.306    0.356   51.253  411.496
  322.697    0.302    0.343   54.428  411.525
  322.997    0.297    0.313   50.019  411.542
  323.297    0.284    0.284   44.976  419.786
  323.597    0.260    0.265   48.157  425.280
  323.897    0.100    0.152   44.376  436.257
  324.197    0.019    0.125   41.865  449.967
  324.497    0.081    0.127   38.087  474.631
  324.797    0.211    0.248   38.738  488.346
  325.097    0.273    0.303   41.282  474.685
  325.397    0.295    0.329   48.888  450.074
  325.697    0.300    0.337   52.703  430.938
  325.997    0.298    0.336   53.348  422.741
  326.297    0.298    0.341   52.100  414.558
  326.597    0.299    0.362   46.425  409.114
  326.897    0.300    0.358   47.703  406.404
  327.197    0.301    0.346   51.517  406.422
  327.497    0.303    0.361   50.901  406.447
  327.797    0.301    0.351   42.696  409.221
  328.097    0.299    0.351   42.710  409.240
  328.397    0.297    0.367   45.892  409.264
  328.697    0.299    0.358   47.173  406.552
  328.997    0.300    0.344   45.292  406.583
  329.297    0.300    0.344   40.882  406.598
  329.597    0.297    0.344   41.529  403.889
  329.897    0.291    0.349   47.239  403.917
  330.197    0.287    0.349   52.948  403.944
  330.497    0.289    0.359   46.644  403.972
  330.797    0.289    0.339   44.125  403.989
  331.097    0.291    0.332   43.508  404.021
  331.397    0.292    0.337   48.585  404.038
  331.697    0.295    0.333   44.179  401.334
  331.997    0.292    0.349   49.253  401.351
  332.297    0.286    0.363   49.900  398.655
  332.597    0.281    0.373   42.961  398.674
  332.897    0.282    0.349   44.244  398.696
  333.197    0.287    0.333   41.728  398.714
  333.497    0.288    0.349   44.909  398.754
  333.797    0.291    0.349   44.924  398.771
  334.097    0.294    0.358   43.678  398.810
  334.397    0.299    0.364   44.959  398.827
  334.697    0.299    0.351   45.611  398.845
  334.997    0.297    0.350   45.623  398.880
  335.297    0.293    0.354   45.642  398.894
  335.597    0.290    0.344   48.187  398.925
  335.897    0.287    0.346   50.730  398.953
  336.197    0.279    0.351   52.013  398.971
  336.497    0.273    0.346   52.028  398.997
  336.797    0.274    0.334   53.946  399.030
  337.097    0.279    0.327   55.223  399.047
  337.397    0.280    0.363   47.018  399.086
  337.697    0.280    0.357   52.732  399.104
  337.997    0.275    0.366   52.115  399.123
  338.297    0.265    0.356   52.763  396.424
  338.597    0.258    0.357   48.985  396.441
  338.897    0.259    0.359   48.366  396.460
  339.197    0.257    0.362   55.344  396.494
  339.497    0.248    0.368   57.885  396.512
  339.797    0.249    0.387   66.124  393.808
  340.097    0.278    0.393   57.288  391.097
  340.397    0.279    0.385   64.897  385.645
  340.697    0.269    0.384   66.809  382.931
  340.997    0.270    0.385   64.927  380.216
  341.297    0.276    0.374   61.780  380.249
  341.597    0.277    0.357   56.737  374.789
  341.897    0.272    0.355   61.813  358.393
  342.197    0.256    0.363   71.948  350.203
  342.497    0.262    0.370   76.391  350.229
  342.797    0.256    0.364   64.394  358.467
  343.097    0.251    0.358   66.309  363.964
  343.397    0.249    0.371   69.484  361.252
  343.697    0.247    0.379   73.299  339.380
  343.997    0.265    0.368   77.740  328.454
  344.297    0.277    0.372   72.066  325.746
  344.597    0.273    0.381   68.918  323.042
  344.897    0.261    0.382   74.628  325.796
  345.197    0.268    0.381   79.702  334.037
  345.497    0.276    0.380   70.865  342.274
  345.797    0.283    0.373   64.557  345.038
  346.096    0.282    0.362   62.676  347.804
  346.396    0.276    0.357   68.387  345.092
  346.696    0.267    0.370   72.196  342.371
  346.996    0.257    0.380   62.095  331.450
  347.296    0.252    0.404   69.072  315.052
  347.596    0.257    0.413   75.411  309.596
  347.896    0.264    0.404   73.529  306.889
  348.196    0.269    0.373   69.117  304.167
  348.496    0.273    0.362   65.971  309.669
  348.796    0.273    0.364   57.137  331.602
  349.096    0.275    0.381   52.723  348.050
  349.396    0.278    0.381   57.167  345.340
  349.696    0.285    0.400   63.508  331.677
  349.996    0.280    0.405   67.318  320.748
  350.296    0.281    0.378   65.439  312.564
  350.596    0.284    0.374   59.131  318.071
  350.896    0.276    0.356   54.090  329.043
  351.196    0.291    0.363   52.842  334.543
  351.496    0.290    0.353   52.855  334.566
  351.796    0.284    0.348   61.093  326.382
  352.096    0.253    0.370   70.597  315.454
  352.396    0.243    0.368   69.349  310.001
  352.696    0.266    0.362   74.426  307.291
  352.996    0.285    0.353   80.134  312.804
  353.296    0.288    0.383   69.399  315.557
  353.596    0.278    0.349   62.458  321.061
  353.896    0.275    0.348   70.066  326.562
  354.196    0.287    0.360   63.759  332.060
  354.496    0.291    0.354   63.139  337.556
  354.796    0.281    0.344   66.951  340.332
  355.096    0.270    0.366   72.027  343.091
  355.396    0.267    0.351   70.781  340.376
  355.696    0.268    0.339   64.474  334.921
  355.996    0.266    0.361   69.554  332.211
  356.296    0.250    0.372   70.829  326.765
  356.596    0.237    0.361   69.581  324.058
  356.896    0.241    0.350   75.289  321.342
  357.196    0.247    0.347   77.835  318.632
  357.496    0.251    0.361   72.792  318.647
  357.796    0.232    0.357   67.117  318.681
  358.096    0.209    0.347   72.825  315.971
  358.396    0.212    0.356   77.268  313.259
  358.696    0.244    0.386   75.387  305.061
  358.996    0.246    0.402   87.422  285.927
  359.296    0.232    0.395   86.805  269.521
  359.596    0.221    0.379   83.026  255.861
  359.896    0.221    0.377   88.737  247.671
  360.196    0.221    0.381   92.546  236.750
  360.496    0.216    0.428   87.506  223.086
  360.796    0.208    0.436   97.005  203.943
  361.096    0.206    0.413  105.875  176.592
  361.396    0.206    0.406  102.732  149.243
  361.696    0.206    0.419  107.809  138.323
  361.996    0.206    0.435  107.198  138.343
  362.296    0.206    0.451  104.047  146.589
  362.596    0.209    0.448  109.125  152.089
  362.896    0.223    0.440  103.446  154.855
  363.196    0.232    0.433   98.405  152.135
  363.496    0.230    0.415   99.053  154.899
  363.796    0.220    0.406   95.907  168.608
  364.096    0.205    0.395   98.451  201.491
