~Version Information Block
VERS .                 2.00:  CWLS LOG ASCII STANDARD - VERSION 2.00
WRAP .                   NO:  One line per depth step
~Well Information Block
#MNEM.UNIT        Data Type   Information
#---------- ----------------  -----------
STRT .M                9.14         :  START DEPTH
STOP .M              111.74         :  STOP DEPTH
STEP .M                 0.3         :  STEP
NULL .              -999.25         :  NULL VALUE
COMP .  PACIFIC PETROLEUMS LTD.     :  COMPANY
WELL .  BAYSEL ASHLAND STPBNK CH #6 :  WELL
FLD  .                              :  FIELD
LOC  . 13-16-091-09W4               :  LOCATION
PROV . ALBERTA                      :  PROVINCE
SRVC . SCHLUMBERGER                 :  SERVICE COMPANY
DATE . 20 FEB 73                    :  LOG DATE
UWI  . AA/13-16-091-09W400          :  UNIQUE WELL ID
~Curve Information Block
#MNEM.UNIT         API CODE   Curve Description
#---------- ----------------  -----------------
DEPTH.M                    :  Transferred from LOGMATE/ESP.
GR   .API                  :  Loaded from 920407.092229
PHID .FRAC                 :  Loaded from 920407.092229
RESD .OHMM                 :  Loaded from 920407.092229
~Parameter Information Block
#MNEM.UNIT            Value   Description
#---------- ----------------  -----------
PROJECT.             MOS_91_9:
SET  .                  RAW:
~A        DEPTH             GR           PHID           RESD
# ...
        88.3400        23.3000         0.3856        19.4900
        88.6400        16.4900         0.3754        14.9900
        88.9400        17.9100         0.3674        13.3700
        89.2400        22.2500         0.3609        13.5400
        89.5400        23.3900         0.3559        15.1600
        89.8400        17.7600         0.3544        12.0800
        90.1400        16.4300         0.3524        10.8400
        90.4400        19.7800         0.3564        11.7300
        90.7400        21.7500         0.3637        13.2000
        91.0400        21.2400         0.3687        13.8300
        91.3400        20.2600         0.3653        12.7000
        91.6400        18.6900         0.3545        12.1300
        91.9400        17.9800         0.3480        13.3600
        92.2400        18.2200         0.3426         9.3700
        92.5400        18.7700         0.3391        10.5300
        92.8400        21.3700         0.3217        15.5200
        93.1400        26.7300         0.2775        11.7800
        93.4400        34.3700         0.2348         4.4200
        93.7400        59.4500         0.2067        19.1000
        94.0400        54.8500         0.2099        16.5500
        94.3400        20.1200         0.2775         8.7800
        94.6400        18.0400         0.2620        11.2700
        94.9400        18.5200         0.2599        13.0000
        95.2400        18.3600         0.2691        13.1000
        95.5400        18.2100         0.2620         9.3000
        95.8400        22.3000         0.2557         8.4600
        96.1400        29.9400         0.2659         7.5400
        96.4400        36.8700         0.2269         7.3500
        96.7400        46.4400         0.2326         8.0200
        97.0400        48.6900         0.2523         9.8800
        97.3400        48.6100         0.2562         9.1700
        97.6400        54.0500         0.2662         7.2500
        97.9400        57.2400         0.2727         5.7700
        98.2400        60.9500         0.2596         4.2700
        98.5400        67.3700         0.2687         4.5300
        98.8400        73.6700         0.3846         9.5100
        99.1400        79.5000         0.4238         9.1800
        99.4400        81.7000         0.3902         5.9300
        99.7400        82.6100         0.3624         7.0200
       100.0400        77.5000         0.3543        12.2600
       100.3400        75.0600         0.2523        11.2300
       100.6400        69.1600         0.2020         9.0400
       100.9400        65.8100         0.1819         8.0700
       101.2400        60.5400         0.1717        10.4300
       101.5400        64.4000         0.1642         7.6000
       101.8400        61.9200         0.1483         7.8700
       102.1400        82.9100         0.1703         8.8000
       102.4400        86.1400         0.1584        11.2500
       102.7400        85.3900         0.1595        12.4100
       103.0400        80.7900         0.1624        13.1400
       103.3400        69.4500         0.1713        13.9700
       103.6400        56.0300         0.2046        13.6100
       103.9400        46.9000         0.2422        16.5200
       104.2400        41.2300         0.2704        16.7800
       104.5400        35.6800         0.2979        13.6200
       104.8400        30.2900         0.2989        11.2700
       105.1400        36.6700         0.1974        12.4600
       105.4400        45.0200         0.1729        14.5100
       105.7400        60.7700         0.1431        11.1300
       106.0400        72.3100         0.1248         9.6400
       106.3400        73.3800         0.1418        14.4400
       106.6400        71.6500         0.1266        15.4000
       106.9400        63.1400         0.1232        13.5200
       107.2400        46.9300         0.1547        15.0500
       107.5400        25.9800         0.1788        15.3200
       107.8400         9.9200         0.2083        14.3800
       108.1400        -0.7400         0.2217        18.9200
       108.4400        -0.5800         0.2180        21.8800
       108.7400        -0.1500         0.2102        32.5800
       109.0400         0.0100         0.0459       267.0100
       109.3400         0.4100         0.0301       258.6600
       109.6400         0.4500         0.0413       129.3900
       109.9400         0.5300         0.0324        76.0100
       110.2400         0.7700         0.0283        87.8900
       110.5400         0.9700         0.0445        73.0100
       110.8400         1.4100         0.0526        42.4700
       111.1400         1.6000         0.0626        30.7900
       111.4400         1.7300         0.0701        45.9200
       111.7400         1.7700         0.0760        30.9100
