~VERSION INFORMATION
 VERS.                 2.0:   CWLS LOG ASCII STANDARD -VERSION 2.0
 WRAP.                  NO:   ONE LINE PER DEPTH STEP
~WELL INFORMATION BLOCK
#MNEM.UNIT           DATA                    DESCRIPTION OF MNEMONIC
#---------    -------------------            -------------------------------
# Generated from Intellog Unique Number	CX_WELLS/WELL/3411
WELL.         SAN CHEESHAM                   : Well_name    - WELL
LOC .         AA/14-18-085-06W4/0            : Location     - LOCATION
UWI .         AA/14-18-085-06W400            : Uwi          - UNIQUE WELL ID
ENTR.         T                              : Entered      - ENTERED BY
SRVC.         SCHLUMBERGER                   : Scn          - SERVICE COMPANY
STRT.M        100                            : top_depth    - START DEPTH
STOP.M        290                            : bot_depth    - STOP DEPTH
STEP.M        0.25                           : increment    - STEP LENGTH
 NULL. -999.2500:NULL Value
~CURVE INFORMATION BLOCK
#MNEM UNIT       ERCB CURVE CODE    CURVE DESCRIPTION
#-----------   ------------------   ----------------------------------
DEPT.M        00 001 00 00         : DEPTH        - DEPTH
GR  .API      00 310 00 00         : GR           - GAMMA RAY
NPHI.V/V      00 330 00 00         : PHIN         - NEUTRON POROSITY (SANDSTONE)
DPHI.V/V      00 890 00 00         : PHID         - DENSITY POROSITY (SANDSTONE)
ILD .OHMM     00 120 00 00         : RESD         - DEEP RESISTIVITY (OTHER)
~PARAMETER INFORMATION
#MNEM.UNIT           DATA             DESCRIPTION OF MNEMONIC
#---------         -----------     ------------------------------
GL  .M        472.2                : gl           - GROUND LEVEL ELEVATION
EREF.M        472.2                : kb           - ELEVATION OF DEPTH REFERENCE
DATM.M        472.2                : datum        - DATUM ELEVATION
TDD .M        292                  : tdd          - TOTAL DEPTH DRILLER
RUN .         ONE                  : Run          - RUN NUMBER
ENG .         BILL                 : Engineer     - RECORDING ENGINEER
WIT .         JIM                  : Witness      - WITNESSED BY
MUD .         GEL                  : Mud_type     - MUD TYPE
MATR.         SANDSTONE            : Logunit      - NEUTRON MATRIX
TMAX.C        20                   : BHT          - MAXIMUM RECORDED TEMPERATURE
BHTD.M        292                  : BHTDEP       - MAXIMUM RECORDED TEMPERATURE
MATR.         1                    : LOGUNIT      - NEUTRON MATRIX
RMT .C        15.6                 : MDTP         - TEMPERATURE OF MUD
NEUT.         1                    : NEUTRON      - NEUTRON TYPE
RESI.         5                    : RESIST       - RESISTIVITY TYPE
RMC .OHMM     4.5                  : RMC          - RESISTIVITY OF MUD CAKE
RMF .OHMM     3.9                  : RMF          - RESISTIVITY OF MUD FILTRATE
SUFT.C        4                    : SUFT         - SURFACE TEMPERATURE
~A  DEPTH       GR     PHIN     PHID     RESD
# ...
  230.500   72.577    0.481    0.312    4.893
  230.750   68.953    0.451    0.317    4.182
  231.000   69.646    0.449    0.291    3.707
  231.250   74.023    0.454    0.281    3.403
  231.500   75.330    0.451    0.281    3.236
  231.750   71.726    0.443    0.282    3.184
  232.000   66.279    0.430    0.313    3.084
  232.250   65.764    0.430    0.334    2.983
  232.500   65.230    0.437    0.350    2.841
  232.750   65.309    0.442    0.356    2.746
  233.000   66.002    0.444    0.347    2.565
  233.250   67.290    0.447    0.329    2.439
  233.500   68.597    0.448    0.305    2.361
  233.750   69.904    0.441    0.301    2.366
  234.000   70.004    0.432    0.299    2.417
  234.250   70.063    0.425    0.297    2.422
  234.500   69.528    0.423    0.298    2.386
  234.750   68.994    0.428    0.310    2.351
  235.000   67.845    0.443    0.331    2.361
  235.250   63.013    0.457    0.342    2.364
  235.500   57.566    0.478    0.352    2.638
  235.750   52.120    0.475    0.362    2.837
  236.000   49.129    0.465    0.357    2.900
  236.250   51.664    0.453    0.339    2.756
  236.500   56.041    0.433    0.329    2.619
  236.750   62.261    0.427    0.320    2.449
  237.000   69.727    0.436    0.313    2.370
  237.250   73.490    0.445    0.314    2.417
  237.500   70.500    0.453    0.314    2.696
  237.750   65.053    0.459    0.317    3.227
  238.000   58.359    0.455    0.319    3.797
  238.250   49.843    0.437    0.354    4.234
  238.500   53.606    0.438    0.349    4.725
  238.750   57.369    0.433    0.340    5.082
  239.000   63.034    0.434    0.327    5.872
  239.250   63.687    0.441    0.320    6.910
  239.500   64.381    0.450    0.311    6.456
  239.750   64.460    0.452    0.301    5.921
  240.000   65.153    0.449    0.305    5.340
  240.250   65.866    0.422    0.309    4.489
  240.500   65.946    0.419    0.312    4.263
  240.750   64.797    0.419    0.308    3.713
  241.000   63.054    0.419    0.278    3.656
  241.250   62.480    0.420    0.279    4.299
  241.500   60.143    0.421    0.305    5.335
  241.750   58.955    0.424    0.331    5.949
  242.000   55.350    0.427    0.339    5.661
  242.250   48.062    0.426    0.351    5.376
  242.500   43.823    0.415    0.355    4.938
  242.750   43.309    0.401    0.346    4.777
  243.000   44.616    0.392    0.338    4.545
  243.250   44.715    0.390    0.341    4.561
  243.500   44.141    0.388    0.342    4.653
  243.750   42.992    0.386    0.345    4.830
  244.000   42.477    0.385    0.346    5.386
  244.250   43.151    0.386    0.340    6.007
  244.500   44.458    0.390    0.337    6.823
  244.750   47.647    0.418    0.340    7.888
  245.000   50.162    0.446    0.341    8.642
  245.250   52.083    0.473    0.334    9.295
  245.500   50.321    0.459    0.325   10.183
  245.750   45.488    0.440    0.332   11.165
  246.000   40.656    0.422    0.346   12.017
  246.250   37.665    0.415    0.350   12.059
  246.500   38.972    0.411    0.346   11.864
  246.750   39.666    0.406    0.345   11.705
  247.000   39.745    0.408    0.342   11.722
  247.250   37.982    0.415    0.341   11.964
  247.500   38.696    0.431    0.342   12.212
  247.750   38.775    0.438    0.348   12.465
  248.000   38.854    0.426    0.355   11.854
  248.250   40.161    0.411    0.350   10.144
  248.500   43.944    0.416    0.339    7.519
  248.750   46.440    0.422    0.329    6.902
  249.000   50.203    0.428    0.315    6.219
  249.250   56.442    0.436    0.285    5.229
  249.500   59.591    0.441    0.317    6.037
  249.750   60.285    0.395    0.328    7.104
  250.000   63.454    0.391    0.298    8.354
  250.250   69.059    0.397    0.264    9.824
  250.500   68.524    0.397    0.260   11.158
  250.750   67.990    0.379    0.250   12.900
  251.000   71.159    0.343    0.230   13.642
  251.250   76.744    0.369    0.211   14.673
  251.500   92.192    0.375    0.185   15.516
  251.750  103.363    0.379    0.189   14.242
  252.000  100.986    0.379    0.204    9.842
  252.250   97.976    0.373    0.211    8.876
  252.500   94.352    0.370    0.216    6.252
  252.750   90.767    0.370    0.222    4.476
  253.000   93.896    0.370    0.223    4.179
  253.250   96.432    0.371    0.220    3.153
  253.500   95.917    0.373    0.212    2.894
  253.750   94.748    0.376    0.209    2.517
  254.000   93.639    0.378    0.211    2.311
  254.250   93.679    0.381    0.217    2.401
  254.500   95.640    0.384    0.223    2.496
  254.750   96.947    0.393    0.226    2.501
  255.000   97.640    0.399    0.223    2.555
  255.250   97.086    0.400    0.222    2.560
  255.500   91.639    0.400    0.221    2.569
  255.750   81.261    0.401    0.226    2.531
  256.000   76.429    0.407    0.259    2.408
  256.250   69.754    0.423    0.317    2.330
  256.500   62.446    0.436    0.340    2.253
  256.750   55.158    0.441    0.336    2.184
  257.000   48.463    0.441    0.334    2.149
  257.250   43.017    0.442    0.346    2.116
  257.500   42.502    0.447    0.355    2.121
  257.750   43.809    0.451    0.356    2.130
  258.000   43.869    0.450    0.357    2.135
  258.250   42.720    0.446    0.362    2.139
  258.500   42.799    0.445    0.364    2.147
  258.750   39.809    0.444    0.365    2.151
  259.000   39.888    0.443    0.364    2.157
  259.250   40.601    0.442    0.367    2.241
  259.500   42.523    0.442    0.372    2.456
  259.750   43.830    0.444    0.377    2.787
  260.000   48.207    0.453    0.406    4.059
  260.250   53.812    0.504    0.445    4.369
  260.500   57.595    0.564    0.484    4.786
  260.750   55.832    0.602    0.499    5.244
  261.000   57.140    0.614    0.398    6.276
  261.250   63.973    0.595    0.389    7.783
  261.500   71.420    0.601    0.438    9.831
  261.750   85.641    0.607    0.463   11.977
  262.000   80.808    0.612    0.492   14.602
  262.250   74.748    0.607    0.544   17.789
  262.500   71.123    0.605    0.592   20.552
  262.750   69.994    0.610    0.587   20.610
  263.000   73.144    0.610    0.571   18.260
  263.250   76.907    0.561    0.526   15.341
  263.500   82.532    0.504    0.475   13.344
  263.750   85.661    0.459    0.465    9.060
  264.000   88.216    0.459    0.450    6.967
  264.250   87.067    0.451    0.238    5.646
  264.500   85.919    0.430    0.179    4.582
  264.750   85.998    0.407    0.159    4.354
  265.000   86.078    0.386    0.158    3.996
  265.250   88.019    0.382    0.153    3.798
  265.500   89.960    0.380    0.149    3.811
  265.750   92.455    0.378    0.143    3.887
  266.000   96.218    0.378    0.144    4.114
  266.250  102.457    0.378    0.172    4.587
  266.500  104.993    0.385    0.197    4.679
  266.750  108.142    0.412    0.206    4.610
  267.000  111.291    0.440    0.228    4.084
  267.250  114.440    0.512    0.254    3.683
  267.500  115.153    0.576    0.263    3.378
  267.750  115.233    0.574    0.255    3.101
  268.000  116.540    0.505    0.248    2.949
  268.250  118.481    0.474    0.240    2.957
  268.500  120.422    0.482    0.203    2.965
  268.750  121.096    0.510    0.197    3.027
  269.000  121.155    0.551    0.191    3.145
  269.250  118.798    0.559    0.197    3.325
  269.500  115.194    0.574    0.208    3.708
  269.750  109.727    0.559    0.204    4.138
  270.000  103.033    0.425    0.147    4.224
  270.250   89.605    0.370    0.005    4.088
  270.500   81.683    0.375    0.082    3.822
  270.750   84.832    0.377    0.131    3.630
  271.000   91.685    0.377    0.197    3.391
  271.250  104.044    0.377    0.193    3.227
  271.500  104.163    0.379    0.188    3.175
  271.750  103.588    0.380    0.187    3.077
  272.000  103.093    0.380    0.189    3.137
  272.250  101.945    0.380    0.195    3.322
  272.500  100.756    0.379    0.201    3.386
  272.750   97.766    0.380    0.206    3.456
  273.000   93.567    0.379    0.204    3.657
  273.250   91.190    0.376    0.202    3.603
  273.500   90.676    0.372    0.194    3.309
  273.750   90.735    0.370    0.185    3.145
