~VERSION INFORMATION
 VERS.                 2.0:   CWLS LOG ASCII STANDARD -VERSION 2.0
 WRAP.                  NO:   ONE LINE PER DEPTH STEP
~WELL INFORMATION BLOCK
#MNEM.UNIT           DATA                    DESCRIPTION OF MNEMONIC
#---------    -------------------            -------------------------------
# Generated from Intellog Unique Number	CW_82_90/WELL/1033
WELL.         14-05-082-21W4                 : Well_name    - WELL
LOC .         AA/14-05-082-21W4/0            : Location     - LOCATION
UWI .         AA/14-05-082-21W4/0            : Uwi          - UNIQUE WELL ID
ENTR.         JAYE                           : Entered      - ENTERED BY
SRVC.         SCHLUMBERGER                   : Scn          - SERVICE COMPANY
DATE.         26 JAN 82                      : Date         - LOG DATE
STRT.M        225                            : top_depth    - START DEPTH
STOP.M        430                            : bot_depth    - STOP DEPTH
STEP.M        0.25                           : increment    - STEP LENGTH
 NULL. -999.2500:NULL Value
~CURVE INFORMATION BLOCK
#MNEM UNIT       ERCB CURVE CODE    CURVE DESCRIPTION
#-----------   ------------------   ----------------------------------
DEPT.M        00 001 00 00         : DEPTH        - DEPTH
CALI.MM       00 280 01 00         : CAL          - CALIPER
GR  .API      00 310 00 00         : GR           - GAMMA RAY
NPHI.V/V      00 330 00 00         : PHIN         - NEUTRON POROSITY (SANDSTONE)
DPHI.V/V      00 890 00 00         : PHID         - DENSITY POROSITY (SANDSTONE)
ILD .OHMM     00 120 00 00         : RESD         - DEEP RESISTIVITY (DIL)
~PARAMETER INFORMATION
#MNEM.UNIT           DATA             DESCRIPTION OF MNEMONIC
#---------         -----------     ------------------------------
GL  .M        615.3                : gl           - GROUND LEVEL ELEVATION
EREF.M        619.8                : kb           - ELEVATION OF DEPTH REFERENCE
DATM.M        615.3                : datum        - DATUM ELEVATION
TDD .M        437                  : tdd          - TOTAL DEPTH DRILLER
RUN .         ONE                  : Run          - RUN NUMBER
ENG .         KUZIO                : Engineer     - RECORDING ENGINEER
WIT .         WALKER               : Witness      - WITNESSED BY
BASE.         EDMONTON             : Branch       - HOME BASE OF LOGGING UNIT
MUD .         GEL CHEM             : Mud_type     - MUD TYPE
MATR.         SANDSTONE            : Logunit      - NEUTRON MATRIX
TMAX.C        24.4                 : BHT          - MAXIMUM RECORDED TEMPERATURE
BHTD.M        437                  : BHTDEP       - MAXIMUM RECORDED TEMPERATURE
RMT .C        14.4                 : MDTP         - TEMPERATURE OF MUD
MUDD.KG/M     1060                 : MWT          - MUD DENSITY
NEUT.         1                    : NEUTRON      - NEUTRON TYPE
RESI.         0                    : RESIST       - RESISTIVITY TYPE
RM  .OHMM     6.58                 : RM           - RESISTIVITY OF MUD
RMC .OHMM     0.25                 : RMC          - RESISTIVITY OF MUD CAKE
RMF .OHMM     5.72                 : RMF          - RESISTIVITY OF MUD FILTRATE
SUFT.C        4                    : SUFT         - SURFACE TEMPERATURE
~A  DEPTH      CAL       GR     PHIN     PHID     RESD
  225.000  181.946  105.000    0.556    0.284    2.585
  225.250  173.809  111.438    0.544    0.272    2.721
  225.500  169.740  114.501    0.548    0.258    2.816
  225.750  170.052  114.127    0.561    0.257    2.898
  226.000  170.468  113.815    0.579    0.262    2.910
  226.250  170.466  108.566    0.571    0.269    2.836
  226.500  170.256  108.379    0.533    0.260    2.780
  226.750  168.690   94.004    0.516    0.279    2.850
  227.000  165.977   83.692    0.531    0.295    2.737
  227.250  163.056   73.193    0.490    0.293    3.030
  227.500  157.109   67.631    0.448    0.272    4.253
  227.750  153.040   62.194    0.446    0.254    5.540
  228.000  151.162   52.632    0.423    0.252    7.257
  228.250  150.222   46.133    0.399    0.262   14.645
  228.500  150.116   47.258    0.402    0.297   19.256
  228.750  149.802   53.509    0.423    0.336   21.076
  229.000  150.426   52.322    0.438    0.346   22.984
  229.250  151.676   54.135    0.455    0.350   24.188
  229.500  153.448   55.824    0.445    0.363   25.124
  229.750  154.489   57.387    0.431    0.361   26.343
  230.000  154.801   60.950    0.430    0.354   27.568
  230.250  155.947   62.013    0.452    0.359   27.740
  230.500  156.467   60.638    0.444    0.353   27.702
  230.750  157.925   59.452    0.422    0.350   27.667
  231.000  159.280   58.015    0.451    0.354   28.312
  231.250  161.156   56.765    0.456    0.358   28.970
  231.500  161.572   56.891    0.449    0.352   29.423
  231.750  160.319   57.517    0.462    0.353   30.393
  232.000  159.692   62.330    0.476    0.353   30.809
  232.250  157.083   62.205    0.467    0.353   30.086
  232.500  155.204   62.518    0.455    0.349   31.139
  232.750  154.368   63.581    0.474    0.354   32.709
  233.000  154.054   62.707    0.481    0.360   34.228
  233.250  153.948   64.145    0.481    0.370   35.617
  233.500  154.260   63.833    0.478    0.370   37.765
  233.750  154.050   61.646    0.468    0.360   39.970
  234.000  154.465   59.397    0.479    0.330   41.051
  234.250  154.256   58.398    0.483    0.344   42.404
  234.500  154.046   61.398    0.477    0.349   43.392
  234.750  154.879   62.711    0.478    0.355   44.317
  235.000  154.877   60.524    0.489    0.369   45.860
  235.250  154.458   58.337    0.490    0.371   45.715
  235.500  154.770   57.276    0.463    0.362   46.779
  235.750  155.499   56.339    0.444    0.367   45.768
  236.000  155.602   54.714    0.455    0.363   43.293
  236.250  155.600   52.653    0.481    0.331   38.286
  236.500  155.182   53.340    0.528    0.324   37.317
  236.750  155.180   54.716    0.515    0.348   45.358
  237.000  155.388   54.092    0.488    0.367   48.552
  237.250  154.030   57.280    0.482    0.363   50.143
  237.500  153.090   59.156    0.480    0.362   50.928
  237.750  151.733   58.844    0.481    0.355   53.598
  238.000  152.253   58.157    0.484    0.354   56.410
  238.250  153.712   57.907    0.484    0.360   59.479
  238.500  155.483   61.533    0.486    0.361   61.431
  238.750  156.629   61.784    0.498    0.367   64.531
  239.000  157.045   60.847    0.506    0.375   65.910
  239.250  157.252   60.285    0.510    0.372   67.196
  239.500  157.668   54.973    0.501    0.376   68.247
  239.750  158.814   52.786    0.485    0.379   67.015
  240.000  159.230   52.662    0.475    0.378   66.431
  240.250  158.185   52.100    0.469    0.374   66.465
  240.500  159.644   50.288    0.466    0.365   68.399
  240.750  162.458   48.913    0.473    0.335   74.312
  241.000  164.022   42.414    0.438    0.289   78.347
  241.250  164.959   41.727    0.322    0.192   82.919
  241.500  163.915   49.103    0.334    0.242   82.656
  241.750  161.514   50.478    0.377    0.298   80.416
  242.000  160.574   57.854    0.379    0.290   61.458
  242.250  160.990   70.480    0.399    0.293   42.855
  242.500  159.633   76.168    0.447    0.317   31.789
  242.750  159.840   66.731    0.423    0.334   25.079
  243.000  161.403   57.981    0.368    0.250   14.778
  243.250  162.445   67.107    0.385    0.274    9.652
  243.500  160.253   80.295    0.463    0.290    6.129
  243.750  157.853   74.358    0.495    0.295    4.125
  244.000  157.226   63.859    0.481    0.292    5.157
  244.250  156.390   63.735    0.462    0.281    5.366
  244.500  158.474   68.297    0.462    0.267    5.808
  244.750  158.890   69.236    0.467    0.282    6.381
  245.000  158.159   65.299    0.455    0.310    7.641
  245.250  157.114   62.362    0.461    0.311    9.624
  245.500  158.782   61.862    0.461    0.290   10.455
  245.750  159.719   66.426    0.456    0.270    9.853
  246.000  158.988   80.801    0.470    0.275    8.378
  246.250  159.299   91.052    0.490    0.267    6.308
  246.500  158.880   91.115    0.496    0.262    5.496
  246.750  157.732   77.490    0.482    0.278    6.362
  247.000  155.853   68.429    0.449    0.309    8.119
  247.250  155.747   66.742    0.433    0.321    9.277
  247.500  155.850   69.867    0.428    0.307    9.600
  247.750  156.057   72.368    0.430    0.277    8.847
  248.000  156.369   81.619    0.419    0.245    7.664
  248.250  160.748   92.682    0.428    0.225    6.492
  248.500  164.293  102.057    0.457    0.222    5.103
  248.750  166.794  106.745    0.487    0.235    3.447
  249.000  162.204  107.246    0.484    0.240    4.644
  249.250  161.577  103.622    0.460    0.230    6.519
  249.500  164.913  100.247    0.444    0.242    7.408
  249.750  165.120   99.810    0.426    0.240    8.093
  250.000  162.824   97.999    0.424    0.225    8.695
  250.250  165.534   95.124    0.442    0.243    9.236
  250.500  163.238   93.062    0.431    0.259    9.434
  250.750  161.986   93.938    0.414    0.246    9.127
  251.000  161.776  105.501    0.394    0.209    8.379
  251.250  167.093  118.814    0.411    0.176    7.649
  251.500  171.889  119.940    0.458    0.180    4.839
  251.750  172.618  116.690    0.463    0.182    5.017
  252.000  171.678  112.753    0.450    0.171    5.482
  252.250  170.008  111.754    0.455    0.182    5.147
  252.500  171.258  110.317    0.450    0.197    5.188
  252.750  173.864  109.005    0.424    0.216    5.543
  253.000  175.114  105.881    0.415    0.215    5.822
  253.250  174.383  103.006    0.421    0.220    6.025
  253.500  174.590  105.694    0.412    0.210    6.177
  253.750  176.466  111.820    0.403    0.194    6.054
  254.000  176.778  112.008    0.416    0.177    5.538
  254.250  176.150  101.134    0.457    0.200    4.897
  254.500  169.787   91.447    0.477    0.230    4.872
  254.750  163.006   88.885    0.436    0.247    6.904
  255.000  159.667   96.198    0.383    0.236    7.065
  255.250  166.132  106.574    0.396    0.195    6.498
  255.500  169.886  108.012    0.438    0.208    5.536
  255.750  166.964   99.450    0.444    0.210    6.082
  256.000  175.828   92.451    0.413    0.220    7.922
  256.250  172.072   87.201    0.380    0.210    9.053
  256.500  167.272   89.389    0.364    0.210    9.368
  256.750  162.369   95.390    0.404    0.255    8.928
  257.000  160.177   97.578    0.446    0.293   10.473
  257.250  157.569   96.454    0.466    0.290   10.737
  257.500  154.751   93.267    0.435    0.290   11.556
  257.750  156.940   86.205    0.425    0.293   10.810
  258.000  157.356   73.956    0.439    0.297   10.757
  258.250  157.355   68.331    0.449    0.297   13.294
  258.500  157.040   63.957    0.431    0.296   17.124
  258.750  157.873   62.645    0.414    0.299   21.248
  259.000  157.559   60.333    0.411    0.302   22.868
  259.250  157.245   61.209    0.424    0.310   23.668
  259.500  157.139   61.022    0.436    0.310   23.900
  259.750  158.076   57.397    0.440    0.305   24.140
  260.000  158.805   57.898    0.432    0.305   24.471
  260.250  159.638   63.898    0.425    0.303   24.488
  260.500  159.845   69.587    0.440    0.306   24.224
  260.750  160.156   74.525    0.435    0.307   22.326
  261.000  160.155   72.275    0.421    0.308   21.157
  261.250  161.197   75.213    0.419    0.317   19.064
