~VERSION INFORMATION
 VERS.                 2.0:   CWLS LOG ASCII STANDARD -VERSION 2.0
 WRAP.                  NO:   ONE LINE PER DEPTH STEP
~WELL INFORMATION BLOCK
#MNEM.UNIT           DATA                    DESCRIPTION OF MNEMONIC
#---------    -------------------            -------------------------------
# Generated from Intellog Unique Number	CS_77_79/WELL/936
WELL.         PEX PCEJ THORNBURY OV          : Well_name    - WELL
LOC .         AA/10-08-079-14W4/0            : Location     - LOCATION
UWI .         AA/10-08-079-14W4/0            : Uwi          - UNIQUE WELL ID
ENTR.         JHS                            : Entered      - ENTERED BY
SRVC.         SCHLUMBERGER                   : Scn          - SERVICE COMPANY
STRT.M        275                            : top_depth    - START DEPTH
STOP.M        525                            : bot_depth    - STOP DEPTH
STEP.M        0.25                           : increment    - STEP LENGTH
 NULL. -999.2500:NULL Value
~CURVE INFORMATION BLOCK
#MNEM UNIT       ERCB CURVE CODE    CURVE DESCRIPTION
#-----------   ------------------   ----------------------------------
DEPT.M        00 001 00 00         : DEPTH        - DEPTH
DPHI.V/V      00 890 00 00         : PHID         - DENSITY POROSITY (LIMESTONE)
NPHI.V/V      00 330 00 00         : PHIN         - NEUTRON POROSITY (LIMESTONE)
GR  .API      00 310 00 00         : GR           - GAMMA RAY
ILD .OHMM     00 120 00 00         : RESD         - DEEP RESISTIVITY (DIL)
RHOB.KG/M3    00 350 00 00         : DENS         - BULK DENSITY
~PARAMETER INFORMATION
#MNEM.UNIT           DATA             DESCRIPTION OF MNEMONIC
#---------         -----------     ------------------------------
GL  .M        700.7                : gl           - GROUND LEVEL ELEVATION
EREF.M        703.6                : kb           - ELEVATION OF DEPTH REFERENCE
DATM.M        703.6                : datum        - DATUM ELEVATION
TDD .M        527                  : tdd          - TOTAL DEPTH DRILLER
RUN .         ONE                  : Run          - RUN NUMBER
ENG .         BILL                 : Engineer     - RECORDING ENGINEER
WIT .         JIM                  : Witness      - WITNESSED BY
MUD .         GEL                  : Mud_type     - MUD TYPE
MATR.         LIMESTONE            : Logunit      - NEUTRON MATRIX
TMAX.C        22                   : BHT          - MAXIMUM RECORDED TEMPERATURE
BHTD.M        527                  : BHTDEP       - MAXIMUM RECORDED TEMPERATURE
MATR.         1                    : LOGUNIT      - NEUTRON MATRIX
RMT .C        25                   : MDTP         - TEMPERATURE OF MUD
NEUT.         1                    : NEUTRON      - NEUTRON TYPE
RESI.         0                    : RESIST       - RESISTIVITY TYPE
RMC .OHMM     0.25                 : RMC          - RESISTIVITY OF MUD CAKE
RMF .OHMM     0.25                 : RMF          - RESISTIVITY OF MUD FILTRATE
SUFT.C        15                   : SUFT         - SURFACE TEMPERATURE
~A  DEPTH     PHID     PHIN       GR     RESD     DENS
# ...
  311.500    0.229    0.392   99.508    8.036    0.000
  311.750    0.224    0.394  100.123    7.747    0.000
  312.000    0.211    0.397   95.158    7.900    0.000
  312.250    0.199    0.416   85.235    8.367    0.000
  312.500    0.208    0.420   92.046    9.379    0.000
  312.750    0.222    0.415   91.421   10.711    0.000
  313.000    0.232    0.399   83.975   12.234    0.000
  313.250    0.257    0.385   78.392   13.456    0.000
  313.500    0.274    0.378   67.229   14.800    0.000
  313.750    0.289    0.366   60.405   15.672    0.000
  314.000    0.288    0.363   61.018   15.104    0.000
  314.250    0.262    0.376   67.209   14.022    0.000
  314.500    0.241    0.392   72.163   13.510    0.000
  314.750    0.231    0.394   77.735   13.521    0.000
  315.000    0.218    0.405   78.969   13.790    0.000
  315.250    0.256    0.400   74.003   14.607    0.000
  315.500    0.274    0.383   70.897   15.469    0.000
  315.750    0.300    0.376   68.412   16.699    0.000
  316.000    0.311    0.393   64.067   17.688    0.000
  316.250    0.291    0.394   63.440   18.382    0.000
  316.500    0.279    0.376   69.013   18.398    0.000
  316.750    0.291    0.376   73.346   18.072    0.000
  317.000    0.305    0.392   77.680   17.415    0.000
  317.250    0.297    0.378   86.970   17.424    0.000
  317.500    0.278    0.368   90.683   17.112    0.000
  317.750    0.263    0.362   87.578   16.811    0.000
  318.000    0.276    0.382   79.514   16.829    0.000
  318.250    0.287    0.402   78.268   16.839    0.000
  318.500    0.289    0.388   81.980   17.176    0.000
  318.750    0.283    0.397   79.495   16.865    0.000
  319.000    0.283    0.387   84.448   16.563    0.000
  319.250    0.272    0.392   80.723   15.670    0.000
  319.500    0.268    0.381   86.915   15.383    0.000
  319.750    0.260    0.394   85.669   15.111    0.000
  320.000    0.247    0.371   78.225   15.120    0.000
  320.250    0.244    0.360   70.161   15.716    0.000
  320.500    0.251    0.349   62.097   16.647    0.000
  320.750    0.243    0.346   65.189   17.632    0.000
  321.000    0.262    0.361   63.944   18.672    0.000
  321.250    0.293    0.370   51.541   18.338    0.000
  321.500    0.306    0.366   38.519   16.701    0.000
  321.750    0.319    0.367   40.992   14.646    0.000
  322.000    0.307    0.367   55.241   12.369    0.000
  322.250    0.257    0.386   69.490   11.052    0.000
  322.500    0.228    0.411   76.923    9.694    0.000
  322.750    0.157    0.412   82.494    8.827    0.000
  323.000    0.175    0.424   94.886    8.040    0.000
  323.250    0.224    0.457  107.276    7.461    0.000
  323.500    0.215    0.435  109.748    6.928    0.000
  323.750    0.198    0.430  104.785    6.802    0.000
  324.000    0.180    0.416  103.539    6.555    0.000
  324.250    0.156    0.406  107.250    6.317    0.000
  324.500    0.169    0.404  109.725    5.975    0.000
  324.750    0.196    0.420  114.058    5.757    0.000
  325.000    0.164    0.441  110.952    5.655    0.000
  325.250    0.143    0.453  115.284    5.660    0.000
  325.500    0.176    0.462  119.617    5.995    0.000
  325.750    0.176    0.454  115.272    6.114    0.000
  326.000    0.186    0.443  120.225    6.119    0.000
  326.250    0.156    0.432  112.161    5.897    0.000
  326.500    0.134    0.432  109.676    5.370    0.000
  326.750    0.134    0.435  104.711    4.891    0.000
  327.000    0.153    0.444  112.142    4.625    0.000
  327.250    0.171    0.454  113.995    4.212    0.000
  327.500    0.201    0.471  114.609    4.215    0.000
  327.750    0.212    0.459  118.941    4.637    0.000
  328.000    0.207    0.460  123.275    5.931    0.000
  328.250    0.207    0.434  127.606    8.028    0.000
  328.500    0.227    0.426  115.205    9.888    0.000
  328.750    0.245    0.417  102.181   11.509    0.000
  329.000    0.244    0.423   95.977   12.658    0.000
  329.250    0.222    0.412   99.689   13.159    0.000
  329.500    0.203    0.412  102.782   12.920    0.000
  329.750    0.203    0.402   95.338   12.220    0.000
  330.000    0.221    0.417   90.994   10.922    0.000
  330.250    0.232    0.394   92.846    9.945    0.000
  330.500    0.211    0.386   98.419    9.057    0.000
  330.750    0.166    0.382  107.710    8.251    0.000
  331.000    0.155    0.405  112.663    8.104    0.000
  331.250    0.184    0.403  113.277    8.263    0.000
  331.500    0.222    0.403  108.312    9.619    0.000
  331.750    0.233    0.391  104.587   10.779    0.000
  332.000    0.237    0.389  100.242   11.855    0.000
  332.250    0.232    0.381   94.037   12.557    0.000
  332.500    0.237    0.391   95.270   12.570    0.000
  332.750    0.225    0.380   97.124   12.344    0.000
  333.000    0.227    0.392   92.778   12.123    0.000
  333.250    0.236    0.381   88.434   12.136    0.000
  333.500    0.248    0.381   88.428   11.914    0.000
  333.750    0.254    0.391   96.478   11.924    0.000
  334.000    0.236    0.390   97.094   12.165    0.000
  334.250    0.231    0.383  103.286   12.171    0.000
  334.500    0.199    0.386   98.320   12.415    0.000
  334.750    0.190    0.373   93.975   12.904    0.000
  335.000    0.204    0.367   91.488   13.162    0.000
  335.250    0.230    0.374   85.285   13.942    0.000
  335.500    0.233    0.381   72.263   14.219    0.000
  335.750    0.246    0.388   67.916   14.496    0.000
  336.000    0.258    0.394   62.953   14.244    0.000
  336.250    0.291    0.391   51.790   13.984    0.000
  336.500    0.275    0.388   55.502   12.979    0.000
  336.750    0.273    0.391   61.695   11.600    0.000
  337.000    0.256    0.391   70.367   10.969    0.000
  337.250    0.247    0.386   80.277   10.182    0.000
  337.500    0.242    0.398   80.271   10.000    0.000
  337.750    0.236    0.385   74.687   10.198    0.000
  338.000    0.244    0.372   70.341   10.600    0.000
  338.250    0.252    0.384   72.814   11.014    0.000
  338.500    0.264    0.395   67.850   11.234    0.000
  338.750    0.249    0.394   74.041   11.245    0.000
  339.000    0.232    0.398   70.936   11.045    0.000
  339.250    0.237    0.406   64.112   10.646    0.000
  339.500    0.266    0.393   64.106   10.451    0.000
  339.750    0.251    0.400   75.877    9.520    0.000
  340.000    0.230    0.385   81.449    9.003    0.000
  340.250    0.225    0.393   78.344    8.515    0.000
  340.500    0.220    0.394   88.255    8.363    0.000
  340.750    0.204    0.416   93.207    8.527    0.000
  341.000    0.211    0.438   87.622    8.863    0.000
  341.250    0.166    0.422   77.699    9.213    0.000
  341.500    0.168    0.395   86.370    9.394    0.000
  341.750    0.215    0.400   90.084    9.582    0.000
  342.000    0.231    0.429   86.978    9.236    0.000
  342.250    0.243    0.414   90.691    8.570    0.000
  342.500    0.230    0.409   90.685    7.954    0.000
  342.750    0.230    0.410   92.538    8.112    0.000
  343.000    0.222    0.404   98.730    9.093    0.000
  343.250    0.224    0.392   96.865    9.999    0.000
  343.500    0.255    0.385   79.503   12.089    0.000
  343.750    0.297    0.376   64.001   13.804    0.000
  344.000    0.314    0.360   42.921   17.658    0.000
  344.250    0.313    0.366   29.898   23.019    0.000
  344.500    0.306    0.362   36.708   24.385    0.000
  344.750    0.310    0.356   39.803   23.503    0.000
  345.000    0.324    0.351   32.978   22.224    0.000
  345.250    0.326    0.352   37.930   20.239    0.000
  345.500    0.314    0.365   34.825   18.087    0.000
  345.750    0.305    0.378   35.438   16.784    0.000
  346.000    0.316    0.377   39.152   14.721    0.000
  346.250    0.308    0.366   46.584   12.432    0.000
  346.500    0.292    0.386   55.254   10.498    0.000
  346.750    0.272    0.389   67.646    9.381    0.000
  347.000    0.261    0.413   86.235    8.545    0.000
  347.250    0.237    0.420   85.608    8.552    0.000
  347.500    0.228    0.413   85.601    8.722    0.000
  347.750    0.224    0.407   84.357    9.237    0.000
