~VERSION INFORMATION
 VERS.                 2.0:   CWLS LOG ASCII STANDARD -VERSION 2.0
 WRAP.                  NO:   ONE LINE PER DEPTH STEP
~WELL INFORMATION BLOCK
#MNEM.UNIT           DATA                    DESCRIPTION OF MNEMONIC
#---------    -------------------            -------------------------------
# Generated from Intellog Unique Number	CW_82_90/WELL/773
WELL.         PHILLIPS ET AL GRANOR OV 10-14 : Well_name    - WELL
LOC .         AA/10-14-084-19W4/0            : Location     - LOCATION
UWI .         AA/10-14-084-19W400            : Uwi          - UNIQUE WELL ID
ENTR.         JAYE                           : Entered      - ENTERED BY
SRVC.         SCHLUMBERGER                   : Scn          - SERVICE COMPANY
DATE.         22 JAN 81                      : Date         - LOG DATE
STRT.M        190                            : top_depth    - START DEPTH
STOP.M        350                            : bot_depth    - STOP DEPTH
STEP.M        0.25                           : increment    - STEP LENGTH
 NULL. -999.2500:NULL Value
~CURVE INFORMATION BLOCK
#MNEM UNIT       ERCB CURVE CODE    CURVE DESCRIPTION
#-----------   ------------------   ----------------------------------
DEPT.M        00 001 00 00         : DEPTH        - DEPTH
CALI.MM       00 280 01 00         : CAL          - CALIPER
GR  .API      00 310 00 00         : GR           - GAMMA RAY
NPHI.V/V      00 330 00 00         : PHIN         - NEUTRON POROSITY (SANDSTONE)
DPHI.V/V      00 890 00 00         : PHID         - DENSITY POROSITY (SANDSTONE)
ILD .OHMM     00 120 00 00         : RESD         - DEEP RESISTIVITY (DIL)
~PARAMETER INFORMATION
#MNEM.UNIT           DATA             DESCRIPTION OF MNEMONIC
#---------         -----------     ------------------------------
GL  .M        599.7                : gl           - GROUND LEVEL ELEVATION
EREF.M        602.32               : kb           - ELEVATION OF DEPTH REFERENCE
DATM.M        599.7                : datum        - DATUM ELEVATION
TDD .M        349                  : tdd          - TOTAL DEPTH DRILLER
RUN .         ONE                  : Run          - RUN NUMBER
ENG .         SALSMAN              : Engineer     - RECORDING ENGINEER
WIT .         CRIPPS/HAYES         : Witness      - WITNESSED BY
BASE.         EDMONTON             : Branch       - HOME BASE OF LOGGING UNIT
MUD .         GEL CHEM             : Mud_type     - MUD TYPE
MATR.         SANDSTONE            : Logunit      - NEUTRON MATRIX
TMAX.C        0                    : BHT          - MAXIMUM RECORDED TEMPERATURE
BHTD.M        349                  : BHTDEP       - MAXIMUM RECORDED TEMPERATURE
RMT .C        10                   : MDTP         - TEMPERATURE OF MUD
MUDD.KG/M     1110                 : MWT          - MUD DENSITY
NEUT.         1                    : NEUTRON      - NEUTRON TYPE
RESI.         0                    : RESIST       - RESISTIVITY TYPE
RM  .OHMM     1.97                 : RM           - RESISTIVITY OF MUD
RMC .OHMM     0                    : RMC          - RESISTIVITY OF MUD CAKE
RMF .OHMM     1.72                 : RMF          - RESISTIVITY OF MUD FILTRATE
SUFT.C        0                    : SUFT         - SURFACE TEMPERATURE
~A  DEPTH      CAL       GR     PHIN     PHID     RESD
# ...
  263.000  229.421   68.036    0.498    0.150    4.141
  263.250  228.983   65.581    0.437    0.108    4.165
  263.500  227.509   77.661    0.472    0.141    4.206
  263.750  224.793   89.675    0.532    0.175    4.327
  264.000  222.689   93.737    0.550    0.202    4.811
  264.250  221.936   95.733    0.520    0.217    5.223
  264.500  221.731   94.228    0.504    0.225    5.905
  264.750  222.647   91.081    0.487    0.233    6.365
  265.000  224.092   86.626    0.512    0.241    6.824
  265.250  225.540   83.552    0.528    0.218    7.446
  265.500  226.761   81.475    0.505    0.215    7.895
  265.750  227.380   78.775    0.456    0.219    8.273
  266.000  227.359   78.830    0.461    0.213    8.764
  266.250  226.619   77.761    0.468    0.220    9.051
  266.500  225.150   78.888    0.464    0.226    9.275
  266.750  223.556   80.938    0.470    0.234    9.504
  267.000  221.880   83.185    0.471    0.221    9.688
  267.250  223.222   85.561    0.465    0.230    9.785
  267.500  224.982   84.167    0.467    0.223    9.811
  267.750  226.331   82.715    0.475    0.230    9.851
  268.000  227.356   82.395    0.493    0.236    9.948
  268.250  227.548   82.264    0.506    0.226   10.045
  268.500  227.211   79.375    0.503    0.241   10.202
  268.750  227.813   80.492    0.463    0.241   10.369
  269.000  228.739   81.422    0.463    0.252   10.447
  269.250  221.738   77.223    0.438    0.264   10.550
  269.500  210.043   70.570    0.444    0.266   10.657
  269.750  211.304   65.872    0.451    0.259   10.704
  270.000  213.766   67.611    0.445    0.247   10.707
  270.250  218.346   72.740    0.427    0.234   10.632
  270.500  220.618   75.675    0.429    0.247   10.598
  270.750  221.854   75.046    0.439    0.236   10.605
  271.000  223.096   71.836    0.448    0.260   10.543
  271.250  223.909   68.071    0.455    0.227   10.433
  271.500  223.058   65.879    0.432    0.211   10.021
  271.750  222.227   66.370    0.413    0.191    9.474
  272.000  222.525   64.101    0.385    0.147    8.568
  272.250  223.118   66.222    0.429    0.161    7.834
  272.500  224.793   69.720    0.452    0.186    7.137
  272.750  228.413   69.903    0.463    0.245    6.515
  273.000  232.570   74.591    0.460    0.222    6.074
  273.250  230.149   78.844    0.470    0.199    5.905
  273.500  228.047   80.583    0.491    0.229    5.787
  273.750  231.270   75.754    0.493    0.215    6.149
  274.000  235.107   73.117    0.499    0.199    6.693
  274.250  232.802   72.923    0.508    0.188    8.089
  274.500  227.465   72.855    0.495    0.263    9.489
  274.750  224.740   71.337    0.465    0.264    9.992
  275.000  223.579   70.522    0.443    0.313    9.362
  275.250  222.633   68.252    0.415    0.316    8.462
  275.500  221.997   67.869    0.423    0.290    7.182
  275.750  222.388   69.179    0.440    0.264    6.469
  276.000  223.535   70.987    0.460    0.251    6.471
  276.250  223.831   74.108    0.471    0.264    7.205
  276.500  223.911   71.346    0.469    0.246    7.667
  276.750  223.808   69.142    0.483    0.233    8.543
  277.000  223.667   66.818    0.495    0.239    8.967
  277.250  224.382   64.685    0.479    0.257    9.561
  277.500  225.509   65.175    0.461    0.278    9.930
  277.750  225.707   62.291    0.462    0.269    9.614
  278.000  226.138   60.966    0.463    0.278    9.290
  278.250  226.540   60.826    0.464    0.261    8.110
  278.500  226.698   61.759    0.459    0.248    7.442
  278.750  227.037   66.138    0.465    0.248    7.042
  279.000  227.115   71.198    0.474    0.278    6.776
  279.250  226.566   76.073    0.500    0.268    6.650
  279.500  225.191   75.440    0.489    0.249    6.460
  279.750  224.536   74.804    0.487    0.235    6.292
  280.000  223.388   76.177    0.481    0.213    6.192
  280.250  223.287   75.547    0.478    0.210    6.204
  280.500  224.953   74.842    0.478    0.237    6.360
  280.750  226.260   75.086    0.476    0.227    6.693
  281.000  228.851   75.950    0.474    0.209    7.101
  281.250  232.180   78.140    0.471    0.211    7.390
  281.500  232.877   79.880    0.471    0.237    7.473
  281.750  232.579   80.131    0.472    0.231    7.327
  282.000  231.816   80.930    0.473    0.231    7.019
  282.250  230.236   82.235    0.472    0.223    6.726
  282.500  228.966   84.355    0.467    0.229    6.596
  282.750  229.486   87.922    0.466    0.222    6.572
  283.000  231.137   89.539    0.471    0.224    6.699
  283.250  232.477   88.276    0.472    0.221    7.279
  283.500  233.076   85.390    0.454    0.228    8.302
  283.750  233.066   83.251    0.481    0.234    9.504
  284.000  232.102   78.296    0.456    0.239   10.578
  284.250  232.102   72.591    0.424    0.235   11.581
  284.500  226.910   74.904    0.395    0.221   11.892
  284.750  226.347   75.891    0.384    0.275   11.792
  285.000  227.783   71.256    0.374    0.316   11.495
  285.250  225.040   70.867    0.387    0.294   11.241
  285.500  225.871   76.248    0.421    0.264   11.059
  285.750  225.851   79.428    0.458    0.246   11.021
  286.000  226.358   76.161    0.451    0.237   11.447
  286.250  226.884   75.402    0.450    0.226   11.374
  286.500  227.366   74.708    0.437    0.213   11.140
  286.750  227.551   71.317    0.407    0.164    9.594
  287.000  228.290   67.110    0.367    0.114    8.942
  287.250  228.695   66.415    0.337    0.150    8.773
  287.500  229.079   68.349    0.381    0.214    8.783
  287.750  229.685   70.530    0.442    0.234    8.827
  288.000  230.083   72.102    0.460    0.226    8.832
  288.250  230.392   70.638    0.449    0.209    8.901
  288.500  229.851   67.190    0.435    0.208    9.125
  288.750  228.697   65.492    0.437    0.213    9.234
  289.000  227.846   66.357    0.461    0.236    9.292
  289.250  226.776   69.857    0.458    0.241    9.311
  289.500  225.002   72.664    0.448    0.248    9.328
  289.750  224.045   71.972    0.452    0.264    9.212
  290.000  223.389   70.519    0.455    0.260    9.046
  290.250  223.479   69.007    0.463    0.247    8.898
  290.500  224.617   68.189    0.460    0.230    8.786
  290.750  225.853   70.054    0.446    0.239    8.763
  291.000  227.295   68.360    0.447    0.239    8.852
  291.250  227.902   70.605    0.464    0.243    8.988
  291.500  227.372   73.794    0.474    0.236   10.132
  291.750  225.690   72.713    0.455    0.222   11.426
  292.000  222.446   70.388    0.426    0.214   12.002
  292.250  222.323   65.747    0.392    0.170   12.274
  292.500  224.293   66.679    0.388    0.126   12.316
  292.750  226.145   69.549    0.405    0.182   12.204
  293.000  226.348   71.049    0.396    0.161   11.700
  293.250  219.339   73.228    0.403    0.208   10.936
  293.500  216.831   76.288    0.422    0.230   10.403
  293.750  216.699   79.604    0.447    0.248   10.055
  294.000  218.767   80.154    0.459    0.215    9.943
  294.250  219.914   80.150    0.463    0.195    9.821
  294.500  220.615   81.585    0.466    0.200    9.717
  294.750  222.064   82.759    0.465    0.201    9.675
  295.000  225.072   83.508    0.465    0.199    9.579
  295.250  228.182   84.125    0.472    0.193    9.544
  295.500  230.888   84.929    0.479    0.216    9.497
  295.750  231.699   83.666    0.478    0.215    9.480
  296.000  231.919   80.089    0.476    0.197    9.647
  296.250  231.569   79.515    0.480    0.212   10.037
  296.500  229.982   81.014    0.478    0.210   10.805
  296.750  228.322   81.192    0.470    0.218   11.241
  297.000  228.088   78.554    0.459    0.215   11.411
  297.250  229.104   75.665    0.439    0.190   11.276
  297.500  231.589   72.401    0.415    0.161   10.789
  297.750  232.951   71.951    0.385    0.122   10.413
  298.000  233.233   75.956    0.431    0.175    9.980
  298.250  233.146   77.265    0.451    0.173    9.728
  298.500  232.794   79.136    0.449    0.171    9.515
  298.750  231.526   80.999    0.457    0.210    9.296
  299.000  229.937   81.058    0.462    0.215    9.143
  299.250  228.261   79.610    0.460    0.214    9.009
