~VERSION INFORMATION
 VERS.                 2.0:   CWLS LOG ASCII STANDARD -VERSION 2.0
 WRAP.                  NO:   ONE LINE PER DEPTH STEP
~WELL INFORMATION BLOCK
#MNEM.UNIT           DATA                    DESCRIPTION OF MNEMONIC
#---------    -------------------            -------------------------------
# Generated from Intellog Unique Number	CW_79_81/WELL/2485
WELL.         GAO JOLI FOU OV                : Well_name    - WELL
LOC .         AA/11-14-081-20W4/0            : Location     - LOCATION
UWI .         AA/11-14-081-20W4/0            : Uwi          - UNIQUE WELL ID
ENTR.         MAX                            : Entered      - ENTERED BY
SRVC.         SCHLUMBERGER                   : Scn          - SERVICE COMPANY
STRT.M        175                            : top_depth    - START DEPTH
STOP.M        374.75                         : bot_depth    - STOP DEPTH
STEP.M        0.25                           : increment    - STEP LENGTH
 NULL. -999.2500:NULL Value
~CURVE INFORMATION BLOCK
#MNEM UNIT       ERCB CURVE CODE    CURVE DESCRIPTION
#-----------   ------------------   ----------------------------------
DEPT.M        00 001 00 00         : DEPTH        - DEPTH
ILD .OHMM     00 120 00 00         : RESD         - DEEP RESISTIVITY (DIL)
NPHI.V/V      00 330 00 00         : PHIN         - NEUTRON POROSITY (SANDSTONE)
DPHI.V/V      00 890 00 00         : PHID         - DENSITY POROSITY (SANDSTONE)
GR  .API      00 310 00 00         : GR           - GAMMA RAY
CALI.MM       00 280 01 00         : CAL          - CALIPER
~PARAMETER INFORMATION
#MNEM.UNIT           DATA             DESCRIPTION OF MNEMONIC
#---------         -----------     ------------------------------
GL  .M        580.1                : gl           - GROUND LEVEL ELEVATION
EREF.M        583.6                : kb           - ELEVATION OF DEPTH REFERENCE
DATM.M        580.1                : datum        - DATUM ELEVATION
TDD .M        381                  : tdd          - TOTAL DEPTH DRILLER
RUN .         ONE                  : Run          - RUN NUMBER
ENG .         BILL                 : Engineer     - RECORDING ENGINEER
WIT .         JIM                  : Witness      - WITNESSED BY
MUD .         GEL                  : Mud_type     - MUD TYPE
MATR.         SANDSTONE            : Logunit      - NEUTRON MATRIX
TMAX.C        22.2                 : BHT          - MAXIMUM RECORDED TEMPERATURE
BHTD.M        381                  : BHTDEP       - MAXIMUM RECORDED TEMPERATURE
MATR.         1                    : LOGUNIT      - NEUTRON MATRIX
RMT .C        13.3                 : MDTP         - TEMPERATURE OF MUD
NEUT.         1                    : NEUTRON      - NEUTRON TYPE
RESI.         0                    : RESIST       - RESISTIVITY TYPE
RMC .OHMM     3.98                 : RMC          - RESISTIVITY OF MUD CAKE
RMF .OHMM     2.14                 : RMF          - RESISTIVITY OF MUD FILTRATE
SUFT.C        -20                  : SUFT         - SURFACE TEMPERATURE
~A  DEPTH     RESD     PHIN     PHID       GR      CAL
# ...
  284.500    7.641    0.479    0.247   85.003  266.170
  284.750    7.526    0.466    0.236   84.768  266.977
  285.000    7.455    0.460    0.220   85.073  267.485
  285.250    7.426    0.463    0.213   85.916  267.694
  285.500    7.465    0.467    0.224   86.460  267.304
  285.750    7.666    0.456    0.260   83.532  265.218
  286.000    7.845    0.445    0.277   76.053  262.733
  286.250    7.960    0.452    0.289   71.270  262.743
  286.500    8.122    0.437    0.276   71.694  262.751
  286.750    8.364    0.422    0.254   73.855  262.759
  287.000    8.617    0.417    0.234   75.237  262.866
  287.250    8.665    0.424    0.227   74.684  263.277
  287.500    8.596    0.433    0.236   76.686  263.285
  287.750    8.594    0.442    0.251   76.451  263.694
  288.000    8.592    0.440    0.257   76.216  263.802
  288.250    8.589    0.437    0.253   77.299  263.810
  288.500    8.523    0.441    0.247   79.460  263.819
  288.750    8.206    0.468    0.259   81.103  263.831
  289.000    7.894    0.500    0.269   82.106  263.839
  289.250    7.211    0.503    0.262   83.548  263.050
  289.500    6.744    0.511    0.254   81.577  262.560
  289.750    6.476    0.519    0.255   76.194  262.370
  290.000    6.414    0.522    0.269   69.734  262.378
  290.250    6.696    0.510    0.293   67.116  262.304
  290.500    7.181    0.500    0.293   68.368  261.898
  290.750    7.341    0.496    0.293   70.050  261.508
  291.000    7.422    0.487    0.296   70.475  260.817
  291.250    7.503    0.483    0.294   71.438  258.032
  291.500    7.613    0.490    0.290   72.760  255.147
  291.750    7.750    0.503    0.292   71.989  258.202
  292.000    7.869    0.491    0.294   70.496  259.459
  292.250    8.163    0.477    0.291   70.262  259.467
  292.500    8.609    0.467    0.285   71.465  259.475
  292.750    9.070    0.469    0.276   72.907  259.483
  293.000    9.292    0.480    0.264   73.630  259.492
  293.250    8.793    0.492    0.252   72.769  259.503
  293.500    8.079    0.507    0.254   72.026  259.512
  293.750    8.137    0.488    0.250   70.834  259.920
  294.000    8.516    0.391    0.192   69.102  260.329
  294.250    9.228    0.291    0.100   62.402  260.937
  294.500   10.330    0.225    0.019   52.110  261.942
  294.750   12.381    0.196    0.014   45.561  263.798
  295.000   15.321    0.202    0.028   46.314  265.054
  295.250   18.105    0.222    0.045   47.038  264.265
  295.500   19.817    0.246    0.119   51.533  261.081
  295.750   18.015    0.305    0.190   58.603  258.095
  296.000   14.446    0.391    0.234   66.571  256.906
  296.250   11.259    0.457    0.255   74.480  258.780
  296.500    9.173    0.469    0.250   80.473  262.116
  296.750    7.762    0.466    0.245   82.872  264.518
  297.000    7.224    0.459    0.242   83.656  266.323
  297.250    7.039    0.455    0.240   82.704  267.130
  297.500    6.998    0.459    0.238   81.092  267.239
  297.750    7.018    0.469    0.232   81.399  267.816
  298.000    7.125    0.472    0.222   82.900  268.656
  298.250    7.124    0.476    0.227   84.821  269.064
  298.500    7.122    0.467    0.235   86.203  269.172
  298.750    7.067    0.458    0.240   87.526  269.180
  299.000    6.961    0.452    0.240   88.728  269.190
  299.250    6.835    0.446    0.234   89.064  269.201
  299.500    6.728    0.449    0.227   88.321  269.208
  299.750    6.727    0.456    0.228   87.609  269.616
  300.000    6.867    0.473    0.245   85.548  266.576
  300.250    7.268    0.477    0.262   82.357  263.671
  300.500    8.076    0.469    0.272   78.002  262.254
  300.750    9.845    0.477    0.281   71.189  261.357
  301.000   11.786    0.482    0.286   66.149  260.928
  301.250   13.623    0.447    0.268   60.103  260.115
  301.500   15.932    0.395    0.241   55.143  259.604
  301.750   18.868    0.359    0.205   52.721  259.396
  302.000   21.754    0.351    0.180   53.079  259.088
  302.250   21.615    0.373    0.212   57.264  257.869
  302.500   19.573    0.394    0.231   67.330  257.861
  302.750   15.226    0.410    0.239   75.059  257.854
  303.000   12.402    0.433    0.259   78.258  257.848
  303.250   11.088    0.455    0.270   79.221  257.841
  303.500   10.786    0.467    0.268   79.398  257.934
  303.750   11.126    0.452    0.270   79.140  258.411
  304.000   11.653    0.447    0.276   77.876  258.824
  304.250   12.904    0.451    0.279   76.422  258.816
  304.500   14.526    0.455    0.277   72.974  258.809
  304.750   16.136    0.454    0.270   71.036  258.802
  305.000   17.137    0.447    0.258   72.180  258.795
  305.250   16.624    0.431    0.247   76.948  258.786
  305.500   14.941    0.424    0.243   81.476  258.779
  305.750   13.864    0.443    0.240   82.679  258.771
  306.000   13.167    0.456    0.238   82.070  258.763
  306.250   12.449    0.453    0.234   82.066  259.159
  306.500   11.717    0.443    0.232   82.848  259.857
  306.750   11.139    0.459    0.241   82.259  260.251
  307.000   10.800    0.475    0.254   81.750  260.244
  307.250   10.483    0.480    0.253   81.986  259.832
  307.500   10.290    0.476    0.241   82.405  260.026
  307.750   10.213    0.467    0.226   83.127  260.623
  308.000   10.173    0.458    0.216   84.149  261.321
  308.250   10.007    0.457    0.225   85.101  261.715
  308.500    9.928    0.465    0.236   83.837  261.707
  308.750    9.926    0.470    0.237   82.625  261.701
  309.000    9.925    0.460    0.232   82.137  261.693
  309.250   10.070    0.457    0.228   82.616  261.686
  309.500   10.238    0.463    0.227   83.760  261.678
  309.750    9.949    0.461    0.231   84.218  261.586
  310.000    9.647    0.453    0.243   81.695  261.159
  310.250    9.645    0.455    0.243   80.966  261.956
  310.500    9.537    0.461    0.237   82.049  262.755
  310.750    9.431    0.470    0.227   83.374  263.353
  311.000    9.325    0.477    0.216   84.216  263.850
  311.250    9.048    0.462    0.206   85.097  264.814
  311.500    8.706    0.435    0.211   87.106  265.645
  311.750    8.450    0.448    0.215   85.652  265.236
  312.000    8.480    0.460    0.220   85.466  265.429
  312.250    8.415    0.468    0.226   85.582  265.825
  312.500    7.943    0.471    0.231   85.880  266.020
  312.750    6.880    0.463    0.236   87.033  265.271
  313.000    6.470    0.460    0.244   86.777  263.585
  313.250    6.327    0.483    0.257   85.806  262.774
  313.500    6.396    0.487    0.261   83.566  262.262
  313.750    6.727    0.478    0.255   80.661  262.053
  314.000    7.454    0.456    0.239   77.333  262.046
  314.250    9.252    0.412    0.204   72.404  262.037
  314.500   11.253    0.378    0.157   67.112  262.030
  314.750   13.381    0.336    0.117   61.307  262.022
  315.000   16.108    0.280    0.083   56.226  262.015
  315.250   20.014    0.235    0.068   53.080  261.806
  315.500   24.306    0.219    0.085   52.894  261.497
  315.750   22.436    0.261    0.163   57.572  261.320
  316.000   17.519    0.335    0.207   62.855  260.473
  316.250   14.169    0.426    0.268   65.992  260.466
  316.500   12.999    0.475    0.272   66.229  260.460
  316.750   12.858    0.479    0.244   63.928  260.452
  317.000   13.405    0.440    0.206   60.239  260.444
  317.250   14.572    0.364    0.168   57.795  260.435
  317.500   14.681    0.321    0.132   61.317  260.427
  317.750   14.145    0.390    0.200   65.180  260.018
  318.000   13.475    0.443    0.235   64.873  259.910
  318.250   12.940    0.445    0.231   64.023  260.305
  318.500   12.839    0.404    0.194   64.320  260.902
  318.750   13.666    0.363    0.149   65.573  260.978
  319.000   13.876    0.386    0.182   65.821  261.389
  319.250   12.780    0.436    0.214   66.299  260.979
  319.500   12.048    0.458    0.246   67.322  260.570
  319.750   11.482    0.463    0.267   68.285  260.361
  320.000   11.109    0.459    0.271   68.764  260.454
  320.250   11.157    0.449    0.256   68.266  260.849
  320.500   11.417    0.443    0.238   67.002  260.840
  320.750   11.843    0.428    0.226   63.856  260.833
