~VERSION INFORMATION
 VERS.                 2.0:   CWLS LOG ASCII STANDARD -VERSION 2.0
 WRAP.                  NO:   ONE LINE PER DEPTH STEP
~WELL INFORMATION BLOCK
#MNEM.UNIT           DATA                    DESCRIPTION OF MNEMONIC
#---------    -------------------            -------------------------------
# Generated from Intellog Unique Number	CN_91_93/WELL/1149
WELL.         10-26-091-15W4                 : Well_name    - WELL
LOC .         AA/10-26-091-15W4/0            : Location     - LOCATION
UWI .         AA/10-26-091-15W400            : Uwi          - UNIQUE WELL ID
ENTR.         JOETTE                         : Entered      - ENTERED BY
SRVC.         SCHLUMBERGER                   : Scn          - SERVICE COMPANY
STRT.F        213.255                        : top_depth    - START DEPTH
STOP.F        672.572                        : bot_depth    - STOP DEPTH
STEP.F        0.82                           : increment    - STEP LENGTH
 NULL. -999.2500:NULL Value
~CURVE INFORMATION BLOCK
#MNEM UNIT       ERCB CURVE CODE    CURVE DESCRIPTION
#-----------   ------------------   ----------------------------------
DEPT.F        00 001 00 00         : DEPTH        - DEPTH
ILD .OHMM     00 120 00 00         : RESD         - DEEP RESISTIVITY (DIL)
DPHI.V/V      00 890 00 00         : PHID         - DENSITY POROSITY (SANDSTONE)
NPHI.V/V      00 330 00 00         : PHIN         - NEUTRON POROSITY (SANDSTONE)
CALI.IN       00 280 01 00         : CAL          - CALIPER
GR  .API      00 310 00 00         : GR           - GAMMA RAY
~PARAMETER INFORMATION
#MNEM.UNIT           DATA             DESCRIPTION OF MNEMONIC
#---------         -----------     ------------------------------
GL  .M        474.15               : gl           - GROUND LEVEL ELEVATION
EREF.M        477.15               : kb           - ELEVATION OF DEPTH REFERENCE
DATM.M        477.15               : datum        - DATUM ELEVATION
TDD .M        216                  : tdd          - TOTAL DEPTH DRILLER
RUN .         ONE                  : Run          - RUN NUMBER
ENG .         BILL                 : Engineer     - RECORDING ENGINEER
WIT .         JIM                  : Witness      - WITNESSED BY
MUD .         GEL                  : Mud_type     - MUD TYPE
MATR.         SANDSTONE            : Logunit      - NEUTRON MATRIX
TMAX.F        140                  : BHT          - MAXIMUM RECORDED TEMPERATURE
BHTD.F        6797.9               : BHTDEP       - MAXIMUM RECORDED TEMPERATURE
RMT .F        77                   : MDTP         - TEMPERATURE OF MUD
MUDD.LB/G     9.04166              : MWT          - MUD DENSITY
NEUT.         1                    : NEUTRON      - NEUTRON TYPE
RESI.         0                    : RESIST       - RESISTIVITY TYPE
RM  .OHMM     7.6                  : RM           - RESISTIVITY OF MUD
RMC .OHMM     0.25                 : RMC          - RESISTIVITY OF MUD CAKE
RMF .OHMM     6.9                  : RMF          - RESISTIVITY OF MUD FILTRATE
SUFT.F        39.2                 : SUFT         - SURFACE TEMPERATURE
~A  DEPTH     RESD     PHID     PHIN      CAL       GR
# ...
  333.005   13.743    0.126    0.501   10.573   74.064
  333.825   14.049    0.131    0.416   10.554   76.789
  334.646   14.576    0.156    0.478   10.495   83.737
  335.466   16.298    0.216    0.505   10.377   73.796
  336.286   19.344    0.288    0.482   10.160   68.680
  337.106   22.451    0.306    0.435    9.983   65.376
  337.927   26.845    0.311    0.429    9.786   64.180
  338.747   29.132    0.304    0.429    9.608   63.589
  339.567   30.003    0.304    0.430    9.530   64.806
  340.387   29.992    0.303    0.444    9.511   66.930
  341.207   29.098    0.295    0.447    9.512   66.942
  342.028   28.018    0.253    0.427    9.532   66.651
  342.848   28.640    0.258    0.432    9.553   67.868
  343.668   29.719    0.280    0.436    9.534   66.372
  344.488   30.835    0.300    0.428    9.515   62.161
  345.308   31.287    0.305    0.430    9.496   61.569
  346.129   31.743    0.302    0.431    9.496   64.900
  346.949   32.452    0.292    0.425    9.497   65.816
  347.769   34.180    0.268    0.413    9.537   69.143
  348.589   36.815    0.241    0.401    9.598   73.377
  349.409   40.855    0.174    0.397    9.677   77.010
  350.230   42.706    0.173    0.378    9.837   78.828
  351.050   42.060    0.107    0.288   10.095   75.220
  351.870   40.199    0.130    0.306   10.234   74.028
  352.690   37.571    0.169    0.347   10.215   76.752
  353.510   31.866    0.199    0.421   10.255   81.589
  354.331   28.476    0.263    0.443   10.770   90.045
  355.151   27.216    0.248    0.466   11.127   92.771
  355.971   27.216    0.252    0.459   11.583   93.386
  356.791   26.587    0.258    0.479   11.723   93.398
  357.612   26.383    0.262    0.466   11.803   87.076
  358.432   25.983    0.257    0.429   11.803   81.960
  359.252   25.777    0.256    0.427   11.784   77.449
  360.072   25.960    0.255    0.444   11.726   74.443
  360.892   27.755    0.250    0.447   11.627   71.441
  361.713   31.030    0.236    0.418   11.470   70.545
  362.533   29.880    0.241    0.421   11.411   69.350
  363.353   28.771    0.276    0.444   11.491   68.157
  364.173   28.771    0.294    0.430   11.472   68.167
  364.993   28.530    0.275    0.425   11.414   69.388
  365.814   28.312    0.275    0.433   11.414   70.603
  366.634   28.091    0.314    0.443   11.415   71.520
  367.454   29.148    0.324    0.459   11.416   71.230
  368.274   29.148    0.318    0.469   11.357   70.941
  369.094   30.006    0.308    0.421   11.259   70.046
  369.915   31.840    0.293    0.409   11.161   68.548
  370.735   31.588    0.280    0.398   11.062   67.052
  371.555   30.878    0.259    0.405   10.984   69.177
  372.375   29.957    0.275    0.424   10.925   71.901
  373.196   29.064    0.287    0.440   10.946   72.819
  374.016   29.710    0.293    0.443   10.947   70.719
  374.836   29.698    0.242    0.417   10.888   71.332
  375.656   25.566    0.293    0.408   10.691   72.851
  376.476   22.678    0.308    0.417   10.613   75.276
  377.297   21.354    0.299    0.415   10.594   78.908
  378.117   20.870    0.261    0.421   10.654   75.299
  378.937   21.497    0.267    0.422   10.793   74.712
  379.757   23.153    0.274    0.432   10.695   75.023
  380.577   24.752    0.273    0.428   10.518   75.031
  381.398   26.265    0.274    0.436   10.360   73.838
  382.218   27.869    0.275    0.453   10.103   73.848
  383.038   29.351    0.255    0.459    9.708   73.559
  383.858   29.341    0.189    0.444    9.650   70.554
  384.678   27.835    0.209    0.405    9.591   72.073
  385.499   25.439    0.249    0.417    9.533   78.117
  386.319   23.251    0.248    0.423    9.513   85.065
  387.139   21.246    0.249    0.436    9.514   90.203
  387.959   20.612    0.232    0.442    9.555   90.216
  388.780   20.453    0.240    0.445    9.536   86.608
  389.600   20.139    0.244    0.451    9.497   84.207
  390.420   20.139    0.248    0.458    9.418   81.505
  391.240   20.885    0.244    0.460    9.360   78.802
  392.060   21.677    0.235    0.445    9.341   77.908
  392.881   23.523    0.248    0.433    9.361   77.014
  393.701   27.095    0.186    0.385    9.382   75.217
  394.521   31.448    0.146    0.315    9.442   72.815
  395.341   39.037    0.086    0.285    9.522   71.017
  396.161   46.680    0.074    0.307    9.622   67.709
  396.982   33.841    0.131    0.345    9.701   80.389
  397.802   26.050    0.197    0.398    9.821   90.956
  398.622   12.339    0.238    0.459   10.040   95.190
  399.442   10.158    0.259    0.501   10.179   95.201
  400.262    8.680    0.288    0.540   10.338   92.801
  401.083    8.358    0.281    0.568   10.616   92.514
  401.903    8.231    0.279    0.593   10.814   94.332
  402.723    8.541    0.277    0.554   11.033   94.343
  403.543    9.478    0.242    0.523   11.271   88.324
  404.364   11.334    0.210    0.452   11.489   89.842
  405.184   14.280    0.237    0.454   11.629   88.647
  406.004   17.333    0.241    0.467   11.709   89.261
  406.824   19.818    0.216    0.473   11.788   87.764
  407.644   21.188    0.201    0.452   11.829   88.683
  408.465   20.710    0.190    0.442   11.810   88.090
  409.285   21.327    0.182    0.434   11.751   82.673
  410.105   22.802    0.192    0.423   11.692   77.255
  410.925   26.071    0.217    0.406   11.555   79.076
  411.745   28.291    0.225    0.397   11.516   81.803
  412.566   29.799    0.235    0.385   11.695   81.210
  413.386   28.057    0.247    0.404   11.695   78.809
  414.206   26.817    0.254    0.424   11.518   78.521
  415.026   27.825    0.241    0.416   11.084   80.944
  415.846   29.090    0.233    0.420   10.946   82.463
  416.667   30.181    0.241    0.470   10.828   80.063
  417.487   30.395    0.236    0.461   10.532   77.359
  418.307   30.395    0.203    0.413   10.255   78.276
  419.127   30.373    0.182    0.398   10.058   81.002
  419.948   30.358    0.189    0.415    9.920   80.411
  420.768   30.344    0.261    0.420    9.822   79.216
  421.588   29.884    0.272    0.424    9.645   81.941
  422.408   29.651    0.263    0.428    9.606   78.636
  423.228   29.200    0.252    0.440    9.587   75.931
  424.049   27.291    0.261    0.471    9.509   72.323
  424.869   27.279    0.228    0.432    9.292   68.414
  425.689   31.191    0.196    0.420    8.996   63.600
  426.509   35.931    0.158    0.249    8.640   62.105
  427.329   44.935    0.122    0.234    8.324   61.514
  428.150   55.777    0.100    0.234    8.246   59.713
  428.970   63.772    0.045    0.240    8.227   61.235
  429.790   64.224    0.019    0.250    8.188   63.056
  430.610   62.309    0.016    0.273    8.110   63.669
  431.430   58.669    0.145    0.293    8.071   60.968
  432.251   54.836    0.174    0.302    8.071   60.676
  433.071   46.510    0.206    0.319    8.053   65.513
  433.891   38.574    0.238    0.393    8.073   69.143
  434.711   33.707    0.248    0.434    8.153   73.380
  435.531   31.269    0.261    0.431    8.272   72.488
  436.352   29.222    0.250    0.431    8.431   71.591
  437.172   29.222    0.284    0.425    8.868   76.428
  437.992   28.337    0.273    0.419    8.987   79.455
  438.812   27.292    0.250    0.417    9.146   81.579
  439.633   27.292    0.247    0.437    9.305   79.784
  440.453   28.300    0.254    0.460    9.445   77.984
  441.273   29.811    0.266    0.477    9.505   73.772
  442.093   31.635    0.244    0.459    9.604   68.957
  442.913   33.820    0.235    0.428    9.704   65.651
  443.734   36.157    0.200    0.415    9.804   67.472
  444.554   35.078    0.199    0.373    9.884   74.420
  445.374   32.057    0.245    0.391   10.003   81.670
  446.194   29.297    0.258    0.428   10.123   88.319
  447.014   28.000    0.248    0.439   10.361   89.837
  447.835   28.200    0.239    0.444   10.520   85.927
  448.655   28.614    0.241    0.469   10.600   82.621
  449.475   29.469    0.196    0.454   10.601   85.047
  450.295   31.741    0.128    0.429   10.621   83.551
  451.115   31.258    0.111    0.360   10.681   81.449
  451.936   30.099    0.101    0.406   10.801   78.445
