~VERSION INFORMATION
 VERS.                 2.0:   CWLS LOG ASCII STANDARD -VERSION 2.0
 WRAP.                  NO:   ONE LINE PER DEPTH STEP
~WELL INFORMATION BLOCK
#MNEM.UNIT           DATA                    DESCRIPTION OF MNEMONIC
#---------    -------------------            -------------------------------
# Generated from Intellog Unique Number	CN_94_101/WELL/5036
WELL.         13-29-097-12W4                 : Well_name    - WELL
LOC .         AA/13-29-097-12W4/0            : Location     - LOCATION
UWI .         AA/13-29-097-12W400            : Uwi          - UNIQUE WELL ID
ENTR.         JOETTE                         : Entered      - ENTERED BY
SRVC.         SCHLUMBERGER                   : Scn          - SERVICE COMPANY
DATE.         08/17/92                       : Date         - LOG DATE
STRT.M        25                             : top_depth    - START DEPTH
STOP.M        205                            : bot_depth    - STOP DEPTH
STEP.M        0.25                           : increment    - STEP LENGTH
 NULL. -999.2500:NULL Value
~CURVE INFORMATION BLOCK
#MNEM UNIT       ERCB CURVE CODE    CURVE DESCRIPTION
#-----------   ------------------   ----------------------------------
DEPT.M        00 001 00 00         : DEPTH        - DEPTH
ILD .OHMM     00 120 00 00         : RESD         - DEEP RESISTIVITY (DIL)
GR  .API      00 310 00 00         : GR           - GAMMA RAY
NPHI.V/V      00 330 00 00         : PHIN         - NEUTRON POROSITY (SANDSTONE)
DPHI.V/V      00 890 00 00         : PHID         - DENSITY POROSITY (SANDSTONE)
~PARAMETER INFORMATION
#MNEM.UNIT           DATA             DESCRIPTION OF MNEMONIC
#---------         -----------     ------------------------------
GL  .M        448.3                : gl           - GROUND LEVEL ELEVATION
EREF.M        448.3                : kb           - ELEVATION OF DEPTH REFERENCE
DATM.M        448.3                : datum        - DATUM ELEVATION
TDD .M        215                  : tdd          - TOTAL DEPTH DRILLER
RUN .         ONE                  : Run          - RUN NUMBER
ENG .         BILL                 : Engineer     - RECORDING ENGINEER
WIT .         JIM                  : Witness      - WITNESSED BY
MUD .         GEL                  : Mud_type     - MUD TYPE
MATR.         SANDSTONE            : Logunit      - NEUTRON MATRIX
TMAX.C        17                   : BHT          - MAXIMUM RECORDED TEMPERATURE
BHTD.M        215                  : BHTDEP       - MAXIMUM RECORDED TEMPERATURE
RMT .C        17                   : MDTP         - TEMPERATURE OF MUD
MUDD.KG/M     1030                 : MWT          - MUD DENSITY
NEUT.         1                    : NEUTRON      - NEUTRON TYPE
RESI.         0                    : RESIST       - RESISTIVITY TYPE
RM  .OHMM     16.5                 : RM           - RESISTIVITY OF MUD
RMC .OHMM     16.5                 : RMC          - RESISTIVITY OF MUD CAKE
RMF .OHMM     16.5                 : RMF          - RESISTIVITY OF MUD FILTRATE
SUFT.C        4                    : SUFT         - SURFACE TEMPERATURE
~A  DEPTH     RESD       GR     PHIN     PHID
# ...
  112.000    6.209  138.521    0.633    0.308
  112.250    8.501  135.530    0.640    0.317
  112.500    9.756  130.746    0.616    0.317
  112.750    8.935  127.153    0.576    0.318
  113.000    7.903  122.965    0.542    0.318
  113.250    7.290  119.379    0.509    0.320
  113.500    7.093  120.608    0.485    0.313
  113.750    7.305  127.257    0.490    0.298
  114.000    7.938  132.701    0.495    0.296
  114.250    8.361  138.747    0.493    0.305
  114.500    8.577  138.177    0.478    0.299
  114.750   10.041  134.591    0.478    0.284
  115.000   10.255  131.600    0.485    0.329
  115.250    9.227  129.820    0.491    0.322
  115.500    9.443  128.040    0.471    0.275
  115.750   10.282  131.678    0.464    0.261
  116.000   10.292  132.305    0.475    0.275
  116.250   10.088  131.127    0.466    0.303
  116.500    9.681  136.584    0.444    0.308
  116.750    9.482  135.393    0.440    0.286
  117.000   10.738  133.619    0.452    0.266
  117.250   11.990  134.247    0.472    0.381
  117.500   12.829  136.681    0.488    0.362
  117.750   13.047  134.894    0.453    0.328
  118.000   12.846  131.308    0.452    0.286
  118.250   12.438  133.749    0.439    0.312
  118.500   12.239  134.972    0.423    0.259
  118.750   12.665  134.396    0.421    0.244
  119.000   13.088  132.020    0.419    0.237
  119.250   13.096  130.246    0.419    0.218
  119.500   12.274  129.055    0.419    0.219
  119.750   11.659  126.686    0.422    0.246
  120.000   11.048  124.899    0.433    0.220
  120.250   10.847  121.306    0.455    0.226
  120.500   10.645  118.322    0.443    0.264
  120.750   10.448  120.756    0.421    0.263
  121.000   10.454  125.009    0.439    0.285
  121.250   10.670  127.443    0.504    0.295
  121.500   11.098  129.877    0.493    0.262
  121.750   11.311  129.903    0.484    0.249
  122.000   11.525  128.116    0.495    0.256
  122.250   12.159  126.336    0.454    0.252
  122.500   12.999  124.556    0.437    0.243
  122.750   13.213  120.976    0.433    0.233
  123.000   13.014  118.587    0.445    0.251
  123.250   12.399  115.001    0.443    0.272
  123.500   11.574  116.237    0.437    0.273
  123.750   12.208  119.273    0.436    0.273
  124.000   12.839  121.713    0.434    0.274
  124.250   11.809  122.335    0.432    0.281
  124.500   11.817  121.752    0.428    0.286
  124.750   12.864  121.183    0.437    0.289
  125.000   14.533  119.998    0.441    0.287
  125.250   15.580  117.026    0.444    0.284
  125.500   15.798  115.240    0.447    0.280
  125.750   15.185  113.453    0.453    0.273
  126.000   14.981  108.061    0.450    0.265
  126.250   14.367  102.675    0.435    0.251
  126.500   13.131   97.885    0.385    0.253
  126.750   11.685   97.917    0.316    0.279
  127.000   10.238   99.736    0.278    0.333
  127.250    8.379  107.588    0.329    0.359
  127.500    7.558  116.644    0.397    0.335
  127.750    7.147  122.088    0.435    0.285
  128.000    6.119  128.736    0.447    0.292
  128.250    6.543  137.812    0.470    0.300
  128.500    7.174  134.821    0.501    0.288
  128.750    7.807  131.235    0.504    0.282
  129.000    8.021  127.642    0.522    0.275
  129.250    8.235  122.845    0.510    0.272
  129.500    8.243  122.269    0.515    0.262
  129.750    7.215  127.118    0.545    0.272
  130.000    6.185  122.327    0.576    0.284
  130.250    5.157  119.343    0.552    0.291
  130.500    4.745  121.175    0.511    0.284
  130.750    4.338  129.027    0.492    0.274
  131.000    3.935  138.083    0.508    0.263
  131.250    3.734  144.136    0.506    0.270
  131.500    3.534  143.560    0.497    0.278
  131.750    3.542  144.783    0.510    0.280
  132.000    3.758  147.819    0.542    0.274
  132.250    3.764  150.855    0.569    0.273
  132.500    4.396  155.095    0.558    0.278
  132.750    5.652  157.529    0.570    0.286
  133.000    7.324  150.933    0.588    0.296
  133.250    8.160  143.132    0.550    0.302
  133.500    8.376  132.322    0.504    0.277
  133.750    7.969  118.501    0.475    0.262
  134.000    6.939  102.272    0.467    0.239
  134.250    5.911  107.716    0.464    0.279
  134.500    6.748  130.017    0.399    0.266
  134.750    8.210  138.478    0.387    0.252
  135.000    8.841  143.313    0.462    0.251
  135.250    9.682  140.329    0.450    0.261
  135.500    9.688  134.334    0.446    0.269
  135.750    9.488  129.544    0.485    0.278
  136.000    9.081  125.958    0.501    0.287
  136.250    9.090  123.576    0.423    0.282
  136.500    9.098  125.407    0.419    0.276
  136.750    9.314  131.454    0.436    0.272
  137.000    9.324  135.700    0.438    0.259
  137.250    8.292  130.910    0.447    0.247
  137.500    7.469  126.715    0.460    0.240
  137.750    6.441  121.323    0.439    0.243
  138.000    6.034  122.552    0.372    0.243
  138.250    6.250  131.013    0.348    0.235
  138.500    6.464  137.066    0.400    0.226
  138.750    7.722  139.500    0.449    0.225
  139.000    8.353  142.536    0.483    0.233
  139.250    8.567  145.565    0.498    0.242
  139.500    8.991  149.203    0.500    0.249
  139.750    9.001  145.015    0.455    0.245
  140.000    7.971  143.837    0.460    0.247
  140.250    7.150  145.668    0.482    0.269
  140.500    6.531  149.313    0.489    0.281
  140.750    5.713  148.737    0.502    0.271
  141.000    5.306  145.752    0.502    0.265
  141.250    5.312  142.762    0.501    0.270
  141.500    5.318  140.379    0.491    0.268
  141.750    5.951  136.191    0.537    0.238
  142.000    6.790  127.789    0.548    0.232
  142.250    7.006  121.801    0.515    0.226
  142.500    5.768  127.840    0.479    0.249
  142.750    4.946  138.703    0.467    0.261
  143.000    4.748  145.357    0.498    0.269
  143.250    4.547  143.577    0.516    0.262
  143.500    4.553  141.797    0.508    0.249
  143.750    4.981  140.612    0.499    0.237
  144.000    5.194  139.447    0.504    0.236
  144.250    5.201  138.858    0.507    0.231
  144.500    5.213  140.094    0.512    0.225
  144.750    5.217  143.143    0.500    0.216
  145.000    4.810  145.577    0.489    0.218
  145.250    4.195  146.794    0.470    0.230
  145.500    3.375  150.432    0.463    0.246
  145.750    2.762  155.274    0.496    0.264
  146.000    2.560  140.851    0.519    0.244
  146.250    2.363  133.051    0.557    0.255
  146.500    2.371  127.652    0.596    0.277
  146.750    2.585  112.032    0.577    0.341
  147.000    2.801  114.465    0.441    0.408
  147.250    3.226  112.077    0.458    0.381
  147.500    3.860  106.089    0.472    0.362
  147.750    4.279  103.098    0.446    0.392
  148.000    5.326  104.930    0.458    0.403
  148.250    5.751  103.156    0.507    0.352
  148.500    5.757  100.165    0.457    0.321
  148.750    5.558   96.586    0.447    0.291
  149.000    7.228  102.030    0.477    0.259
  149.250    9.105   99.045    0.504    0.257
  149.500   12.438   92.449    0.519    0.269
  149.750   10.369   91.277    0.527    0.260
  150.000    6.430   96.708    0.460    0.267
  150.250    4.779  108.179    0.445    0.275
  150.500    3.954  123.256    0.413    0.283
  150.750    3.757  128.098    0.430    0.283
  151.000    3.765  132.946    0.481    0.274
  151.250    3.773  134.176    0.520    0.262
  151.500    3.783  132.396    0.543    0.269
  151.750    3.791  131.820    0.559    0.279
  152.000    4.009  134.254    0.576    0.276
  152.250    4.014  136.086    0.578    0.271
  152.500    4.229  137.315    0.589    0.271
  152.750    4.447  136.131    0.566    0.265
  153.000    4.873  132.545    0.530    0.265
  153.250    5.087  128.965    0.505    0.258
  153.500    5.093  130.195    0.533    0.246
  153.750    5.103  132.629    0.547    0.248
  154.000    4.696  133.858    0.530    0.252
  154.250    4.499  133.884    0.496    0.234
  154.500    4.297  138.131    0.459    0.203
  154.750    4.305  140.558    0.486    0.208
  155.000    4.519  141.788    0.519    0.252
  155.250    5.360  138.804    0.576    0.287
