~VERSION INFORMATION
 VERS.                 2.0:   CWLS LOG ASCII STANDARD -VERSION 2.0
 WRAP.                  NO:   ONE LINE PER DEPTH STEP
~WELL INFORMATION BLOCK
#MNEM.UNIT           DATA                    DESCRIPTION OF MNEMONIC
#---------    -------------------            -------------------------------
# Generated from Intellog Unique Number	CW_79_81/WELL/2479
WELL.         GULF HOOLE OV                  : Well_name    - WELL
LOC .         AA/11-01-080-23W4/0            : Location     - LOCATION
UWI .         AA/11-01-080-23W4/0            : Uwi          - UNIQUE WELL ID
ENTR.         MAX                            : Entered      - ENTERED BY
SRVC.         SCHLUMBERGER                   : Scn          - SERVICE COMPANY
STRT.M        215                            : top_depth    - START DEPTH
STOP.M        485                            : bot_depth    - STOP DEPTH
STEP.M        0.25                           : increment    - STEP LENGTH
 NULL. -999.2500:NULL Value
~CURVE INFORMATION BLOCK
#MNEM UNIT       ERCB CURVE CODE    CURVE DESCRIPTION
#-----------   ------------------   ----------------------------------
DEPT.M        00 001 00 00         : DEPTH        - DEPTH
ILD .OHMM     00 120 00 00         : RESD         - DEEP RESISTIVITY (DIL)
NPHI.V/V      00 330 00 00         : PHIN         - NEUTRON POROSITY (SANDSTONE)
DPHI.V/V      00 890 00 00         : PHID         - DENSITY POROSITY (SANDSTONE)
GR  .API      00 310 00 00         : GR           - GAMMA RAY
CALI.MM       00 280 01 00         : CAL          - CALIPER
~PARAMETER INFORMATION
#MNEM.UNIT           DATA             DESCRIPTION OF MNEMONIC
#---------         -----------     ------------------------------
GL  .M        583.2                : gl           - GROUND LEVEL ELEVATION
EREF.M        586.7                : kb           - ELEVATION OF DEPTH REFERENCE
DATM.M        583.2                : datum        - DATUM ELEVATION
TDD .M        490                  : tdd          - TOTAL DEPTH DRILLER
RUN .         ONE                  : Run          - RUN NUMBER
ENG .         BILL                 : Engineer     - RECORDING ENGINEER
WIT .         JIM                  : Witness      - WITNESSED BY
MUD .         GEL                  : Mud_type     - MUD TYPE
MATR.         SANDSTONE            : Logunit      - NEUTRON MATRIX
TMAX.C        29                   : BHT          - MAXIMUM RECORDED TEMPERATURE
BHTD.M        490                  : BHTDEP       - MAXIMUM RECORDED TEMPERATURE
MATR.         1                    : LOGUNIT      - NEUTRON MATRIX
RMT .C        17                   : MDTP         - TEMPERATURE OF MUD
NEUT.         1                    : NEUTRON      - NEUTRON TYPE
RESI.         0                    : RESIST       - RESISTIVITY TYPE
RMC .OHMM     8.12                 : RMC          - RESISTIVITY OF MUD CAKE
RMF .OHMM     7.56                 : RMF          - RESISTIVITY OF MUD FILTRATE
SUFT.C        15                   : SUFT         - SURFACE TEMPERATURE
~A  DEPTH     RESD     PHIN     PHID       GR      CAL
# ...
  361.000    9.855    0.432    0.230   80.080  280.865
  361.250    9.716    0.440    0.229   79.744  282.285
  361.500    9.507    0.455    0.225   78.637  283.503
  361.750    9.078    0.468    0.221   77.711  284.978
  362.000    8.944    0.465    0.231   77.730  286.256
  362.250    8.818    0.453    0.231   79.178  286.684
  362.500    8.598    0.458    0.230   81.158  287.416
  362.750    8.322    0.470    0.228   81.417  288.443
  363.000    8.072    0.482    0.224   80.311  289.466
  363.250    7.947    0.489    0.214   80.713  289.986
  363.500    7.890    0.481    0.222   80.235  290.431
  363.750    8.734    0.484    0.241   79.307  290.462
  364.000   10.589    0.478    0.256   79.979  289.904
  364.250   14.109    0.467    0.270   81.902  288.950
  364.500   19.902    0.459    0.279   84.243  287.893
  364.750   24.635    0.470    0.268   85.990  287.055
  365.000   26.007    0.473    0.260   87.495  286.685
  365.250   25.637    0.487    0.263   86.328  286.320
  365.500   25.275    0.494    0.270   77.847  286.255
  365.750   25.194    0.483    0.270   67.999  286.487
  366.000   25.663    0.456    0.259   60.650  286.323
  366.250   27.120    0.426    0.240   57.338  283.637
  366.500   27.546    0.399    0.226   56.117  279.954
  366.750   26.959    0.404    0.256   58.517  278.014
  367.000   25.655    0.421    0.279   60.916  277.553
  367.250   23.834    0.436    0.291   62.363  277.592
  367.500   21.762    0.442    0.292   62.679  277.633
  367.750   19.464    0.441    0.284   63.110  277.493
  368.000   18.465    0.437    0.278   66.349  276.707
  368.250   18.473    0.440    0.276   69.223  276.346
  368.500   18.684    0.441    0.270   67.999  275.385
  368.750   19.105    0.425    0.257   65.524  274.427
  369.000   19.541    0.397    0.239   64.294  273.670
  369.250   19.493    0.383    0.233   66.804  272.747
  369.500   19.206    0.414    0.251   68.559  271.958
  369.750   19.215    0.418    0.245   67.869  271.203
  370.000   19.754    0.398    0.218   66.997  270.741
  370.250   20.206    0.355    0.179   66.303  270.579
  370.500   20.325    0.306    0.138   66.146  270.717
  370.750   20.209    0.293    0.117   67.379  271.315
  371.000   19.614    0.343    0.175   69.875  272.170
  371.250   19.194    0.379    0.208   71.800  273.397
  371.500   18.889    0.404    0.229   70.333  275.213
  371.750   19.170    0.426    0.245   68.093  277.427
  372.000   19.900    0.440    0.256   66.806  279.544
  372.250   20.079    0.431    0.253   67.158  280.939
  372.500   19.487    0.440    0.249   66.436  281.798
  372.750   18.792    0.440    0.230   65.268  282.228
  373.000   18.940    0.435    0.218   66.595  282.954
  373.250   20.195    0.426    0.211   68.041  283.581
  373.500   21.907    0.416    0.209   68.242  284.112
  373.750   21.192    0.400    0.215   67.141  285.032
  374.000   19.364    0.398    0.239   68.644  285.477
  374.250   17.992    0.416    0.237   71.995  286.308
  374.500   17.105    0.419    0.222   74.452  286.539
  374.750   16.501    0.413    0.205   76.254  286.372
  375.000   15.910    0.405    0.193   77.225  286.008
  375.250   14.832    0.400    0.188   77.121  285.659
  375.500   13.965    0.388    0.192   78.879  285.702
  375.750   13.667    0.408    0.203   83.177  286.123
  376.000   13.375    0.426    0.218   84.091  286.846
  376.250   13.138    0.437    0.227   83.400  287.078
  376.500   12.929    0.441    0.230   82.292  286.719
  376.750   12.617    0.440    0.236   81.312  286.117
  377.000   12.432    0.435    0.237   81.084  284.915
  377.250   12.256    0.425    0.226   81.818  284.547
  377.500   12.217    0.416    0.208   82.730  283.886
  377.750   12.222    0.414    0.193   84.178  282.932
  378.000   12.227    0.416    0.191   84.971  281.779
  378.250   12.233    0.418    0.206   82.230  280.299
  378.500   12.239    0.433    0.206   81.508  278.688
  378.750   12.425    0.433    0.203   83.669  277.927
  379.000   12.889    0.427    0.205   86.009  277.165
  379.250   13.711    0.426    0.207   86.746  276.604
  379.500   14.874    0.432    0.206   85.162  276.243
  379.750   16.240    0.429    0.196   80.574  275.809
  380.000   16.753    0.400    0.178   75.397  275.433
  380.250   16.396    0.378    0.170   76.129  275.460
  380.500   15.869    0.405    0.197   81.322  275.196
  380.750   15.419    0.421    0.226   85.149  274.835
  381.000   15.005    0.411    0.238   85.528  274.473
  381.250   14.282    0.410    0.224   83.876  274.118
  381.500   13.860    0.407    0.209   82.654  274.155
  381.750   14.071    0.428    0.207   81.491  274.186
  382.000   14.442    0.434    0.210   81.392  273.928
  382.250   14.502    0.428    0.211   82.244  273.766
  382.500   14.166    0.421    0.207   83.751  273.700
  382.750   13.723    0.429    0.205   85.343  273.265
  383.000   13.522    0.428    0.205   84.865  272.885
  383.250   13.429    0.424    0.215   84.174  273.312
  383.500   13.264    0.423    0.216   84.373  274.334
  383.750   13.077    0.428    0.210   84.156  275.758
  384.000   12.940    0.437    0.202   83.523  277.183
  384.250   12.946    0.443    0.204   83.833  278.094
  384.500   12.952    0.437    0.207   84.101  278.550
  384.750   12.958    0.429    0.200   81.031  279.374
  385.000   13.106    0.432    0.194   80.457  280.198
  385.250   13.063    0.439    0.191   81.785  280.827
  385.500   12.809    0.440    0.193   84.005  281.159
  385.750   12.629    0.425    0.204   85.943  281.031
  386.000   12.635    0.420    0.206   87.205  280.248
  386.250   12.734    0.421    0.198   86.984  279.091
  386.500   12.763    0.429    0.197   84.805  278.528
  386.750   12.768    0.437    0.202   84.705  278.362
  387.000   12.750    0.440    0.212   86.924  278.200
  387.250   12.664    0.432    0.218   87.454  277.369
  387.500   12.670    0.425    0.203   85.247  276.989
  387.750   12.583    0.415    0.189   83.841  277.020
  388.000   12.428    0.412    0.187   84.752  277.054
  388.250   12.207    0.421    0.191   86.793  277.092
  388.500   11.947    0.438    0.196   88.776  277.228
  388.750   11.695    0.450    0.198   89.914  277.739
  389.000   11.700    0.446    0.198   91.915  278.187
  389.250   12.051    0.427    0.194   90.270  278.622
  389.500   12.548    0.411    0.178   87.019  278.754
  389.750   12.838    0.398    0.172   86.207  278.787
  390.000   12.748    0.392    0.182   88.427  278.820
  390.250   12.252    0.402    0.196   91.473  278.860
  390.500   11.625    0.430    0.198   94.715  278.899
  390.750   11.292    0.433    0.197   94.975  278.934
  391.000   10.970    0.422    0.189   91.843  278.671
  391.250   10.778    0.413    0.167   87.463  278.508
  391.500   10.724    0.413    0.146   84.869  278.541
  391.750   10.762    0.421    0.164   88.433  278.411
  392.000   10.933    0.419    0.181   90.684  277.625
  392.250   11.344    0.418    0.185   91.416  276.468
  392.500   11.833    0.408    0.186   90.903  274.124
  392.750   12.588    0.396    0.181   89.736  271.581
  393.000   13.769    0.391    0.175   87.913  268.840
  393.250   15.896    0.397    0.179   83.357  263.929
  393.500   18.135    0.374    0.176   75.948  259.015
  393.750   23.877    0.310    0.139   69.548  257.857
  394.000   30.747    0.256    0.079   66.893  256.997
  394.250   37.249    0.233    0.054   67.628  256.437
  394.500   40.340    0.253    0.075   70.741  256.078
  394.750   36.646    0.339    0.118   75.460  255.723
  395.000   31.783    0.417    0.156   79.942  255.755
  395.250   27.603    0.408    0.177   77.819  255.397
  395.500   25.137    0.403    0.199   74.809  255.034
  395.750   23.560    0.394    0.195   72.216  254.870
  396.000   22.482    0.383    0.178   70.870  255.005
  396.250   21.689    0.379    0.194   71.872  255.437
  396.500   21.700    0.377    0.206   75.611  255.477
  396.750   21.236    0.342    0.180   73.966  255.115
  397.000   20.668    0.332    0.141   74.103  254.456
  397.250   19.929    0.365    0.133   79.473  253.700
