~Version Information Block
VERS .                 2.00:  CWLS LOG ASCII STANDARD - VERSION 2.00
WRAP .                   NO:  One line per depth step
~Well Information Block
#MNEM.UNIT        Data Type   Information
#---------- ----------------  -----------
STRT .M                 6.1           :  START DEPTH
STOP .M                51.4           :  STOP DEPTH
STEP .M                 0.3           :  STEP
NULL .              -999.25           :  NULL VALUE
COMP . BPOG OPERATIONS LTD            :  COMPANY
WELL . BPOG ATHABASCA OV WELL #4-73-4C:  WELL
FLD  . TAR SANDS                      :  FIELD
LOC  . 11-20-095-11W4                 :  LOCATION
PROV . ALBERTA                        :  PROVINCE
SRVC . SCHLUMBERGER                   :  SERVICE COMPANY
DATE . 15 FEB 74                      :  LOG DATE
UWI  . AA/11-20-095-11W4/0            :  UNIQUE WELL ID
~Curve Information Block
#MNEM.UNIT         API CODE   Curve Description
#---------- ----------------  -----------------
DEPTH.M                    :  Transferred from LOGMATE/ESP.
DENS .KG/M3                 :  Loaded from 950216.154427
GR   .API                  :  Loaded from 950216.154427
RESD .OHMM                 :  Loaded from 950216.154427
~Parameter Information Block
#MNEM.UNIT            Value   Description
#---------- ----------------  -----------
PROJECT.            MOS_95_11:
SET  .                  RAW:
~A        DEPTH           DENS             GR           RESD
         6.1000      2342.3999        34.3100      -999.2500
         6.4000      2345.3000        31.2100      -999.2500
         6.7000      2305.3999        24.7500      -999.2500
         7.0000      2233.3999        20.2000      -999.2500
         7.3000      2163.8999        33.9300      -999.2500
         7.6000      2255.3000        40.4200      -999.2500
         7.9000      2020.9000        40.6700      -999.2500
         8.2000      2090.0000        47.2300      -999.2500
         8.5000      2157.7000        54.9000      -999.2500
         8.8000      2188.3999        65.8300      -999.2500
         9.1000      2201.1001        72.5900        46.4600
         9.4000      2187.6001        70.0800        59.0700
         9.7000      2185.5000        62.8000        66.9000
        10.0000      2169.8999        67.6700        36.8500
        10.3000      2166.8000        75.7300        29.7400
        10.6000      2220.6001        80.1600        35.3100
        10.9000      2225.3999        78.8700        54.9800
        11.2000      2184.0000        70.2100        74.4900
        11.5000      2124.7000        73.1100        59.6900
        11.8000      2230.8999        81.2100        42.4400
        12.1000      2267.3000        78.5000        35.9700
        12.4000      2229.5000        85.5700        30.4400
        12.7000      2201.3000        92.0600        23.6500
        13.0000      2164.2000        98.3000        31.8100
        13.3000      2136.7000        91.8900        51.9200
        13.6000      2146.0000        65.8000        79.2700
        13.9000      2131.0000        59.0700        66.2200
        14.2000      2158.3999        56.1300        53.6500
        14.5000      2169.5000        47.8600        82.4900
        14.8000      2133.6001        36.8400       131.7700
        15.1000      2116.0000        40.4800       176.2600
        15.4000      2099.7000        44.9900       174.8900
        15.7000      2112.3999        53.6000       125.0400
        16.0000      2124.3000        63.0800        87.7900
        16.3000      2145.2000        52.0600        99.7600
        16.6000      2131.8999        47.5800       116.3000
        16.9000      2105.6001        52.1300       132.4100
        17.2000      2104.3000        45.4400       134.7600
        17.5000      2115.0000        49.3600       137.8800
        17.8000      2110.8000        54.5000       132.9000
        18.1000      2114.2000        59.4400       113.8700
        18.4000      2137.7000        62.3400        96.6900
        18.7000      2157.3999        61.4000        82.4000
        19.0000      2146.8999        65.2400        89.9900
        19.3000      2185.8999        63.1700        65.9900
        19.6000      2126.3999        59.6800        37.1500
        19.9000      2110.7000        78.3400        27.6900
        20.2000      2156.0000        81.7500        45.6100
        20.5000      2120.7000        62.1700        79.7600
        20.8000      2136.1001        62.3400        75.9100
        21.1000      2192.3999        72.5300        64.2300
        21.4000      2217.5000        73.1700        50.2700
        21.7000      2189.5000        69.9200        64.3800
        22.0000      2165.0000        81.4500        80.1100
        22.3000      2159.3000        76.4900       100.9400
        22.6000      2129.3000        69.8000        73.8800
        22.9000      2154.2000        62.6800        47.5500
        23.2000      2222.8999        70.9000        31.5100
        23.5000      2272.8999        78.5300        26.0400
        23.8000      2311.7000        78.1100        39.7500
        24.1000      2288.2000        74.3300        79.9200
        24.4000      2180.3000        67.7700       106.7000
        24.7000      2131.7000        60.9600        54.0800
        25.0000      2155.3000        62.8700        28.5800
        25.3000      2264.8999        86.8200        17.3000
        25.6000      2310.3999        88.8800        17.5700
        25.9000      2327.2000        81.4500        25.2200
        26.2000      2331.3999        72.3100        22.4100
        26.5000      2409.3000        60.5000        17.7600
        26.8000      2378.1001        78.7300        18.5400
        27.1000      2210.1001        82.9300        21.2600
        27.4000      2189.8000        78.0100        22.9700
        27.7000      2205.3999        80.7100        19.3600
        28.0000      2352.5000        80.6100        21.5300
        28.3000      2404.8999        78.1800        19.1000
        28.6000      2245.5000        87.0300        20.1900
        28.9000      2256.6001        87.8700        19.2100
        29.2000      2260.2000        81.3400        22.3900
        29.5000      2245.7000        74.4900        24.5900
        29.8000      2223.3999        77.7000        23.4900
        30.1000      2263.8000        79.4100        19.8400
        30.4000      2253.1001        84.1200        18.2400
        30.7000      2232.8999        87.3300        18.4000
        31.0000      2256.2000        90.3400        20.0900
        31.3000      2239.7000        84.1700        22.4600
        31.6000      2249.2000        86.3500        22.2500
        31.9000      2246.0000        82.8100        22.4000
        32.2000      2251.0000        88.5900        21.1600
        32.5000      2255.3999        90.5000        22.0100
        32.8000      2232.5000        93.3100        24.2100
        33.1000      2226.8000        95.4200        22.8700
        33.4000      2265.8000        90.1500        20.1000
        33.7000      2290.8999        87.9500        18.7200
        34.0000      2301.0000        83.5500        19.9300
        34.3000      2244.1001        85.3800        20.4000
        34.6000      2278.3000        90.1700        19.8700
        34.9000      2252.3000        87.9700        18.9100
        35.2000      2272.3999        81.4800        18.1000
        35.5000      2310.8000        78.6200        16.7000
        35.8000      2273.8999        80.0200        17.5900
        36.1000      2305.5000        74.7100        18.2700
        36.4000      2273.8999        85.4100        20.5700
        36.7000      2242.5000        79.8600        22.3800
        37.0000      2260.7000        73.1400        24.5800
        37.3000      2231.7000        67.7900        27.1400
        37.6000      2186.1001        62.6800        27.6700
        37.9000      2216.8999        65.2200        22.3300
        38.2000      2201.3999        63.7700        25.2900
        38.5000      2206.3999        60.7100        33.8900
        38.8000      2190.2000        53.7900        33.9900
        39.1000      2238.2000        54.2700        20.5400
        39.4000      2215.1001        66.7100        45.6100
        39.7000      2186.5000        56.1600       187.1200
        40.0000      2154.7000        38.1100       269.1000
        40.3000      2092.1001        30.4000       284.4600
        40.6000      2099.6001        28.6800       133.6200
        40.9000      2103.3000        32.7500        82.3500
        41.2000      2132.2000        39.1200        65.2700
        41.5000      2110.3000        38.7800        82.1000
        41.8000      2114.3000        38.3600        58.2700
        42.1000      2136.0000        43.1100        37.8500
        42.4000      2154.2000        50.5400        32.6700
        42.7000      2169.8000        51.7000        39.5600
        43.0000      2183.6001        53.6400        55.7600
        43.3000      2165.0000        53.6600        75.2700
        43.6000      2133.8000        47.9600        73.0800
        43.9000      2128.3999        46.1200        59.6300
        44.2000      2137.5000        50.9000        45.5900
        44.5000      2182.3999        52.2200        49.6000
        44.8000      2215.3000        48.3700        57.7200
        45.1000      2184.6001        41.5200        25.4900
        45.4000      2219.0000        75.3300        10.8200
