~Version : LASO    vs 4.00
VERS.                2.00:   CWLS Log ASCII Standard -VERSION 2.0
WRAP.                  NO:
~Well Information Block
#MNEM.UNIT       Data                        Description of Mnemonic
#----.----      -------------------------- : -----------------------------
STRT.M            15.0000:
STOP.M           206.4000:
STEP.M             0.2000:
NULL.           -999.2500:
COMP.  MOBIL OIL OF CANADA     :COMPANY
WELL.  MOBIL CLARKE OV 13-4    :WELL
FLD.                           :FIELD
LOC.   13-04-090-07W4          :LOCATION
CTRY.  CANADA                  :COUNTRY
PROV.  ALBERTA                 :PROVINCE
SRVC.  SCHLUMBERGER            :SERVICE COMPANY
DATE.  06-MAR-81               :LOG DATE
UWI.   AA/13-04-090-07W400     :UNIQUE WELL ID
~Parameter Information Block
#MNEM.UNIT       Data                        Description of Mnemonic
#----.----      -------------------------- : -----------------------------
RUN .                   1                 : Run Number
GL  .M           458.6000                 : Ground Level Elevation
DREF.                  KB                 : Depth Reference
EREF.M           458.6000                 : Elevation of Depth Reference
TDL .M           206.5000                 : Total Depth Logger
TDD .M           207.0000                 : Total Depth Driller
CSGL.M             0.0000                 : Casing Bottom Logger
CSGD.M             8.0000                 : Casing Bottom Driller
CSGS.MM          219.0000                 : Casing Size
CSGW.KG/M          0.0000                 : Casing Weight
BS  .MM          159.0000                 : Bit Size
DFD .            999.0000                 : Mud Weight (Density)
~Curve Information Block
#MNEM.UNIT        API CODE    Curve Description
#---------    ------------    ------------------------------
DEPT.M                    :   DEPTH
CALI.MM       42 280  1  1:   2 DENSITY CALIPER
DPHI.V/V                  :   DPHI
GR  .GAPI     42 310  1  1:   3 GAMMA RAY
LLD .Ohmm                 :   LLD
NPHI.V/V      42 890  3  1:   4 NEUTRON POROSITY (SANDSTONE)
RHOB.K/M3     42 350  1  1:   5 BULK DENSITY
~A  Depth           CALI        DPHI          GR         LLD        NPHI        RHOB
# ...
91.0000         181.4500      0.2690     53.5200     31.2060      0.3486   2240.0000
91.2000         182.5250      0.2888     60.9300     28.9254      0.3408   2270.0000
91.4000         180.3750      0.3242     78.9300     28.2894      0.3404   2284.0000
91.6000         181.4500      0.3596     83.6400     32.9549      0.3552   2255.0000
91.8000         183.6000      0.3733     84.6300     35.6599      0.3784   2223.0000
92.0000         183.6000      0.3705     81.5400     41.3742      0.4328   2174.0000
92.2000         183.6000      0.3667     80.4300     46.2934      0.4380   2159.0000
92.4000         182.5250      0.3605     80.5350     52.0831      0.4290   2135.0000
92.6000         182.5250      0.3566     83.1300     56.4820      0.4204   2127.0000
92.8000         183.6000      0.3527     91.6350     62.8271      0.4100   2157.0000
93.0000         184.6750      0.3468     94.1400     66.0044      0.4192   2157.0000
93.2000         185.7500      0.3396     93.0450     64.9829      0.4306   2157.0000
93.4000         187.9000      0.3344     84.6300     63.4449      0.4538   2186.0000
93.6000         187.9000      0.3300     81.2400     62.8047      0.4524   2185.0000
93.8000         186.8250      0.3282     75.7350     62.7574      0.4440   2210.0000
94.0000         183.6000      0.3290     66.0300     61.1700      0.4306   2212.0000
94.2000         182.5250      0.3305     65.3250     60.8089      0.4202   2197.0000
94.4000         181.4500      0.3363     66.5250     62.4777      0.3948   2223.0000
94.6000         180.3750      0.3386     61.9200     64.5542      0.3330   2248.0000
94.8000         183.6000      0.3373     57.9150     68.5854      0.3224   2265.0000
95.0000         183.6000      0.3345     54.2250     68.8822      0.3158   2256.0000
95.2000         182.5250      0.3330     46.2150     66.3193      0.3032   2260.0000
95.4000         181.4500      0.3328     43.0200     61.7039      0.3022   2226.0000
95.6000         182.5250      0.3353     40.4100     59.0998      0.3062   2198.0000
95.8000         184.6750      0.3401     39.8100     56.8782      0.3108   2209.0000
96.0000         183.6000      0.3412     41.9100     56.6919      0.3376   2187.8999
96.2000         183.6000      0.3403     41.8200     55.1094      0.3442   2186.0000
96.4000         183.6000      0.3348     42.9150     58.0293      0.3418   2164.0000
96.6000         182.5250      0.3286     45.2100     60.3358      0.3442   2149.0000
96.8000         182.5250      0.3200     46.6200     60.6392      0.3504   2155.0000
97.0000         179.3000      0.3299     48.4200     58.8705      0.3526   2152.0000
97.2000         176.0750      0.3349     51.4200     55.7018      0.3512   2189.0000
97.4000         178.2250      0.3263     54.6150     53.2814      0.3450   2170.0000
97.6000         183.6000      0.3185     58.6200     54.4324      0.3376   2186.0000
97.8000         185.7500      0.3148     72.8250     54.6478      0.3358   2214.0000
98.0000         185.7500      0.3240     83.1300     52.8288      0.3400   2220.0000
98.2000         185.7500      0.3308     94.9350     50.6997      0.3462   2198.8999
98.4000         184.6750      0.3185    113.7450     46.8369      0.3610   2173.0000
98.6000         188.9750      0.3190    114.9450     43.2860      0.3904   2161.0000
98.8000         187.9000      0.3189    113.5500     40.8533      0.4464   2101.0000
99.0000         190.0500      0.3229    114.2550     40.4881      0.5070   2091.0000
99.2000         191.1250      0.3322    115.9500     48.0466      0.5484   2110.0000
99.4000         188.9750      0.3414    116.2500     54.5237      0.5310   2101.0000
99.6000         191.1250      0.3377    116.2500     56.2481      0.5118   2096.0000
99.8000         191.1250      0.3350    114.8550     57.8844      0.5112   2096.0000
100.0000        191.1250      0.3426    112.7550     60.3641      0.5244   2117.0000
100.2000        191.1250      0.3504    108.8400     63.4870      0.5268   2127.0000
100.4000        188.9750      0.3582    105.7500     66.6655      0.5190   2150.0000
100.6000        190.0500      0.3561    105.1500     68.9049      0.5318   2115.0000
100.8000        188.9750      0.3415    106.3500     68.9728      0.5414   2090.0000
101.0000        191.1250      0.3309    112.5450     68.9918      0.5336   2110.0000
101.2000        188.9750      0.3299    115.0500     70.7109      0.5368   2129.0000
101.4000        186.8250      0.3274    114.0450     72.7903      0.5266   2115.0000
101.6000        188.9750      0.3254    111.1500     76.7938      0.5238   2109.0000
101.8000        188.9750      0.3230    110.9550     77.1446      0.5308   2121.0000
102.0000        186.8250      0.3164    110.0400     77.1574      0.5276   2114.0000
102.2000        186.8250      0.3100    107.6400     79.7730      0.5318   2127.0000
102.4000        188.9750      0.3314    101.9400     82.7086      0.5294   2141.0000
102.6000        186.8250      0.3333     97.9350     86.7624      0.5122   2151.0000
102.8000        187.9000      0.3359     94.1400     91.4957      0.4910   2156.0000
103.0000        183.6000      0.3427     95.1450     97.2334      0.4856   2178.0000
103.2000        182.5250      0.3462     97.6350    101.5935      0.4866   2207.0000
103.4000        177.1500      0.3468    100.3500    106.4027      0.4838   2238.0000
103.6000        182.5250      0.3525    101.1450    110.8032      0.4694   2202.0000
103.8000        182.5250      0.3577    103.2450    114.2030      0.4676   2187.8999
104.0000        183.6000      0.3604    103.6500    117.5012      0.4736   2166.0000
104.2000        183.6000      0.3585    104.5500    112.1582      0.4944   2164.0000
104.4000        180.3750      0.3398    106.8450    104.0875      0.4900   2214.0000
104.6000        182.5250      0.3268    107.7450     93.8075      0.4794   2228.0000
104.8000        184.6750      0.3141    109.8450     82.9473      0.4698   2219.0000
105.0000        184.6750      0.2451    109.5450     75.9285      0.4654   2193.0000
105.2000        184.6750      0.2937    108.6450     65.1190      0.4692   2198.8999
105.4000        185.7500      0.3269    107.8500     57.2226      0.4780   2200.0000
105.6000        184.6750      0.3282     99.7350     50.0356      0.4806   2168.0000
105.8000        184.6750      0.3196     96.6450     43.3840      0.4882   2168.0000
106.0000        183.6000      0.3129     92.1450     36.8264      0.5038   2169.0000
106.2000        182.5250      0.3055     86.1300     40.5681      0.4800   2254.0000
106.4000        181.4500      0.3099     84.4350     45.3779      0.4388   2338.0000
106.6000        182.5250      0.3204     84.2400     51.4206      0.4052   2372.0000
106.8000        188.9750      0.3321     91.1400     54.3286      0.3874   2361.0000
107.0000        193.2750      0.3440     96.0450     52.9705      0.3846   2328.0000
107.2000        195.4250      0.3422     99.3450     46.8734      0.3876   2343.0000
107.4000        193.2750      0.3397    102.4500     40.4529      0.4102   2327.0000
107.6000        193.2750      0.3372    103.3500     32.2521      0.4166   2299.0000
107.8000        199.7250      0.3325    103.4400     27.1643      0.4164   2324.0000
108.0000        198.6500      0.3253    102.3450     22.7110      0.4350   2313.0000
108.2000        195.4250      0.3177    101.7450     20.3349      0.4498   2305.0000
108.4000        197.5750      0.3123    101.0400     18.6942      0.4544   2250.8999
108.6000        205.1000      0.3084    101.2500     16.6562      0.4508   2237.0000
108.8000        186.8250      0.3207    105.5400     16.2549      0.4448   2222.0000
109.0000        191.1250      0.3327    107.6400     14.3735      0.4444   2200.0000
109.2000        191.1250      0.3359    108.4500     14.1666      0.4586   2182.0000
109.4000        186.8250      0.3353    107.7450     14.1570      0.4988   2166.0000
109.6000        188.9750      0.3387    106.9500     14.1605      0.5014   2190.0000
109.8000        188.9750      0.3413    105.7500     15.8401      0.5070   2189.0000
