~VERSION INFORMATION
 VERS.                 2.0:   CWLS LOG ASCII STANDARD -VERSION 2.0
 WRAP.                  NO:   ONE LINE PER DEPTH STEP
~WELL INFORMATION BLOCK
#MNEM.UNIT           DATA                    DESCRIPTION OF MNEMONIC
#---------    -------------------            -------------------------------
# Generated from Intellog Unique Number	CN_91_93/WELL/3722
WELL.         16-28-093-07W4                 : Well_name    - WELL
LOC .         AA/16-28-093-07W4/0            : Location     - LOCATION
UWI .         AA/16-28-093-07W400            : Uwi          - UNIQUE WELL ID
ENTR.         JOETTE                         : Entered      - ENTERED BY
SRVC.         WESTERN ATLAS                  : Scn          - SERVICE COMPANY
DATE.         03/22/92                       : Date         - LOG DATE
STRT.F        50                             : top_depth    - START DEPTH
STOP.F        734.055                        : bot_depth    - STOP DEPTH
STEP.F        0.8202                         : increment    - STEP LENGTH
 NULL. -999.2500:NULL Value
~CURVE INFORMATION BLOCK
#MNEM UNIT       ERCB CURVE CODE    CURVE DESCRIPTION
#-----------   ------------------   ----------------------------------
DEPT.F        00 001 00 00         : DEPTH        - DEPTH
CALI.IN       00 280 01 00         : CAL          - CALIPER
GR  .API      00 310 00 00         : GR           - GAMMA RAY
NPHI.V/V      00 330 00 00         : PHIN         - NEUTRON POROSITY (SANDSTONE)
ILD .OHMM     00 120 00 00         : RESD         - DEEP RESISTIVITY (DIL)
~PARAMETER INFORMATION
#MNEM.UNIT           DATA             DESCRIPTION OF MNEMONIC
#---------         -----------     ------------------------------
GL  .M        509.748              : gl           - GROUND LEVEL ELEVATION
EREF.M        511.272              : kb           - ELEVATION OF DEPTH REFERENCE
DATM.M        511.272              : datum        - DATUM ELEVATION
TDD .M        225.247              : tdd          - TOTAL DEPTH DRILLER
RUN .         ONE                  : Run          - RUN NUMBER
ENG .         BILL                 : Engineer     - RECORDING ENGINEER
WIT .         JIM                  : Witness      - WITNESSED BY
MUD .         GEL                  : Mud_type     - MUD TYPE
MATR.         SANDSTONE            : Logunit      - NEUTRON MATRIX
TMAX.F        45                   : BHT          - MAXIMUM RECORDED TEMPERATURE
BHTD.F        739                  : BHTDEP       - MAXIMUM RECORDED TEMPERATURE
RMT .F        40                   : MDTP         - TEMPERATURE OF MUD
MUDD.LB/G     0.00102              : MWT          - MUD DENSITY
NEUT.         1                    : NEUTRON      - NEUTRON TYPE
RESI.         0                    : RESIST       - RESISTIVITY TYPE
RM  .OHMM     8                    : RM           - RESISTIVITY OF MUD
RMC .OHMM     8                    : RMC          - RESISTIVITY OF MUD CAKE
RMF .OHMM     8                    : RMF          - RESISTIVITY OF MUD FILTRATE
SUFT.F        39.2                 : SUFT         - SURFACE TEMPERATURE
~A  DEPTH      CAL       GR     PHIN     RESD
# ...
  478.150    7.234   92.696    0.377   10.453
  478.970    7.234   90.295    0.380   10.244
  479.790    7.193   89.688    0.378    9.310
  480.610    7.193   89.680    0.375    8.793
  481.430    7.152   89.674    0.375    7.695
  482.251    7.152   89.669    0.375    7.264
  483.071    7.151   91.453    0.376    6.985
  483.891    7.151   92.639    0.379    6.849
  484.711    7.190   93.827    0.382    6.840
  485.531    7.190   93.821    0.383    6.963
  486.352    7.229   94.411    0.383    7.086
  487.172    7.268   94.999    0.382    7.351
  487.992    7.307   94.990    0.376    7.768
  488.812    7.347   95.578    0.371    7.910
  489.633    7.386   95.572    0.363    8.205
  490.453    7.386   96.164    0.360    8.194
  491.273    7.385   96.153    0.364    8.037
  492.093    7.385   96.145    0.376    7.729
  492.913    7.384   96.141    0.395    6.891
  493.734    7.383   96.134    0.419    6.632
  494.554    7.343   95.526    0.425    5.806
  495.374    7.342   96.115    0.431    5.177
  496.194    7.342   96.705    0.428    4.617
  497.014    7.342   96.697    0.426    4.527
  497.835    7.381   97.287    0.424    4.695
  498.655    7.380   97.281    0.419    4.964
  499.475    7.420   97.268    0.413    5.552
  500.295    7.419   97.264    0.410    5.981
  501.115    7.418   98.452    0.406    5.974
  501.936    7.458   99.640    0.404    5.968
  502.756    7.457   99.631    0.404    5.962
  503.576    7.457   99.625    0.405    5.733
  504.396    7.456  100.213    0.407    5.726
  505.217    7.456  100.204    0.407    5.721
  506.037    7.455   99.600    0.404    5.824
  506.857    7.415   98.995    0.400    5.819
  507.677    7.414   98.985    0.393    6.033
  508.497    7.414   98.979    0.382    6.143
  509.318    7.373  100.167    0.374    6.373
  510.138    7.373  101.350    0.367    6.736
  510.958    7.332  101.346    0.356    7.121
  511.778    7.332  101.336    0.349    8.116
  512.598    7.331  100.133    0.339    9.078
  513.419    7.331   98.932    0.325    9.963
  514.239    7.330   97.130    0.298   10.341
  515.059    7.330   93.534    0.295   10.727
  515.879    7.329   90.537    0.284   10.914
  516.699    7.329   89.932    0.295   10.905
  517.520    7.328   91.718    0.319   10.690
  518.340    7.328   94.695    0.332   10.476
  519.160    7.327   94.094    0.326    9.889
  519.980    7.327   90.493    0.321    8.824
  520.801    7.326   88.694    0.318    5.710
  521.621    7.365   91.076    0.318    4.298
  522.441    7.365   91.670    0.320    3.423
  523.261    7.364   95.245    0.329    2.884
  524.081    7.364   95.839    0.413    2.722
  524.902    7.363   94.038    0.452    2.720
  525.722    7.363   88.646    0.467    2.718
  526.542    7.362   88.641    0.467    3.039
  527.362    7.402   90.426    0.461    3.531
  528.182    7.401   92.808    0.452    4.102
  529.003    7.400   93.400    0.443    4.765
  529.823    7.440   92.791    0.434    5.640
  530.643    7.479   92.785    0.422    6.074
  531.463    7.479   92.180    0.408    6.301
  532.283    7.478   92.172    0.397    6.293
  533.104    7.478   92.760    0.382    6.528
  533.924    7.477   93.948    0.365    6.647
  534.744    7.476   94.538    0.361    7.024
  535.564    7.476   94.529    0.365    7.291
  536.385    7.475   93.923    0.365    7.999
  537.205    7.475   93.318    0.360    7.694
  538.025    7.474   92.113    0.353    6.994
  538.845    7.474   92.107    0.344    6.481
  539.665    7.473   92.695    0.349    5.567
  540.486    7.473   94.479    0.395    4.690
  541.306    7.472   95.669    0.409    4.511
  542.126    7.472   96.857    0.412    4.508
  542.946    7.471   98.041    0.413    4.856
  543.766    7.471   98.037    0.412    5.134
  544.587    7.470   98.032    0.412    4.937
  545.407    7.430   98.024    0.411    4.487
  546.227    7.429   98.013    0.409    4.317
  547.047    7.429   98.007    0.408    4.153
  547.867    7.428   97.995    0.406    4.147
  548.688    7.427   98.587    0.401    4.466
  549.508    7.427   99.178    0.397    4.812
  550.328    7.427   99.768    0.392    5.283
  551.148    7.426   99.756    0.389    5.586
  551.969    7.426   99.751    0.381    6.366
  552.789    7.425   97.352    0.376    6.988
  553.609    7.425   93.757    0.368    7.671
  554.429    7.424   91.956    0.357    8.417
  555.249    7.423   94.338    0.344    8.736
  556.070    7.463   95.528    0.334    8.893
  556.890    7.462   95.516    0.322    9.052
  557.710    7.462   94.914    0.314    8.871
  558.530    7.501   91.318    0.303    8.531
  559.350    7.500   90.710    0.303    8.207
  560.171    7.500   93.696    0.350    8.198
  560.991    7.499   96.677    0.359    8.347
  561.811    7.459   97.264    0.357    9.163
  562.631    7.419   94.867    0.349   10.059
  563.451    7.338   89.479    0.343   11.253
  564.272    7.258   82.893    0.332   12.827
  565.092    7.178   79.296    0.314   14.346
  565.912    7.058   76.901    0.299   16.052
  566.732    6.977   73.903    0.296   22.098
  567.552    6.937   78.678    0.291   31.590
  568.373    6.897   84.048    0.283   37.396
  569.193    6.856   83.443    0.272   41.822
  570.013    6.816   81.046    0.256   43.384
  570.833    6.776   74.462    0.241   46.709
  571.654    6.775   69.666    0.230   47.573
  572.474    6.735   67.269    0.242   52.196
  573.294    6.734   65.466    0.254   54.159
  574.114    6.694   62.469    0.251   57.252
  574.934    6.693   61.270    0.248   60.537
  575.755    6.693   58.273    0.249   58.218
  576.575    6.692   61.253    0.255   54.956
  577.395    6.692   62.441    0.265   51.876
  578.215    6.691   63.029    0.268   48.957
  579.035    6.691   63.023    0.276   47.094
  579.856    6.690   64.207    0.278   46.176
  580.676    6.690   65.399    0.278   46.115
  581.496    6.689   68.377    0.278   46.943
  582.316    6.688   70.165    0.279   49.610
  583.136    6.688   70.157    0.282   52.457
  583.957    6.608   69.548    0.282   57.584
  584.777    6.567   70.140    0.283   62.032
  585.597    6.407   69.534    0.284   65.574
  586.417    6.367   67.137    0.278   70.600
  587.238    6.367   58.756    0.266   73.276
  588.058    6.366   56.955    0.265   74.572
  588.878    6.365   58.143    0.271   75.891
  589.698    6.405   58.731    0.272   77.274
  590.518    6.484   58.128    0.267   77.171
  591.339    6.563   56.329    0.260   70.168
  592.159    6.563   53.928    0.247   66.237
  592.979    6.562   50.929    0.247   68.710
  593.799    6.522   50.324    0.255   73.997
  594.619    6.441   52.111    0.259   76.781
  595.440    6.361   54.493    0.263   79.627
  596.260    6.281   55.683    0.264   82.579
  597.080    6.241   56.267    0.264   82.513
  597.900    6.160   56.262    0.270   80.863
  598.720    6.160   56.254    0.284   77.785
  599.541    6.159   56.246    0.308   73.427
  600.361    6.159   56.839    0.316   70.652
  601.181    6.198   58.026    0.317   66.657
  602.001    6.277   60.406    0.310   64.138
  602.822    6.317   60.995    0.301   61.697
  603.642    6.316   60.991    0.294   60.480
  604.462    6.316   59.786    0.283   60.399
  605.282    6.235   59.182    0.277   60.351
  606.102    6.115   57.975    0.283   60.254
  606.923    6.075   57.971    0.292   61.303
  607.743    6.034   57.962    0.303   62.421
  608.563    6.034   58.552    0.304   62.371
  609.383    6.073   59.142    0.301   62.321
  610.203    6.112   59.732    0.303   59.918
  611.024    6.192   59.721    0.304   58.767
  611.844    6.231   59.713    0.303   54.423
  612.664    6.270   59.705    0.300   45.875
  613.484    6.310   60.295    0.292   37.948
  614.304    6.349   61.481    0.283   34.495
  615.125    6.428   63.269    0.275   29.608
  615.945    6.428   65.651    0.268   28.496
  616.765    6.467   68.037    0.268   26.892
  617.585    6.466   70.420    0.274   25.392
  618.406    6.466   72.804    0.279   23.076
  619.226    6.465   76.979    0.287   20.965
  620.046    6.465   81.158    0.300   20.178
