~VERSION INFORMATION
 VERS.                 2.0:   CWLS LOG ASCII STANDARD -VERSION 2.0
 WRAP.                  NO:   ONE LINE PER DEPTH STEP
~WELL INFORMATION BLOCK
#MNEM.UNIT           DATA                    DESCRIPTION OF MNEMONIC
#---------    -------------------            -------------------------------
# Generated from Intellog Unique Number	CC_80_83/WELL/2348
NULL.         -999.25                        : NULL_VALUE
WELL.         PEX PCEJ KEANE OV              : Well_name    - WELL
LOC .         10-11-080-15W4                 : Location     - LOCATION          
UWI .         AA/10-11-080-15W4/0            : Uwi          - UNIQUE WELL ID    
ENTR.         DW                             : Entered      - ENTERED BY        
SRVC.         SCHLUMBERGER                   : Scn          - SERVICE COMPANY   
DATE.         08 JAN 81                      : Date         - LOG DATE
STRT.M        200                            : top_depth    - START DEPTH       
STOP.M        430.093                        : bot_depth    - STOP DEPTH        
STEP.M        0.3                            : increment    - STEP LENGTH       
~CURVE INFORMATION BLOCK
#MNEM UNIT       ERCB CURVE CODE    CURVE DESCRIPTION
#-----------   ------------------   ----------------------------------
DEPT.M        00 001 00 00         : DEPTH        - DEPTH                       
DPHI.V/V      00 890 00 00         : PHID         - DENSITY POROSITY (LIMESTONE)
NPHI.V/V      00 330 00 00         : PHIN         - NEUTRON POROSITY (LIMESTONE)
GR  .API      00 310 00 00         : GR           - GAMMA RAY                   
ILD .OHMM     00 120 00 00         : RESD         - DEEP RESISTIVITY (DIL)      
~PARAMETER INFORMATION       
#MNEM.UNIT           DATA             DESCRIPTION OF MNEMONIC
#---------         -----------     ------------------------------
GL  .M        612                  : gl           - GROUND LEVEL ELEVATION      
EREF.M        615                  : kb           - ELEVATION OF DEPTH REFERENCE
DATM.M        615                  : datum        - DATUM ELEVATION             
TDD .M        440                  : tdd          - TOTAL DEPTH DRILLER         
RUN .         ONE                  : Run          - RUN NUMBER                  
ENG .         BILL                 : Engineer     - RECORDING ENGINEER          
WIT .         JIM                  : Witness      - WITNESSED BY                
MUD .         GEL                  : Mud_type     - MUD TYPE                    
MATR.         LIMESTONE            : Logunit      - NEUTRON MATRIX              
TMAX.C        27                   : BHT          - MAXIMUM RECORDED TEMPERATURE
BHTD.M        440                  : BHTDEP       - MAXIMUM RECORDED TEMPERATURE
MATR.         1                    : LOGUNIT      - NEUTRON MATRIX              
RMT .C        25                   : MDTP         - TEMPERATURE OF MUD          
NEUT.         1                    : NEUTRON      - NEUTRON TYPE                
RESI.         0                    : RESIST       - RESISTIVITY TYPE            
RMC .OHMM     0.25                 : RMC          - RESISTIVITY OF MUD CAKE     
RMF .OHMM     0.25                 : RMF          - RESISTIVITY OF MUD FILTRATE 
SUFT.C        15                   : SUFT         - SURFACE TEMPERATURE         
~A  DEPTH     PHID     PHIN       GR     RESD
# ...
  304.399    0.417    0.504   84.482    4.742
  304.699    0.409    0.473   80.720    5.524
  304.999    0.238    0.444   88.258    6.195
  305.299    0.208    0.401   92.657    6.559
  305.599    0.219    0.398   97.056    6.684
  305.899    0.285    0.433   92.666    6.432
  306.199    0.327    0.444   83.882    6.430
  306.499    0.369    0.439   86.398    6.939
  306.798    0.351    0.440   84.519    7.490
  307.098    0.270    0.424   89.547    8.239
  307.398    0.255    0.397   87.668    8.724
  307.698    0.264    0.392   83.277    9.236
  307.998    0.269    0.394   76.378    9.059
  308.298    0.255    0.408   79.521    8.389
  308.598    0.230    0.424   83.292    8.387
  308.898    0.231    0.432   81.412    8.548
  309.198    0.244    0.443   83.300    9.403
  309.498    0.266    0.440   87.072    9.582
  309.798    0.276    0.434   76.405    8.706
  310.098    0.277    0.433   75.781    6.532
  310.398    0.298    0.439   76.414    5.292
  310.698    0.399    0.456   76.418    3.970
  310.998    0.480    0.480   84.584    3.608
  311.298    0.488    0.510   87.727    3.278
  311.598    0.465    0.537   83.338    3.035
  311.898    0.408    0.521   85.227    2.654
  312.198    0.409    0.496   85.859    2.109
  312.498    0.434    0.530   84.608    1.613
  312.798    0.440    0.530   87.123    1.358
  313.098    0.413    0.534   87.755    1.358
  313.398    0.399    0.542   89.643    1.808
  313.698    0.423    0.531   78.976    2.363
  313.998    0.436    0.534   85.886    3.029
  314.298    0.414    0.543   85.263    3.397
  314.598    0.403    0.555   86.523    3.596
  314.898    0.407    0.537   85.900    3.596
  315.198    0.441    0.540   81.511    3.594
  315.498    0.404    0.560   84.027    3.663
  315.798    0.408    0.532   84.031    3.733
  316.098    0.414    0.525   83.408    3.878
  316.398    0.415    0.520   85.297    4.185
  316.698    0.419    0.500   85.929    4.783
  316.998    0.413    0.479   84.049    5.262
  317.298    0.429    0.469   76.521    6.130
  317.598    0.406    0.461   83.432    6.744
  317.898    0.287    0.440   85.947    6.873
  318.198    0.246    0.440   84.695    6.870
  318.498    0.241    0.441   82.190    6.739
  318.798    0.259    0.424   80.938    6.610
  319.098    0.360    0.452   80.943    6.360
  319.398    0.266    0.440   81.575    6.003
  319.698    0.227    0.456   97.275    6.118
  319.998    0.241    0.437  100.418    6.116
  320.298    0.244    0.418   84.728    6.476
  320.598    0.252    0.394   89.128    6.857
  320.898    0.266    0.390   88.504    7.689
  321.198    0.309    0.420   89.137    8.788
  321.498    0.373    0.427   82.235    9.128
  321.798    0.374    0.401   68.430    9.126
  322.098    0.287    0.398   77.223    8.782
  322.398    0.282    0.398   75.972    8.290
  322.698    0.278    0.389   72.210    7.976
  322.998    0.277    0.374   71.587    7.823
  323.298    0.283    0.389   77.241    7.973
  323.598    0.288    0.400   88.545    8.770
  323.898    0.290    0.400   77.878    8.937
  324.198    0.292    0.385   74.117    8.935
  324.498    0.265    0.378   80.400    9.281
  324.798    0.260    0.368   83.542   10.017
  325.098    0.258    0.312   77.897   18.828
  325.398    0.242    0.293   70.369   20.320
  325.698    0.044    0.273   57.190   19.552
  325.998    0.036    0.191   38.362   15.838
  326.298    0.054    0.192   39.622   11.884
  326.598    0.145    0.232   49.043    9.265
  326.898    0.287    0.336   81.064    7.650
  327.198    0.293    0.377   85.463    6.563
  327.498    0.274    0.397   77.306    5.849
  327.798    0.255    0.404   78.566    5.628
  328.098    0.243    0.409   87.359    5.627
  328.398    0.253    0.397   87.993    5.734
  328.698    0.315    0.425   78.581    5.956
  328.998    0.252    0.395   84.237    6.307
  329.298    0.270    0.389   86.124    7.348
  329.598    0.299    0.379   77.966    9.787
  329.898    0.305    0.319   72.322   11.403
  330.198    0.294    0.255   64.793   12.306
  330.498    0.066    0.228   51.614   12.783
  330.798    0.152    0.252   56.642   12.538
  331.098    0.196    0.305   67.318   11.611
  331.397    0.289    0.390   72.972   10.349
  331.697    0.290    0.407   68.582    9.959
  331.997    0.300    0.407   71.099    9.047
  332.297    0.298    0.376   76.753    8.706
  332.597    0.295    0.367   80.524    8.871
  332.897    0.288    0.372   78.017    9.041
  333.197    0.280    0.375   82.418    8.058
  333.497    0.264    0.407   81.794    7.463
  333.797    0.238    0.416   95.610    6.780
  334.097    0.220    0.418   90.592    6.524
  334.397    0.217    0.415   87.458    6.278
  334.697    0.214    0.405   89.974    5.926
  334.997    0.229    0.396   91.861    6.039
  335.297    0.234    0.396   93.121    6.038
  335.597    0.231    0.402  106.309    6.271
  335.897    0.231    0.416  107.569    6.151
  336.197    0.236    0.414  101.296    6.033
  336.497    0.264    0.426   95.023    5.805
  336.797    0.314    0.412   91.262    6.030
  337.097    0.296    0.411   93.149    6.508
  337.397    0.261    0.409  100.687    7.728
  337.697    0.236    0.397  103.831    9.720
  337.997    0.216    0.357  104.463   11.110
  338.297    0.215    0.362  102.584   10.896
  338.597    0.214    0.377   94.428   10.286
  338.897    0.216    0.371   87.528    9.898
  339.197    0.225    0.373   91.299    8.993
  339.497    0.229    0.394   97.581    7.146
  339.797    0.230    0.421   94.447    6.369
  340.097    0.235    0.413   88.801    6.248
  340.397    0.264    0.407   92.572    6.366
  340.697    0.260    0.393   96.344    6.613
  340.997    0.255    0.394   98.860    7.002
  341.297    0.249    0.392   98.237    7.414
  341.597    0.228    0.384   99.496    9.147
  341.897    0.205    0.386   91.968    9.872
  342.197    0.129    0.374   79.417   10.654
  342.497    0.133    0.331   68.122   10.653
  342.797    0.275    0.353   77.544   10.250
  343.097    0.281    0.378   76.293    9.492
  343.397    0.290    0.389   71.903    8.790
  343.697    0.293    0.382   75.046    7.986
  343.997    0.273    0.389   81.957    7.685
  344.297    0.266    0.400   85.728    7.254
  344.597    0.270    0.410   88.243    7.252
  344.897    0.267    0.415   85.737    7.113
  345.197    0.266    0.390   83.858    7.249
  345.497    0.272    0.400   92.023    7.387
  345.797    0.275    0.392   95.168    7.528
  346.097    0.267    0.393   92.033    7.971
  346.397    0.262    0.390   84.505    8.279
  346.697    0.283    0.395   71.954    8.766
  346.997    0.292    0.388   63.169    8.764
  347.297    0.293    0.392   73.846    8.761
  347.597    0.290    0.384   78.873    8.593
  347.897    0.286    0.370   76.994    8.428
  348.197    0.286    0.363   79.511    8.426
  348.497    0.287    0.357   72.609    9.270
  348.797    0.312    0.348   66.964   10.395
  349.097    0.292    0.328   65.714   12.583
  349.397    0.138    0.251   60.697   20.686
  349.697    0.082    0.202   56.934   26.520
  349.997    0.075    0.186   48.149   25.035
  350.297    0.126    0.186   50.037   18.785
  350.597    0.189    0.276   56.320   13.057
  350.897    0.287    0.314   63.230   10.781
  351.197    0.292    0.373   67.001    9.249
  351.497    0.288    0.373   64.495    8.403
  351.797    0.276    0.368   65.127    8.401
  352.097    0.276    0.370   66.387    8.240
  352.397    0.277    0.375   65.764    8.396
  352.697    0.277    0.379   70.163    8.721
  352.997    0.273    0.379   66.402    8.719
  353.297    0.263    0.379   63.895    8.717
  353.597    0.256    0.383   60.761    8.550
  353.897    0.278    0.385   68.926    8.227
  354.197    0.291    0.409   74.581    7.915
  354.497    0.296    0.415   66.425    7.764
  354.797    0.291    0.426   65.802    7.615
  355.097    0.321    0.455   73.967    7.760
  355.397    0.319    0.455   78.993    7.611
  355.697    0.319    0.458   68.327    7.608
  355.996    0.317    0.443   69.588    7.607
  356.296    0.314    0.445   72.730    7.752
