~VERSION INFORMATION
 VERS.                 2.0:   CWLS LOG ASCII STANDARD -VERSION 2.0
 WRAP.                  NO:   ONE LINE PER DEPTH STEP
~WELL INFORMATION BLOCK
#MNEM.UNIT           DATA                    DESCRIPTION OF MNEMONIC
#---------    -------------------            -------------------------------
# Generated from Intellog Unique Number	CN_94_101/WELL/5023
WELL.         11-27-101-13W4                 : Well_name    - WELL
LOC .         AA/11-27-101-13W4/0            : Location     - LOCATION
UWI .         AA/11-27-101-13W400            : Uwi          - UNIQUE WELL ID
ENTR.         TIM                            : Entered      - ENTERED BY
SRVC.         SCHLUMBERGER                   : Scn          - SERVICE COMPANY
DATE.         08/13/92                       : Date         - LOG DATE
STRT.M        330                            : top_depth    - START DEPTH
STOP.M        550                            : bot_depth    - STOP DEPTH
STEP.M        0.25                           : increment    - STEP LENGTH
NULL. -999.2500:NULL Value
~CURVE INFORMATION BLOCK
#MNEM UNIT       ERCB CURVE CODE    CURVE DESCRIPTION
#-----------   ------------------   ----------------------------------
DEPT.M        00 001 00 00         : DEPTH        - DEPTH
ILD .OHMM     00 120 00 00         : RESD         - DEEP RESISTIVITY (DIL)
NPHI.V/V      00 330 00 00         : PHIN         - NEUTRON POROSITY (SANDSTONE)
DPHI.V/V      00 890 00 00         : PHID         - DENSITY POROSITY (SANDSTONE)
GR  .API      00 310 00 00         : GR           - GAMMA RAY
~PARAMETER INFORMATION
#MNEM.UNIT           DATA             DESCRIPTION OF MNEMONIC
#---------         -----------     ------------------------------
GL  .M        766.7                : gl           - GROUND LEVEL ELEVATION
EREF.M        770.1                : kb           - ELEVATION OF DEPTH REFERENCE
DATM.M        770.1                : datum        - DATUM ELEVATION
TDD .M        555                  : tdd          - TOTAL DEPTH DRILLER
RUN .         ONE                  : Run          - RUN NUMBER
ENG .         BILL                 : Engineer     - RECORDING ENGINEER
WIT .         JIM                  : Witness      - WITNESSED BY
MUD .         GEL                  : Mud_type     - MUD TYPE
MATR.         SANDSTONE            : Logunit      - NEUTRON MATRIX
TMAX.C        28.4                 : BHT          - MAXIMUM RECORDED TEMPERATURE
BHTD.M        555                  : BHTDEP       - MAXIMUM RECORDED TEMPERATURE
RMT .C        28.4                 : MDTP         - TEMPERATURE OF MUD
MUDD.KG/M     1090                 : MWT          - MUD DENSITY
NEUT.         1                    : NEUTRON      - NEUTRON TYPE
RESI.         0                    : RESIST       - RESISTIVITY TYPE
RM  .OHMM     10                   : RM           - RESISTIVITY OF MUD
RMC .OHMM     4.6                  : RMC          - RESISTIVITY OF MUD CAKE
RMF .OHMM     4.6                  : RMF          - RESISTIVITY OF MUD FILTRATE
SUFT.C        4                    : SUFT         - SURFACE TEMPERATURE
~A  DEPTH     RESD     PHIN     PHID       GR
# ...
  417.000    3.136    0.544    0.258  129.591
  417.250    3.342    0.560    0.253  130.851
  417.500    3.347    0.576    0.243  132.751
  417.750    3.154    0.586    0.235  133.384
  418.000    2.571    0.554    0.201  130.931
  418.250    2.182    0.526    0.179  126.005
  418.500    2.187    0.531    0.166  125.405
  418.750    1.799    0.557    0.215  131.637
  419.000    1.412    0.582    0.241  135.377
  419.250    1.221    0.582    0.258  136.643
  419.500    1.227    0.553    0.274  136.050
  419.750    1.232    0.545    0.284  134.843
  420.000    1.239    0.547    0.279  131.150
  420.250    1.245    0.547    0.271  128.071
  420.500    1.450    0.495    0.268  122.518
  420.750    1.652    0.481    0.262  118.212
  421.000    1.854    0.473    0.260  115.752
  421.250    2.254    0.466    0.264  117.025
  421.500    2.458    0.463    0.269  117.052
  421.750    3.057    0.460    0.272  115.219
  422.000    3.262    0.453    0.274  112.139
  422.250    3.265    0.448    0.278  108.460
  422.500    3.274    0.447    0.286  107.233
  422.750    3.081    0.471    0.301  106.020
  423.000    2.692    0.488    0.311  108.526
  423.250    2.109    0.495    0.312  114.752
  423.500    1.915    0.529    0.307  118.498
  423.750    1.926    0.525    0.300  119.144
  424.000    2.126    0.513    0.296  116.071
  424.250    2.528    0.511    0.295  111.139
  424.500    2.728    0.501    0.290  107.446
  424.750    3.328    0.488    0.286  103.133
  425.000    3.728    0.496    0.280  106.259
  425.250    3.144    0.525    0.283  111.245
  425.500    2.952    0.537    0.289  115.611
  425.750    2.174    0.530    0.296  117.504
  426.000    1.981    0.508    0.303  116.291
  426.250    1.986    0.500    0.294  114.458
  426.500    2.191    0.497    0.288  113.864
  426.750    2.392    0.511    0.289  114.511
  427.000    2.793    0.521    0.293  115.157
  427.250    2.797    0.524    0.298  115.177
  427.500    2.214    0.527    0.305  114.584
  427.750    1.825    0.550    0.310  115.231
  428.000    1.634    0.554    0.319  116.504
  428.250    1.443    0.562    0.314  117.150
  428.500    1.449    0.564    0.307  117.790
  428.750    1.454    0.558    0.277  117.197
  429.000    1.855    0.532    0.272  115.370
  429.250    2.255    0.517    0.262  113.530
  429.500    2.657    0.503    0.269  112.944
  429.750    3.058    0.489    0.283  114.830
  430.000    3.259    0.484    0.293  117.336
  430.250    3.463    0.475    0.287  117.983
  430.500    3.668    0.464    0.285  118.003
  430.750    3.674    0.470    0.278  118.043
  431.000    3.484    0.526    0.277  118.683
  431.250    3.487    0.555    0.272  121.822
  431.500    2.706    0.582    0.267  123.695
  431.750    1.728    0.581    0.262  126.201
  432.000    1.139    0.546    0.253  129.327
  432.250    0.557    0.535    0.251  133.080
  432.500    0.560    0.523    0.241  135.586
  432.750    0.369    0.522    0.213  138.093
  433.000    0.575    0.548    0.203  138.119
  433.250    0.580    0.573    0.174  135.666
  433.500    0.981    0.575    0.142  130.727
  433.750    0.985    0.504    0.131  119.595
  434.000    1.188    0.476    0.114  114.669
  434.250    1.393    0.446    0.144  119.028
  434.500    1.991    0.442    0.194  124.634
  434.750    2.589    0.473    0.220  129.000
  435.000    2.795    0.519    0.229  136.472
  435.250    2.800    0.533    0.239  139.592
  435.500    2.607    0.515    0.251  143.964
  435.750    2.416    0.500    0.256  145.844
  436.000    2.227    0.494    0.256  143.398
  436.250    2.233    0.479    0.251  141.571
  436.500    2.632    0.469    0.243  140.964
  436.750    3.428    0.460    0.237  139.751
  437.000    4.223    0.450    0.233  137.312
  437.250    4.625    0.443    0.233  136.705
  437.500    4.825    0.438    0.236  134.259
  437.750    5.029    0.430    0.241  131.812
  438.000    5.232    0.420    0.247  130.592
  438.250    5.435    0.465    0.254  128.759
  438.500    5.246    0.471    0.262  128.166
  438.750    4.466    0.475    0.263  127.566
  439.000    4.075    0.463    0.258  124.500
  439.250    3.882    0.460    0.255  122.040
  439.500    3.693    0.448    0.253  118.967
  439.750    4.095    0.427    0.251  115.894
  440.000    4.297    0.408    0.251  115.921
  440.250    4.699    0.410    0.249  118.433
  440.500    4.899    0.422    0.248  120.313
  440.750    4.906    0.442    0.246  124.066
  441.000    4.323    0.448    0.246  125.339
  441.250    3.933    0.450    0.244  124.732
  441.500    3.347    0.445    0.242  122.906
  441.750    3.552    0.443    0.244  121.073
  442.000    4.148    0.435    0.248  121.719
  442.250    4.746    0.428    0.257  123.612
  442.500    5.344    0.422    0.258  124.885
  442.750    5.744    0.415    0.255  125.518
  443.000    6.145    0.413    0.251  126.785
  443.250    5.955    0.416    0.248  126.811
  443.500    5.763    0.444    0.247  125.598
  443.750    4.587    0.462    0.251  125.005
  444.000    3.803    0.472    0.252  125.032
  444.250    3.415    0.473    0.258  124.438
  444.500    4.014    0.472    0.265  121.985
  444.750    4.216    0.470    0.277  120.779
  445.000    4.814    0.467    0.242  121.432
  445.250    5.217    0.465    0.245  122.065
  445.500    5.220    0.474    0.261  120.852
  445.750    4.240    0.505    0.278  119.639
  446.000    3.261    0.514    0.281  121.525
  446.250    2.085    0.533    0.280  125.278
  446.500    2.487    0.540    0.280  124.064
  446.750    2.689    0.530    0.275  121.605
  447.000    3.287    0.504    0.245  117.912
  447.250    3.687    0.489    0.241  114.839
  447.500    4.285    0.469    0.239  113.006
  447.750    4.685    0.445    0.235  115.512
  448.000    5.087    0.434    0.232  119.878
  448.250    5.090    0.439    0.241  122.384
  448.500    4.309    0.438    0.253  121.797
  448.750    3.722    0.428    0.262  120.578
  449.000    2.547    0.425    0.267  118.744
  449.250    2.157    0.477    0.273  119.398
  449.500    1.378    0.537    0.281  120.044
  449.750    0.988    0.559    0.303  121.930
  450.000    0.795    0.574    0.310  124.430
  450.250    0.409    0.583    0.315  126.936
  450.500    0.413    0.569    0.303  129.443
  450.750    0.419    0.542    0.304  128.229
  451.000    0.426    0.524    0.306  125.776
  451.250    0.037    0.533    0.308  126.423
  451.500   -0.351    0.553    0.309  128.929
  451.750   -0.540    0.564    0.309  128.336
  452.000   -0.337    0.559    0.302  127.742
  452.250   -0.135    0.553    0.297  127.769
  452.500    0.068    0.543    0.289  128.429
  452.750    0.667    0.534    0.277  128.442
  453.000    1.068    0.526    0.267  128.469
  453.250    1.664    0.513    0.256  127.875
  453.500    2.460    0.498    0.237  127.909
  453.750    3.059    0.489    0.225  128.562
  454.000    3.264    0.471    0.216  129.208
  454.250    3.465    0.460    0.207  129.855
  454.500    3.868    0.455    0.196  130.495
  454.750    4.070    0.450    0.192  131.148
  455.000    4.275    0.451    0.228  130.561
  455.250    4.475    0.441    0.229  130.574
  455.500    4.678    0.439    0.226  131.228
  455.750    5.080    0.440    0.231  131.254
  456.000    5.085    0.441    0.237  130.041
  456.250    5.288    0.442    0.239  127.588
  456.500    5.296    0.443    0.247  126.381
  456.750    5.301    0.436    0.255  125.788
  457.000    5.507    0.425    0.253  125.801
  457.250    5.512    0.416    0.243  125.828
  457.500    5.516    0.449    0.234  125.855
  457.750    5.522    0.456    0.233  125.261
  458.000    5.528    0.466    0.231  125.914
  458.250    5.535    0.472    0.230  126.554
  458.500    5.542    0.477    0.226  127.827
  458.750    5.152    0.483    0.225  128.467
  459.000    4.373    0.469    0.225  128.494
  459.250    3.983    0.443    0.225  127.907
  459.500    3.593    0.443    0.227  127.927
  459.750    3.405    0.448    0.235  126.101
  460.000    3.410    0.451    0.240  125.501
  460.250    4.008    0.458    0.246  124.294
