~VERSION INFORMATION
 VERS.                 2.0:   CWLS LOG ASCII STANDARD -VERSION 2.0
 WRAP.                  NO:   ONE LINE PER DEPTH STEP
~WELL INFORMATION BLOCK
#MNEM.UNIT           DATA                    DESCRIPTION OF MNEMONIC
#---------    -------------------            -------------------------------
# Generated from Intellog Unique Number	CC_84_87/WELL/2328
NULL.         -999.25                        : NULL_VALUE
WELL.         TEXACO HANG ST OV              : Well_name    - WELL              
LOC .         11-15-085-12W4                 : Location     - LOCATION          
UWI .         AA/11-15-085-12W400            : Uwi          - UNIQUE WELL ID    
ENTR.         RJA                            : Entered      - ENTERED BY        
SRVC.         SCHLUMBERGER                   : Scn          - SERVICE COMPANY   
DATE.         07 FEB 81                      : Date         - LOG DATE
STRT.M        40                             : top_depth    - START DEPTH       
STOP.M        255.102                        : bot_depth    - STOP DEPTH        
STEP.M        0.3                            : increment    - STEP LENGTH       
~CURVE INFORMATION BLOCK
#MNEM UNIT       ERCB CURVE CODE    CURVE DESCRIPTION
#-----------   ------------------   ----------------------------------
DEPT.M        00 001 00 00         : DEPTH        - DEPTH                       
DPHI.V/V      00 890 00 00         : PHID         - DENSITY POROSITY (LIMESTONE)
NPHI.V/V      00 330 00 00         : PHIN         - NEUTRON POROSITY (LIMESTONE)
GR  .API      00 310 00 00         : GR           - GAMMA RAY                   
ILD .OHMM     00 120 00 00         : RESD         - DEEP RESISTIVITY (DIL)      
~PARAMETER INFORMATION       
#MNEM.UNIT           DATA             DESCRIPTION OF MNEMONIC
#---------         -----------     ------------------------------
GL  .M        531                  : gl           - GROUND LEVEL ELEVATION      
EREF.M        534                  : kb           - ELEVATION OF DEPTH REFERENCE
DATM.M        534                  : datum        - DATUM ELEVATION             
TDD .M        255                  : tdd          - TOTAL DEPTH DRILLER         
RUN .         ONE                  : Run          - RUN NUMBER                  
ENG .         BILL                 : Engineer     - RECORDING ENGINEER          
WIT .         JIM                  : Witness      - WITNESSED BY                
MUD .         GEL                  : Mud_type     - MUD TYPE                    
MATR.         LIMESTONE            : Logunit      - NEUTRON MATRIX              
TMAX.C        15                   : BHT          - MAXIMUM RECORDED TEMPERATURE
BHTD.M        255                  : BHTDEP       - MAXIMUM RECORDED TEMPERATURE
MATR.         1                    : LOGUNIT      - NEUTRON MATRIX              
RMT .C        25                   : MDTP         - TEMPERATURE OF MUD          
NEUT.         1                    : NEUTRON      - NEUTRON TYPE                
RESI.         0                    : RESIST       - RESISTIVITY TYPE            
RMC .OHMM     0.25                 : RMC          - RESISTIVITY OF MUD CAKE     
RMF .OHMM     0.25                 : RMF          - RESISTIVITY OF MUD FILTRATE 
SUFT.C        15                   : SUFT         - SURFACE TEMPERATURE         
~A  DEPTH     PHID     PHIN       GR     RESD
# ...
   92.200    0.322    0.405   66.449   22.651
   92.500    0.344    0.423   55.441   23.370
   92.800    0.316    0.428   53.412   22.180
   93.100    0.295    0.412   61.853   19.275
   93.400    0.310    0.425   68.563   18.855
   93.700    0.322    0.424   70.865   18.032
   94.000    0.345    0.421   70.265   14.300
   94.300    0.342    0.444   67.057   11.672
   94.600    0.283    0.493   75.747    9.784
   94.900    0.184    0.504   87.097    8.802
   95.200    0.112    0.482   98.876    7.694
   95.500    0.101    0.485  106.015    6.739
   95.800    0.122    0.524  109.934    5.935
   96.100    0.189    0.547  114.408    5.168
   96.400    0.201    0.524  120.310    4.605
   96.700    0.219    0.514  121.195    4.263
   97.000    0.261    0.530  122.512    4.299
   97.300    0.274    0.562  122.647    4.842
   97.600    0.250    0.516  118.018    6.234
   97.900    0.280    0.477  107.815    8.196
   98.200    0.309    0.439   91.109   12.242
   98.500    0.341    0.457   75.768   18.605
   98.800    0.327    0.465   72.870   22.922
   99.100    0.326    0.418   75.362   22.855
   99.400    0.336    0.420   81.700   21.646
   99.700    0.318    0.421   84.439   20.577
  100.000    0.297    0.423   82.906   19.265
  100.300    0.299    0.422   83.974   18.382
  100.600    0.278    0.420   88.146   18.927
  100.900    0.302    0.410   88.964   19.235
  101.200    0.307    0.423   88.361   18.223
  101.500    0.323    0.396   90.732   14.289
  101.800    0.314    0.396   90.809   10.806
  102.100    0.275    0.440   91.687    9.484
  102.400    0.255    0.496  105.641   10.581
  102.700    0.226    0.486  114.450   12.219
  103.000    0.269    0.449  112.732   17.702
  103.300    0.308    0.431  100.425   21.723
  103.600    0.295    0.435   95.918   22.329
  103.900    0.327    0.439   89.553   21.311
  104.200    0.344    0.443   83.005   19.497
  104.500    0.338    0.421   88.719   17.368
  104.800    0.321    0.412   96.477   16.677
  105.100    0.302    0.417   95.193   15.763
  105.400    0.289    0.452   90.501   16.578
  105.700    0.274    0.481   82.157   19.291
  106.000    0.263    0.440   72.820   23.319
  106.300    0.292    0.423   62.431   25.774
  106.600    0.281    0.424   57.678   26.851
  106.900    0.308    0.442   57.756   24.802
  107.200    0.307    0.435   60.004   22.318
  107.500    0.311    0.413   62.312   19.845
  107.800    0.293    0.429   64.681   17.348
  108.100    0.255    0.390   67.853   14.210
  108.400    0.176    0.422   73.326   11.415
  108.700    0.206    0.417   77.360   10.900
  109.000    0.255    0.416   83.323   10.206
  109.300    0.264    0.430   87.676    9.740
  109.600    0.246    0.430   89.733    9.293
  109.900    0.250    0.442   89.753    9.251
  110.200    0.230    0.454   93.421    9.937
  110.500    0.225    0.424   93.126   11.649
  110.800    0.233    0.428   82.618   12.561
  111.100    0.244    0.455   78.852   12.427
  111.400    0.252    0.459   78.619   12.153
  111.700    0.238    0.455   81.237   11.872
  112.000    0.235    0.451   80.076   11.482
  112.300    0.233    0.438   84.614   10.955
  112.600    0.255    0.420   88.542   10.455
  112.900    0.265    0.432   86.142   10.209
  113.200    0.254    0.429   84.537    9.679
  113.500    0.260    0.446   84.490    9.400
  113.800    0.257    0.432   86.055    8.969
  114.100    0.267    0.429   87.621    8.712
  114.400    0.240    0.433   91.548    8.346
  114.700    0.230    0.457   92.365    8.227
  115.000    0.257    0.473   91.508    8.281
  115.300    0.260    0.476   88.924    8.508
  115.600    0.257    0.481   88.073    8.665
  115.900    0.270    0.488   90.383    8.792
  116.200    0.239    0.491   94.611    8.308
  116.500    0.253    0.491   94.932    8.173
  116.800    0.257    0.478   90.739    7.979
  117.100    0.261    0.465   90.256    7.883
  117.400    0.252    0.458   93.926    7.654
  117.700    0.236    0.466   94.129    7.234
  118.000    0.240    0.439   95.137    6.915
  118.300    0.223    0.435   94.783    6.897
  118.600    0.221    0.442   91.702    7.023
  118.900    0.234    0.449   90.788    7.040
  119.201    0.238    0.470   92.786    6.982
  119.501    0.224    0.473   94.412    6.829
  119.801    0.230    0.497   92.011    6.754
  120.101    0.215    0.499   92.833    6.531
  120.401    0.225    0.513   95.387    6.479
  120.701    0.239    0.504   95.345    6.315
  121.001    0.211    0.514   95.109    6.249
  121.301    0.205    0.536   92.463    6.216
  121.601    0.226    0.543   94.342    6.129
  121.901    0.240    0.551   97.150    5.984
  122.201    0.234    0.567   96.294    5.874
  122.501    0.229    0.538   97.297    5.779
  122.801    0.222    0.548   97.560    5.685
  123.101    0.235    0.536   95.904    5.638
  123.401    0.235    0.511   97.348    5.559
  123.701    0.228    0.509  101.142    5.540
  124.001    0.232    0.481  102.775    5.682
  124.301    0.234    0.483  102.720    5.746
  124.601    0.229    0.497  100.384    5.862
  124.901    0.229    0.500   99.351    6.125
  125.201    0.238    0.492   99.859    6.275
  125.501    0.228    0.485  100.305    6.829
  125.801    0.214    0.488   97.286    7.132
  126.101    0.232    0.480   92.223    8.049
  126.401    0.243    0.475   88.151    9.583
  126.701    0.272    0.472   82.406   11.516
  127.001    0.293    0.467   71.711   13.097
  127.301    0.325    0.444   65.469   14.043
  127.601    0.290    0.442   62.326   14.547
  127.901    0.276    0.413   64.882   14.560
  128.201    0.289    0.420   66.260   14.352
  128.501    0.264    0.417   67.268   13.879
  128.801    0.273    0.424   69.576   12.580
  129.101    0.261    0.452   71.758   11.423
  129.401    0.246    0.475   80.383   10.218
  129.701    0.219    0.464   90.370    8.985
  130.001    0.230    0.470   96.643    8.269
  130.301    0.237    0.445   98.704    8.040
  130.601    0.217    0.470   95.993    8.003
  130.901    0.205    0.458   94.585    7.784
  131.201    0.238    0.459  102.531    7.485
  131.501    0.226    0.474  108.861    7.377
  131.801    0.184    0.488  112.159    7.327
  132.101    0.200    0.494  112.485    7.419
  132.401    0.202    0.499  108.663    7.523
  132.701    0.197    0.489  107.316    7.571
  133.001    0.215    0.520  103.304    7.641
  133.301    0.211    0.509  105.117    7.839
  133.601    0.212    0.485  107.983    7.906
  133.901    0.189    0.482  109.114    8.006
  134.201    0.183    0.449  108.820    7.891
  134.501    0.208    0.472  107.224    7.763
  134.801    0.207    0.498  108.355    7.725
  135.101    0.185    0.522  112.336    7.500
  135.401    0.185    0.494  117.499    7.321
  135.701    0.169    0.460  118.870    7.135
  136.001    0.141    0.481  115.917    6.781
  136.301    0.150    0.519  113.514    6.798
  136.601    0.178    0.481  115.635    6.833
  136.901    0.200    0.471  116.828    6.983
  137.201    0.218    0.465  113.069    7.097
  137.501    0.208    0.463  112.463    7.158
  137.801    0.210    0.466  110.435    7.233
  138.101    0.196    0.491  110.886    7.011
  138.401    0.205    0.494  110.160    6.820
  138.701    0.206    0.503  112.901    6.409
  139.001    0.205    0.512  115.765    6.104
  139.301    0.201    0.541  117.208    5.757
  139.601    0.198    0.562  117.716    5.515
  139.901    0.214    0.559  115.380    5.356
  140.201    0.208    0.542  109.514    5.032
  140.501    0.207    0.551  107.733    4.885
  140.801    0.216    0.538  106.570    4.787
  141.101    0.203    0.518  111.046    4.755
  141.401    0.213    0.569  110.256    4.581
  141.701    0.221    0.607  109.468    4.501
  142.001    0.217    0.563  109.796    4.478
  142.301    0.236    0.546  107.399    4.481
  142.601    0.226    0.537  105.673    4.470
  142.901    0.222    0.518  103.522    4.647
  143.201    0.232    0.497  100.875    4.805
  143.501    0.253    0.512   97.549    5.112
  143.801    0.262    0.547   94.962    5.511
  144.101    0.238    0.509   91.080    6.150
