~VERSION INFORMATION
 VERS.                 2.0:   CWLS LOG ASCII STANDARD -VERSION 2.0
 WRAP.                  NO:   ONE LINE PER DEPTH STEP
~WELL INFORMATION BLOCK
#MNEM.UNIT           DATA                    DESCRIPTION OF MNEMONIC
#---------    -------------------            -------------------------------
# Generated from Intellog Unique Number	CS_77_79/WELL/935
WELL.         PEX PCEJ THORNBURY OV          : Well_name    - WELL
LOC .         AA/10-08-079-13W4/0            : Location     - LOCATION
UWI .         AA/10-08-079-13W4/0            : Uwi          - UNIQUE WELL ID
ENTR.         JHS                            : Entered      - ENTERED BY
SRVC.         SCHLUMBERGER                   : Scn          - SERVICE COMPANY
STRT.M        260                            : top_depth    - START DEPTH
STOP.M        515                            : bot_depth    - STOP DEPTH
STEP.M        0.25                           : increment    - STEP LENGTH
 NULL. -999.2500:NULL Value
~CURVE INFORMATION BLOCK
#MNEM UNIT       ERCB CURVE CODE    CURVE DESCRIPTION
#-----------   ------------------   ----------------------------------
DEPT.M        00 001 00 00         : DEPTH        - DEPTH
DPHI.V/V      00 890 00 00         : PHID         - DENSITY POROSITY (LIMESTONE)
NPHI.V/V      00 330 00 00         : PHIN         - NEUTRON POROSITY (LIMESTONE)
GR  .API      00 310 00 00         : GR           - GAMMA RAY
ILD .OHMM     00 120 00 00         : RESD         - DEEP RESISTIVITY (DIL)
RHOB.KG/M3    00 350 00 00         : DENS         - BULK DENSITY
~PARAMETER INFORMATION
#MNEM.UNIT           DATA             DESCRIPTION OF MNEMONIC
#---------         -----------     ------------------------------
GL  .M        685.55               : gl           - GROUND LEVEL ELEVATION
EREF.M        688.75               : kb           - ELEVATION OF DEPTH REFERENCE
DATM.M        688.75               : datum        - DATUM ELEVATION
TDD .M        522                  : tdd          - TOTAL DEPTH DRILLER
RUN .         ONE                  : Run          - RUN NUMBER
ENG .         BILL                 : Engineer     - RECORDING ENGINEER
WIT .         JIM                  : Witness      - WITNESSED BY
MUD .         GEL                  : Mud_type     - MUD TYPE
MATR.         LIMESTONE            : Logunit      - NEUTRON MATRIX
TMAX.C        26                   : BHT          - MAXIMUM RECORDED TEMPERATURE
BHTD.M        522                  : BHTDEP       - MAXIMUM RECORDED TEMPERATURE
MATR.         1                    : LOGUNIT      - NEUTRON MATRIX
RMT .C        25                   : MDTP         - TEMPERATURE OF MUD
NEUT.         1                    : NEUTRON      - NEUTRON TYPE
RESI.         0                    : RESIST       - RESISTIVITY TYPE
RMC .OHMM     0.25                 : RMC          - RESISTIVITY OF MUD CAKE
RMF .OHMM     0.25                 : RMF          - RESISTIVITY OF MUD FILTRATE
SUFT.C        15                   : SUFT         - SURFACE TEMPERATURE
~A  DEPTH     PHID     PHIN       GR     RESD     DENS
# ...
  406.000    0.243    0.410   77.367    7.451    0.000
  406.250    0.248    0.410   84.198    7.883    0.000
  406.500    0.273    0.408   82.975    8.184    0.000
  406.750    0.269    0.401   74.932    8.340    0.000
  407.000    0.252    0.387   70.607    8.497    0.000
  407.250    0.232    0.374   74.341    8.183    0.000
  407.500    0.222    0.364   78.696    8.030    0.000
  407.750    0.243    0.382   84.906    7.588    0.000
  408.000    0.276    0.407   74.386    7.307    0.000
  408.250    0.303    0.397   63.861    7.170    0.000
  408.500    0.314    0.392   57.065    6.905    0.000
  408.750    0.333    0.389   59.554    6.905    0.000
  409.000    0.325    0.383   67.006    6.775    0.000
  409.250    0.302    0.373   66.403    6.775    0.000
  409.500    0.276    0.366   70.135    7.034    0.000
  409.750    0.315    0.367   70.772    7.167    0.000
  410.000    0.314    0.392   65.826    7.583    0.000
  410.250    0.310    0.377   58.402    8.175    0.000
  410.500    0.325    0.363   64.618    8.982    0.000
  410.750    0.288    0.356   64.010    9.683    0.000
  411.000    0.159    0.296   58.445    9.867    0.000
  411.250    0.135    0.278   49.165    9.682    0.000
  411.500    0.130    0.291   45.458    8.486    0.000
  411.750    0.263    0.378   60.348    8.020    0.000
  412.000    0.304    0.361   61.606    7.163    0.000
  412.250    0.278    0.326   58.521    6.643    0.000
  412.500    0.273    0.303   62.873    6.397    0.000
  412.750    0.299    0.290   65.987    6.396    0.000
  413.000    0.297    0.282   67.241    8.169    0.000
  413.250    0.273    0.268   65.397    9.496    0.000
  413.500    0.230    0.242   61.072   12.357    0.000
  413.750    0.173    0.135   51.788   14.365    0.000
  414.000    0.054    0.130   44.988   19.411    0.000
  414.250    0.008    0.131   41.903   27.237    0.000
  414.500    0.018    0.134   40.057   38.217    0.000
  414.750    0.012    0.142   35.114   37.502    0.000
  415.000    0.001    0.153   32.029   32.870    0.000
  415.250    0.007    0.171   37.622   27.229    0.000
  415.500    0.025    0.196   47.555   17.660    0.000
  415.750    0.098    0.241   56.247   11.240    0.000
  416.000    0.268    0.301   64.319    8.475    0.000
  416.250    0.306    0.389   69.910    7.428    0.000
  416.500    0.311    0.391   63.726    6.889    0.000
  416.750    0.305    0.395   64.363    6.760    0.000
  417.000    0.297    0.390   66.855    6.759    0.000
  417.250    0.307    0.393   58.814    7.151    0.000
  417.500    0.322    0.407   52.628    7.425    0.000
  417.750    0.326    0.387   53.262    8.005    0.000
  418.000    0.305    0.361   56.376    8.961    0.000
  418.250    0.216    0.345   50.814    9.305    0.000
  418.500    0.131    0.285   44.629   10.031    0.000
  418.750    0.081    0.300   48.364    9.660    0.000
  419.000    0.086    0.385   49.618    8.959    0.000
  419.250    0.153    0.402   52.114    8.309    0.000
  419.500    0.265    0.413   58.947    7.706    0.000
  419.750    0.329    0.409   60.821    7.013    0.000
  420.000    0.318    0.393   55.873    6.504    0.000
  420.250    0.297    0.402   61.469    6.382    0.000
  420.500    0.283    0.389   55.288    6.262    0.000
  420.750    0.297    0.402   54.681    6.381    0.000
  421.000    0.305    0.392   60.272    6.502    0.000
  421.250    0.289    0.394   65.248    6.625    0.000
  421.500    0.277    0.404   60.305    6.750    0.000
  421.750    0.265    0.421   58.458    6.878    0.000
  422.000    0.273    0.414   57.851    6.877    0.000
  422.250    0.303    0.408   61.589    7.008    0.000
  422.500    0.308    0.431   64.703    6.876    0.000
  422.750    0.326    0.446   65.955    6.748    0.000
  423.000    0.318    0.437   63.489    6.622    0.000
  423.250    0.311    0.420   65.365    6.376    0.000
  423.500    0.313    0.417   65.379    6.257    0.000
  423.750    0.321    0.410   65.395    6.375    0.000
  424.000    0.325    0.407   67.266    6.619    0.000
  424.250    0.312    0.443   70.999    6.745    0.000
  424.500    0.316    0.431   62.955    6.873    0.000
  424.750    0.322    0.429   58.634    7.002    0.000
  425.000    0.306    0.420   59.888    7.135    0.000
  425.250    0.298    0.413   58.042    7.134    0.000
  425.500    0.290    0.423   61.775    7.134    0.000
  425.750    0.293    0.424   64.889    7.000    0.000
  426.000    0.291    0.428   67.382    6.869    0.000
  426.250    0.290    0.429   69.261    6.741    0.000
  426.500    0.286    0.405   69.892    6.370    0.000
  426.750    0.269    0.407   70.530    6.251    0.000
  427.000    0.262    0.400   66.202    5.689    0.000
  427.250    0.249    0.393   63.121    5.376    0.000
  427.500    0.253    0.397   65.611    5.177    0.000
  427.750    0.294    0.418   72.447    5.275    0.000
  428.000    0.330    0.436   74.938    5.687 2144.930
  428.250    0.451    0.446   76.814    6.367 1938.530
  428.500    0.392    0.429   84.888    7.127 2039.700
  428.750    0.338    0.420   87.999    7.684 2132.450
  429.000    0.306    0.409   83.056    7.979 2187.280
  429.250    0.277    0.397   73.154    8.129 2235.780
  429.500    0.263    0.387   71.308    7.977 2261.110
  429.750    0.265    0.371   69.464    8.283 2256.960
  430.000    0.250    0.357   73.817    8.930 2282.320
  430.250    0.246    0.362   76.929    9.627 2288.660
  430.500    0.224    0.355   83.143    9.996 2326.640
  430.750    0.197    0.307   76.961   10.185 2373.040
  431.000    0.149    0.257   68.298    9.625 2455.250
  431.250    0.039    0.245   62.733    8.926 2642.800
  431.500    0.017    0.251   57.169    8.124 2680.780
  431.750    0.151    0.305   68.962    7.256 2451.190
  432.000    0.206    0.403   74.552    7.120 2358.550
  432.250    0.231    0.398   71.468    7.120 2314.360
  432.500    0.252    0.396   77.684    7.392 2278.600
  432.750    0.269    0.391   76.457    7.532 2249.160
  433.000    0.282    0.390   68.415    7.821 2228.140
  433.250    0.298    0.406   76.486    8.120 2200.810
  433.500    0.317    0.426   82.699    8.431 2167.150
  433.750    0.295    0.396   75.898    8.590 2205.130
  434.000    0.272    0.393   77.769    8.919 2245.210
  434.250    0.239    0.415   79.646    9.088 2302.140
  434.500    0.284    0.417   79.039    9.260 2224.250
  434.750    0.307    0.405   84.633    9.614 2184.300
  435.000    0.285    0.395   88.365    9.259 2222.240
  435.250    0.247    0.395   87.142    9.434 2287.610
  435.500    0.205    0.379   79.097    8.915 2359.280
  435.750    0.204    0.384   80.351    8.748 2361.450
  436.000    0.253    0.407   79.130    8.267 2277.230
  436.250    0.328    0.423   75.425    7.813 2148.770
  436.500    0.374    0.439   80.398    7.524 2070.870
  436.750    0.396    0.448   85.370    7.110 2033.010
  437.000    0.406    0.453   86.629    6.719 2016.200
  437.250    0.407    0.444   81.681    6.231 2014.160
  437.500    0.420    0.433   76.115    5.779 1991.040
  437.750    0.360    0.433   72.410    5.462 2094.320
  438.000    0.344    0.452   67.470    4.878 2121.750
  438.250    0.353    0.473   69.962    4.357 2107.060
  438.500    0.330    0.486   70.595    3.678 2145.040
  438.750    0.319    0.502   69.993    3.104 2164.050
  439.000    0.389    0.542   73.725    2.670 2044.010
  439.250    0.403    0.520   73.119    2.171 2020.890
  439.500    0.387    0.504   66.938    2.130 2048.330
  439.750    0.445    0.525   61.993    2.340 1949.360
  440.000    0.421    0.516   62.628    2.720 1989.460
  440.250    0.388    0.499   70.080    3.540 2046.380
  440.500    0.377    0.471   73.813    4.038 2065.400
  440.750    0.377    0.456   70.109    4.874 2065.450
  441.000    0.355    0.447   73.224    5.560 2103.430
  441.250    0.309    0.440   73.235    6.838 2181.440
  441.500    0.307    0.446   74.490    7.655 2185.700
  441.750    0.390    0.454   67.686    7.948 2042.490
  442.000    0.433    0.442   63.362    7.654 1968.800
  442.250    0.486    0.422   65.857    7.234 1878.260
