~VERSION INFORMATION
 VERS.                 2.0:   CWLS LOG ASCII STANDARD -VERSION 2.0
 WRAP.                  NO:   ONE LINE PER DEPTH STEP
~WELL INFORMATION BLOCK
#MNEM.UNIT           DATA                    DESCRIPTION OF MNEMONIC
#---------    -------------------            -------------------------------
# Generated from Intellog Unique Number	CN_91_93/WELL/2691
WELL.         PETRO CANADA                   : Well_name    - WELL
LOC .         AA/10-29-091-15W4/0            : Location     - LOCATION
UWI .         AA/10-29-091-15W400            : Uwi          - UNIQUE WELL ID
ENTR.         JOETTE                         : Entered      - ENTERED BY
SRVC.         SCHLUMBERGER                   : Scn          - SERVICE COMPANY
DATE.         02/06/92                       : Date         - LOG DATE
STRT.F        250                            : top_depth    - START DEPTH
STOP.F        700.295                        : bot_depth    - STOP DEPTH
STEP.F        0.82                           : increment    - STEP LENGTH
 NULL. -999.2500:NULL Value
~CURVE INFORMATION BLOCK
#MNEM UNIT       ERCB CURVE CODE    CURVE DESCRIPTION
#-----------   ------------------   ----------------------------------
DEPT.F        00 001 00 00         : DEPTH        - DEPTH
GR  .API      00 310 00 00         : GR           - GAMMA RAY
CALI.MM       00 280 01 00         : CAL          - CALIPER
NPHI.V/V      00 330 00 00         : PHIN         - NEUTRON POROSITY (SANDSTONE)
DPHI.V/V      00 890 00 00         : PHID         - DENSITY POROSITY (SANDSTONE)
ILD .OHMM     00 120 00 00         : RESD         - DEEP RESISTIVITY (DIL)
~PARAMETER INFORMATION
#MNEM.UNIT           DATA             DESCRIPTION OF MNEMONIC
#---------         -----------     ------------------------------
GL  .M        479.755              : gl           - GROUND LEVEL ELEVATION
EREF.M        480.974              : kb           - ELEVATION OF DEPTH REFERENCE
DATM.M        480.974              : datum        - DATUM ELEVATION
TDD .M        100.584              : tdd          - TOTAL DEPTH DRILLER
RUN .         ONE                  : Run          - RUN NUMBER
ENG .         BILL                 : Engineer     - RECORDING ENGINEER
WIT .         JIM                  : Witness      - WITNESSED BY
MUD .         GEL                  : Mud_type     - MUD TYPE
MATR.         SANDSTONE            : Logunit      - NEUTRON MATRIX
TMAX.C        8.88889              : BHT          - MAXIMUM RECORDED TEMPERATURE
BHTD.M        100.584              : BHTDEP       - MAXIMUM RECORDED TEMPERATURE
RMT .C        9.44444              : MDTP         - TEMPERATURE OF MUD
MUDD.KG/M     8600                 : MWT          - MUD DENSITY
NEUT.         1                    : NEUTRON      - NEUTRON TYPE
RESI.         0                    : RESIST       - RESISTIVITY TYPE
RM  .OHMM     0.787                : RM           - RESISTIVITY OF MUD
RMC .OHMM     9.8                  : RMC          - RESISTIVITY OF MUD CAKE
RMF .OHMM     0.678                : RMF          - RESISTIVITY OF MUD FILTRATE
SUFT.C        4                    : SUFT         - SURFACE TEMPERATURE
~A  DEPTH       GR      CAL     PHIN     PHID     RESD
# ...
  489.501  105.495  155.855    0.458    0.206   10.310
  490.322  105.503  156.357    0.460    0.199   10.597
  491.142  106.999  156.368    0.459    0.198   11.719
  491.962  107.599  156.378    0.469    0.185   13.199
  492.782  109.095  156.390    0.470    0.170   12.724
  493.602  111.187  156.400    0.477    0.118   12.045
  494.423  109.107  156.410    0.441    0.098   12.155
  495.243  108.816  156.422    0.398    0.122   12.155
  496.063  118.951  156.927    0.431    0.147   12.045
  496.883  121.340  159.420    0.470    0.222   11.506
  497.703  123.431  162.412    0.481    0.211   10.694
  498.524  125.226  159.939    0.456    0.219   10.310
  499.344  127.019  157.465    0.455    0.225   10.597
  500.164  124.344  154.996    0.460    0.218   10.500
  500.984  120.777  154.013    0.458    0.215    9.070
  501.804  117.803  154.517    0.474    0.192    8.127
  502.625  119.894  156.516    0.488    0.205    7.764
  503.445  120.795  158.013    0.514    0.197    7.980
  504.265  118.119  159.517    0.531    0.170    8.507
  505.085  112.764  161.512    0.536    0.134    8.825
  505.906  108.004  161.522    0.481    0.055    9.070
  506.726  108.904  158.057    0.447    0.113    8.665
  507.546  115.165  156.081    0.456    0.173    8.053
  508.366  121.427  156.093    0.473    0.228    7.623
  509.186  124.115  156.597    0.487    0.235    7.485
  510.007  125.612  158.595    0.503    0.226    7.485
  510.827  126.810  161.585    0.513    0.239    7.085
  511.647  128.007  164.075    0.517    0.242    7.150
  512.467  126.225  165.576    0.522    0.222    7.980
  513.287  120.869  161.616    0.529    0.210    8.665
  514.108  111.344  156.166    0.526    0.186    8.586
  514.928  109.860  154.189    0.486    0.171    8.353
  515.748  111.356  150.723    0.446    0.180    8.353
  516.568  120.298  147.754    0.449    0.215    8.507
  517.388  122.986  152.730    0.462    0.181    8.507
  518.209  122.398  155.225    0.476    0.164    9.070
  519.029  120.020  154.737    0.459    0.188   11.195
  519.849  116.451  152.264    0.397    0.050   11.826
  520.669  113.180  146.814    0.363    0.063   12.608
  521.490  106.037  143.848    0.386    0.097   12.608
  522.310  108.427  144.850    0.400    0.105   10.992
  523.130  112.902  145.356    0.421    0.122    9.670
  523.950  112.313  144.871    0.398    0.167    9.582
  524.770  113.807  143.888    0.450    0.208    9.670
  525.591  117.984  147.870    0.481    0.216    9.670
  526.411  119.183  152.348    0.436    0.218    9.759
  527.231  119.486  155.835    0.425    0.209    9.939
  528.051  119.492  155.844    0.440    0.204    9.759
  528.871  117.711  155.360    0.433    0.201    9.408
  529.692  114.738  155.360    0.449    0.204    9.408
  530.512  110.575  154.393    0.463    0.224    9.408
  531.332  108.198  154.397    0.461    0.235    8.744
  532.152  109.397  154.408    0.462    0.243    7.623
  532.972  112.083  154.420    0.477    0.226    6.585
  533.793  115.366  154.428    0.504    0.214    5.793
  534.613  112.393  153.943    0.528    0.235    5.688
  535.433  107.931  152.961    0.515    0.210    6.176
  536.253   97.213  152.473    0.483    0.192    7.417
  537.073   85.303  151.490    0.461    0.211   10.404
  537.894   73.692  150.510    0.440    0.239   10.892
  538.714   65.953  150.024    0.457    0.324   11.719
  539.534   59.703  150.529    0.431    0.312   12.724
  540.354   53.752  150.542    0.425    0.316   12.841
  541.175   48.694  149.558    0.429    0.315   16.440
  541.995   43.338  147.581    0.431    0.317   24.588
  542.815   40.962  141.634    0.440    0.319   32.652
  543.635   41.862  138.665    0.424    0.321   39.932
  544.455   45.145  137.187    0.421    0.310   44.566
  545.276   49.619  138.192    0.441    0.317   34.811
  546.096   54.392  140.188    0.437    0.285   31.768
  546.916   60.355  144.667    0.438    0.248   27.948
  547.736   66.617  148.650    0.447    0.235   25.273
  548.556   67.518  149.651    0.487    0.291   23.063
  549.377   66.928  150.159    0.488    0.291   22.439
  550.197   66.042  150.168    0.472    0.292   27.442
  551.017   64.856  149.187    0.472    0.296   29.257
  551.837   62.181  148.203    0.459    0.296   30.071
  552.657   59.804  147.221    0.466    0.282   30.071
  553.478   66.661  146.734    0.480    0.294   30.347
  554.298   69.052  146.745    0.480    0.280   32.060
  555.118   65.780  146.745    0.478    0.274   32.652
  555.938   67.276  147.262    0.479    0.289   30.626
  556.759   70.559  147.274    0.486    0.290   24.814
  557.579   67.884  147.274    0.472    0.264   22.645
  558.399   69.380  147.299    0.445    0.192   12.959
  559.219   80.111  146.810    0.421    0.196    8.053
  560.039   92.926  146.810    0.422    0.216    6.233
  560.860  105.742  145.839    0.454    0.229    4.869
  561.680  109.323  144.357    0.566    0.250    4.694
  562.500  112.606  143.871    0.550    0.249    4.525
  563.320  117.082  143.386    0.531    0.244    4.362
  564.140  118.875  143.894    0.518    0.234    4.403
  564.961  110.540  145.395    0.523    0.222    4.567
  565.781  108.163  146.891    0.519    0.239    4.780
  566.601  105.787  147.895    0.503    0.266    5.191
  567.421  103.707  145.920    0.491    0.277    5.534
  568.241   88.818  143.446    0.466    0.290    6.830
  569.062   81.377  140.976    0.447    0.295    8.353
  569.882   77.809  138.502    0.388    0.274   12.608
  570.702   75.134  138.502    0.384    0.290   13.816
  571.522   72.161  136.048    0.387    0.292   15.995
  572.343   66.805  135.059    0.381    0.285   16.591
  573.163   63.535  135.071    0.374    0.270   19.741
  573.983   63.243  136.074    0.379    0.250   24.142
  574.803   65.932  137.572    0.387    0.213   19.383
  575.623   68.022  139.569    0.380    0.198   15.849
  576.444   73.986  144.545    0.410    0.227   13.566
  577.264   66.250  146.047    0.437    0.228   14.201
  578.084   60.296  144.566    0.457    0.305   20.665
  578.904   57.324  143.086    0.475    0.312   23.705
  579.724   53.159  142.104    0.461    0.306   29.257
  580.545   46.909  142.114    0.453    0.307   36.109
  581.365   48.107  142.124    0.457    0.320   42.574
  582.185   49.604  142.124    0.463    0.320   64.852
  583.005   49.609  142.647    0.463    0.309   73.714
  583.825   49.317  143.148    0.460    0.302   69.776
  584.646   49.920  143.656    0.458    0.300   63.676
  585.466   48.436  143.667    0.460    0.314   63.096
  586.286   45.464  143.180    0.470    0.322   69.776
  587.106   44.874  142.198    0.457    0.308   54.007
  587.927   43.987  141.713    0.427    0.301   41.801
  588.747   46.972  143.213    0.412    0.281   29.797
  589.567   50.553  144.216    0.410    0.275   27.192
  590.387   58.304  143.235    0.421    0.281   23.705
  591.207   58.907  142.251    0.434    0.289   20.855
  592.028   58.616  142.260    0.427    0.285   20.855
  592.848   58.323  142.271    0.418    0.279   25.739
  593.668   55.053  141.785    0.425    0.292   30.908
  594.488   50.591  141.299    0.452    0.302   41.044
  595.308   45.532  140.813    0.439    0.313   42.965
  596.129   41.070  140.826    0.433    0.311   51.592
  596.949   42.567  140.826    0.425    0.330   56.535
  597.769   44.955  140.851    0.426    0.329   60.828
  598.589   47.642  138.374    0.431    0.320   62.521
  599.409   45.565  134.909    0.431    0.308   63.096
  600.230   45.570  136.407    0.428    0.308   64.261
  601.050   47.364  136.419    0.436    0.302   64.261
  601.870   47.371  135.930    0.451    0.299   67.269
  602.690   45.887  135.948    0.458    0.314   70.418
  603.510   45.596  135.454    0.459    0.319   69.141
  604.331   47.687  135.467    0.445    0.325   66.049
  605.151   50.672  134.988    0.430    0.329   61.952
  605.971   50.976  135.488    0.427    0.316   57.579
  606.791   48.599  135.993    0.418    0.305   53.028
  607.612   46.818  136.004    0.423    0.299   48.391
  608.432   48.313  136.510    0.440    0.297   47.081
