~VERSION INFORMATION
 VERS.                 2.0:   CWLS LOG ASCII STANDARD -VERSION 2.0
 WRAP.                  NO:   ONE LINE PER DEPTH STEP
~WELL INFORMATION BLOCK
#MNEM.UNIT           DATA                    DESCRIPTION OF MNEMONIC
#---------    -------------------            -------------------------------
# Generated from Intellog Unique Number	CC_80_83/WELL/2376
NULL.         -999.25                        : NULL_VALUE
WELL.         ARCO ACI MCMURRAY              : Well_name    - WELL
LOC .         10-26-083-10W4                 : Location     - LOCATION          
UWI .         AA/10-26-083-10W400            : Uwi          - UNIQUE WELL ID    
ENTR.         DW                             : Entered      - ENTERED BY        
SRVC.         SCHLUMBERGER                   : Scn          - SERVICE COMPANY   
DATE.         23 FEB 74                      : Date         - LOG DATE
STRT.M        249.936                        : top_depth    - START DEPTH       
STOP.M        484.639                        : bot_depth    - STOP DEPTH        
STEP.M        0.305                          : increment    - STEP LENGTH       
~CURVE INFORMATION BLOCK
#MNEM UNIT       ERCB CURVE CODE    CURVE DESCRIPTION
#-----------   ------------------   ----------------------------------
DEPT.M        00 001 00 00         : DEPTH        - DEPTH                       
DPHI.V/V      00 890 00 00         : PHID         - DENSITY POROSITY (LIMESTONE)
GR  .API      00 310 00 00         : GR           - GAMMA RAY                   
ILD .OHMM     00 120 00 00         : RESD         - DEEP RESISTIVITY (DIL)      
NPHI.V/V      00 330 00 00         : PHIN         - NEUTRON POROSITY (LIMESTONE)
~PARAMETER INFORMATION       
#MNEM.UNIT           DATA             DESCRIPTION OF MNEMONIC
#---------         -----------     ------------------------------
GL  .M        716.615              : gl           - GROUND LEVEL ELEVATION      
EREF.M        719.663              : kb           - ELEVATION OF DEPTH REFERENCE
DATM.M        719.663              : datum        - DATUM ELEVATION             
TDD .M        486.461              : tdd          - TOTAL DEPTH DRILLER         
RUN .         ONE                  : Run          - RUN NUMBER                  
ENG .         BILL                 : Engineer     - RECORDING ENGINEER          
WIT .         JIM                  : Witness      - WITNESSED BY                
MUD .         GEL                  : Mud_type     - MUD TYPE                    
MATR.         LIMESTONE            : Logunit      - NEUTRON MATRIX              
TMAX.C        23.3333              : BHT          - MAXIMUM RECORDED TEMPERATURE
BHTD.M        486.461              : BHTDEP       - MAXIMUM RECORDED TEMPERATURE
MATR.         1                    : LOGUNIT      - NEUTRON MATRIX              
RMT .C        25                   : MDTP         - TEMPERATURE OF MUD          
NEUT.         1                    : NEUTRON      - NEUTRON TYPE                
RESI.         0                    : RESIST       - RESISTIVITY TYPE            
RMC .OHMM     0.25                 : RMC          - RESISTIVITY OF MUD CAKE     
RMF .OHMM     0.25                 : RMF          - RESISTIVITY OF MUD FILTRATE 
SUFT.C        15                   : SUFT         - SURFACE TEMPERATURE         
~A  DEPTH     PHID       GR     RESD     PHIN
  249.936    0.295   84.951    3.613    0.471
  250.241    0.290   83.734    3.609    0.496
  250.546    0.298   85.338    3.603    0.504
  250.850    0.307   82.917    3.668    0.497
  251.155    0.306   80.493    3.802    0.467
  251.460    0.294   82.901    3.943    0.475
  251.765    0.298   81.284    4.087    0.462
  252.070    0.310   78.861    4.161    0.463
  252.374    0.289   84.490    4.077    0.448
  252.679    0.304   83.677    3.924    0.451
  252.984    0.325   80.448    3.638    0.480
  253.289    0.326   81.244    3.503    0.487
  253.594    0.313   82.445    3.497    0.492
  253.898    0.292   83.246    3.494    0.476
  254.203    0.281   84.444    3.622    0.476
  254.508    0.290   80.814    3.757    0.475
  254.813    0.284   78.793    3.895    0.422
  255.118    0.275   79.186    4.113    0.405
  255.422    0.268   79.985    4.187    0.407
  255.727    0.252   81.992    4.419    0.420
  256.032    0.237   83.194    4.499    0.434
  256.337    0.244   86.810    4.251    0.417
  256.642    0.291   82.373    3.866    0.443
  256.946    0.286   78.739    3.792    0.483
  257.251    0.273   79.137    3.860    0.434
  257.556    0.279   79.533    4.002    0.445
  257.861    0.268   83.552    4.226    0.411
  258.166    0.264   83.543    4.382    0.406
  258.470    0.270   81.522    4.378    0.415
  258.775    0.267   80.306    4.292    0.448
  259.080    0.263   81.104    4.128    0.454
  259.385    0.263   82.308    4.048    0.447
  259.690    0.267   87.129    4.045    0.413
  259.994    0.268   89.136    4.041    0.431
  260.299    0.271   85.104    4.111    0.416
  260.604    0.273   80.264    4.185    0.422
  260.909    0.280   78.245    4.420    0.427
  261.214    0.283   81.457    4.498    0.413
  261.518    0.279   80.645    4.170    0.409
  261.823    0.265   77.015    4.088    0.420
  262.128    0.237   69.760    4.401    0.433
  262.433    0.204   63.311    5.394    0.310
  262.738    0.289   60.082    6.371    0.316
  263.043    0.321   60.880   11.124    0.364
  263.347    0.296   78.185   11.969    0.390
  263.652    0.285   80.191   11.521    0.361
  263.957    0.285   77.366   10.680    0.367
  264.262    0.313   71.316    9.539    0.387
  264.567    0.322   68.894    9.353    0.402
  264.871    0.338   66.876   10.068    0.418
  265.176    0.339   63.244   12.342    0.369
  265.481    0.330   65.251   14.040    0.378
  265.786    0.332   72.087   14.291    0.396
  266.091    0.320   73.689   13.498    0.375
  266.395    0.310   70.059   12.511    0.382
  266.700    0.323   66.832   12.502    0.372
  267.005    0.345   61.590   12.961    0.366
  267.310    0.488   50.712   14.476    0.417
  267.615    0.505   61.575   16.172    0.457
  267.919    0.356   67.205   19.103    0.391
  268.224    0.354   77.263   22.981    0.412
  268.529    0.350   81.280   25.201    0.417
  268.834    0.344   80.872   26.128    0.387
  269.139    0.333   76.032   22.905    0.404
  269.444    0.328   71.193   19.717    0.406
  269.748    0.271   65.146   15.174    0.344
  270.053    0.271   57.088   13.551    0.337
  270.358    0.327   47.820   13.541    0.354
  270.663    0.337   53.447   15.123    0.368
  270.968    0.321   55.453   17.208    0.370
  271.272    0.322   55.045   19.573    0.354
  271.577    0.328   49.400   20.681    0.354
  271.882    0.330   51.809   22.674    0.355
  272.187    0.326   58.647   24.854    0.360
  272.492    0.331   62.664   25.764    0.342
  272.796    0.250   61.448   26.719    0.304
  273.101    0.211   60.234   27.693    0.262
  273.406    0.230   65.864   27.668    0.268
  273.711    0.341   63.843   27.138    0.344
  274.016    0.357   58.602   26.600    0.384
  274.320    0.355   60.203   25.124    0.377
  274.625    0.342   63.017   24.188    0.366
  274.930    0.324   65.425   22.010    0.387
  275.235    0.329   63.001   20.788    0.368
  275.540    0.331   52.929   21.149    0.360
  275.845    0.324   51.311   21.526    0.349
  276.149    0.317   56.940   21.906    0.343
  276.454    0.322   61.761   21.889    0.362
  276.759    0.320   63.770   21.459    0.385
  277.064    0.308   64.568   21.424    0.368
  277.369    0.320   63.756   22.218    0.371
  277.673    0.345   56.903   23.042    0.386
  277.978    0.351   50.454   25.244    0.375
  278.283    0.352   48.030   25.695    0.403
  278.588    0.348   52.854   26.157    0.408
  278.893    0.350   58.887   26.135    0.393
  279.197    0.325   67.335   23.786    0.370
  279.502    0.312   69.340   20.090    0.373
  279.807    0.335   69.332   20.069    0.392
  280.112    0.335   72.143   20.425    0.357
  280.417    0.317   72.941   22.384    0.356
  280.721    0.312   66.090   23.641    0.362
  281.026    0.316   53.199   24.520    0.385
  281.331    0.327   58.019   24.944    0.373
  281.636    0.343   60.028   24.925    0.360
  281.941    0.363   62.033   24.420    0.346
  282.246    0.347   63.234   24.399    0.389
  282.550    0.337   65.642   23.487    0.409
  282.855    0.328   72.480   21.784    0.362
  283.160    0.317   80.123   19.098    0.345
  283.465    0.273   84.542   16.748    0.344
  283.770    0.265   84.939   14.415    0.379
  284.074    0.263   77.684   12.177    0.369
  284.379    0.292   79.689   10.877    0.361
  284.684    0.275   86.125    9.896    0.362
  284.989    0.208   96.989    9.348    0.395
  285.294    0.150   92.552    8.670    0.367
  285.598    0.151   96.973    7.745    0.356
  285.903    0.214  103.811    6.664    0.399
  286.208    0.225  104.204    5.842    0.433
  286.513    0.220  107.017    5.521    0.451
  286.818    0.248  100.165    4.840    0.462
  287.122    0.240  105.793    4.488    0.478
  287.427    0.265  102.968    4.162    0.472
  287.732    0.292   94.101    3.931    0.451
  288.037    0.302  100.134    4.152    0.410
  288.342    0.314  105.363    4.638    0.370
  288.647    0.339  102.938    5.792    0.355
  288.951    0.337   82.801    8.242    0.355
  289.256    0.325   71.923   14.127    0.378
  289.561    0.321   67.889   19.356    0.387
  289.866    0.321   67.480   21.217    0.367
  290.171    0.323   73.511   21.604    0.338
  290.475    0.331   85.582   20.398    0.348
  290.780    0.361   87.589   19.626    0.358
  291.085    0.363   78.723   19.982    0.365
  291.390    0.340   75.898   21.097    0.365
  291.695    0.301   75.891   21.082    0.351
  291.999    0.297   83.532   20.288    0.363
  292.304    0.292   92.786   17.465    0.379
  292.609    0.260   98.413   13.696    0.394
  292.914    0.235   98.407   11.146    0.405
  293.219    0.250   81.892    9.072    0.370
  293.523    0.292   78.262    9.233    0.348
  293.828    0.329   83.891   10.503    0.365
  294.133    0.317   92.741   12.404    0.379
  294.438    0.303   93.539   14.930    0.346
  294.743    0.322   74.609   18.997    0.365
  295.048    0.341   60.913   20.830    0.390
  295.352    0.346   68.957   21.592    0.392
  295.657    0.325   76.196   21.566    0.395
  295.962    0.323   77.397   20.760    0.389
  296.267    0.322   81.416   18.201    0.358
  296.572    0.312   87.447   15.666    0.328
  296.876    0.285   83.414   13.232    0.322
  297.181    0.270   74.953   12.267    0.353
  297.486    0.249   64.880   12.031    0.383
  297.791    0.234   55.210   12.467    0.384
  298.096    0.271   58.020   13.176    0.330
  298.400    0.327   63.648   15.854    0.356
  298.705    0.324   68.473   19.075    0.363
  299.010    0.317   73.700   20.150    0.366
  299.315    0.297   75.706   17.668    0.371
  299.620    0.273   74.892   12.855    0.358
  299.924    0.276   72.067   11.065    0.380
  300.229    0.287   74.073    9.702    0.386
  300.534    0.291   79.299    8.994    0.393
  300.839    0.286   80.500    8.822    0.407
  301.144    0.285   83.713    9.142    0.423
  301.449    0.292   89.746    9.135    0.407
  301.753    0.266   92.960    8.953    0.448
  302.058    0.255   90.133    8.459    0.435
  302.363    0.257   85.296    7.280    0.406
  302.668    0.297   76.833    6.752    0.413
