~VERSION INFORMATION
 VERS.                 2.0:   CWLS LOG ASCII STANDARD -VERSION 2.0
 WRAP.                  NO:   ONE LINE PER DEPTH STEP
~WELL INFORMATION BLOCK
#MNEM.UNIT           DATA                    DESCRIPTION OF MNEMONIC
#---------    -------------------            -------------------------------
# Generated from Intellog Unique Number	CW_82_90/WELL/3437
WELL.         10-05-088-19W4                 : Well_name    - WELL
LOC .         AA/10-05-088-19W4/0            : Location     - LOCATION
UWI .         AA/10-05-088-19W400            : Uwi          - UNIQUE WELL ID
ENTR.         MAX                            : Entered      - ENTERED BY
SRVC.         SCHLUMBERGER                   : Scn          - SERVICE COMPANY
STRT.M        180                            : top_depth    - START DEPTH
STOP.M        257                            : bot_depth    - STOP DEPTH
STEP.M        0.25                           : increment    - STEP LENGTH
 NULL. -999.2500:NULL Value
~CURVE INFORMATION BLOCK
#MNEM UNIT       ERCB CURVE CODE    CURVE DESCRIPTION
#-----------   ------------------   ----------------------------------
DEPT.M        00 001 00 00         : DEPTH        - DEPTH
GR  .API      00 310 00 00         : GR           - GAMMA RAY
CALI.MM       00 280 01 00         : CAL          - CALIPER
NPHI.V/V      00 330 00 00         : PHIN         - NEUTRON POROSITY (SANDSTONE)
DPHI.V/V      00 890 00 00         : PHID         - DENSITY POROSITY (SANDSTONE)
ILD .OHMM     00 120 00 00         : RESD         - DEEP RESISTIVITY (DIL)
~PARAMETER INFORMATION
#MNEM.UNIT           DATA             DESCRIPTION OF MNEMONIC
#---------         -----------     ------------------------------
GL  .M        531.3                : gl           - GROUND LEVEL ELEVATION
EREF.M        534.8                : kb           - ELEVATION OF DEPTH REFERENCE
DATM.M        531.3                : datum        - DATUM ELEVATION
TDD .M        285                  : tdd          - TOTAL DEPTH DRILLER
RUN .         ONE                  : Run          - RUN NUMBER
ENG .         BILL                 : Engineer     - RECORDING ENGINEER
WIT .         JIM                  : Witness      - WITNESSED BY
MUD .         GEL                  : Mud_type     - MUD TYPE
MATR.         SANDSTONE            : Logunit      - NEUTRON MATRIX
TMAX.C        27                   : BHT          - MAXIMUM RECORDED TEMPERATURE
BHTD.M        287                  : BHTDEP       - MAXIMUM RECORDED TEMPERATURE
MATR.         1                    : LOGUNIT      - NEUTRON MATRIX
RMT .C        10                   : MDTP         - TEMPERATURE OF MUD
NEUT.         1                    : NEUTRON      - NEUTRON TYPE
RESI.         0                    : RESIST       - RESISTIVITY TYPE
RMC .OHMM     7.06                 : RMC          - RESISTIVITY OF MUD CAKE
RMF .OHMM     7.06                 : RMF          - RESISTIVITY OF MUD FILTRATE
SUFT.C        -1                   : SUFT         - SURFACE TEMPERATURE
~A  DEPTH       GR      CAL     PHIN     PHID     RESD
# ...
  216.500   70.040  394.036    0.449    0.385   12.519
  216.750   69.394  400.007    0.479    0.396   11.315
  217.000   70.551  381.284    0.453    0.420   10.321
  217.250   71.724  367.593    0.440    0.415   12.287
  217.500   74.409  330.208    0.420    0.395   13.971
  217.750   75.275  376.032    0.424    0.331   12.627
  218.000   72.813  403.689    0.432    0.372   11.413
  218.250   74.278  380.933    0.440    0.395   12.058
  218.500   73.933  326.903    0.425    0.381   13.095
  218.750   71.779  349.519    0.407    0.305   14.486
  219.000   67.800  363.573    0.391    0.331   14.618
  219.250   65.640  391.239    0.414    0.370   14.089
  219.500   64.086  379.565    0.464    0.343   14.886
  219.750   63.136  357.305    0.511    0.372   13.454
  220.000   65.811  389.004    0.539    0.398   11.403
  220.250   69.102  399.529    0.504    0.401   10.889
  220.500   73.294  399.450    0.463    0.386   11.611
  220.750   78.999  387.785    0.429    0.377   12.495
  221.000   82.285  376.120    0.402    0.363   11.824
  221.250   82.550  364.950    0.387    0.347   10.985
  221.500   79.473  325.044    0.366    0.310   11.606
  221.750   77.616  316.395    0.361    0.272   12.957
  222.000   76.672  319.845    0.377    0.281   17.866
  222.250   77.537  325.833    0.383    0.301   16.599
  222.500   81.114  326.763    0.342    0.294   14.730
  222.750   82.282  321.651    0.315    0.234   15.851
  223.000   81.646  318.061    0.289    0.158   18.190
  223.250   79.178  314.444    0.241    0.063   25.082
  223.500   77.019  312.871    0.211    0.038   40.803
  223.750   76.372  314.817    0.208    0.050   66.375
  224.000   79.360  319.797    0.213    0.074   46.390
  224.250   82.640  337.876    0.230    0.121   35.868
  224.500   84.715  350.418    0.371    0.178   22.043
  224.750   85.581  363.455    0.436    0.265   15.548
  225.000   84.329  326.574    0.460    0.328   12.586
  225.250   82.774  321.950    0.408    0.271   13.544
  225.500   84.244  319.367    0.393    0.226   16.125
  225.750   87.227  317.776    0.381    0.256   17.193
  226.000   84.765  318.714    0.419    0.292   16.419
  226.250   79.883  322.182    0.455    0.311   16.722
  226.500   74.397  334.698    0.478    0.359   19.190
  226.750   61.645  346.753    0.512    0.371   15.822
  227.000   51.011  364.319    0.548    0.387   10.757
  227.250   42.494  379.886    0.574    0.413    8.708
  227.500   42.447  387.891    0.595    0.435    8.787
  227.750   45.732  392.358    0.605    0.491    9.544
  228.000   51.447  396.312    0.609    0.514    9.630
  228.250   64.110  396.251    0.593    0.405    9.282
  228.500   71.030  391.635    0.561    0.345    8.703
  228.750   75.223  378.457    0.510    0.283    8.236
  229.000   73.971  363.767    0.434    0.189   10.171
  229.250   74.528  317.299    0.347    0.120   11.889
  229.500   76.004  313.195    0.314    0.127   31.756
  229.750   78.684  311.595    0.339    0.164   28.439
  230.000   82.267  313.038    0.365    0.214   21.989
  230.250   84.045  316.010    0.378    0.252   16.388
  230.500   85.812  320.981    0.386    0.226   14.949
  230.750   86.678  333.514    0.398    0.239   13.635
  231.000   85.431  330.924    0.386    0.256   12.903
  231.250   83.574  320.771    0.380    0.236   12.551
  231.500   82.009  316.155    0.380    0.204   13.139
  231.750   83.182  320.109    0.385    0.208   11.985
  232.000   82.832  326.601    0.420    0.222   10.832
  232.250   79.765  321.994    0.440    0.254   10.831
  232.500   77.606  323.436    0.481    0.297   14.396
  232.750   74.847  337.491    0.520    0.329   14.263
  233.000   71.467  352.545    0.529    0.340   12.774
  233.250   67.800  372.145    0.537    0.369   10.727
  233.500   62.918  390.728    0.550    0.480    9.009
  233.750   55.914  398.211    0.562    0.488    8.844
  234.000   51.934  390.083    0.578    0.462    8.762
  234.250   51.892  374.880    0.592    0.412    8.601
  234.500   62.140  361.702    0.593    0.344    8.444
  234.750   71.177  351.550    0.555    0.256    8.921
  235.000   82.630  341.388    0.439    0.186   14.380
  235.250   86.828  322.656    0.293    0.122   27.096
  235.500   94.348  309.470    0.309    0.147   21.934
  235.750   98.535  308.887    0.324    0.186   14.375
  236.000   99.400  308.834    0.352    0.212   15.188
  236.250   99.661  309.268    0.337    0.188   15.754
  236.500   99.927  310.710    0.336    0.196   15.046
  236.750   99.879  312.657    0.345    0.200   14.635
  237.000   99.837  314.594    0.353    0.205   14.633
  237.250   98.585  314.524    0.355    0.213   15.460
  237.500   94.308  312.420    0.358    0.249   16.485
  237.750   87.612  312.854    0.389    0.327   18.574
  238.000   81.812  312.784    0.453    0.372   16.331
  238.250   82.683  312.218    0.477    0.386   13.220
  238.500   85.060  311.635    0.426    0.303   13.840
  238.750   85.018  311.079    0.385    0.214   17.250
  239.000   82.551  309.991    0.326    0.149   26.558
  239.250   80.392  309.408    0.211    0.082   44.004
  239.500   79.140  309.338    0.214    0.045   64.707
  239.750   80.005  309.277    0.236    0.080   51.427
  240.000   83.290  309.711    0.281    0.166   31.031
  240.250   88.396  309.632    0.333    0.203   19.247
  240.500   92.583  309.632    0.344    0.213   17.556
  240.750   91.931  309.987    0.340    0.220   18.210
  241.000   90.084  310.934    0.356    0.208   17.714
  241.250   87.315  311.377    0.381    0.202   16.457
  241.500   86.365  311.811    0.388    0.210   16.008
  241.750   84.805  311.732    0.360    0.225   17.546
  242.000   82.646  311.732    0.339    0.238   24.418
  242.250   79.881  311.583    0.321    0.207   29.881
  242.500   75.907  312.035    0.329    0.174   22.683
  242.750   71.625  312.964    0.372    0.165   14.730
  243.000   67.958  316.927    0.398    0.257    9.306
  243.250   63.379  344.089    0.527    0.287    7.887
  243.500   55.462  384.367    0.588    0.327    8.032
  243.750   56.030  391.355    0.582    0.362    8.565
  244.000   62.643  390.772    0.548    0.398    9.216
  244.250   64.103  385.156    0.510    0.357    9.918
  244.500   62.251  372.987    0.494    0.375   10.871
  244.750   58.282  357.289    0.463    0.373   12.475
  245.000   54.297  341.077    0.427    0.347   24.610
  245.250   52.748  323.354    0.393    0.300   52.733
  245.500   53.305  315.713    0.378    0.266   41.911
  245.750   55.391  328.255    0.390    0.245   31.236
  246.000   57.758  340.293    0.405    0.220   22.856
  246.250   57.414  374.009    0.393    0.208   23.064
  246.500   57.982  317.962    0.374    0.194   19.548
  246.750   63.995  341.082    0.378    0.170   15.394
  247.000   72.422  358.665    0.453    0.268   12.577
  247.250   73.882  370.190    0.500    0.310   10.660
  247.500   71.123  335.326    0.550    0.376    7.450
  247.750   67.451  351.397    0.573    0.429    6.733
  248.000   64.984  365.443    0.547    0.476    6.733
  248.250   64.040  370.918    0.519    0.470    7.869
  248.500   63.997  371.343    0.502    0.454    9.114
  248.750   64.863  368.761    0.489    0.432   10.751
  249.000   69.050  362.633    0.465    0.410    9.366
  249.250   73.248  359.538    0.452    0.394    8.863
  249.500   77.138  352.914    0.439    0.369    9.278
  249.750   77.102  335.190    0.417    0.318   10.170
  250.000   73.424  313.946    0.401    0.253   13.895
  250.250   67.030  310.339    0.384    0.264   17.161
  250.500   63.353  311.772    0.365    0.261   28.962
  250.750   63.614  312.719    0.340    0.243   25.700
  251.000   64.176  313.648    0.350    0.210   16.843
  251.250   61.709  313.587    0.351    0.198   16.234
  251.500   55.018  314.525    0.349    0.197   28.421
  251.750   47.408  316.472    0.345    0.222   49.305
  252.000   46.156  325.980    0.347    0.237   56.063
  252.250   45.504  336.001    0.385    0.260   38.469
  252.500   44.857  350.551    0.469    0.307   20.790
  252.750   44.507  369.143    0.499    0.365   15.495
