~VERSION INFORMATION
 VERS.                 2.0:   CWLS LOG ASCII STANDARD -VERSION 2.0
 WRAP.                  NO:   ONE LINE PER DEPTH STEP
~WELL INFORMATION BLOCK
#MNEM.UNIT           DATA                    DESCRIPTION OF MNEMONIC
#---------    -------------------            -------------------------------
# Generated from Intellog Unique Number	CW_79_81/WELL/924
WELL.         12-29-079-22W4                 : Well_name    - WELL
LOC .         AA/12-29-079-22W4/0            : Location     - LOCATION
UWI .         AA/12-29-079-22W4/0            : Uwi          - UNIQUE WELL ID
ENTR.         MAX                            : Entered      - ENTERED BY
SRVC.         SCHLUMBERGER                   : Scn          - SERVICE COMPANY
STRT.M        215                            : top_depth    - START DEPTH
STOP.M        450                            : bot_depth    - STOP DEPTH
STEP.M        0.25                           : increment    - STEP LENGTH
 NULL. -999.2500:NULL Value
~CURVE INFORMATION BLOCK
#MNEM UNIT       ERCB CURVE CODE    CURVE DESCRIPTION
#-----------   ------------------   ----------------------------------
DEPT.M        00 001 00 00         : DEPTH        - DEPTH
ILD .OHMM     00 120 00 00         : RESD         - DEEP RESISTIVITY (DIL)
NPHI.V/V      00 330 00 00         : PHIN         - NEUTRON POROSITY (SANDSTONE)
DPHI.V/V      00 890 00 00         : PHID         - DENSITY POROSITY (SANDSTONE)
CALI.MM       00 280 01 00         : CAL          - CALIPER
GR  .API      00 310 00 00         : GR           - GAMMA RAY
~PARAMETER INFORMATION
#MNEM.UNIT           DATA             DESCRIPTION OF MNEMONIC
#---------         -----------     ------------------------------
GL  .M        568.6                : gl           - GROUND LEVEL ELEVATION
EREF.M        573.2                : kb           - ELEVATION OF DEPTH REFERENCE
DATM.M        568.6                : datum        - DATUM ELEVATION
TDD .M        458                  : tdd          - TOTAL DEPTH DRILLER
RUN .         ONE                  : Run          - RUN NUMBER
ENG .         BILL                 : Engineer     - RECORDING ENGINEER
WIT .         JIM                  : Witness      - WITNESSED BY
MUD .         GEL                  : Mud_type     - MUD TYPE
MATR.         SANDSTONE            : Logunit      - NEUTRON MATRIX
TMAX.C        21                   : BHT          - MAXIMUM RECORDED TEMPERATURE
BHTD.M        458                  : BHTDEP       - MAXIMUM RECORDED TEMPERATURE
RMT .C        14.4                 : MDTP         - TEMPERATURE OF MUD
MUDD.KG/M     1070                 : MWT          - MUD DENSITY
NEUT.         1                    : NEUTRON      - NEUTRON TYPE
RESI.         0                    : RESIST       - RESISTIVITY TYPE
RM  .OHMM     0.89                 : RM           - RESISTIVITY OF MUD
RMC .OHMM     0                    : RMC          - RESISTIVITY OF MUD CAKE
RMF .OHMM     0.77                 : RMF          - RESISTIVITY OF MUD FILTRATE
SUFT.C        -20                  : SUFT         - SURFACE TEMPERATURE
~A  DEPTH     RESD     PHIN     PHID      CAL       GR
  215.000    6.969    0.503    0.243  264.913   64.004
  215.250    4.249    0.548    0.248  265.867   72.615
  215.500    3.504    0.567    0.258  266.333   76.169
  215.750    3.167    0.565    0.263  266.790   75.548
  216.000    3.052    0.542    0.272  267.260   76.125
  216.250    3.024    0.526    0.287  268.209   77.590
  216.500    3.194    0.537    0.303  268.179   79.061
  216.750    3.531    0.544    0.312  267.644   79.635
  217.000    4.438    0.512    0.279  266.621   73.363
  217.250    5.894    0.480    0.286  266.091   62.326
  217.500    6.516    0.446    0.311  265.551   57.542
  217.750    6.635    0.433    0.322  265.525   54.542
  218.000    6.756    0.437    0.334  265.491   51.845
  218.250    7.005    0.454    0.339  264.952   47.059
  218.500    7.398    0.456    0.342  264.417   47.336
  218.750    7.886    0.471    0.349  264.391   49.399
  219.000    8.720    0.494    0.343  263.860   53.543
  219.250   11.792    0.502    0.352  264.321   52.927
  219.500   13.402    0.480    0.361  265.771   51.420
  219.750   14.154    0.471    0.347  266.733   54.972
  220.000   15.366    0.488    0.336  267.190   58.523
  220.250   15.646    0.486    0.316  266.660   47.486
  220.500   15.216    0.469    0.325  265.628   42.700
  220.750   14.665    0.466    0.331  265.598   42.679
  221.000   13.750    0.464    0.325  266.055   42.655
  221.250   13.496    0.465    0.307  266.521   41.449
  221.500   14.255    0.481    0.285  266.487   42.021
  221.750   15.475    0.499    0.286  266.452   45.573
  222.000   17.110    0.502    0.294  266.413   46.150
  222.250   18.745    0.496    0.319  266.379   45.236
  222.500   17.901    0.488    0.338  266.340   46.398
  222.750   15.886    0.474    0.353  266.314   48.169
  223.000   15.452    0.510    0.373  267.759   46.955
  223.250   17.084    0.515    0.383  269.217   43.364
  223.500   19.774    0.488    0.362  272.155   39.769
  223.750   30.125    0.449    0.335  272.125   39.153
  224.000   49.835    0.457    0.332  272.086   41.218
  224.250   49.821    0.482    0.340  272.552   43.579
  224.500   34.845    0.506    0.377  272.509   46.235
  224.750   20.670    0.531    0.405  271.987   48.896
  225.000    7.208    0.540    0.418  271.452   58.699
  225.250    4.355    0.543    0.352  270.921   88.446
  225.500    3.592    0.543    0.320  269.890   93.488
  225.750    3.101    0.527    0.269  269.359   91.378
  226.000    3.158    0.494    0.260  269.325   88.383
  226.250    4.595    0.471    0.250  269.290   84.788
  226.500    5.723    0.488    0.257  269.256   80.900
  226.750    7.883    0.500    0.271  268.224   68.970
  227.000    9.999    0.487    0.281  266.706   59.423
  227.250   11.895    0.480    0.279  264.182   58.509
  227.500   10.851    0.476    0.262  263.660   61.758
  227.750   10.082    0.479    0.254  263.617   62.931
  228.000   11.885    0.472    0.250  264.083   62.017
  228.250   15.076    0.463    0.233  265.045   56.040
  228.500   13.380    0.470    0.235  267.486   55.424
  228.750   13.375    0.488    0.277  267.948   56.889
  229.000   15.341    0.489    0.312  268.414   54.194
  229.250   18.419    0.485    0.338  268.379   51.787
  229.500   18.079    0.469    0.337  268.336   54.450
  229.750   13.986    0.461    0.318  268.302   56.808
  230.000   12.412    0.491    0.320  267.275   55.297
  230.250   12.408    0.498    0.322  266.744   54.976
  230.500   12.985    0.486    0.318  266.710   55.851
  230.750   13.222    0.478    0.303  266.671   56.428
  231.000   12.061    0.473    0.300  266.645   55.511
  231.250   11.412    0.466    0.299  266.114   54.005
  231.500   11.621    0.451    0.295  265.583   52.791
  231.750    9.762    0.446    0.283  265.540   52.470
  232.000    8.352    0.455    0.269  265.506   55.726
  232.250    7.480    0.455    0.272  266.468   62.254
  232.500    7.014    0.440    0.273  268.901   61.933
  232.750    6.576    0.466    0.261  269.871   62.808
  233.000    6.223    0.508    0.259  270.329   62.490
  233.250    6.755    0.485    0.281  270.298   53.837
  233.500    8.808    0.460    0.317  270.264   49.943
  233.750   14.176    0.440    0.336  270.721   49.330
  234.000   15.248    0.455    0.336  270.682   50.795
  234.250   10.666    0.470    0.322  270.643   54.049
  234.500    8.176    0.487    0.294  270.609   61.175
  234.750    7.323    0.509    0.285  270.583   68.593
  235.000    6.499    0.519    0.277  270.548   72.743
  235.250    6.094    0.513    0.254  270.509   76.889
  235.500    5.926    0.509    0.253  270.479   78.355
  235.750    5.979    0.516    0.259  270.440   73.568
  236.000    6.201    0.526    0.263  270.410   71.464
  236.250    6.313    0.521    0.264  270.371   72.934
  236.500    6.369    0.518    0.264  270.337   76.185
  236.750    5.917    0.526    0.264  269.806   76.167
  237.000    5.252    0.529    0.261  269.271   77.037
  237.250    5.108    0.514    0.258  269.236   78.502
  237.500    6.246    0.504    0.255  268.701   79.975
  237.750    7.500    0.512    0.260  268.171   79.061
  238.000    9.004    0.498    0.269  267.644   73.084
  238.250    9.685    0.432    0.273  267.597   69.786
  238.500   10.514    0.444    0.266  267.079   73.340
  238.750   11.625    0.461    0.266  267.032   74.808
  239.000   13.092    0.444    0.281  267.506   66.750
  239.250   14.607    0.449    0.292  268.464   65.538
  239.500    7.281    0.521    0.269  270.409   78.020
  239.750    5.430    0.535    0.223  273.347   89.311
  240.000    4.732    0.520    0.237  275.793   87.802
  240.250    5.232    0.496    0.225  276.760   83.611
  240.500    5.475    0.480    0.172  279.698   84.478
  240.750    4.727    0.496    0.178  282.140   87.145
  241.000    4.769    0.531    0.187  282.109   93.670
  241.250    5.225    0.541    0.195  281.082   95.436
  241.500    5.176    0.547    0.227  280.552   93.924
  241.750    4.809    0.534    0.231  279.525   91.822
  242.000    4.114    0.531    0.199  276.509   95.076
  242.250    3.553    0.545    0.227  272.005  103.090
  242.500    3.300    0.556    0.254  269.995  103.664
  242.750    3.963    0.539    0.267  265.495   96.202
  243.000    5.214    0.494    0.262  261.975   88.444
  243.250    7.658    0.463    0.250  261.448   84.848
  243.500    7.868    0.469    0.241  261.418   83.637
  243.750    7.514    0.484    0.234  260.887   82.723
  244.000    6.981    0.481    0.230  259.360   80.916
  244.250    7.108    0.465    0.231  257.837   78.809
  244.500    7.304    0.465    0.260  257.306   75.219
  244.750    7.929    0.458    0.276  256.780   63.884
  245.000   11.434    0.462    0.301  255.745   54.933
  245.250   18.402    0.474    0.319  255.714   49.251
  245.500   20.161    0.479    0.320  257.168   47.144
  245.750   25.108    0.454    0.340  258.618   47.128
  246.000   30.424    0.454    0.344  259.575   47.108
  246.250   38.946    0.461    0.347  262.021   47.084
  246.500   42.668    0.467    0.348  263.480   47.066
  246.750   45.063    0.468    0.349  265.430   47.340
  247.000   47.162    0.464    0.349  268.368   47.615
  247.250   49.810    0.452    0.350  270.313   46.106
  247.500   51.657    0.437    0.351  271.771   46.975
  247.750   56.076    0.451    0.354  273.717   47.258
  248.000   63.147    0.465    0.358  276.167   45.446
  248.250   71.109    0.470    0.365  278.113   43.639
  248.500   80.812    0.471    0.368  279.071   43.921
  248.750   92.684    0.490    0.372  281.521   47.470
  249.000  109.257    0.493    0.367  284.463   50.128
  249.250  113.304    0.490    0.354  284.424   49.812
  249.500  121.881    0.488    0.349  283.402   49.491
  249.750  137.249    0.495    0.351  281.875   49.471
  250.000  155.977    0.514    0.354  280.848   49.450
  250.250  163.237    0.547    0.359  279.321   49.426
  250.500  146.201    0.530    0.367  278.298   50.001
  250.750  133.363    0.518    0.372  277.767   50.273
  251.000  121.657    0.524    0.372  278.229   50.257
  251.250  114.073    0.522    0.370  279.683   49.343
