~VERSION INFORMATION
 VERS.                 2.0:   CWLS LOG ASCII STANDARD -VERSION 2.0
 WRAP.                  NO:   ONE LINE PER DEPTH STEP
~WELL INFORMATION BLOCK
#MNEM.UNIT           DATA                    DESCRIPTION OF MNEMONIC
#---------    -------------------            -------------------------------
# Generated from Intellog Unique Number	CN_94_101/WELL/5028
WELL.         12-08-097-12W4                 : Well_name    - WELL
LOC .         AA/12-08-097-12W4/0            : Location     - LOCATION
UWI .         AA/12-08-097-12W400            : Uwi          - UNIQUE WELL ID
ENTR.         T                              : Entered      - ENTERED BY
SRVC.         SCHLUMBERGER                   : Scn          - SERVICE COMPANY
DATE.         08/13/92                       : Date         - LOG DATE
STRT.M        25                             : top_depth    - START DEPTH
STOP.M        180                            : bot_depth    - STOP DEPTH
STEP.M        0.25                           : increment    - STEP LENGTH
 NULL. -999.2500:NULL Value
~CURVE INFORMATION BLOCK
#MNEM UNIT       ERCB CURVE CODE    CURVE DESCRIPTION
#-----------   ------------------   ----------------------------------
DEPT.M        00 001 00 00         : DEPTH        - DEPTH
GR  .API      00 310 00 00         : GR           - GAMMA RAY
ILD .OHMM     00 120 00 00         : RESD         - DEEP RESISTIVITY (DIL)
NPHI.V/V      00 330 00 00         : PHIN         - NEUTRON POROSITY (SANDSTONE)
DPHI.V/V      00 890 00 00         : PHID         - DENSITY POROSITY (SANDSTONE)
~PARAMETER INFORMATION
#MNEM.UNIT           DATA             DESCRIPTION OF MNEMONIC
#---------         -----------     ------------------------------
GL  .M        410                  : gl           - GROUND LEVEL ELEVATION
EREF.M        410                  : kb           - ELEVATION OF DEPTH REFERENCE
DATM.M        410                  : datum        - DATUM ELEVATION
TDD .M        185.5                : tdd          - TOTAL DEPTH DRILLER
RUN .         ONE                  : Run          - RUN NUMBER
ENG .         BILL                 : Engineer     - RECORDING ENGINEER
WIT .         JIM                  : Witness      - WITNESSED BY
MUD .         GEL                  : Mud_type     - MUD TYPE
MATR.         SANDSTONE            : Logunit      - NEUTRON MATRIX
TMAX.C        26.5                 : BHT          - MAXIMUM RECORDED TEMPERATURE
BHTD.M        188                  : BHTDEP       - MAXIMUM RECORDED TEMPERATURE
RMT .C        8                    : MDTP         - TEMPERATURE OF MUD
MUDD.KG/M     1050                 : MWT          - MUD DENSITY
NEUT.         1                    : NEUTRON      - NEUTRON TYPE
RESI.         0                    : RESIST       - RESISTIVITY TYPE
RM  .OHMM     16.4                 : RM           - RESISTIVITY OF MUD
RMC .OHMM     16.4                 : RMC          - RESISTIVITY OF MUD CAKE
RMF .OHMM     16.4                 : RMF          - RESISTIVITY OF MUD FILTRATE
SUFT.C        4                    : SUFT         - SURFACE TEMPERATURE
~A  DEPTH       GR     RESD     PHIN     PHID
# ...
  155.500  148.471    6.608    0.489    0.274
  155.750  148.498    6.611    0.499    0.266
  156.000  148.519    6.816    0.501    0.254
  156.250  147.942    7.022    0.471    0.229
  156.500  146.168    7.024    0.460    0.208
  156.750  144.393    7.028    0.448    0.200
  157.000  143.811    6.828    0.434    0.202
  157.250  145.030    6.426    0.448    0.207
  157.500  146.847    6.227    0.463    0.211
  157.750  149.269    6.028    0.470    0.210
  158.000  147.489    5.829    0.467    0.214
  158.250  144.517    5.831    0.451    0.213
  158.500  144.539    5.834    0.440    0.207
  158.750  146.955    6.040    0.440    0.203
  159.000  145.785    6.246    0.440    0.198
  159.250  141.610    6.248    0.439    0.192
  159.500  134.447    6.453    0.434    0.186
  159.750  127.284    6.659    0.427    0.177
  160.000  127.904    6.662    0.419    0.165
  160.250  131.524    6.664    0.409    0.146
  160.500  133.940    6.870    0.405    0.147
  160.750  134.561    6.872    0.410    0.157
  161.000  135.186    6.875    0.413    0.187
  161.250  135.197    7.082    0.416    0.216
  161.500  136.427    7.085    0.416    0.215
  161.750  136.438    7.087    0.412    0.204
  162.000  136.459    7.090    0.408    0.186
  162.250  137.096    7.093    0.407    0.181
  162.500  137.705    6.895    0.402    0.182
  162.750  138.924    6.695    0.398    0.184
  163.000  140.149    6.697    0.392    0.182
  163.250  141.362    6.497    0.390    0.175
  163.500  143.186    6.299    0.387    0.165
  163.750  143.806    6.301    0.397    0.172
  164.000  143.828    6.305    0.413    0.184
  164.250  143.250    6.308    0.427    0.195
  164.500  140.872    6.310    0.438    0.191
  164.750  135.505    6.515    0.413    0.188
  165.000  128.941    6.722    0.410    0.181
  165.250  124.172    6.724    0.407    0.169
  165.500  128.390    6.929    0.400    0.160
  165.750  130.208    6.932    0.387    0.153
  166.000  130.829    6.733    0.390    0.178
  166.250  130.246    6.533    0.399    0.202
  166.500  128.471    6.333    0.406    0.221
  166.750  125.505    6.338    0.414    0.232
  167.000  122.533    6.339    0.413    0.237
  167.250  119.561    6.545    0.405    0.241
  167.500  116.584    6.751    0.395    0.233
  167.750  113.013    6.753    0.396    0.216
  168.000  107.646    6.958    0.399    0.212
  168.250  104.086    7.163    0.401    0.218
  168.500  103.504    7.167    0.402    0.228
  168.750  103.520    7.169    0.406    0.242
  169.000  103.541    7.174    0.407    0.254
  169.250  104.760    7.176    0.410    0.258
  169.500  105.979    6.976    0.407    0.260
  169.750  107.797    6.980    0.401    0.260
  170.000  109.016    6.982    0.397    0.257
  170.250  112.031    6.985    0.390    0.245
  170.500  115.651    7.596    0.382    0.237
  170.750  116.864    8.610    0.380    0.235
  171.000  101.918   10.232    0.391    0.237
  171.250   86.977   12.258    0.406    0.244
  171.500   82.802   15.094    0.421    0.261
  171.750   79.231   18.537    0.431    0.295
  172.000   77.468   18.338    0.427    0.314
  172.250   78.083   17.531    0.436    0.328
  172.500   79.906   15.714    0.443    0.331
  172.750   81.120   14.502    0.454    0.322
  173.000   84.739   12.279    0.458    0.316
  173.250   86.546   10.258    0.444    0.305
  173.500   89.566    8.440    0.429    0.297
  173.750   93.186    7.229    0.408    0.286
  174.000   95.597    6.018    0.398    0.275
  174.250   96.217    5.617    0.387    0.256
  174.500   95.041    5.822    0.382    0.185
  174.750   90.867    6.634    0.375    0.168
  175.000   81.309    9.066    0.368    0.165
  175.250   51.993    9.068    0.357    0.128
  175.500   46.621    8.667    0.339    0.069
  175.750   45.450    7.252    0.309    0.059
  176.000   49.663    5.840    0.124    0.054
  176.250   57.468    6.652    0.130    0.054
  176.500   71.859    6.654    0.142    0.055
  176.750   79.664    6.657    0.170    0.055
  177.000   85.079    7.065    0.195    0.055
  177.250   86.897    7.675    0.233    0.050
  177.500   87.512    8.690    0.239    0.048
  177.750   83.941    8.895    0.216    0.043
  178.000   72.587    9.303    0.173    0.033
  178.250   62.430   11.330    0.147    0.030
  178.500   67.242   21.855    0.132    0.030
  178.750   82.231   24.084    0.121    0.030
  179.000   97.825   24.289    0.116    0.031
  179.250  105.630   24.293    0.115    0.031
  179.500  117.027   24.296    0.115    0.032
  179.750  120.641   24.502    0.117    0.032
  180.000  121.267   24.706    0.122    0.032
