~VERSION INFORMATION
 VERS.                 2.0:   CWLS LOG ASCII STANDARD -VERSION 2.0
 WRAP.                  NO:   ONE LINE PER DEPTH STEP
~WELL INFORMATION BLOCK
#MNEM.UNIT           DATA                    DESCRIPTION OF MNEMONIC
#---------    -------------------            -------------------------------
# Generated from Intellog Unique Number	CS_77_79/WELL/969
WELL.         PEX PCEJ ALGAR OV              : Well_name    - WELL
LOC .         AA/10-26-079-15W4/0            : Location     - LOCATION
UWI .         AA/10-26-079-15W4/0            : Uwi          - UNIQUE WELL ID
ENTR.         JHS                            : Entered      - ENTERED BY
SRVC.         SCHLUMBERGER                   : Scn          - SERVICE COMPANY
STRT.M        225                            : top_depth    - START DEPTH
STOP.M        470                            : bot_depth    - STOP DEPTH
STEP.M        0.25                           : increment    - STEP LENGTH
 NULL. -999.2500:NULL Value
~CURVE INFORMATION BLOCK
#MNEM UNIT       ERCB CURVE CODE    CURVE DESCRIPTION
#-----------   ------------------   ----------------------------------
DEPT.M        00 001 00 00         : DEPTH        - DEPTH
DPHI.V/V      00 890 00 00         : PHID         - DENSITY POROSITY (LIMESTONE)
NPHI.V/V      00 330 00 00         : PHIN         - NEUTRON POROSITY (LIMESTONE)
GR  .API      00 310 00 00         : GR           - GAMMA RAY
ILD .OHMM     00 120 00 00         : RESD         - DEEP RESISTIVITY (DIL)
RHOB.KG/M3    00 350 00 00         : DENS         - BULK DENSITY
~PARAMETER INFORMATION
#MNEM.UNIT           DATA             DESCRIPTION OF MNEMONIC
#---------         -----------     ------------------------------
GL  .M        640.8                : gl           - GROUND LEVEL ELEVATION
EREF.M        644                  : kb           - ELEVATION OF DEPTH REFERENCE
DATM.M        644                  : datum        - DATUM ELEVATION
TDD .M        477                  : tdd          - TOTAL DEPTH DRILLER
RUN .         ONE                  : Run          - RUN NUMBER
ENG .         BILL                 : Engineer     - RECORDING ENGINEER
WIT .         JIM                  : Witness      - WITNESSED BY
MUD .         GEL                  : Mud_type     - MUD TYPE
MATR.         LIMESTONE            : Logunit      - NEUTRON MATRIX
TMAX.C        28                   : BHT          - MAXIMUM RECORDED TEMPERATURE
BHTD.M        477                  : BHTDEP       - MAXIMUM RECORDED TEMPERATURE
MATR.         1                    : LOGUNIT      - NEUTRON MATRIX
RMT .C        25                   : MDTP         - TEMPERATURE OF MUD
NEUT.         1                    : NEUTRON      - NEUTRON TYPE
RESI.         0                    : RESIST       - RESISTIVITY TYPE
RMC .OHMM     0.25                 : RMC          - RESISTIVITY OF MUD CAKE
RMF .OHMM     0.25                 : RMF          - RESISTIVITY OF MUD FILTRATE
SUFT.C        15                   : SUFT         - SURFACE TEMPERATURE
~A  DEPTH     PHID     PHIN       GR     RESD     DENS
# ...
  407.500    0.378    0.430   71.171    4.512 2063.960
  407.750    0.412    0.467   65.549    5.249 2004.890
  408.000    0.415    0.464   56.193    6.341 2000.620
  408.250    0.367    0.462   61.152    6.970 2082.710
  408.500    0.251    0.380   69.221    8.264 2280.650
  408.750    0.279    0.405   82.267    8.584 2232.140
  409.000    0.287    0.435   81.627    8.918 2219.430
  409.250    0.297    0.448   79.118    8.590 2202.510
  409.500    0.309    0.453   79.096    8.119 2181.360
  409.750    0.297    0.437   78.450    6.853 2202.370
  410.000    0.283    0.435   82.786    5.165 2225.460
  410.250    0.280    0.441   82.145    4.701 2231.720
  410.500    0.287    0.441   83.993    4.529 2218.990
  410.750    0.285    0.450   88.947    4.446 2223.140
  411.000    0.284    0.465   88.928    4.447 2225.170
  411.250    0.288    0.481   90.146    4.203 2216.680
  411.500    0.298    0.484   92.621    3.899 2199.770
  411.750    0.293    0.473   96.958    3.617 2208.120
  412.000    0.296    0.472   98.803    3.419 2203.840
  412.250    0.307    0.471  101.271    3.293 2184.810
  412.500    0.331    0.460   94.407    3.232 2144.710
  412.750    0.322    0.461   93.762    3.295 2159.400
  413.000    0.315    0.454   91.877    3.423 2171.950
  413.250    0.338    0.461   98.701    3.623 2131.860
  413.500    0.344    0.465  102.412    4.059 2121.260
  413.750    0.317    0.454  100.527    4.297 2167.530
  414.000    0.302    0.447  103.616    4.549 2192.740
  414.250    0.298    0.437   95.504    4.550 2201.100
  414.500    0.306    0.458   88.638    4.383 2186.290
  414.750    0.328    0.432   84.260    4.384 2148.300
  415.000    0.337    0.407   76.773    4.821 2133.490
  415.250    0.276    0.370   65.550    5.007 2238.740
  415.500    0.272    0.357   54.947    5.300 2244.990
  415.750    0.304    0.383   50.572    6.166 2190.140
  416.000    0.330    0.379   59.885    7.173 2145.840
  416.250    0.329    0.384   69.200    9.170 2147.860
  416.500    0.325    0.403   71.671   11.505 2154.130
  416.750    0.347    0.413   56.712   12.889 2116.140
  417.000    0.373    0.413   52.332   12.652 2071.830
  417.250    0.388    0.424   57.916   10.283 2046.480
  417.500    0.217    0.387   63.498    7.605 2339.240
  417.750    0.200    0.314   69.697    5.953 2368.660
  418.000    0.292    0.380   69.678    5.626 2210.590
  418.250    0.264    0.403   68.413    5.844 2258.980
  418.500    0.258    0.405   63.415    7.472 2269.440
  418.750    0.265    0.401   53.436    8.693 2256.730
  419.000    0.284    0.367   44.700   10.907 2225.060
  419.250    0.282    0.348   52.772   11.988 2227.090
  419.500    0.290    0.339   65.817   16.220 2214.390
  419.750    0.280    0.339   74.513   20.737 2231.170
  420.000    0.290    0.368   86.318   24.124 2214.250
  420.250    0.286    0.403  104.968   27.542 2220.500
  420.500    0.279    0.389  109.926   28.610 2233.040
  420.750    0.273    0.333  106.167   26.042 2243.530
  421.000    0.277    0.280   94.324   19.627 2237.140
  421.250    0.379    0.338   87.457   14.792 2062.220
  421.500    0.397    0.392   84.323   14.251 2030.540
  421.750    0.311    0.378   80.570   14.524 2177.940
  422.000    0.311    0.380   84.284   15.671 2177.860
  422.250    0.245    0.377   88.622   15.673 2291.560
  422.500    0.223    0.374   91.712   14.267 2329.410
  422.750    0.255    0.379   94.181   12.987 2274.570
  423.000    0.292    0.366   82.334   12.046 2211.290
  423.250    0.321    0.361   86.044   11.825 2160.660
  423.500    0.288    0.376   87.264   11.389 2217.480
  423.750    0.277    0.369   84.755   11.180 2236.370
  424.000    0.291    0.363   83.498   10.975 2213.120
  424.250    0.259    0.365   92.809   10.774 2267.830
  424.500    0.220    0.371   92.791   10.776 2333.070
  424.750    0.238    0.371   88.408   10.985 2303.500
  425.000    0.222    0.373   84.035   11.199 2330.820
  425.250    0.213    0.359   79.038   11.201 2345.500
  425.500    0.230    0.356   72.794   11.205 2315.920
  425.750    0.244    0.349   80.240   10.999 2292.690
  426.000    0.248    0.375   76.482   10.797 2286.290
  426.250    0.211    0.346   69.612   11.007 2349.430
  426.500    0.164    0.313   66.484   11.219 2429.410
  426.750    0.137    0.298   65.222   12.103 2475.690
  427.000    0.250    0.317   54.621   12.812 2281.810
  427.250    0.242    0.339   55.840   13.820 2296.480
  427.500    0.214    0.327   60.176   13.063 2344.860
  427.750    0.205    0.317   64.517   16.701 2359.540
  428.000    0.219    0.306   69.475   27.289 2336.270
  428.250    0.210    0.288   66.963   34.237 2350.960
  428.500    0.209    0.325   90.591   37.636 2353.020
  428.750    0.251    0.360  103.015   41.375 2281.320
  429.000    0.275    0.385  100.506   42.175 2239.110
  429.250    0.283    0.380   87.415   28.925 2226.390
  429.500    0.332    0.365   83.043   16.425 2142.070
  429.750    0.266    0.352   92.971   13.101 2255.760
  430.000    0.230    0.358   95.447   11.482 2316.760
  430.250    0.226    0.399   91.071   10.854 2323.020
  430.500    0.235    0.380   91.051   10.655 2308.200
  430.750    0.268    0.382   87.294   10.659 2251.250
  431.000    0.249    0.374   84.786   11.072 2284.900
  431.250    0.220    0.364   91.608   11.501 2333.290
  431.500    0.225    0.366   90.968   11.724 2324.770
  431.750    0.246    0.383   95.301   11.508 2288.900
  432.000    0.244    0.372   90.305   10.879 2293.040
  432.250    0.244    0.374   93.391   10.678 2292.970
  432.500    0.257    0.366   96.487   10.286 2269.720
  432.750    0.266    0.349   87.128   10.097 2254.910
  433.000    0.287    0.386   82.753   10.099 2219.030
  433.250    0.238    0.367   79.616   10.297 2303.230
  433.500    0.213    0.345   74.621   10.695 2345.280
  433.750    0.213    0.322   76.465   11.109 2345.200
  434.000    0.250    0.341   79.553   11.985 2281.940
  434.250    0.259    0.339   77.667   13.175 2267.130
  434.500    0.253    0.353   72.663   15.040 2277.600
  434.750    0.262    0.349   67.050   17.831 2262.780
  435.000    0.273    0.338   63.913   19.975 2243.740
  435.250    0.275    0.354   64.517   22.377 2239.470
  435.500    0.268    0.348   58.893   24.599 2252.040
  435.750    0.257    0.341   55.143   27.042 2270.930
  436.000    0.256    0.336   66.324   28.625 2272.960
  436.250    0.265    0.348   72.527   30.302 2256.040
  436.500    0.275    0.352   77.485   32.081 2239.110
  436.750    0.267    0.347   72.484   32.088 2253.790
  437.000    0.263    0.346   61.261   31.498 2260.040
  437.250    0.251    0.343   63.103   29.774 2281.050
  437.500    0.251    0.341   61.217   28.682 2280.980
  437.750    0.269    0.363   59.333   28.152 2249.300
  438.000    0.305    0.373   54.951   28.703 2188.140
  438.250    0.286    0.383   54.313   29.255 2221.770
  438.500    0.266    0.368   51.803   32.161 2255.410
  438.750    0.276    0.363   44.314   33.407 2238.490
  439.000    0.283    0.368   38.065   34.055 2225.780
  439.250    0.277    0.372   38.048   36.737 2236.230
  439.500    0.273    0.363   33.048   42.738 2242.480
  439.750    0.275    0.363   39.252   51.628 2240.310
  440.000    0.283    0.358   52.299   78.227 2225.500
  440.250    0.292    0.372   53.525   96.304 2210.670
  440.500    0.287    0.381   47.277  125.469 2219.040
  440.750    0.291    0.360   41.035  140.559 2212.630
  441.000    0.291    0.360   37.898   86.076 2212.580
  441.250    0.286    0.364   37.884   81.370 2220.930
  441.500    0.287    0.360   44.086   89.445 2218.760
  441.750    0.295    0.355   60.245   92.918 2206.030
  442.000    0.290    0.351   78.275   98.359 2214.400
  442.250    0.268    0.377   99.413  104.118 2252.260
  442.500    0.257    0.375   93.789  102.208 2271.150
  442.750    0.220    0.344   86.925   42.108 2334.270
  443.000    0.219    0.329   80.053   26.778 2336.290
  443.250    0.232    0.322   81.282   18.021 2313.070
  443.500    0.270    0.344   92.464   15.212 2247.680
  443.750    0.277    0.362   93.683   14.110 2237.080
