~VERSION INFORMATION
 VERS.                 2.0:   CWLS LOG ASCII STANDARD -VERSION 2.0
 WRAP.                  NO:   ONE LINE PER DEPTH STEP
~WELL INFORMATION BLOCK
#MNEM.UNIT           DATA                    DESCRIPTION OF MNEMONIC
#---------    -------------------            -------------------------------
# Generated from Intellog Unique Number	CN_94_101/WELL/5017
WELL.         11-13-100-13W4                 : Well_name    - WELL
LOC .         AA/11-13-100-13W4/0            : Location     - LOCATION
UWI .         AA/11-13-100-13W400            : Uwi          - UNIQUE WELL ID
ENTR.         TIM                            : Entered      - ENTERED BY
SRVC.         SCHLUMBERGER                   : Scn          - SERVICE COMPANY
DATE.         08/13/92                       : Date         - LOG DATE
STRT.M        345                            : top_depth    - START DEPTH
STOP.M        600                            : bot_depth    - STOP DEPTH
STEP.M        0.25                           : increment    - STEP LENGTH
 NULL. -999.2500:NULL Value
~CURVE INFORMATION BLOCK
#MNEM UNIT       ERCB CURVE CODE    CURVE DESCRIPTION
#-----------   ------------------   ----------------------------------
DEPT.M        00 001 00 00         : DEPTH        - DEPTH
GR  .API      00 310 00 00         : GR           - GAMMA RAY
ILD .OHMM     00 120 00 00         : RESD         - DEEP RESISTIVITY (DIL)
NPHI.V/V      00 330 00 00         : PHIN         - NEUTRON POROSITY (SANDSTONE)
DPHI.V/V      00 890 00 00         : PHID         - DENSITY POROSITY (SANDSTONE)
~PARAMETER INFORMATION
#MNEM.UNIT           DATA             DESCRIPTION OF MNEMONIC
#---------         -----------     ------------------------------
GL  .M        791                  : gl           - GROUND LEVEL ELEVATION
EREF.M        794.8                : kb           - ELEVATION OF DEPTH REFERENCE
DATM.M        794.8                : datum        - DATUM ELEVATION
TDD .M        606                  : tdd          - TOTAL DEPTH DRILLER
RUN .         ONE                  : Run          - RUN NUMBER
ENG .         BILL                 : Engineer     - RECORDING ENGINEER
WIT .         JIM                  : Witness      - WITNESSED BY
MUD .         GEL                  : Mud_type     - MUD TYPE
MATR.         SANDSTONE            : Logunit      - NEUTRON MATRIX
TMAX.C        28                   : BHT          - MAXIMUM RECORDED TEMPERATURE
BHTD.M        606                  : BHTDEP       - MAXIMUM RECORDED TEMPERATURE
RMT .C        4                    : MDTP         - TEMPERATURE OF MUD
MUDD.KG/M     1090                 : MWT          - MUD DENSITY
NEUT.         1                    : NEUTRON      - NEUTRON TYPE
RESI.         0                    : RESIST       - RESISTIVITY TYPE
RM  .OHMM     0.24                 : RM           - RESISTIVITY OF MUD
RMC .OHMM     0.24                 : RMC          - RESISTIVITY OF MUD CAKE
RMF .OHMM     0.24                 : RMF          - RESISTIVITY OF MUD FILTRATE
SUFT.C        4                    : SUFT         - SURFACE TEMPERATURE
~A  DEPTH       GR     RESD     PHIN     PHID
# ...
  432.000   82.434    4.263    0.505    0.286
  432.250   86.693    3.950    0.496    0.283
  432.500   87.884    3.945    0.487    0.276
  432.750   87.864    4.018    0.466    0.274
  433.000   87.225    4.328    0.436    0.270
  433.250   86.586    4.492    0.462    0.266
  433.500   87.770    4.662    0.486    0.269
  433.750   88.974    4.748    0.503    0.270
  434.000   90.791    4.744    0.510    0.274
  434.250   92.601    4.741    0.479    0.279
  434.500   93.186    4.649    0.452    0.294
  434.750   93.139    4.646    0.446    0.301
  435.000   92.514    4.912    0.435    0.293
  435.250   89.419    5.195    0.434    0.287
  435.500   82.666    5.924    0.439    0.280
  435.750   76.517    7.014    0.444    0.288
  436.000   72.811    7.848    0.450    0.334
  436.250   74.627    8.146    0.457    0.350
  436.500   76.437    8.453    0.464    0.359
  436.750   75.798    7.980    0.468    0.353
  437.000   76.384    7.122    0.473    0.343
  437.250   80.635    6.005    0.486    0.336
  437.500   81.840    4.969    0.525    0.323
  437.750   86.091    4.035    0.538    0.308
  438.000   90.969    3.096    0.529    0.302
  438.250   95.832    2.609    0.516    0.297
  438.500   97.642    2.559    0.518    0.288
  438.750   99.452    2.557    0.518    0.284
  439.000  101.874    2.704    0.513    0.294
  439.250  103.071    2.860    0.509    0.293
  439.500  103.657    3.386    0.508    0.291
  439.750  103.637    3.580    0.516    0.291
  440.000  101.767    3.645    0.524    0.296
  440.250  101.135    3.644    0.524    0.300
  440.500   99.884    3.641    0.525    0.302
  440.750  100.462    3.638    0.528    0.302
  441.000  103.503    3.567    0.533    0.297
  441.250  107.755    3.433    0.539    0.292
  441.500  112.013    3.366    0.535    0.291
  441.750  113.217    3.239    0.521    0.289
  442.000  112.579    3.116    0.525    0.286
  442.250  108.267    3.057    0.529    0.290
  442.500  105.166    2.998    0.528    0.294
  442.750  105.758    2.884    0.524    0.289
  443.000  111.241    2.881    0.515    0.272
  443.250  114.275    2.990    0.510    0.269
  443.500  111.799    3.282    0.515    0.270
  443.750  109.936    3.538    0.518    0.273
  444.000  111.127    3.813    0.511    0.275
  444.250  112.318    4.265    0.506    0.277
  444.500  112.305    4.426    0.495    0.278
  444.750  110.435    4.593    0.490    0.275
  445.000  108.572    4.678    0.486    0.278
  445.250  106.090    4.762    0.476    0.282
  445.500  104.852    4.851    0.469    0.277
  445.750  101.764    4.846    0.460    0.272
  446.000   99.289    4.752    0.459    0.277
  446.250   98.650    4.750    0.487    0.281
  446.500   98.610    4.570    0.498    0.285
  446.750   97.366    4.482    0.515    0.286
  447.000   96.121    4.311    0.534    0.290
  447.250   92.415    4.309    0.536    0.295
  447.500   88.709    4.306    0.521    0.304
  447.750   89.287    4.384    0.507    0.305
  448.000   89.879    4.380    0.496    0.300
  448.250   89.859    4.378    0.486    0.300
  448.500   88.602    4.374    0.478    0.307
  448.750   85.514    4.372    0.510    0.312
  449.000   82.433    4.206    0.516    0.303
  449.250   84.855    4.204    0.518    0.299
  449.500   90.950    4.200    0.501    0.304
  449.750   95.208    4.276    0.484    0.306
  450.000   98.242    4.193    0.486    0.311
  450.250   99.440    4.112    0.491    0.321
  450.500   98.801    4.032    0.497    0.330
  450.750   95.102    3.954    0.505    0.336
  451.000   90.790    3.877    0.511    0.342
  451.250   87.702    3.874    0.512    0.327
  451.500   86.451    3.944    0.503    0.315
  451.750   89.485    3.942    0.492    0.307
  452.000   93.118    3.939    0.492    0.307
  452.250   94.941    3.937    0.498    0.336
  452.500   95.526    3.859    0.502    0.343
  452.750   95.486    3.784    0.508    0.349
  453.000   95.466    3.782    0.514    0.327
  453.250   95.446    3.639    0.514    0.316
  453.500   96.637    3.569    0.514    0.301
  453.750   98.440    3.499    0.515    0.294
  454.000   98.413    3.497    0.519    0.298
  454.250   97.162    3.429    0.548    0.303
  454.500   95.918    3.425    0.571    0.312
  454.750   98.952    3.359    0.563    0.309
  455.000  103.211    3.356    0.552    0.299
  455.250  108.081    3.291    0.543    0.284
  455.500  111.721    3.228    0.533    0.278
  455.750  112.313    3.164    0.526    0.273
  456.000  113.510    3.103    0.518    0.268
  456.250  114.089    3.042    0.508    0.259
  456.500  114.069    2.984    0.502    0.245
  456.750  113.430    2.982    0.495    0.228
  457.000  113.403    2.924    0.502    0.228
  457.250  113.982    2.922    0.506    0.249
  457.500  115.186    2.920    0.512    0.264
  457.750  117.602    2.918    0.516    0.269
  458.000  119.405    2.916    0.517    0.294
  458.250  120.003    2.968    0.521    0.297
  458.500  121.201    3.022    0.519    0.291
  458.750  122.392    3.137    0.495    0.286
  459.000  122.971    3.380    0.471    0.284
  459.250  122.345    3.575    0.459    0.282
  459.500  119.863    3.925    0.443    0.283
  459.750  116.170    4.311    0.425    0.275
  460.000  111.239    4.824    0.423    0.273
  460.250  112.444    5.398    0.423    0.262
  460.500  113.641    6.154    0.420    0.251
  460.750  113.002    6.631    0.418    0.252
  461.000  110.520    6.881    0.413    0.255
  461.250  108.651    7.008    0.421    0.259
  461.500  106.787    7.271    0.437    0.264
  461.750  105.530    7.267    0.446    0.264
  462.000  103.068    7.260    0.452    0.262
  462.250   97.531    7.118    0.456    0.263
  462.500   93.832    6.851    0.449    0.266
  462.750   96.866    6.468    0.430    0.274
  463.000  102.961    6.224    0.419    0.281
  463.250  104.770    6.103    0.422    0.271
  463.500  104.132    6.097    0.420    0.266
  463.750  102.867    6.093    0.419    0.267
  464.000  102.242    6.090    0.420    0.267
  464.250  102.201    6.085    0.419    0.266
  464.500  102.181    5.965    0.414    0.262
  464.750  102.155    5.962    0.409    0.262
  465.000  102.128    5.958    0.400    0.264
  465.250  102.101    5.954    0.398    0.265
  465.500  101.456    6.063    0.403    0.267
  465.750  100.218    6.289    0.410    0.269
  466.000   95.281    6.407    0.414    0.273
  466.250   93.424    6.648    0.432    0.274
  466.500   94.003    6.643    0.437    0.275
  466.750   96.418    6.637    0.446    0.275
  467.000   97.622    6.267    0.452    0.274
  467.250   99.432    5.917    0.459    0.277
  467.500  100.011    5.803    0.451    0.278
  467.750   99.998    5.689    0.430    0.281
  468.000  100.570    5.685    0.416    0.282
  468.250  101.168    5.574    0.412    0.281
  468.500  101.754    5.572    0.417    0.277
  468.750  102.938    5.674    0.422    0.272
  469.000  103.537    5.999    0.425    0.276
  469.250  105.340    6.109    0.431    0.281
  469.500  106.537    5.769    0.445    0.281
  469.750  106.511    5.244    0.453    0.280
  470.000  105.266    4.952    0.442    0.277
  470.250  104.015    4.588    0.448    0.272
  470.500  103.376    4.500    0.454    0.256
  470.750  103.350    4.412    0.449    0.231
  471.000  103.323    4.409    0.424    0.209
  471.250  102.671    4.663    0.408    0.194
  471.500  102.651    5.025    0.432    0.218
  471.750  102.624    5.518    0.437    0.244
  472.000  100.761    5.833    0.437    0.274
  472.250   97.061    5.941    0.437    0.283
  472.500   93.361    5.938    0.437    0.283
  472.750   95.777    5.605    0.443    0.286
  473.000   96.981    5.001    0.474    0.288
  473.250   97.566    4.548    0.498    0.294
  473.500   96.914    3.557    0.514    0.314
  473.750   96.288    2.888    0.523    0.316
  474.000   96.874    2.576    0.533    0.309
  474.250   99.908    2.387    0.541    0.307
  474.500  103.554    2.297    0.525    0.307
  474.750  107.194    2.210    0.520    0.310
  475.000  108.398    2.127    0.531    0.315
  475.250  110.201    2.047    0.545    0.318
