~VERSION INFORMATION
 VERS.                 2.0:   CWLS LOG ASCII STANDARD -VERSION 2.0
 WRAP.                  NO:   ONE LINE PER DEPTH STEP
~WELL INFORMATION BLOCK
#MNEM.UNIT           DATA                    DESCRIPTION OF MNEMONIC
#---------    -------------------            -------------------------------
# Generated from Intellog Unique Number	CC_80_83/WELL/2428
NULL.         -999.25                        : NULL_VALUE
WELL.         SHELL HOUSE CREEK OV           : Well_name    - WELL
LOC .         12-11-081-13W4                 : Location     - LOCATION          
UWI .         AA/12-11-081-13W400            : Uwi          - UNIQUE WELL ID    
ENTR.         JHS                            : Entered      - ENTERED BY        
SRVC.         SCHLUMBERGER                   : Scn          - SERVICE COMPANY   
DATE.         01 FEB 75                      : Date         - LOG DATE
STRT.M        335.28                         : top_depth    - START DEPTH       
STOP.M        515.118                        : bot_depth    - STOP DEPTH        
STEP.M        0.305                          : increment    - STEP LENGTH       
~CURVE INFORMATION BLOCK
#MNEM UNIT       ERCB CURVE CODE    CURVE DESCRIPTION
#-----------   ------------------   ----------------------------------
DEPT.M        00 001 00 00         : DEPTH        - DEPTH                       
DPHI.V/V      00 890 00 00         : PHID         - DENSITY POROSITY (LIMESTONE)
NPHI.V/V      00 330 00 00         : PHIN         - NEUTRON POROSITY (LIMESTONE)
GR  .API      00 310 00 00         : GR           - GAMMA RAY                   
ILD .OHMM     00 120 00 00         : RESD         - DEEP RESISTIVITY (DIL)      
~PARAMETER INFORMATION       
#MNEM.UNIT           DATA             DESCRIPTION OF MNEMONIC
#---------         -----------     ------------------------------
GL  .M        706.831              : gl           - GROUND LEVEL ELEVATION      
EREF.M        710.946              : kb           - ELEVATION OF DEPTH REFERENCE
DATM.M        710.946              : datum        - DATUM ELEVATION             
TDD .M        516.331              : tdd          - TOTAL DEPTH DRILLER         
RUN .         ONE                  : Run          - RUN NUMBER                  
ENG .         BILL                 : Engineer     - RECORDING ENGINEER          
WIT .         JIM                  : Witness      - WITNESSED BY                
MUD .         GEL                  : Mud_type     - MUD TYPE                    
MATR.         LIMESTONE            : Logunit      - NEUTRON MATRIX              
TMAX.C        23.3333              : BHT          - MAXIMUM RECORDED TEMPERATURE
BHTD.M        516.331              : BHTDEP       - MAXIMUM RECORDED TEMPERATURE
MATR.         1                    : LOGUNIT      - NEUTRON MATRIX              
RMT .C        25                   : MDTP         - TEMPERATURE OF MUD          
NEUT.         1                    : NEUTRON      - NEUTRON TYPE                
RESI.         0                    : RESIST       - RESISTIVITY TYPE            
RMC .OHMM     0.25                 : RMC          - RESISTIVITY OF MUD CAKE     
RMF .OHMM     0.25                 : RMF          - RESISTIVITY OF MUD FILTRATE 
SUFT.C        15                   : SUFT         - SURFACE TEMPERATURE         
~A  DEPTH     PHID     PHIN       GR     RESD
# ...
  441.354    0.105    0.358   90.038    5.108
  441.659    0.196    0.423   96.846    5.016
  441.963    0.230    0.449   99.653    5.400
  442.268    0.239    0.468  103.659    5.303
  442.573    0.244    0.476  109.666    4.837
  442.878    0.255    0.462  107.674    4.928
  443.183    0.246    0.463  100.880    5.209
  443.487    0.251    0.493  105.287    5.713
  443.792    0.259    0.483  105.294    5.713
  444.097    0.231    0.459   94.901    5.929
  444.402    0.215    0.474   93.309    6.623
  444.707    0.226    0.451   96.116    6.385
  445.011    0.209    0.440  100.523    4.934
  445.316    0.288    0.434   98.929    4.259
  445.621    0.268    0.514   97.336    3.814
  445.926    0.329    0.498   99.743    3.416
  446.231    0.301    0.458   96.150    3.003
  446.535    0.313    0.491   95.358    2.498
  446.840    0.312    0.547   91.765    1.697
  447.145    0.370    0.575   87.771    1.153
  447.450    0.391    0.555   85.780    1.153
  447.755    0.372    0.563   84.186    1.387
  448.060    0.344    0.585   80.593    1.862
  448.364    0.356    0.554   80.201    2.595
  448.669    0.349    0.493   81.807    3.007
  448.974    0.363    0.444   84.214    3.684
  449.279    0.308    0.410   83.421    3.823
  449.584    0.247    0.446   84.227    3.894
  449.888    0.244    0.452   81.834    4.431
  450.193    0.274    0.436   81.041    5.042
  450.498    0.337    0.474   84.248    2.746
  450.803    0.388    0.553   85.855    2.122
  451.108    0.375    0.541   89.862    2.123
  451.412    0.411    0.525   87.870    2.328
  451.717    0.421    0.514   89.876    2.851
  452.022    0.400    0.521   85.484    3.366
  452.327    0.381    0.543   89.890    3.185
  452.632    0.339    0.537   93.498    2.508
  452.936    0.338    0.553   93.106    2.048
  453.241    0.322    0.545   95.511    2.125
  453.546    0.328    0.523   98.719    2.802
  453.851    0.284    0.493   99.926    2.908
  454.156    0.285    0.478   98.732    2.557
  454.461    0.261    0.482   99.941    2.375
  454.765    0.237    0.497   95.146    2.558
  455.070    0.208    0.478   99.553    3.311
  455.375    0.219    0.524  108.761    3.076
  455.680    0.284    0.548  107.168    2.466
  455.985    0.294    0.532  104.774    2.513
  456.289    0.293    0.508   95.582    2.756
  456.594    0.262    0.503   92.388    2.860
  456.899    0.243    0.473   83.995    3.439
  457.204    0.238    0.461   83.603    4.792
  457.509    0.277    0.510   86.409    4.792
  457.813    0.304    0.475   82.416    5.763
  458.118    0.303    0.439   78.424    5.067
  458.423    0.282    0.445   80.431    4.063
  458.728    0.312    0.471   83.637    5.873
  459.033    0.275    0.446   86.445   10.989
  459.337    0.260    0.432   84.052    9.661
  459.642    0.284    0.433   80.058    7.065
  459.947    0.263    0.430   76.866    7.198
  460.252    0.253    0.398   76.472    8.497
  460.557    0.281    0.464   80.079    5.362
  460.862    0.284    0.503   85.287    4.802
  461.166    0.373    0.526   82.494    5.775
  461.471    0.380    0.506   85.301    5.992
  461.776    0.324    0.461   92.907    7.206
  462.081    0.320    0.465   98.115    6.695
  462.386    0.303    0.465   99.721    7.479
  462.690    0.278    0.434  101.329    8.355
  462.995    0.266    0.461   99.336    7.621
  463.300    0.325    0.458   93.743    9.508
  463.605    0.310    0.386   64.149   15.353
  463.910    0.314    0.334   51.357   14.004
  464.214    0.344    0.352   49.364    7.913
  464.519    0.298    0.397   54.571    7.352
  464.824    0.290    0.391   58.178    9.874
  465.129    0.285    0.398   53.386   14.811
  465.434    0.302    0.394   56.592   29.287
  465.738    0.309    0.391   62.199   30.957
  466.043    0.292    0.442   55.006   22.638
  466.348    0.328    0.416   57.413   33.337
  466.653    0.304    0.410   56.620   39.355
  466.958    0.295    0.405   58.227   29.860
  467.263    0.290    0.385   60.234   33.975
  467.567    0.285    0.391   59.441   41.614
  467.872    0.292    0.439   52.648   22.663
  468.177    0.298    0.419   48.255   32.166
  468.482    0.305    0.396   51.862   62.445
  468.787    0.323    0.402   64.669   66.004
  469.091    0.290    0.428   63.877   22.266
  469.396    0.344    0.440   57.483   22.684
  469.701    0.286    0.434   60.690   27.786
  470.006    0.292    0.462   50.297   31.615
  470.311    0.321    0.411   49.504   71.118
  470.615    0.328    0.390   57.911   99.097
  470.920    0.310    0.419   65.118   32.819
  471.225    0.289    0.414   61.125   24.001
  471.530    0.312    0.426   62.332   29.943
  471.835    0.317    0.450   84.339   37.358
  472.139    0.321    0.508   94.346    7.252
  472.444    0.352    0.594   95.954    2.996
  472.749    0.368    0.612  100.360    2.586
  473.054    0.390    0.590  108.767    2.447
  473.359    0.316    0.572  109.974    2.684
  473.664    0.254    0.563  108.781    3.474
  473.968    0.262    0.539  103.588    3.881
  474.273    0.240    0.499   94.395    4.178
  474.578    0.269    0.472   88.402    5.310
  474.883    0.277    0.442   84.809    7.677
  475.188    0.260    0.446   64.816    8.735
  475.492    0.293    0.423   61.623   16.344
  475.797    0.299    0.391   67.630   20.391
  476.102    0.277    0.377   88.437   14.911
  476.407    0.269    0.396   96.444   11.524
  476.712    0.253    0.401  101.251    9.587
  477.016    0.233    0.387  105.658    7.975
  477.321    0.225    0.393  112.465    7.142
  477.626    0.231    0.408  118.472    6.760
  477.931    0.208    0.417  118.078    6.053
  478.236    0.213    0.444   99.286    5.944
  478.540    0.202    0.410   90.493    9.597
  478.845    0.165    0.385   89.700   14.936
  479.150    0.174    0.394   91.707   13.624
  479.455    0.248    0.387   96.514   12.659
  479.760    0.242    0.397  100.521   11.547
  480.065    0.247    0.439   98.529   11.339
  480.369    0.238    0.449   98.135   12.902
  480.674    0.248    0.428   98.942   13.891
  480.979    0.248    0.397   95.749   14.683
  481.284    0.256    0.381   90.956   11.347
  481.589    0.241    0.365   88.963   10.162
  481.893    0.230    0.387   93.370    9.796
  482.198    0.215    0.401   90.978    8.455
  482.503    0.209    0.382   90.185    8.151
  482.808    0.189    0.400   90.592    8.458
  483.113    0.184    0.394   92.198    7.575
  483.417    0.208    0.405   96.205    6.783
  483.722    0.224    0.394   95.413    6.420
  484.027    0.203    0.370   89.820    6.912
  484.332    0.205    0.391   85.427    8.011
  484.637    0.190    0.389   81.433    7.723
  484.941    0.220    0.406   76.641    6.790
  485.246    0.243    0.389   73.447    7.177
  485.551    0.253    0.397   67.054    8.630
  485.856    0.262    0.376   62.261   10.003
  486.161    0.245    0.377   61.869   11.593
  486.466    0.259    0.402   59.875   18.377
  486.770    0.271    0.415   55.882   19.786
  487.075    0.284    0.428   55.890   15.865
  487.380    0.308    0.418   65.096   18.052
  487.685    0.302    0.422   69.903   23.801
  487.990    0.298    0.430   69.911   27.083
  488.294    0.283    0.414   70.718   30.253
  488.599    0.275    0.396   74.325   30.821
  488.904    0.263    0.408   78.331   23.384
  489.209    0.261    0.367   83.138   18.750
  489.514    0.241    0.350   87.545   16.485
  489.818    0.234    0.363   88.752   15.602
  490.123    0.237    0.395   87.959   15.895
  490.428    0.252    0.381   91.567   16.494
  490.733    0.235    0.380   94.773   15.046
  491.038    0.228    0.377   97.580   12.064
  491.342    0.211    0.352   96.388   10.223
  491.647    0.199    0.355   93.994    8.823
  491.952    0.254    0.362   87.201    7.902
  492.257    0.301    0.380   78.808    7.617
  492.562    0.309    0.397   77.215   13.737
  492.867    0.295    0.408   78.023   20.605
  493.171    0.277    0.399   90.829   21.780
  493.476    0.264    0.385  105.636   14.526
  493.781    0.273    0.399  112.843   11.435
  494.086    0.278    0.395  114.051   10.624
