~VERSION INFORMATION
 VERS.                 2.0:   CWLS LOG ASCII STANDARD -VERSION 2.0
 WRAP.                  NO:   ONE LINE PER DEPTH STEP
~WELL INFORMATION BLOCK
#MNEM.UNIT           DATA                    DESCRIPTION OF MNEMONIC
#---------    -------------------            -------------------------------
# Generated from Intellog Unique Number	CC_80_83/WELL/2427
NULL.         -999.25                        : NULL_VALUE
WELL.         ARCO ACI McMURRAY              : Well_name    - WELL              
LOC .         12-08-083-12W4                 : Location     - LOCATION          
UWI .         AA/12-08-083-12W400            : Uwi          - UNIQUE WELL ID    
ENTR.         DW                             : Entered      - ENTERED BY        
SRVC.         SCHLUMBERGER                   : Scn          - SERVICE COMPANY   
DATE.         06 MAR 74                      : Date         - LOG DATE
STRT.M        121.92                         : top_depth    - START DEPTH       
STOP.M        384.05                         : bot_depth    - STOP DEPTH        
STEP.M        0.305                          : increment    - STEP LENGTH       
~CURVE INFORMATION BLOCK
#MNEM UNIT       ERCB CURVE CODE    CURVE DESCRIPTION
#-----------   ------------------   ----------------------------------
DEPT.M        00 001 00 00         : DEPTH        - DEPTH                       
DPHI.V/V      00 890 00 00         : PHID         - DENSITY POROSITY (LIMESTONE)
GR  .API      00 310 00 00         : GR           - GAMMA RAY                   
NPHI.V/V      00 330 00 00         : PHIN         - NEUTRON POROSITY (LIMESTONE)
ILD .OHMM     00 120 00 00         : RESD         - DEEP RESISTIVITY (DIL)      
~PARAMETER INFORMATION       
#MNEM.UNIT           DATA             DESCRIPTION OF MNEMONIC
#---------         -----------     ------------------------------
GL  .M        611.734              : gl           - GROUND LEVEL ELEVATION      
EREF.M        613.41               : kb           - ELEVATION OF DEPTH REFERENCE
DATM.M        613.41               : datum        - DATUM ELEVATION             
TDD .M        384.658              : tdd          - TOTAL DEPTH DRILLER         
RUN .         ONE                  : Run          - RUN NUMBER                  
ENG .         BILL                 : Engineer     - RECORDING ENGINEER          
WIT .         JIM                  : Witness      - WITNESSED BY                
MUD .         GEL                  : Mud_type     - MUD TYPE                    
MATR.         LIMESTONE            : Logunit      - NEUTRON MATRIX              
TMAX.C        21.1111              : BHT          - MAXIMUM RECORDED TEMPERATURE
BHTD.M        384.658              : BHTDEP       - MAXIMUM RECORDED TEMPERATURE
MATR.         1                    : LOGUNIT      - NEUTRON MATRIX              
RMT .C        25                   : MDTP         - TEMPERATURE OF MUD          
NEUT.         0                    : NEUTRON      - NEUTRON TYPE                
RESI.         0                    : RESIST       - RESISTIVITY TYPE            
RMC .OHMM     0.25                 : RMC          - RESISTIVITY OF MUD CAKE     
RMF .OHMM     0.25                 : RMF          - RESISTIVITY OF MUD FILTRATE 
SUFT.C        4                    : SUFT         - SURFACE TEMPERATURE         
~A  DEPTH     PHID       GR     PHIN     RESD
# ...
  334.061    0.296   66.260    0.355    8.749
  334.366    0.303   53.658    0.309    9.969
  334.671    0.284   54.065    0.292   11.149
  334.975    0.267   60.569    0.283   12.241
  335.280    0.272   52.439    0.274   12.245
  335.585    0.278   47.154    0.263   12.248
  335.890    0.269   51.626    0.259   11.806
  336.195    0.257   62.195    0.286   11.168
  336.499    0.262   58.943    0.273   10.178
  336.804    0.270   56.504    0.278    9.106
  337.109    0.274   63.008    0.290    8.147
  337.414    0.262   75.610    0.314    7.852
  337.719    0.241   82.114    0.301    8.001
  338.023    0.229   76.829    0.297    8.784
  338.328    0.227   76.829    0.290   10.197
  338.633    0.250   81.707    0.286   12.059
  338.938    0.272   85.772    0.287   12.755
  339.243    0.270   86.179    0.289   13.492
  339.547    0.275   79.268    0.292   15.373
  339.852    0.292   41.057    0.276   19.585
  340.157    0.290   42.276    0.282   24.491
  340.462    0.285   45.122    0.288   36.208
  340.767    0.327   48.781    0.291   49.692
  341.072    0.322   49.187    0.281   51.591
  341.376    0.315   51.219    0.257   44.475
  341.681    0.292   54.878    0.246   34.284
  341.986    0.252   60.976    0.239   23.640
  342.291    0.217   67.886    0.239   17.235
  342.596    0.222   69.512    0.243   14.316
  342.900    0.239   74.390    0.252   13.292
  343.205    0.236   75.610    0.258   12.810
  343.510    0.233   73.171    0.272   13.550
  343.815    0.241   63.415    0.284   15.730
  344.120    0.269   58.130    0.276   18.259
  344.424    0.262   58.537    0.264   22.411
  344.729    0.272   67.886    0.218   25.068
  345.034    0.255   71.138    0.214   24.159
  345.339    0.219   67.073    0.229   21.215
  345.644    0.229   60.976    0.246   19.338
  345.948    0.250   56.911    0.254   18.986
  346.253    0.272   51.626    0.258   21.234
  346.558    0.328   42.683    0.257   25.585
  346.863    0.330   51.219    0.273   24.657
  347.168    0.291   53.658    0.303   20.478
  347.473    0.295   46.748    0.315   15.496
  347.777    0.331   42.276    0.287   14.389
  348.082    0.303   46.748    0.297   14.940
  348.387    0.316   35.366    0.307   19.754
  348.692    0.328   34.146    0.295   29.204
  348.997    0.335   35.366    0.320   56.023
  349.301    0.343   35.366    0.325   60.370
  349.606    0.347   38.211    0.336   60.387
  349.911    0.327   39.837    0.307   56.075
  350.216    0.318   39.024    0.311   53.048
  350.521    0.322   38.618    0.322   48.350
  350.825    0.331   42.683    0.335   43.256
  351.130    0.315   50.000    0.323   32.130
  351.435    0.285   58.537    0.314   20.952
  351.740    0.246   54.065    0.270   17.402
  352.045    0.269   48.781    0.285   17.085
  352.349    0.291   51.219    0.263   20.207
  352.654    0.282   55.691    0.269   20.978
  352.959    0.267   58.943    0.279   19.847
  353.264    0.248   61.789    0.281   18.428
  353.569    0.244   67.073    0.275   14.746
  353.874    0.241   71.138    0.278   12.950
  354.178    0.253   78.455    0.267   12.479
  354.483    0.257   79.268    0.264   12.254
  354.788    0.272   76.829    0.287   13.204
  355.093    0.276   69.106    0.304   16.208
  355.398    0.262   51.626    0.260   19.527
  355.702    0.234   53.252    0.210   23.969
  356.007    0.112   57.317    0.198   24.431
  356.312    0.192   65.447    0.223   23.543
  356.617    0.247   73.171    0.268   21.460
  356.922    0.275   71.545    0.268   19.926
  357.226    0.273   73.171    0.250   18.161
  357.531    0.259   72.358    0.245   16.864
  357.836    0.251   66.260    0.247   15.953
  358.141    0.235   61.789    0.238   15.665
  358.446    0.219   58.943    0.237   15.381
  358.750    0.213   58.943    0.241   15.386
  359.055    0.219   62.195    0.251   14.828
  359.360    0.240   66.260    0.251   14.290
  359.665    0.256   68.293    0.255   13.773
  359.970    0.236   71.545    0.255   13.276
  360.275    0.221   72.764    0.253   13.035
  360.579    0.208   69.106    0.250   13.038
  360.884    0.210   63.821    0.253   13.043
  361.189    0.204   56.504    0.252   13.045
  361.494    0.238   58.537    0.247   13.799
  361.799    0.238   64.634    0.229   14.062
  362.103    0.224   67.886    0.224   14.600
  362.408    0.210   57.724    0.229   15.157
  362.713    0.199   58.943    0.218   15.447
  363.018    0.192   60.163    0.225   15.741
  363.323    0.244   59.756    0.235   15.745
  363.627    0.252   62.602    0.240   15.175
  363.932    0.234   66.260    0.241   14.356
  364.237    0.210   65.854    0.245   13.086
  364.542    0.204   66.260    0.253   12.151
  364.847    0.215   66.667    0.260   11.930
  365.151    0.235   64.228    0.259   13.344
  365.456    0.269   59.350    0.264   15.489
  365.761    0.299   58.537    0.289   17.979
  366.066    0.301   59.756    0.314   19.375
  366.371    0.286   61.789    0.305   17.660
  366.676    0.264   70.325    0.255   15.799
  366.980    0.215   76.423    0.246   13.618
  367.285    0.208   79.675    0.262   11.961
  367.590    0.200   76.016    0.248   11.526
  367.895    0.182   71.545    0.252   10.705
  368.200    0.165   77.236    0.232   10.707
  368.504    0.166   76.829    0.221   10.710
  368.809    0.184   72.358    0.228   10.915
  369.114    0.210   68.293    0.243   11.122
  369.419    0.221   60.569    0.271   12.439
  369.724    0.238   52.439    0.307   13.656
  370.028    0.279   57.317    0.304   14.444
  370.333    0.269   62.602    0.268   14.183
  370.638    0.247   68.699    0.264   13.170
  370.943    0.228   74.797    0.296   11.566
  371.248    0.219   68.699    0.283   10.740
  371.552    0.211   58.537    0.271   10.944
  371.857    0.201   58.943    0.286   12.015
  372.162    0.179   74.797    0.274   12.947
  372.467    0.177   84.146    0.251   12.951
  372.772    0.208   87.398    0.261   11.805
  373.077    0.195   90.650    0.259   10.961
  373.381    0.176   89.024    0.269    9.807
  373.686    0.177   80.488    0.284    9.278
  373.991    0.213   81.301    0.267    9.455
  374.296    0.227   88.211    0.280    9.816
  374.601    0.216   76.829    0.266   10.577
  374.905    0.215   79.675    0.259   11.613
  375.210    0.215   84.553    0.253   11.834
  375.515    0.222   82.114    0.258   11.836
  375.820    0.224   80.488    0.270   11.622
  376.125    0.225   80.081    0.273   10.792
  376.429    0.219   79.675    0.278   10.210
  376.734    0.217   71.138    0.286    9.840
  377.039    0.265   68.293    0.270    9.843
  377.344    0.257   73.984    0.243   10.219
  377.649    0.232   84.146    0.241   10.809
  377.953    0.205   88.211    0.261   11.433
  378.258    0.196   79.268    0.248   11.651
  378.563    0.194   80.894    0.232   11.022
  378.868    0.192   75.610    0.226   10.624
  379.173    0.193   71.138    0.217   10.625
  379.478    0.201   50.000    0.243   10.829
  379.782    0.195   19.919    0.250   12.111
  380.087    0.176   13.821    0.236   16.015
  380.392    0.150   11.382    0.216   21.175
  380.697    0.125   10.569    0.134   29.061
  381.002    0.113   10.163    0.124   35.670
  381.306    0.093   10.163    0.125   44.608
  381.611    0.088   10.163    0.129   44.626
  381.916    0.101   10.976    0.130   44.639
  382.221    0.112   11.382    0.128   43.020
  382.526    0.121   11.789    0.127   39.950
  382.830    0.121   12.195    0.129   39.963
  383.135    0.118   12.602    0.130   39.969
  383.440    0.114   13.008    0.131   39.985
  383.745    0.114   13.008    0.132   40.746
  384.050    0.130   13.008    0.135   42.303
