~VERSION INFORMATION
 VERS.                 2.0:   CWLS LOG ASCII STANDARD -VERSION 2.0
 WRAP.                  NO:   ONE LINE PER DEPTH STEP
~WELL INFORMATION BLOCK
#MNEM.UNIT           DATA                    DESCRIPTION OF MNEMONIC
#---------    -------------------            -------------------------------
# Generated from Intellog Unique Number	CC_80_83/WELL/2381
COMP.         PETRO CANADA                   : COMPANY
WELL.         PEX PCEL CHARD OV              : WELL NAME
LOC .         10-29-080-07W4                 : Location     - LOCATION
UWI .         AA/10-29-080-07W400            : Uwi          - UNIQUE WELL ID
ENTR.         DW                             : Entered      - ENTERED BY
SRVC.         SCHLUMBERGER                   : Scn          - SERVICE COMPANY
STRT.M        175                            : top_depth    - START DEPTH
STOP.M        420.094                        : bot_depth    - STOP DEPTH
STEP.M        0.3                            : increment    - STEP LENGTH
 NULL. -999.2500:NULL Value
~CURVE INFORMATION BLOCK
#MNEM UNIT       ERCB CURVE CODE    CURVE DESCRIPTION
#-----------   ------------------   ----------------------------------
DEPT.M        00 001 00 00         : DEPTH        - DEPTH
DPHI.V/V      00 890 00 00         : PHID         - DENSITY POROSITY (LIMESTONE)
NPHI.V/V      00 330 00 00         : PHIN         - NEUTRON POROSITY (LIMESTONE)
GR  .API      00 310 00 00         : GR           - GAMMA RAY
ILD .OHMM     00 120 00 00         : RESD         - DEEP RESISTIVITY (DIL)
~PARAMETER INFORMATION
#MNEM.UNIT           DATA             DESCRIPTION OF MNEMONIC
#---------         -----------     ------------------------------
GL  .M        625.45               : gl           - GROUND LEVEL ELEVATION
EREF.M        629.1                : kb           - ELEVATION OF DEPTH REFERENCE
DATM.M        629.1                : datum        - DATUM ELEVATION
TDD .M        426                  : tdd          - TOTAL DEPTH DRILLER
RUN .         ONE                  : Run          - RUN NUMBER
ENG .         BILL                 : Engineer     - RECORDING ENGINEER
WIT .         JIM                  : Witness      - WITNESSED BY
MUD .         GEL                  : Mud_type     - MUD TYPE
MATR.         LIMESTONE            : Logunit      - NEUTRON MATRIX
TMAX.C        16                   : BHT          - MAXIMUM RECORDED TEMPERATURE
BHTD.M        426                  : BHTDEP       - MAXIMUM RECORDED TEMPERATURE
MATR.         1                    : LOGUNIT      - NEUTRON MATRIX
RMT .C        25                   : MDTP         - TEMPERATURE OF MUD
NEUT.         1                    : NEUTRON      - NEUTRON TYPE
RESI.         0                    : RESIST       - RESISTIVITY TYPE
RMC .OHMM     0.25                 : RMC          - RESISTIVITY OF MUD CAKE
RMF .OHMM     0.25                 : RMF          - RESISTIVITY OF MUD FILTRATE
SUFT.C        4                    : SUFT         - SURFACE TEMPERATURE
~A  DEPTH     PHID     PHIN       GR     RESD
# ...
  279.400    0.301    0.438   97.304    7.893
  279.700    0.296    0.448   97.888    5.937
  280.000    0.262    0.457  115.339    3.909
  280.300    0.221    0.479  127.166    2.777
  280.600    0.223    0.528  137.744    2.780
  280.900    0.236    0.498  136.447    2.890
  281.200    0.257    0.511  116.413    3.368
  281.500    0.269    0.525  110.120    4.400
  281.800    0.283    0.516  116.953    4.752
  282.100    0.275    0.533  119.406    4.578
  282.400    0.260    0.525  126.234    4.245
  282.700    0.256    0.503  122.440    3.937
  283.000    0.261    0.523  125.518    3.584
  283.300    0.276    0.548  126.732    3.518
  283.600    0.280    0.499  106.690    3.728
  283.900    0.310    0.505  114.144    4.182
  284.200    0.298    0.524  112.853    4.691
  284.500    0.253    0.477  102.190    5.364
  284.800    0.247    0.461  105.890    5.169
  285.100    0.228    0.503  123.971    4.885
  285.400    0.233    0.542  122.676    3.891
  285.700    0.247    0.554  131.383    3.408
  286.000    0.272    0.591  134.463    3.411
  286.300    0.273    0.602  119.419    3.684
  286.600    0.254    0.558  118.127    4.055
  286.900    0.254    0.534  113.084    4.296
  287.200    0.246    0.567  122.413    4.139
  287.500    0.245    0.601  127.366    3.695
  287.800    0.249    0.586  126.075    3.237
  288.100    0.258    0.548  118.529    3.060
  288.400    0.274    0.528  104.119    3.005
  288.699    0.288    0.506  112.827    3.065
  288.999    0.300    0.524  114.032    3.310
  289.299    0.307    0.544  119.613    3.714
  289.599    0.299    0.524  115.194    3.935
  289.899    0.279    0.501  100.774    4.331
  290.199    0.283    0.465  103.227    4.952
  290.499    0.286    0.428  110.063    6.110
  290.799    0.277    0.409  114.393    7.539
  291.099    0.242    0.422  114.975    8.786
  291.399    0.236    0.442  113.678    9.133
  291.699    0.239    0.453  114.257    8.002
  291.999    0.246    0.438  104.844    7.564
  292.299    0.261    0.452  104.800    7.714
  292.599    0.257    0.443  104.137    8.174
  292.899    0.253    0.390  102.212    8.827
  293.199    0.253    0.410  103.424    9.177
  293.499    0.252    0.400   99.008    9.541
  293.799    0.251    0.399  102.713    9.733
  294.099    0.246    0.425   97.044    9.930
  294.399    0.245    0.415  103.873    9.936
  294.699    0.247    0.415  107.578    9.946
  294.999    0.252    0.413  106.910   10.142
  295.299    0.252    0.415   90.619   10.547
  295.599    0.254    0.412   87.456   10.962
  295.899    0.253    0.392   91.154   11.182
  296.199    0.255    0.397   89.865   11.406
  296.499    0.258    0.407   84.825   11.199
  296.799    0.262    0.398   92.278   10.997
  297.099    0.257    0.408  105.357   10.596
  297.399    0.249    0.407  111.555   10.208
  297.699    0.247    0.388  105.267    9.834
  297.999    0.249    0.378  108.976    9.297
  298.299    0.253    0.399  114.548    8.790
  298.599    0.253    0.413  116.375    8.629
  298.899    0.246    0.403  116.333    8.311
  299.199    0.239    0.423  113.800    8.007
  299.499    0.236    0.414  106.875    7.569
  299.799    0.234    0.411   99.339    7.020
  300.099    0.234    0.416  106.791    6.893
  300.399    0.237    0.418  107.997    6.899
  300.699    0.235    0.423  112.316    7.037
  300.999    0.229    0.448  113.535    7.046
  301.299    0.229    0.463  105.995    7.050
  301.599    0.238    0.448   97.203    7.190
  301.899    0.241    0.437  102.786    7.197
  302.199    0.241    0.444  107.108    7.340
  302.499    0.242    0.471   95.822    7.344
  302.799    0.250    0.459  103.899    7.350
  303.099    0.258    0.474  110.730    7.083
  303.399    0.267    0.456  119.438    6.569
  303.699    0.287    0.466  110.642    6.092
  303.999    0.291    0.500  112.471    5.439
  304.299    0.277    0.529  112.425    4.949
  304.599    0.274    0.521  115.514    4.253
  304.899    0.278    0.553  115.468    3.725
  305.199    0.284    0.513  117.925    3.326
  305.499    0.297    0.530  116.631    3.026
  305.799    0.310    0.506  115.964    3.268
  306.099    0.313    0.495  123.413    4.520
  306.399    0.277    0.482  126.498    6.019
  306.699    0.242    0.415  113.959    7.426
  306.999    0.261    0.398  119.534    9.340
  307.299    0.263    0.390  122.622   10.884
  307.599    0.264    0.383  113.201   10.289
  307.899    0.257    0.368  109.407    9.725
  308.199    0.243    0.361  104.995   10.307
  308.499    0.132    0.348   95.575   10.514
  308.799    0.113    0.326   71.790   10.521
  309.099    0.202    0.270   91.115    9.945
  309.399    0.268    0.316  111.689    8.880
  309.699    0.277    0.482  115.398    8.233
  309.999    0.293    0.512  109.730    7.493
  310.299    0.285    0.541  119.059    6.818
  310.599    0.289    0.473  114.640    6.568
  310.899    0.302    0.484  122.089    6.210
  311.199    0.303    0.500  120.804    6.096
  311.499    0.317    0.516  119.502    5.443
  311.799    0.342    0.517  127.585    4.589
  312.099    0.348    0.568  135.661    3.655
  312.399    0.346    0.623  129.997    2.597
  312.699    0.342    0.623  123.083    2.232
  312.999    0.341    0.586  118.668    2.234
  313.298    0.341    0.578  118.625    2.323
  313.598    0.336    0.563  120.448    2.461
  313.898    0.321    0.509  121.036    2.814
  314.198    0.310    0.511  120.369    3.279
  314.498    0.318    0.491  104.066    3.895
  314.798    0.352    0.466  107.773    4.993
  315.098    0.349    0.460  103.984    5.709
  315.398    0.322    0.457  107.072    6.527
  315.698    0.237    0.430  112.027    7.607
  315.998    0.256    0.404  114.481    8.372
  316.298    0.264    0.388  120.063    9.945
  316.598    0.282    0.378   98.776    9.766
  316.898    0.271    0.381  101.851    8.080
  317.198    0.269    0.388  108.683    7.351
  317.498    0.265    0.398   98.019    6.817
  317.798    0.245    0.413   99.217    7.088
  318.098    0.255    0.417  111.680    7.804
  318.398    0.247    0.407  117.883    8.111
  318.698    0.231    0.397  124.090    8.432
  318.998    0.217    0.389  112.172    9.108
  319.298    0.215    0.384  116.500    9.467
  319.598    0.211    0.380  115.211    9.657
  319.898    0.207    0.392  122.660    9.485
  320.198    0.205    0.404  125.120    9.137
  320.498    0.215    0.414  114.454    8.473
  320.798    0.234    0.463  118.775    7.709
  321.098    0.255    0.468  121.861    6.754
  321.398    0.266    0.459  125.569    6.384
  321.698    0.289    0.443  134.897    6.034
  321.998    0.319    0.482  127.353    5.925
  322.298    0.353    0.471  130.436    5.930
  322.598    0.325    0.475  114.775    6.527
  322.898    0.218    0.409  107.858    7.463
  323.198    0.241    0.389  117.812    9.209
  323.498    0.260    0.405  117.768   10.137
  323.798    0.261    0.429  108.345    9.953
  324.098    0.261    0.420  106.434    8.720
  324.398    0.259    0.424  115.136    7.784
  324.698    0.261    0.440  119.469    6.818
  324.998    0.332    0.506  112.485    5.657
  325.298    0.292    0.532  116.850    5.437
  325.598    0.285    0.544  119.340    5.427
  325.898    0.298    0.509  124.329    5.118
  326.198    0.334    0.516  116.196    4.919
  326.498    0.342    0.488  110.562    4.728
  326.798    0.311    0.415  107.428    5.602
  327.098    0.275    0.393  121.167    7.165
  327.398    0.256    0.399  111.157    8.654
  327.698    0.252    0.406  100.524    9.143
  327.998    0.254    0.415  109.263    8.957
  328.298    0.260    0.428  112.378    8.445
  328.598    0.270    0.419  106.745    7.964
  328.898    0.292    0.414  101.109    7.095
  329.198    0.332    0.424  102.974    5.425
  329.498    0.370    0.511  105.465    4.308
  329.798    0.380    0.477  109.205    3.765
  330.098    0.251    0.449  119.819    3.550
  330.398    0.265    0.425  121.059    3.683
  330.698    0.272    0.400  105.426    4.364
  330.998    0.280    0.398  100.416    6.751
  331.298    0.287    0.361  106.656    7.702
