~VERSION INFORMATION
 VERS.                 2.0:   CWLS LOG ASCII STANDARD -VERSION 2.0
 WRAP.                  NO:   ONE LINE PER DEPTH STEP
~WELL INFORMATION BLOCK
#MNEM.UNIT           DATA                    DESCRIPTION OF MNEMONIC
#---------    -------------------            -------------------------------
# Generated from Intellog Unique Number	CC_80_83/WELL/2335
NULL.         -999.25                        : NULL_VALUE
WELL.         PEX PCEJ CHARD OV              : Well_name    - WELL
LOC .         10-05-081-07W4                 : Location     - LOCATION          
UWI .         AA/10-05-081-07W4/0            : Uwi          - UNIQUE WELL ID    
ENTR.         DW                             : Entered      - ENTERED BY        
SRVC.         SCHLUMBERGER                   : Scn          - SERVICE COMPANY   
DATE.         21 JAN 80                      : Date         - LOG DATE
STRT.M        200                            : top_depth    - START DEPTH       
STOP.M        434.893                        : bot_depth    - STOP DEPTH        
STEP.M        0.3                            : increment    - STEP LENGTH       
~CURVE INFORMATION BLOCK
#MNEM UNIT       ERCB CURVE CODE    CURVE DESCRIPTION
#-----------   ------------------   ----------------------------------
DEPT.M        00 001 00 00         : DEPTH        - DEPTH                       
DPHI.V/V      00 890 00 00         : PHID         - DENSITY POROSITY (LIMESTONE)
NPHI.V/V      00 330 00 00         : PHIN         - NEUTRON POROSITY (LIMESTONE)
GR  .API      00 310 00 00         : GR           - GAMMA RAY                   
ILD .OHMM     00 120 00 00         : RESD         - DEEP RESISTIVITY (DIL)      
~PARAMETER INFORMATION       
#MNEM.UNIT           DATA             DESCRIPTION OF MNEMONIC
#---------         -----------     ------------------------------
GL  .M        604.88               : gl           - GROUND LEVEL ELEVATION      
EREF.M        608.48               : kb           - ELEVATION OF DEPTH REFERENCE
DATM.M        608.48               : datum        - DATUM ELEVATION             
TDD .M        436                  : tdd          - TOTAL DEPTH DRILLER         
RUN .         ONE                  : Run          - RUN NUMBER                  
ENG .         BILL                 : Engineer     - RECORDING ENGINEER          
WIT .         JIM                  : Witness      - WITNESSED BY                
MUD .         GEL                  : Mud_type     - MUD TYPE                    
MATR.         LIMESTONE            : Logunit      - NEUTRON MATRIX              
TMAX.C        19                   : BHT          - MAXIMUM RECORDED TEMPERATURE
BHTD.M        436                  : BHTDEP       - MAXIMUM RECORDED TEMPERATURE
MATR.         1                    : LOGUNIT      - NEUTRON MATRIX              
RMT .C        25                   : MDTP         - TEMPERATURE OF MUD          
NEUT.         1                    : NEUTRON      - NEUTRON TYPE                
RESI.         0                    : RESIST       - RESISTIVITY TYPE            
RMC .OHMM     0.25                 : RMC          - RESISTIVITY OF MUD CAKE     
RMF .OHMM     0.25                 : RMF          - RESISTIVITY OF MUD FILTRATE 
SUFT.C        15                   : SUFT         - SURFACE TEMPERATURE         
~A  DEPTH     PHID     PHIN       GR     RESD
# ...
  356.596    0.232    0.396  116.901    4.990
  356.896    0.234    0.404  109.509    3.375
  357.196    0.240    0.451  100.886    2.749
  357.496    0.258    0.510   97.812    2.282
  357.796    0.290    0.530   91.039    2.198
  358.096    0.296    0.558   84.881    2.457
  358.396    0.295    0.517   99.698    2.697
  358.696    0.292    0.527  100.325    3.248
  358.996    0.286    0.533   96.633    3.912
  359.296    0.263    0.516  106.516    4.625
  359.596    0.246    0.480  102.827    5.570
  359.896    0.241    0.455   99.751    6.464
  360.196    0.230    0.435  103.465    7.363
  360.496    0.203    0.400  107.793    7.784
  360.796    0.192    0.364  109.039    7.091
  361.096    0.205    0.359  103.498    6.460
  361.396    0.208    0.371  108.445    5.669
  361.696    0.212    0.410  109.072    4.976
  361.996    0.226    0.444  113.403    4.705
  362.296    0.231    0.452  113.413    4.207
  362.596    0.228    0.464  108.490    3.978
  362.896    0.227    0.473  104.187    3.832
  363.196    0.226    0.497  103.583    3.622
  363.496    0.226    0.546  102.354    3.622
  363.796    0.227    0.472  109.769    3.690
  364.096    0.232    0.469  114.097    3.689
  364.396    0.235    0.478  111.025    3.973
  364.696    0.235    0.479  115.970    4.124
  364.996    0.235    0.474  120.300    4.442
  365.296    0.233    0.475  119.079    4.525
  365.596    0.235    0.482  115.387    4.696
  365.896    0.244    0.469  116.016    4.964
  366.196    0.244    0.452  120.344    5.550
  366.496    0.242    0.440  109.870    6.810
  366.796    0.230    0.425  102.479    7.474
  367.096    0.215    0.423  100.026    7.612
  367.396    0.180    0.408   98.798    7.471
  367.696    0.086    0.386   85.857    7.469
  367.996    0.170    0.341   97.589    7.609
  368.296    0.220    0.388  105.619    8.506
  368.596    0.231    0.387   95.142    8.994
  368.896    0.247    0.357   73.565    9.161
  369.196    0.261    0.330   69.258    9.331
  369.496    0.243    0.339   81.605    9.158
  369.796    0.231    0.332   81.001    8.659
  370.096    0.231    0.345   83.480    7.322
  370.396    0.239    0.356   92.743    5.641
  370.696    0.246    0.369   87.820    4.428
  370.996    0.254    0.401   84.131    3.226
  371.296    0.257    0.431   89.075    2.994
  371.596    0.257    0.455  104.510    3.107
  371.896    0.256    0.475  109.455    3.606
  372.196    0.256    0.465   98.979    5.231
  372.496    0.261    0.403   84.185    8.177
  372.796    0.262    0.312   60.139   11.645
  373.096    0.235    0.313   81.741   15.393
  373.396    0.238    0.328   78.051   19.244
  373.696    0.269    0.331   50.302   24.058
  373.996    0.284    0.302   52.167   28.976
  374.296    0.270    0.319   57.111   29.515
  374.596    0.262    0.321   56.505   26.390
  374.896    0.257    0.330   69.471   23.162
  375.196    0.246    0.354   78.734   19.585
  375.496    0.230    0.374   91.701   16.872
  375.796    0.233    0.380   94.181   14.808
  376.096    0.239    0.391   91.109   14.265
  376.396    0.242    0.398   96.051   13.488
  376.696    0.234    0.405  109.635   12.287
  376.996    0.219    0.378  105.328   10.987
  377.296    0.208    0.356  124.463    8.950
  377.596    0.196    0.393  130.643    8.622
  377.896    0.194    0.386  132.503    9.461
  378.196    0.198    0.358  139.303   11.186
  378.496    0.211    0.339  139.311   16.230
  378.796    0.221    0.296   95.525   18.485
  379.096    0.215    0.265   88.134   18.481
  379.396    0.212    0.270   83.211   16.836
  379.696    0.242    0.263   79.519   15.626
  379.996    0.227    0.258   97.422   12.969
  380.296    0.209    0.281   98.048   12.037
  380.595    0.199    0.302   89.424    9.990
  380.895    0.193    0.329   95.606    9.272
  381.195    0.206    0.316   97.467    8.931
  381.495    0.212    0.303  104.880    8.930
  381.795    0.213    0.300  101.806    9.267
  382.095    0.208    0.316   91.331   10.555
  382.395    0.187    0.322  105.532   11.583
  382.695    0.180    0.331   98.138   13.692
  382.995    0.179    0.338   98.153   14.477
  383.295    0.176    0.349  100.011   15.024
  383.595    0.177    0.338   85.837   15.022
  383.895    0.204    0.338   82.150   13.941
  384.195    0.220    0.352   85.861   13.182
  384.495    0.215    0.330   92.655   12.698
  384.795    0.194    0.340  117.340   11.353
  385.095    0.189    0.356  108.100   11.142
  385.395    0.188    0.356  111.812   11.140
  385.695    0.181    0.341  115.523   11.348
  385.995    0.171    0.328  113.685   11.777
  386.295    0.165    0.336  108.760   12.684
  386.595    0.186    0.344  113.706   13.163
  386.895    0.194    0.341   95.211   13.161
  387.195    0.200    0.328   97.073   13.159
  387.495    0.199    0.325  106.338   13.157
  387.795    0.193    0.328  102.651   13.156
  388.095    0.193    0.334  102.659   14.983
  388.395    0.207    0.337   90.332   15.843
  388.695    0.227    0.347   77.390   17.386
  388.995    0.234    0.352   86.657   17.709
  389.295    0.232    0.336   92.835   17.380
  389.595    0.230    0.345  104.565   17.703
  389.895    0.221    0.332  123.083   19.069
  390.195    0.213    0.329  119.394   22.966
  390.495    0.212    0.339  100.898   27.662
  390.795    0.281    0.354   73.150   30.356
  391.095    0.279    0.364   70.076   28.173
  391.395    0.263    0.337   91.061   23.823
  391.695    0.234    0.330  120.683   20.523
  391.995    0.212    0.343  121.929   24.262
  392.295    0.204    0.336  118.237   29.222
  392.595    0.216    0.342   94.191   32.067
  392.895    0.264    0.332   85.570   31.471
  393.195    0.257    0.313   87.429   25.165
  393.495    0.258    0.320   84.971   20.502
  393.795    0.230    0.337  136.799   17.016
  394.095    0.207    0.320  152.234   15.793
  394.395    0.208    0.337  152.243   14.932
  394.695    0.217    0.359  147.938   16.387
  394.995    0.211    0.356  143.631   18.320
  395.295    0.198    0.341  135.621   21.659
  395.595    0.208    0.349  135.632   26.576
  395.895    0.246    0.371   85.679   29.163
  396.195    0.268    0.366   85.690   27.574
  396.495    0.259    0.349   91.252   26.073
  396.795    0.237    0.342  115.938   23.311
  397.095    0.231    0.362  101.763   22.457
  397.395    0.223    0.367  126.448   21.234
  397.695    0.218    0.342  125.227   23.300
  397.995    0.224    0.360  108.581   25.098
  398.295    0.237    0.361   95.021   26.537
  398.595    0.254    0.344   87.015   30.222
  398.895    0.263    0.354   81.472   31.364
  399.195    0.261    0.362   69.764   31.950
  399.495    0.263    0.372   66.691   31.943
  399.795    0.265    0.379   69.170   31.941
  400.095    0.296    0.349   47.951   53.829
  400.395    0.294    0.331   52.254   51.876
  400.695    0.291    0.343   51.639   46.404
  400.995    0.292    0.340   65.779   42.291
  401.295    0.298    0.355   62.090   42.304
  401.595    0.287    0.345   63.934   43.922
  401.895    0.271    0.362   70.082   50.057
  402.195    0.286    0.340   51.639   57.042
  402.495    0.297    0.344   41.188   70.032
  402.795    0.301    0.340   43.648   85.981
  403.095    0.305    0.362   51.639   99.821
  403.395    0.310    0.356   41.188  113.766
  403.695    0.311    0.351   34.426  111.694
  403.995    0.312    0.345   39.344   99.920
  404.295    0.310    0.348   35.041   89.375
  404.595    0.302    0.368   42.418   74.214
  404.895    0.299    0.367   50.410   63.955
  405.194    0.299    0.367   52.254   53.102
  405.494    0.295    0.364   55.943   42.480
  405.794    0.280    0.373   59.016   31.542
  406.094    0.266    0.355   65.164   26.191
  406.394    0.255    0.354  102.664   22.573
  406.694    0.264    0.386   94.672   21.350
  406.994    0.257    0.372   83.607   19.458
  407.294    0.227    0.375  117.418   19.104
  407.594    0.223    0.400  110.656   20.975
  407.894    0.234    0.409  100.205   23.904
  408.194    0.247    0.387   97.746   28.805
  408.494    0.285    0.400   64.549   57.397
