~VERSION INFORMATION
 VERS.                 2.0:   CWLS LOG ASCII STANDARD -VERSION 2.0
 WRAP.                  NO:   ONE LINE PER DEPTH STEP
~WELL INFORMATION BLOCK
#MNEM.UNIT           DATA                    DESCRIPTION OF MNEMONIC
#---------    -------------------            -------------------------------
# Generated from Intellog Unique Number	CN_94_101/WELL/5034
WELL.         FRENCH PETROLEUM               : Well_name    - WELL
LOC .         AA/13-16-099-08W4/0            : Location     - LOCATION
UWI .         AA/13-16-099-08W400            : Uwi          - UNIQUE WELL ID
ENTR.         T                              : Entered      - ENTERED BY
SRVC.         SCHLUMBERGER                   : Scn          - SERVICE COMPANY
DATE.         08/17/92                       : Date         - LOG DATE
STRT.M        3.048                          : top_depth    - START DEPTH
STOP.M        91.548                         : bot_depth    - STOP DEPTH
STEP.M        0.25                           : increment    - STEP LENGTH
 NULL. -999.2500:NULL Value
~CURVE INFORMATION BLOCK
#MNEM UNIT       ERCB CURVE CODE    CURVE DESCRIPTION
#-----------   ------------------   ----------------------------------
DEPT.M        00 001 00 00         : DEPTH        - DEPTH
GR  .API      00 310 00 00         : GR           - GAMMA RAY
NPHI.V/V      00 330 00 00         : PHIN         - NEUTRON POROSITY (SANDSTONE)
ILD .OHMM     00 120 00 00         : RESD         - DEEP RESISTIVITY (DIL)
~PARAMETER INFORMATION
#MNEM.UNIT           DATA             DESCRIPTION OF MNEMONIC
#---------         -----------     ------------------------------
GL  .M        299.984              : gl           - GROUND LEVEL ELEVATION
EREF.M        299.984              : kb           - ELEVATION OF DEPTH REFERENCE
DATM.M        299.984              : datum        - DATUM ELEVATION
TDD .M        100.584              : tdd          - TOTAL DEPTH DRILLER
RUN .         ONE                  : Run          - RUN NUMBER
ENG .         BILL                 : Engineer     - RECORDING ENGINEER
WIT .         JIM                  : Witness      - WITNESSED BY
MUD .         GEL                  : Mud_type     - MUD TYPE
MATR.         SANDSTONE            : Logunit      - NEUTRON MATRIX
TMAX.C        17.7778              : BHT          - MAXIMUM RECORDED TEMPERATURE
BHTD.M        100.584              : BHTDEP       - MAXIMUM RECORDED TEMPERATURE
RMT .C        20                   : MDTP         - TEMPERATURE OF MUD
MUDD.KG/M     1030                 : MWT          - MUD DENSITY
NEUT.         1                    : NEUTRON      - NEUTRON TYPE
RESI.         0                    : RESIST       - RESISTIVITY TYPE
RM  .OHMM     12                   : RM           - RESISTIVITY OF MUD
RMC .OHMM     7.4                  : RMC          - RESISTIVITY OF MUD CAKE
RMF .OHMM     10.7                 : RMF          - RESISTIVITY OF MUD FILTRATE
SUFT.C        4                    : SUFT         - SURFACE TEMPERATURE
~A  DEPTH       GR     PHIN     RESD
    3.048   55.437    0.208    3.510
    3.298   54.544    0.233    3.530
    3.548   62.738    0.267    3.902
    3.798   63.662    0.178    4.636
    4.048   56.407    0.163    4.656
    4.298   48.244    0.168    3.967
    4.548   48.263    0.191    3.992
    4.798   51.910    0.227    4.359
    5.048   49.199    0.246    3.670
    5.298   40.130    0.251    4.762
    5.548   34.693    0.219    6.562
    5.798   29.256    0.251   11.225
    6.048   32.906    0.302   30.891
    6.298   47.462    0.320   23.055
    6.548   56.568    0.314   16.290
    6.798   51.131    0.282   15.595
    7.048   46.599    0.230   31.328
    7.298   39.348    0.230   41.352
    7.548   35.728    0.238   44.230
    7.798   39.375    0.248   50.320
    8.048   45.755    0.258   51.055
    8.298   45.767    0.252   61.084
    8.548   36.699    0.240   61.818
    8.798   30.357    0.243   58.976
    9.048   29.459    0.260   49.712
    9.298   31.296    0.275   65.802
    9.548   33.129    0.299   58.322
    9.798   36.779    0.325   47.629
   10.048   40.426    0.336   41.216
   10.298   46.802    0.331   34.808
   10.548   49.547    0.324   35.900
   10.798   43.198    0.310   60.208
   11.048   35.035    0.311   68.090
   11.298   36.867    0.325   74.538
   11.548   39.613    0.339   78.129
   11.798   41.446    0.334   79.578
   12.048   41.469    0.320   74.598
   12.298   39.659    0.307   44.621
   12.548   35.130    0.311   47.850
   12.798   29.697    0.312   56.798
   13.048   26.986    0.312   61.822
   13.298   34.275    0.318   65.770
   13.548   34.283    0.324   71.504
   13.798   34.298    0.318   75.810
   14.048   33.405    0.307   74.044
   14.298   34.329    0.300   70.141
   14.548   37.078    0.297   66.942
   14.798   35.272    0.301   62.677
   15.048   33.470    0.306   56.269
   15.298   29.851    0.317   45.938
   15.548   31.683    0.325   45.596
   15.798   29.881    0.324   48.116
   16.048   28.079    0.327   51.355
   16.298   29.003    0.319   52.084
   16.548   32.653    0.307   54.247
   16.798   33.578    0.302   54.634
   17.048   29.958    0.301   54.644
   17.298   30.882    0.317   53.598
   17.548   22.719    0.329   51.470
   17.798   35.464    0.339   47.562
   18.048   31.840    0.334   44.368
   18.298   26.407    0.340   46.173
   18.548   25.514    0.340   50.836
   18.798   30.073    0.315   58.003
   19.048   31.906    0.303   60.171
   19.298   29.195    0.299   58.758
   19.548   25.575    0.309   56.278
   19.798   21.956    0.321   53.798
   20.048   19.245    0.325   50.604
   20.298   22.895    0.319   48.125
   20.548   32.906    0.311   46.354
   20.798   39.287    0.310   48.522
   21.048   36.572    0.308   51.399
   21.298   28.409    0.303   53.919
   21.548   22.063    0.313   56.081
   21.798   25.717    0.326   54.316
   22.048   31.181    0.332   54.693
   22.298   31.196    0.342   65.789
   22.548   24.851    0.342   62.947
   22.798   22.140    0.317   52.254
   23.048   23.972    0.312   46.922
   23.298   24.896    0.312   49.794
   23.548   19.467    0.314   54.456
   23.798   17.665    0.321   55.196
   24.048   21.315    0.332   53.073
   24.298   24.965    0.331   50.945
   24.548   28.616    0.337   49.542
   24.798   26.814    0.352   50.276
   25.048   24.103    0.327   52.077
   25.298   26.848    0.318   54.607
   25.548   28.673    0.319   55.341
   25.798   35.050    0.321  205.245
   26.048   33.248    0.318  183.166
   26.298   23.267    0.316  179.323
   26.548   16.012    0.321  186.422
   26.798   17.849    0.325  248.229
   27.048   21.499    0.325  302.741
   27.298   30.602    0.327  313.487
   27.548   25.165    0.327  258.583
   27.798   22.454    0.329  181.746
   28.048   24.287    0.320  188.845
   28.298   31.576    0.308  276.183
   28.548   36.131    0.313  308.812
   28.798   40.694    0.325  239.319
   29.048   39.797    0.326  195.356
   29.298   36.181    0.329  169.532
   29.548   36.196    0.331  169.336
   29.798   35.303    0.332  165.542
   30.048   36.231    0.332  172.640
   30.298   35.337    0.330  212.515
   30.548   29.896    0.324  215.967
   30.798   30.824    0.323  212.173
   31.048   34.475    0.331  222.820
   31.298   35.399    0.343  226.370
   31.548   34.505    0.332  237.067
   31.798   29.973    0.325  247.862
   32.048   24.536    0.331  258.559
   32.298   21.825    0.339  276.550
   32.548   21.844    0.338  283.697
   32.798   21.860    0.332  290.796
   33.048   21.875    0.326  297.846
   33.298   21.890    0.321  301.297
   33.548   21.001    0.319  304.749
   33.798   23.746    0.321  304.553
   34.048   26.484    0.323  304.406
   34.298   22.864    0.319  307.857
   34.548   24.697    0.311  307.613
   34.798   28.347    0.306  292.730
   35.048   23.819    0.309  296.230
   35.298   21.104    0.315  306.976
   35.548   34.755    0.324  314.124
   35.798   42.949    0.329  321.222
   36.048   42.964    0.332  295.496
   36.298   34.801    0.322  211.365
   36.548   24.824    0.315  185.589
   36.798   20.291    0.306  185.393
   37.048   28.485    0.311  174.305
   37.298   39.410    0.319  126.695
   37.548   42.147    0.325  119.107
   37.798   45.801    0.327  122.558
   38.048   43.090    0.329  158.884
   38.298   34.018    0.329  209.749
   38.548   30.399    0.330  253.369
   38.798   39.502    0.333  278.655
   39.048   40.429    0.336  293.048
   39.298   40.445    0.337  303.794
   39.548   36.821    0.341  310.893
   39.798   30.476    0.348  310.697
   40.048   26.856    0.353  259.440
   40.298   34.141    0.351  200.839
   40.548   40.522    0.343  269.990
   40.798   45.985    0.343  280.687
   41.048   58.727    0.342  269.549
   41.298   50.564    0.337  229.234
   41.548   37.857    0.334  177.977
   41.798   22.423    0.337  141.259
   42.048   26.982    0.352  137.416
   42.298   51.534    0.360  159.055
   42.548   47.005    0.342  162.555
   42.798   36.116    0.332  133.182
   43.048   27.047    0.327  125.642
   43.298   24.337    0.324  143.732
   43.548   30.709    0.330  161.723
   43.798   41.630    0.337  157.929
   44.048   51.645    0.344  135.850
   44.298   57.113    0.356   51.719
   44.548   63.489    0.369   75.207
   44.798   68.048    0.372   71.922
   45.048   75.337    0.377   70.462
   45.298   78.079    0.388   66.090
   45.548   79.003    0.395   60.626
   45.798   79.927    0.392   55.890
   46.048   77.216    0.390   51.152
   46.298   70.867    0.389   59.513
   46.548   66.338    0.383   61.325
   46.798   69.992    0.385   47.493
   47.048   71.825    0.392   43.482
   47.298   80.928    0.378   49.297
   47.548   92.757    0.362   52.925
   47.798   90.046    0.360   51.827
   48.048   81.883    0.367   50.003
   48.298   71.902    0.378   49.993
   48.548   62.830    0.389   47.078
   48.798   62.845    0.390   36.886
   49.048   65.587    0.385   35.056
   49.298   69.237    0.383   36.869
   49.548   74.712    0.378   40.863
   49.798   75.633    0.380   45.221
   50.048   77.469    0.384   47.032
   50.298   80.207    0.384   45.934
   50.548   79.314    0.386   45.199
   50.798   74.789    0.389   45.918
   51.048   72.078    0.394   45.912
   51.298   76.637    0.400   45.539
   51.548   83.010    0.406   45.168
   51.798   93.022    0.391   44.795
   52.048   94.854    0.380   44.426
   52.298   90.330    0.385   44.057
   52.548   83.075    0.395   43.317
   52.798   74.003    0.402   42.949
   53.048   72.201    0.379   41.483
   53.298   80.395    0.377   41.116
   53.548   89.501    0.382   41.107
   53.798   90.422    0.388   41.101
   54.048   87.715    0.397   40.730
   54.298   85.909    0.398   39.994
   54.548   85.924    0.392   38.895
   54.798   87.757    0.386   38.524
   55.048   92.320    0.380   38.519
   55.298   85.974    0.377   39.239
   55.548   77.811    0.378   41.774
   55.798   71.465    0.383   43.224
   56.048   76.933    0.384   43.944
   56.298   82.400    0.386   43.571
   56.548   89.689    0.388   41.381
   56.798   94.245    0.390   39.555
   57.048   96.078    0.392   38.457
