~VERSION INFORMATION
 VERS.                 2.0:   CWLS LOG ASCII STANDARD -VERSION 2.0
 WRAP.                  NO:   ONE LINE PER DEPTH STEP
~WELL INFORMATION BLOCK
#MNEM.UNIT           DATA                    DESCRIPTION OF MNEMONIC
#---------    -------------------            -------------------------------
# Generated from Intellog Unique Number	CC_80_83/WELL/2376
NULL.         -999.25                        : NULL_VALUE
WELL.         ARCO ACI MCMURRAY              : Well_name    - WELL
LOC .         10-26-083-10W4                 : Location     - LOCATION          
UWI .         AA/10-26-083-10W400            : Uwi          - UNIQUE WELL ID    
ENTR.         DW                             : Entered      - ENTERED BY        
SRVC.         SCHLUMBERGER                   : Scn          - SERVICE COMPANY   
DATE.         23 FEB 74                      : Date         - LOG DATE
STRT.M        249.936                        : top_depth    - START DEPTH       
STOP.M        484.639                        : bot_depth    - STOP DEPTH        
STEP.M        0.305                          : increment    - STEP LENGTH       
~CURVE INFORMATION BLOCK
#MNEM UNIT       ERCB CURVE CODE    CURVE DESCRIPTION
#-----------   ------------------   ----------------------------------
DEPT.M        00 001 00 00         : DEPTH        - DEPTH                       
DPHI.V/V      00 890 00 00         : PHID         - DENSITY POROSITY (LIMESTONE)
GR  .API      00 310 00 00         : GR           - GAMMA RAY                   
ILD .OHMM     00 120 00 00         : RESD         - DEEP RESISTIVITY (DIL)      
NPHI.V/V      00 330 00 00         : PHIN         - NEUTRON POROSITY (LIMESTONE)
~PARAMETER INFORMATION       
#MNEM.UNIT           DATA             DESCRIPTION OF MNEMONIC
#---------         -----------     ------------------------------
GL  .M        716.615              : gl           - GROUND LEVEL ELEVATION      
EREF.M        719.663              : kb           - ELEVATION OF DEPTH REFERENCE
DATM.M        719.663              : datum        - DATUM ELEVATION             
TDD .M        486.461              : tdd          - TOTAL DEPTH DRILLER         
RUN .         ONE                  : Run          - RUN NUMBER                  
ENG .         BILL                 : Engineer     - RECORDING ENGINEER          
WIT .         JIM                  : Witness      - WITNESSED BY                
MUD .         GEL                  : Mud_type     - MUD TYPE                    
MATR.         LIMESTONE            : Logunit      - NEUTRON MATRIX              
TMAX.C        23.3333              : BHT          - MAXIMUM RECORDED TEMPERATURE
BHTD.M        486.461              : BHTDEP       - MAXIMUM RECORDED TEMPERATURE
MATR.         1                    : LOGUNIT      - NEUTRON MATRIX              
RMT .C        25                   : MDTP         - TEMPERATURE OF MUD          
NEUT.         1                    : NEUTRON      - NEUTRON TYPE                
RESI.         0                    : RESIST       - RESISTIVITY TYPE            
RMC .OHMM     0.25                 : RMC          - RESISTIVITY OF MUD CAKE     
RMF .OHMM     0.25                 : RMF          - RESISTIVITY OF MUD FILTRATE 
SUFT.C        15                   : SUFT         - SURFACE TEMPERATURE         
~A  DEPTH     PHID       GR     RESD     PHIN
# ...
  302.973    0.331   70.786    6.496    0.411
  303.277    0.354   70.377    7.123    0.381
  303.582    0.362   72.383    9.586    0.387
  303.887    0.339   71.972   13.894    0.379
  304.192    0.333   73.575   17.034    0.372
  304.497    0.335   76.387   20.491    0.400
  304.801    0.331   79.599   20.455    0.412
  305.106    0.326   82.008   20.060    0.393
  305.411    0.313   87.638   19.315    0.404
  305.716    0.278   93.669   17.256    0.418
  306.021    0.282   93.662   13.281    0.431
  306.325    0.308   92.044    9.849    0.420
  306.630    0.332   86.802    8.164    0.420
  306.935    0.329   81.963    7.860    0.437
  307.240    0.346   81.151    7.563    0.455
  307.545    0.334   79.533    7.837    0.495
  307.850    0.335   79.929    8.127    0.459
  308.154    0.319   81.129    8.748    0.432
  308.459    0.311   77.094    9.954    0.404
  308.764    0.308   73.867   10.915    0.359
  309.069    0.305   69.431   11.966    0.373
  309.374    0.301   67.007   13.120    0.363
  309.678    0.297   64.585   15.202    0.352
  309.983    0.297   56.928   15.769    0.363
  310.288    0.303   48.466   16.649    0.346
  310.593    0.325   46.042   17.588    0.329
  310.898    0.346   46.033   19.282    0.367
  311.202    0.363   46.029   20.751    0.369
  311.507    0.370   43.202   22.333    0.359
  311.812    0.374   41.585   23.583    0.393
  312.117    0.363   43.993   24.912    0.401
  312.422    0.359   46.804   24.879    0.399
  312.726    0.374   49.209   24.856    0.386
  313.031    0.395   49.204   24.823    0.381
  313.336    0.400   46.379   24.805    0.380
  313.641    0.391   44.761   23.872    0.400
  313.946    0.384   44.348   22.545    0.415
  314.251    0.372   44.746   22.528    0.385
  314.555    0.362   45.945   22.488    0.381
  314.860    0.352   47.147   22.471    0.389
  315.165    0.351   49.557   22.860    0.406
  315.470    0.343   51.562   22.843    0.418
  315.775    0.340   53.163   22.815    0.417
  316.079    0.349   53.559   22.372    0.419
  316.384    0.355   50.733   22.339    0.416
  316.689    0.352   45.894   22.741    0.397
  316.994    0.351   43.472   22.702    0.395
  317.299    0.356   41.854   22.687    0.402
  317.603    0.376   42.653   23.078    0.417
  317.908    0.355   45.866   23.060    0.419
  318.213    0.349   45.859   23.038    0.412
  318.518    0.353   42.228   23.014    0.434
  318.823    0.368   39.803   22.990    0.421
  319.127    0.359   41.405   22.949    0.402
  319.432    0.359   42.608   22.931    0.387
  319.737    0.360   41.393   22.906    0.387
  320.042    0.361   38.568   22.879    0.405
  320.347    0.364   40.974   23.295    0.402
  320.652    0.364   41.773   23.263    0.386
  320.956    0.373   42.169   23.667    0.405
  321.261    0.383   45.380   23.647    0.420
  321.566    0.383   46.178   24.511    0.427
  321.871    0.382   45.768   25.418    0.437
  322.176    0.377   44.553   25.858    0.440
  322.480    0.378   42.937   25.840    0.426
  322.785    0.382   39.305   26.292    0.401
  323.090    0.369   38.089   26.255    0.392
  323.395    0.369   38.485   25.752    0.419
  323.700    0.376   38.477   24.777    0.416
  324.004    0.365   39.677   24.296    0.415
  324.309    0.365   40.478   23.386    0.408
  324.614    0.372   42.077   22.503    0.400
  324.919    0.366   42.475   22.469    0.393
  325.224    0.369   42.063   22.447    0.397
  325.528    0.376   42.460   22.428    0.391
  325.833    0.376   42.049   22.408    0.405
  326.138    0.364   42.041   22.369    0.420
  326.443    0.363   41.634   22.352    0.408
  326.748    0.374   40.014   22.316    0.399
  327.053    0.382   40.410   21.888    0.399
  327.357    0.376   42.819   21.871    0.395
  327.662    0.373   44.422   21.834    0.386
  327.967    0.365   46.831   22.227    0.393
  328.272    0.362   47.629   22.207    0.390
  328.577    0.368   48.022   22.172    0.380
  328.881    0.378   46.405   22.154    0.406
  329.186    0.372   43.984   22.134    0.421
  329.491    0.359   46.391   21.694    0.409
  329.796    0.356   49.203   21.273    0.389
  330.101    0.352   49.596   20.851    0.377
  330.405    0.350   49.187   20.836    0.381
  330.710    0.374   47.570   20.813    0.403
  331.015    0.378   46.756   21.174    0.400
  331.320    0.377   48.763   21.158    0.375
  331.625    0.372   52.380   21.124    0.383
  331.929    0.373   53.981   21.106    0.398
  332.234    0.373   53.571   21.070    0.375
  332.539    0.374   51.953   20.665    0.371
  332.844    0.365   53.960   20.652    0.379
  333.149    0.362   53.952   20.627    0.388
  333.454    0.363   52.334   20.598    0.395
  333.758    0.361   51.925   20.582    0.385
  334.063    0.355   49.905   20.554    0.384
  334.368    0.357   47.884   20.910    0.384
  334.673    0.357   52.306   20.895    0.388
  334.978    0.354   58.338   20.864    0.402
  335.282    0.348   54.304   20.851    0.418
  335.587    0.347   52.284   20.439    0.416
  335.892    0.344   53.080   20.408    0.402
  336.197    0.344   55.086   20.012    0.405
  336.502    0.345   60.314   19.997    0.409
  336.806    0.324   68.358   18.880    0.421
  337.111    0.311   69.156   18.182    0.404
  337.416    0.304   68.345   15.648    0.395
  337.721    0.304   68.335   12.497    0.401
  338.026    0.327   61.082   10.759    0.398
  338.330    0.332   57.853    9.261    0.401
  338.635    0.325   64.287    8.584    0.421
  338.940    0.313   66.696    8.735    0.443
  339.245    0.323   69.507    9.400    0.381
  339.550    0.312   68.694    9.749    0.404
  339.855    0.318   71.103    9.737    0.417
  340.159    0.317   71.498    9.371    0.395
  340.464    0.313   64.245    8.848    0.391
  340.769    0.319   58.600    8.842    0.393
  341.074    0.323   58.190    8.830    0.402
  341.379    0.323   63.014    8.985    0.408
  341.683    0.319   64.618    9.669    0.415
  341.988    0.314   64.207   10.600    0.396
  342.293    0.303   69.031   10.987    0.380
  342.598    0.291   74.659   10.977    0.397
  342.903    0.285   76.664   10.969    0.401
  343.207    0.271   77.061   10.557    0.419
  343.512    0.255   73.429    9.431    0.422
  343.817    0.257   72.216    8.583    0.408
  344.122    0.272   75.831    7.665    0.430
  344.427    0.276   80.252    7.241    0.416
  344.731    0.276   81.051    7.100    0.412
  345.036    0.278   84.264    6.961    0.407
  345.341    0.280   87.880    6.574    0.407
  345.646    0.271   91.095    6.097    0.425
  345.951    0.257   97.930    5.447    0.446
  346.256    0.255   94.702    4.776    0.491
  346.560    0.258   92.280    4.188    0.502
  346.865    0.265   94.285    3.537    0.488
  347.170    0.264   94.681    3.280    0.474
  347.475    0.258   93.062    3.155    0.491
  347.780    0.259   92.652    3.152    0.479
  348.084    0.275   92.243    3.148    0.496
  348.389    0.284   85.793    3.204    0.503
  348.694    0.288   84.982    3.262    0.473
  348.999    0.292   88.598    3.382    0.522
  349.304    0.294   89.394    3.706    0.515
  349.608    0.277   88.583    3.703    0.509
  349.913    0.294   85.757    3.498    0.497
  350.218    0.301   80.919    2.955    0.492
  350.523    0.300   79.300    2.640    0.503
  350.828    0.304   79.695    2.447    0.527
  351.132    0.317   78.480    2.400    0.514
  351.437    0.312   73.239    2.396    0.495
  351.742    0.315   69.204    2.438    0.475
  352.047    0.326   67.991    2.529    0.480
  352.352    0.332   63.957    2.878    0.456
  352.657    0.341   54.689    3.215    0.441
  352.961    0.349   55.085    4.014    0.434
  353.266    0.358   55.883    4.485    0.419
  353.571    0.360   55.875    5.813    0.413
  353.876    0.365   56.270    7.968    0.405
  354.181    0.371   56.264    8.900    0.398
  354.485    0.377   54.242   11.113    0.410
  354.790    0.376   53.025   11.522    0.429
  355.095    0.370   53.822   11.295    0.417
  355.400    0.363   54.623   11.078    0.412
  355.705    0.359   55.821   10.855    0.414
