~VERSION INFORMATION
 VERS.                 2.0:   CWLS LOG ASCII STANDARD -VERSION 2.0
 WRAP.                  NO:   ONE LINE PER DEPTH STEP
~WELL INFORMATION BLOCK
#MNEM.UNIT           DATA                    DESCRIPTION OF MNEMONIC
#---------    -------------------            -------------------------------
# Generated from Intellog Unique Number	CC_84_87/WELL/2350
NULL.         -999.25                        : NULL_VALUE
WELL.         SUNCOR CHEECHAM                : Well_name    - WELL              
LOC .         15-06-085-06W4                 : Location     - LOCATION          
UWI .         00/15-06-085-06W400            : Uwi          - UNIQUE WELL ID    
ENTR.         DW                             : Entered      - ENTERED BY        
SRVC.         SCHLUMBERGER                   : Scn          - SERVICE COMPANY   
DATE.         04 MAR 81                      : Date         - LOG DATE
STRT.M        91                             : top_depth    - START DEPTH       
STOP.M        324.999                        : bot_depth    - STOP DEPTH        
STEP.M        0.3                            : increment    - STEP LENGTH       
~CURVE INFORMATION BLOCK
#MNEM UNIT       ERCB CURVE CODE    CURVE DESCRIPTION
#-----------   ------------------   ----------------------------------
DEPT.M        00 001 00 00         : DEPTH        - DEPTH                       
DPHI.V/V      00 890 00 00         : PHID         - DENSITY POROSITY (LIMESTONE)
NPHI.V/V      00 330 00 00         : PHIN         - NEUTRON POROSITY (LIMESTONE)
GR  .API      00 310 00 00         : GR           - GAMMA RAY                   
ILD .OHMM     00 120 00 00         : RESD         - DEEP RESISTIVITY (DIL)      
~PARAMETER INFORMATION       
#MNEM.UNIT           DATA             DESCRIPTION OF MNEMONIC
#---------         -----------     ------------------------------
GL  .M        504.5                : gl           - GROUND LEVEL ELEVATION      
EREF.M        507.7                : kb           - ELEVATION OF DEPTH REFERENCE
DATM.M        507.7                : datum        - DATUM ELEVATION             
TDD .M        353                  : tdd          - TOTAL DEPTH DRILLER         
RUN .         ONE                  : Run          - RUN NUMBER                  
ENG .         BILL                 : Engineer     - RECORDING ENGINEER          
WIT .         JIM                  : Witness      - WITNESSED BY                
MUD .         GEL                  : Mud_type     - MUD TYPE                    
MATR.         LIMESTONE            : Logunit      - NEUTRON MATRIX              
TMAX.C        25                   : BHT          - MAXIMUM RECORDED TEMPERATURE
BHTD.M        353                  : BHTDEP       - MAXIMUM RECORDED TEMPERATURE
MATR.         1                    : LOGUNIT      - NEUTRON MATRIX              
RMT .C        25                   : MDTP         - TEMPERATURE OF MUD          
NEUT.         1                    : NEUTRON      - NEUTRON TYPE                
RESI.         0                    : RESIST       - RESISTIVITY TYPE            
RMC .OHMM     0.25                 : RMC          - RESISTIVITY OF MUD CAKE     
RMF .OHMM     0.25                 : RMF          - RESISTIVITY OF MUD FILTRATE 
SUFT.C        4                    : SUFT         - SURFACE TEMPERATURE         
~A  DEPTH     PHID     PHIN       GR     RESD
# ...
  143.201    0.279    0.422   53.355    7.282
  143.501    0.316    0.424   50.823    6.872
  143.801    0.322    0.419   49.540    6.242
  144.101    0.306    0.407   50.117    6.120
  144.401    0.289    0.420   51.320    6.354
  144.701    0.254    0.425   53.141    6.599
  145.001    0.275    0.409   55.584    6.723
  145.301    0.269    0.405   58.028    6.849
  145.601    0.295    0.424   59.221    6.844
  145.901    0.296    0.429   59.801    6.711
  146.201    0.312    0.444   62.247    6.456
  146.501    0.311    0.437   67.161    6.209
  146.801    0.296    0.426   68.993    6.447
  147.101    0.280    0.423   68.950    6.568
  147.401    0.281    0.440   65.180    6.820
  147.701    0.277    0.461   65.753    6.949
  148.001    0.297    0.482   68.200    7.078
  148.301    0.306    0.461   65.044    7.075
  148.601    0.290    0.446   67.484    6.937
  148.901    0.269    0.441   73.659    6.672
  149.201    0.283    0.443   74.854    6.542
  149.501    0.287    0.451   78.538    6.414
  149.801    0.294    0.449   86.576    6.535
  150.101    0.297    0.463   92.117    6.658
  150.401    0.279    0.465   92.070    6.782
  150.701    0.297    0.478   91.412    6.649
  151.001    0.277    0.482   91.370    6.520
  151.301    0.255    0.469   96.295    6.272
  151.601    0.278    0.438   97.492    5.807
  151.901    0.290    0.435   93.091    5.076
  152.201    0.317    0.453   95.547    4.110
  152.501    0.240    0.481   98.609    4.029
  152.801    0.208    0.462   92.965    4.105
  153.101    0.274    0.495   89.820    4.430
  153.401    0.294    0.510   88.543    4.965
  153.701    0.368    0.494   89.115    5.058
  154.001    0.388    0.510   90.938    4.959
  154.301    0.312    0.498   93.998    4.681
  154.601    0.358    0.523   97.685    4.333
  154.901    0.286    0.527  101.993    4.012
  155.201    0.267    0.500  103.808    3.644
  155.501    0.261    0.487  103.759    2.301
  155.801    0.246    0.499  103.104    1.793
  156.101    0.278    0.528  101.815    1.862
  156.401    0.259    0.537  101.141    2.128
  156.701    0.321    0.551  100.485    2.727
  157.001    0.312    0.571   99.195    3.057
  157.301    0.250    0.517   99.777    3.174
  157.601    0.261    0.530  102.220    3.172
  157.901    0.265    0.541  104.664    2.994
  158.201    0.259    0.535  101.517    2.880
  158.501    0.275    0.535  100.227    2.824
  158.801    0.313    0.539  100.808    2.932
  159.101    0.248    0.535   93.928    3.103
  159.401    0.253    0.540   88.299    3.222
  159.701    0.281    0.509   83.908    3.283
  160.001    0.260    0.497   84.484    3.281
  160.301    0.238    0.517   86.927    3.280
  160.601    0.255    0.498   91.233    3.277
  160.901    0.264    0.466  101.129    3.152
  161.201    0.280    0.476   99.843    3.032
  161.501    0.297    0.498   96.686    2.917
  161.801    0.321    0.575   96.647    2.753
  162.101    0.283    0.567   97.846    2.548
  162.401    0.349    0.545   97.791    2.451
  162.701    0.393    0.549   96.521    2.450
  163.001    0.308    0.558   92.128    2.544
  163.301    0.365    0.518   87.737    2.907
  163.601    0.394    0.519   88.314    3.518
  163.901    0.417    0.559   95.106    4.019
  164.201    0.236    0.552   94.439    4.337
  164.501    0.235    0.514   90.046    4.418
  164.801    0.268    0.511   86.900    4.500
  165.101    0.278    0.489   83.131    4.498
  165.401    0.256    0.461   79.358    4.244
  165.701    0.284    0.463   81.800    4.083
  166.001    0.300    0.456   85.483    4.159
  166.301    0.249    0.487   89.791    4.157
  166.601    0.260    0.520   92.850    4.317
  166.901    0.259    0.464   92.807    4.747
  167.201    0.259    0.475   91.524    5.025
  167.501    0.278    0.486   88.998    5.525
  167.801    0.282    0.464   81.498    5.738
  168.101    0.280    0.470   73.999    5.734
  168.401    0.274    0.465   70.232    5.624
  168.701    0.283    0.450   71.426    5.514
  169.001    0.298    0.441   74.495    5.406
  169.301    0.307    0.447   73.204    5.201
  169.601    0.295    0.458   70.052    4.907
  169.901    0.315    0.472   65.667    4.720
  170.201    0.304    0.478   62.517    4.627
  170.501    0.306    0.466   61.233    4.538
  170.801    0.310    0.456   64.918    4.623
  171.101    0.275    0.466   68.599    4.801
  171.401    0.296    0.469   67.933    5.081
  171.701    0.257    0.445   65.410    5.379
  172.001    0.269    0.429   57.908    6.264
  172.301    0.225    0.456   53.515    8.667
  172.601    0.059    0.204   52.229   16.920
  172.901    0.046    0.151   54.055   16.588
  173.201    0.050    0.158   59.593   13.694
  173.501    0.102    0.182   64.525    6.490
  173.801    0.218    0.276   70.696    4.597
  174.101    0.253    0.333   71.273    4.175
  174.401    0.313    0.441   68.746    4.016
  174.701    0.306    0.472   65.585    4.092
  175.001    0.309    0.471   64.309    4.248
  175.301    0.294    0.462   64.889    4.411
  175.601    0.280    0.465   67.330    4.325
  175.901    0.298    0.471   68.527    4.160
  176.201    0.291    0.470   67.242    4.080
  176.501    0.288    0.446   71.551    3.850
  176.801    0.279    0.449   76.472    3.848
  177.101    0.290    0.458   78.913    3.845
  177.401    0.297    0.474   75.145    3.917
  177.701    0.286    0.484   75.103    3.915
  178.001    0.275    0.473   80.026    3.766
  178.301    0.280    0.453   77.499    3.693
  178.601    0.280    0.468   74.977    3.552
  178.901    0.290    0.475   76.794    3.417
  179.201    0.285    0.445   79.237    3.350
  179.501    0.297    0.447   77.947    3.223
  179.801    0.291    0.435   73.558    3.100
  180.101    0.284    0.442   72.268    3.039
  180.401    0.285    0.469   70.976    3.096
  180.701    0.298    0.459   69.082    3.341
  181.001    0.273    0.480   59.719    4.364
  181.301    0.043    0.481   48.499    7.451
  181.601    0.003    0.417   45.348    8.039
  181.901    0.002    0.172   47.783    7.587
  182.201    0.045    0.206   52.094    6.632
  182.501    0.142    0.258   60.127    4.269
  182.801    0.203    0.348   68.777    3.457
  183.101    0.252    0.405   65.003    3.140
  183.401    0.276    0.435   62.477    3.021
  183.701    0.275    0.443   65.531    2.905
  184.001    0.277    0.455   66.744    2.794
  184.301    0.287    0.445   66.702    2.688
  184.601    0.286    0.454   70.371    2.586
  184.901    0.283    0.460   72.206    2.487
  185.201    0.280    0.441   69.672    2.439
  185.501    0.287    0.448   72.733    2.437
  185.801    0.300    0.461   73.936    2.436
  186.101    0.275    0.455   75.133    2.482
  186.401    0.287    0.452   77.572    2.480
  186.701    0.279    0.462   80.020    2.575
  187.001    0.292    0.472   83.696    2.726
  187.301    0.301    0.472   86.147    2.831
  187.601    0.290    0.467   86.715    2.939
  187.901    0.277    0.450   84.812    2.994
  188.201    0.285    0.452   84.148    2.993
  188.501    0.334    0.480   84.111    3.049
  188.801    0.371    0.542   87.794    3.047
  189.101    0.251    0.567   94.584    2.988
  189.401    0.226    0.470   95.163    2.766
  189.701    0.225    0.476   95.118    2.660
  190.001    0.227    0.493   96.926    2.608
  190.301    0.238    0.509   95.646    2.607
  190.601    0.259    0.519   91.879    2.707
  190.901    0.322    0.525   87.493    2.866
  191.201    0.272    0.544   86.205    3.033
  191.501    0.268    0.517   88.637    3.090
  191.801    0.270    0.479   89.848    3.088
  192.101    0.273    0.468   94.151    3.087
  192.401    0.235    0.473   97.821    2.969
  192.701    0.231    0.485   97.787    2.802
  193.001    0.232    0.486   98.985    2.544
  193.301    0.230    0.479   99.558    2.448
  193.601    0.249    0.485   98.278    2.354
  193.901    0.223    0.524   98.862    2.265
  194.201    0.240    0.540   99.440    2.221
  194.501    0.250    0.544  100.016    2.219
  194.801    0.270    0.561   99.349    2.304
  195.101    0.292    0.570   98.068    2.348
