~VERSION INFORMATION
 VERS.                 2.0:   CWLS LOG ASCII STANDARD -VERSION 2.0
 WRAP.                  NO:   ONE LINE PER DEPTH STEP
~WELL INFORMATION BLOCK
#MNEM.UNIT           DATA                    DESCRIPTION OF MNEMONIC
#---------    -------------------            -------------------------------
# Generated from Intellog Unique Number	CC_84_87/WELL/2334
WELL.         ARCO ACT MCMURRAY              : Well_name    - WELL
LOC .         AA/11-29-084-09W4/0            : Location     - LOCATION
UWI .         AA/11-29-084-09W400            : Uwi          - UNIQUE WELL ID
ENTR.         JHS                            : Entered      - ENTERED BY
SRVC.         SCHLUMBERGER                   : Scn          - SERVICE COMPANY
STRT.M        210.312                        : top_depth    - START DEPTH
STOP.M        441.812                        : bot_depth    - STOP DEPTH
STEP.M        0.25                           : increment    - STEP LENGTH
 NULL. -999.2500:NULL Value
~CURVE INFORMATION BLOCK
#MNEM UNIT       ERCB CURVE CODE    CURVE DESCRIPTION
#-----------   ------------------   ----------------------------------
DEPT.M        00 001 00 00         : DEPTH        - DEPTH
GR  .API      00 310 00 00         : GR           - GAMMA RAY
DPHI.V/V      00 890 00 00         : PHID         - DENSITY POROSITY (SANDSTONE)
NPHI.V/V      00 330 00 00         : PHIN         - NEUTRON POROSITY (SANDSTONE)
ILD .OHMM     00 120 00 00         : RESD         - DEEP RESISTIVITY (DIL)
~PARAMETER INFORMATION
#MNEM.UNIT           DATA             DESCRIPTION OF MNEMONIC
#---------         -----------     ------------------------------
GL  .M        687.629              : gl           - GROUND LEVEL ELEVATION
EREF.M        690.677              : kb           - ELEVATION OF DEPTH REFERENCE
DATM.M        690.677              : datum        - DATUM ELEVATION
TDD .M        441.96               : tdd          - TOTAL DEPTH DRILLER
RUN .         ONE                  : Run          - RUN NUMBER
ENG .         BILL                 : Engineer     - RECORDING ENGINEER
WIT .         JIM                  : Witness      - WITNESSED BY
MUD .         GEL                  : Mud_type     - MUD TYPE
MATR.         SANDSTONE            : Logunit      - NEUTRON MATRIX
TMAX.C        20.5556              : BHT          - MAXIMUM RECORDED TEMPERATURE
BHTD.M        441.96               : BHTDEP       - MAXIMUM RECORDED TEMPERATURE
MATR.         1                    : LOGUNIT      - NEUTRON MATRIX
RMT .C        25                   : MDTP         - TEMPERATURE OF MUD
NEUT.         1                    : NEUTRON      - NEUTRON TYPE
RESI.         0                    : RESIST       - RESISTIVITY TYPE
RMC .OHMM     0.25                 : RMC          - RESISTIVITY OF MUD CAKE
RMF .OHMM     0.25                 : RMF          - RESISTIVITY OF MUD FILTRATE
SUFT.C        15                   : SUFT         - SURFACE TEMPERATURE
~A  DEPTH       GR     PHID     PHIN     RESD
  210.312   88.095    0.322    0.461    3.909
  210.562   87.469    0.311    0.465    3.925
  210.812   88.092    0.310    0.487    3.811
  211.062   89.874    0.306    0.479    3.727
  211.312   90.173    0.294    0.448    3.669
  211.562   89.376    0.288    0.434    3.631
  211.812   90.496    0.304    0.441    3.762
  212.062   89.540    0.321    0.447    4.069
  212.312   88.923    0.337    0.481    4.199
  212.562   88.129    0.339    0.512    4.160
  212.812   88.898    0.338    0.499    4.083
  213.062   90.506    0.334    0.470    3.919
  213.312   85.753    0.315    0.469    3.621
  213.562   72.989    0.303    0.447    3.402
  213.812   60.008    0.278    0.415    3.253
  214.062   41.922    0.247    0.382    3.316
  214.312   37.270    0.245    0.334    3.491
  214.562   53.102    0.265    0.306    4.098
  214.812   62.558    0.251    0.352    5.294
  215.062   60.333    0.211    0.387    5.641
  215.312   37.092    0.212    0.319    6.104
  215.562   25.279    0.241    0.253    6.608
  215.812   34.525    0.241    0.264    6.647
  216.062   39.268    0.211    0.302    6.427
  216.312   31.624    0.210    0.304    6.572
  216.562   39.072    0.255    0.282    7.515
  216.812   58.378    0.304    0.277    9.889
  217.062   80.222    0.324    0.362   12.064
  217.312   90.442    0.320    0.457   12.056
  217.562   89.462    0.315    0.476    9.475
  217.812   93.548    0.316    0.473    6.211
  218.062   97.400    0.311    0.458    5.028
  218.312   92.038    0.300    0.455    4.255
  218.562   88.050    0.287    0.447    3.615
  218.812   89.594    0.278    0.442    3.458
  219.062   90.559    0.275    0.446    3.652
  219.312   89.996    0.274    0.443    4.008
  219.562   92.489    0.269    0.444    4.342
  219.812   98.748    0.269    0.445    4.467
  220.062   98.981    0.276    0.444    4.438
  220.312   95.718    0.282    0.464    4.335
  220.562   94.287    0.281    0.491    4.201
  220.812   91.206    0.282    0.470    4.148
  221.062   90.924    0.287    0.437    4.270
  221.312   92.489    0.286    0.421    4.402
  221.562   90.777    0.285    0.416    4.556
  221.812   89.786    0.296    0.427    4.616
  222.062   91.149    0.305    0.450    4.513
  222.312   88.844    0.292    0.456    4.372
  222.562   87.732    0.281    0.440    4.166
  222.812   87.689    0.276    0.446    4.121
  223.062   90.034    0.268    0.437    4.159
  223.312   92.406    0.267    0.420    4.279
  223.562   91.377    0.274    0.424    4.482
  223.812   89.459    0.273    0.433    4.609
  224.062   90.691    0.272    0.437    4.684
  224.312   87.981    0.273    0.444    4.695
  224.562   83.082    0.270    0.435    4.683
  224.812   82.100    0.264    0.424    4.700
  225.062   85.442    0.261    0.431    4.664
  225.312   84.121    0.262    0.430    4.517
  225.562   70.043    0.254    0.408    4.508
  225.812   63.210    0.233    0.376    4.602
  226.062   69.385    0.215    0.357    5.240
  226.312   74.951    0.260    0.378    6.169
  226.562   71.946    0.325    0.409    7.044
  226.812   68.664    0.314    0.396    8.066
  227.062   68.254    0.333    0.393    8.963
  227.312   60.353    0.371    0.400   10.014
  227.562   51.535    0.384    0.416   10.810
  227.812   48.453    0.375    0.415   11.484
  228.062   50.369    0.365    0.396   12.805
  228.312   56.778    0.352    0.393   15.210
  228.562   66.097    0.341    0.394   18.334
  228.812   69.903    0.324    0.398   20.753
  229.062   69.276    0.302    0.387   22.326
  229.312   67.096    0.293    0.359   22.463
  229.562   67.690    0.298    0.337   21.164
  229.812   74.059    0.298    0.343   19.581
  230.062   77.355    0.289    0.354   17.586
  230.312   78.396    0.285    0.358   16.178
  230.562   79.699    0.294    0.364   15.014
  230.812   79.514    0.309    0.374   14.023
  231.062   77.216    0.331    0.380   13.123
  231.312   72.292    0.359    0.375   11.964
  231.562   60.829    0.371    0.374   11.547
  231.812   63.502    0.391    0.382   11.587
  232.062   70.332    0.412    0.400   12.210
  232.312   76.684    0.394    0.427   13.924
  232.562   83.923    0.358    0.441   16.042
  232.812   83.621    0.363    0.422   17.491
  233.062   79.432    0.363    0.408   19.410
  233.312   78.403    0.360    0.397   21.691
  233.562   76.888    0.365    0.398   23.641
  233.812   71.757    0.368    0.395   25.421
  234.062   69.884    0.345    0.390   27.414
  234.312   77.688    0.309    0.413   29.042
  234.562   82.211    0.327    0.426   28.331
  234.812   65.503    0.340    0.405   22.078
  235.062   50.818    0.340    0.375   18.847
  235.312   47.731    0.335    0.362   19.833
  235.562   46.622    0.319    0.355   21.404
  235.812   47.350    0.304    0.346   24.612
  236.062   52.923    0.311    0.357   27.286
  236.312   65.885    0.327    0.352   30.604
  236.562   68.904    0.333    0.358   27.688
  236.812   63.299    0.327    0.372   23.036
  237.062   61.597    0.312    0.372   23.521
  237.312   63.441    0.287    0.371   24.564
  237.562   68.394    0.267    0.379   24.329
  237.812   72.323    0.303    0.383   22.818
  238.062   72.831    0.330    0.374   20.773
  238.312   70.830    0.331    0.362   19.256
  238.562   67.378    0.336    0.354   19.123
  238.812   62.864    0.340    0.344   20.818
  239.062   60.064    0.336    0.343   23.973
  239.312   60.819    0.331    0.356   25.844
  239.562   65.350    0.317    0.363   27.232
  239.812   67.779    0.313    0.365   27.764
  240.062   65.256    0.321    0.363   26.468
  240.312   62.288    0.315    0.352   24.472
  240.562   58.543    0.318    0.350   22.585
  240.812   53.385    0.320    0.358   21.931
  241.062   55.172    0.311    0.355   21.944
  241.312   61.636    0.304    0.351   21.861
  241.562   63.231    0.309    0.357   22.008
  241.812   59.926    0.319    0.359   22.713
  242.062   57.355    0.330    0.362   23.051
  242.312   49.945    0.353    0.371   23.605
  242.562   44.358    0.357    0.387   24.623
  242.812   45.717    0.352    0.390   25.713
  243.062   49.970    0.354    0.389   27.047
  243.312   51.612    0.349    0.409   28.712
  243.562   50.135    0.356    0.414   29.180
  243.812   49.885    0.352    0.409   29.581
  244.062   54.293    0.348    0.403   29.852
  244.312   60.327    0.344    0.395   29.559
  244.562   62.211    0.325    0.386   29.154
  244.812   58.179    0.288    0.383   29.184
  245.062   51.546    0.255    0.378   29.180
  245.312   48.399    0.318    0.366   29.156
  245.562   53.021    0.361    0.378   29.173
  245.812   59.920    0.352    0.392   29.102
  246.062   64.522    0.346    0.382   29.217
  246.312   67.722    0.331    0.376   29.660
  246.562   65.057    0.316    0.379   29.269
  246.812   66.543    0.313    0.379   28.436
  247.062   70.758    0.317    0.387   27.445
  247.312   73.246    0.311    0.393   25.754
  247.562   77.490    0.299    0.384   23.320
  247.812   83.813    0.300    0.374   20.960
  248.062   78.443    0.305    0.374   18.824
  248.312   71.095    0.318    0.376   17.137
  248.562   71.679    0.336    0.374   15.676
  248.812   76.865    0.297    0.378   14.986
  249.062   82.091    0.217    0.387   15.547
  249.312   90.975    0.185    0.384   16.220
  249.562  102.596    0.168    0.386   15.367
  249.812  105.085    0.182    0.389   13.784
  250.062  102.734    0.195    0.396   11.760
  250.312  102.766    0.228    0.403    9.698
  250.562  107.124    0.270    0.411    8.158
  250.812  113.613    0.259    0.428    7.145
  251.062  114.796    0.271    0.441    6.411
  251.312  110.137    0.288    0.443    5.882
  251.562  106.767    0.312    0.448    5.609
  251.812  101.687    0.345    0.448    5.493
  252.062   87.405    0.359    0.432    5.588
  252.312   69.585    0.343    0.415    6.279
  252.562   63.377    0.333    0.397    7.817
  252.812   67.723    0.329    0.388   10.558
  253.062   72.646    0.329    0.384   15.727
  253.312   74.020    0.330    0.375   21.407
  253.562   74.575    0.326    0.369   24.382
