~VERSION INFORMATION
 VERS.                 2.0:   CWLS LOG ASCII STANDARD -VERSION 2.0
 WRAP.                  NO:   ONE LINE PER DEPTH STEP
~WELL INFORMATION BLOCK
#MNEM.UNIT           DATA                    DESCRIPTION OF MNEMONIC
#---------    -------------------            -------------------------------
# Generated from Intellog Unique Number	CS_77_79/WELL/944
LOC .         AA/10-11-077-08W4/0            : Location     - LOCATION
UWI .         AA/10-11-077-08W4/0            : Uwi          - UNIQUE WELL ID
ENTR.         SP                             : Entered      - ENTERED BY
SRVC.         SCHLUMBERGER                   : Scn          - SERVICE COMPANY
STRT.M        140                            : top_depth    - START DEPTH
STOP.M        385                            : bot_depth    - STOP DEPTH
STEP.M        0.25                           : increment    - STEP LENGTH
 NULL. -999.2500:NULL Value
~CURVE INFORMATION BLOCK
#MNEM UNIT       ERCB CURVE CODE    CURVE DESCRIPTION
#-----------   ------------------   ----------------------------------
DEPT.M        00 001 00 00         : DEPTH        - DEPTH
ILD .OHMM     00 120 00 00         : RESD         - DEEP RESISTIVITY (DIL)
DPHI.V/V      00 890 00 00         : PHID         - DENSITY POROSITY (LIMESTONE)
NPHI.V/V      00 330 00 00         : PHIN         - NEUTRON POROSITY (LIMESTONE)
GR  .API      00 310 00 00         : GR           - GAMMA RAY
~PARAMETER INFORMATION
#MNEM.UNIT           DATA             DESCRIPTION OF MNEMONIC
#---------         -----------     ------------------------------
GL  .M        566.83               : gl           - GROUND LEVEL ELEVATION
EREF.M        570.4                : kb           - ELEVATION OF DEPTH REFERENCE
DATM.M        566.83               : datum        - DATUM ELEVATION
TDD .M        391                  : tdd          - TOTAL DEPTH DRILLER
RUN .         ONE                  : Run          - RUN NUMBER
ENG .         BILL                 : Engineer     - RECORDING ENGINEER
WIT .         JIM                  : Witness      - WITNESSED BY
MUD .         GEL                  : Mud_type     - MUD TYPE
MATR.         LIMESTONE            : Logunit      - NEUTRON MATRIX
TMAX.C        16                   : BHT          - MAXIMUM RECORDED TEMPERATURE
BHTD.M        391                  : BHTDEP       - MAXIMUM RECORDED TEMPERATURE
MATR.         1                    : LOGUNIT      - NEUTRON MATRIX
RMT .C        25                   : MDTP         - TEMPERATURE OF MUD
NEUT.         1                    : NEUTRON      - NEUTRON TYPE
RESI.         0                    : RESIST       - RESISTIVITY TYPE
RMC .OHMM     0.25                 : RMC          - RESISTIVITY OF MUD CAKE
RMF .OHMM     0.25                 : RMF          - RESISTIVITY OF MUD FILTRATE
SUFT.C        15                   : SUFT         - SURFACE TEMPERATURE
~A  DEPTH     RESD     PHID     PHIN       GR
# ...
  227.000   13.659    0.231    0.332   76.500
  227.250   12.202    0.244    0.345   77.114
  227.500   11.319    0.248    0.352   82.663
  227.750    9.738    0.263    0.403   85.130
  228.000    8.537    0.292    0.419   90.065
  228.250    7.485    0.297    0.446   91.296
  228.500    6.943    0.261    0.411   93.145
  228.750    6.202    0.227    0.401   96.228
  229.000    5.863    0.231    0.419   94.989
  229.250    5.542    0.252    0.418   94.368
  229.500    5.338    0.268    0.422   93.130
  229.750    5.046    0.284    0.430   86.337
  230.000    4.860    0.288    0.440   88.184
  230.250    4.594    0.307    0.448   91.267
  230.500    4.425    0.317    0.454   86.325
  230.750    4.183    0.355    0.475   93.728
  231.000    4.105    0.355    0.491   96.812
  231.250    4.029    0.357    0.478   86.932
  231.500    3.955    0.366    0.487   86.311
  231.750    3.882    0.356    0.489   85.072
  232.000    3.810    0.340    0.471   91.241
  232.250    3.810    0.371    0.470   86.300
  232.500    3.740    0.395    0.470   90.616
  232.750    3.811    0.382    0.435   88.761
  233.000    3.885    0.375    0.431   75.178
  233.250    3.959    0.394    0.445   75.791
  233.500    4.111    0.346    0.437   80.108
  233.750    4.190    0.334    0.428   83.808
  234.000    4.271    0.331    0.440   88.743
  234.250    4.271    0.318    0.450   92.443
  234.500    4.192    0.307    0.434   89.353
  234.750    3.963    0.306    0.450   91.201
  235.000    3.817    0.305    0.454   83.173
  235.250    3.608    0.328    0.464   78.848
  235.500    3.541    0.350    0.469   81.314
  235.750    3.542    0.354    0.474   86.247
  236.000    3.542    0.362    0.478   89.331
  236.250    3.543    0.376    0.504   90.561
  236.500    3.611    0.400    0.518   86.854
  236.750    3.611    0.443    0.515   79.444
  237.000    3.612    0.478    0.520   79.439
  237.250    3.613    0.526    0.515   77.584
  237.500    3.613    0.503    0.513   76.964
  237.750    3.682    0.513    0.464   80.663
  238.000    3.897    0.507    0.436   85.598
  238.250    4.124    0.422    0.449   84.360
  238.500    4.364    0.411    0.459   78.800
  238.750    4.618    0.412    0.448   76.945
  239.000    4.796    0.400    0.439   76.324
  239.250    4.981    0.414    0.444   70.765
  239.500    5.077    0.411    0.459   68.910
  239.750    5.174    0.409    0.455   74.461
  240.000    5.078    0.403    0.450   80.013
  240.250    4.891    0.381    0.446   79.392
  240.500    4.711    0.387    0.460   81.858
  240.750    4.453    0.419    0.468   83.706
  241.000    4.131    0.432    0.458   92.961
  241.250    3.979    0.311    0.441  100.981
  241.500    3.979    0.257    0.394  102.831
  241.750    4.211    0.255    0.371   80.605
  242.000    4.628    0.253    0.348   76.280
  242.250    5.182    0.256    0.343   71.956
  242.500    6.025    0.260    0.355   70.716
  242.750    7.005    0.258    0.360   73.181
  243.000    8.299    0.260    0.373   71.944
  243.250    8.459    0.262    0.382   71.324
  243.500    8.460    0.262    0.387   70.083
  243.750    8.461    0.262    0.380   70.699
  244.000    8.624    0.262    0.371   73.782
  244.250    8.464    0.260    0.371   70.073
  244.500    8.307    0.253    0.372   69.453
  244.750    8.153    0.245    0.378   74.387
  245.000    7.854    0.235    0.382   81.791
  245.250    7.565    0.223    0.373   89.195
  245.500    7.425    0.212    0.362   84.870
  245.750    7.426    0.208    0.355   84.867
  246.000    7.427    0.207    0.360   90.419
  246.250    7.570    0.203    0.356   85.477
  246.500    7.714    0.192    0.342   73.127
  246.750    8.011    0.135    0.317   65.717
  247.000    8.803    0.048    0.272   59.540
  247.250    9.674    0.069    0.234   66.326
  247.500   10.046    0.147    0.290   76.198
  247.750   10.239    0.203    0.369   83.602
  248.000   10.050    0.214    0.381   89.155
  248.250    9.680    0.214    0.376   92.855
  248.500    8.648    0.214    0.394   88.530
  248.750    8.174    0.219    0.396   86.674
  249.000    7.441    0.221    0.383   87.906
  249.250    7.303    0.213    0.394   90.371
  249.500    7.305    0.208    0.388   87.898
  249.750    7.306    0.203    0.386   86.043
  250.000    7.446    0.205    0.393   90.359
  250.250    7.448    0.206    0.396   92.825
  250.500    7.449    0.211    0.393   92.205
  250.750    7.450    0.211    0.393   87.879
  251.000    7.451    0.211    0.385   90.962
  251.250    7.312    0.210    0.381   86.637
  251.500    7.177    0.205    0.379   89.720
  251.750    6.913    0.197    0.387   90.335
  252.000    6.785    0.194    0.404   97.120
  252.250    6.660    0.191    0.390  100.203
  252.500    6.537    0.202    0.395  102.052
  252.750    6.296    0.233    0.414   95.875
  253.000    5.952    0.253    0.420   94.019
  253.250    5.732    0.265    0.419   92.163
  253.500    5.218    0.298    0.444   89.692
  253.750    4.841    0.342    0.456   84.132
  254.000    4.165    0.413    0.469   81.659
  254.250    3.451    0.404    0.480   79.804
  254.500    3.083    0.401    0.504   76.712
  254.750    2.754    0.423    0.496   74.241
  255.000    2.507    0.424    0.496   73.003
  255.250    2.415    0.414    0.499   76.085
  255.500    2.326    0.393    0.452   79.168
  255.750    2.283    0.376    0.434   81.017
  256.000    2.326    0.390    0.412   80.395
  256.250    2.557    0.401    0.409   84.096
  256.500    2.972    0.408    0.375   87.796
  256.750    3.328    0.326    0.354   84.706
  257.000    4.095    0.237    0.330   81.615
  257.250    4.761    0.234    0.318   81.612
  257.500    5.857    0.254    0.309   79.139
  257.750    6.810    0.275    0.299   76.049
  258.000    7.770    0.307    0.307   77.280
  258.250    9.206    0.297    0.307   79.745
  258.500   11.325    0.293    0.305   82.828
  258.750   13.168    0.289    0.293   79.737
  259.000   15.898    0.283    0.240   77.266
  259.250   17.801    0.277    0.226   79.730
  259.500   19.933    0.274    0.211   80.962
  259.750   22.320    0.271    0.188   79.723
  260.000   24.069    0.289    0.172   73.546
  260.250   25.953    0.363    0.152   67.371
  260.500   29.062    0.378    0.136   64.281
  260.750   32.543    0.385    0.136   58.104
  261.000   33.794    0.392    0.136   57.483
  261.250   36.444    0.397    0.133   59.947
  261.500   37.143    0.392    0.132   59.945
  261.750   37.853    0.391    0.134   60.558
  262.000   37.860    0.389    0.138   60.553
  262.250   37.865    0.374    0.140   58.697
  262.500   37.166    0.361    0.143   58.695
  262.750   36.480    0.352    0.145   58.691
  263.000   35.804    0.348    0.149   58.688
  263.250   33.845    0.348    0.150   59.919
  263.500   32.598    0.356    0.150   61.767
  263.750   30.812    0.381    0.149   62.381
  264.000   28.582    0.404    0.143   64.228
  264.250   28.054    0.410    0.138   66.694
  264.500   28.591    0.415    0.133   65.456
  264.750   29.140    0.421    0.127   62.983
  265.000   29.698    0.399    0.124   62.362
  265.250   30.266    0.378    0.124   64.211
  265.500   31.433    0.373    0.127   58.651
  265.750   31.437    0.369    0.138   56.795
  266.000   30.858    0.364    0.145   58.026
  266.250   30.285    0.355    0.155   63.579
  266.500   28.095    0.349    0.172   61.723
  266.750   27.059    0.341    0.184   63.570
  267.000   17.553    0.323    0.208   57.395
  267.250   11.825    0.300    0.330   59.241
  267.500   10.563    0.297    0.339   61.091
  267.750    9.799    0.295    0.345   59.852
  268.000    9.089    0.292    0.346   58.615
  268.250    8.592    0.285    0.349   59.846
  268.500    8.276    0.282    0.346   59.223
  268.750    8.123    0.285    0.346   59.837
  269.000    8.124    0.286    0.357   59.834
  269.250    8.125    0.287    0.351   61.066
  269.500    8.127    0.292    0.341   55.506
  269.750    7.977    0.292    0.335   56.119
  270.000    7.978    0.291    0.329   59.819
  270.250    7.978    0.291    0.328   59.199
