~VERSION INFORMATION
 VERS.                 2.0:   CWLS LOG ASCII STANDARD -VERSION 2.0
 WRAP.                  NO:   ONE LINE PER DEPTH STEP
~WELL INFORMATION BLOCK
#MNEM.UNIT           DATA                    DESCRIPTION OF MNEMONIC
#---------    -------------------            -------------------------------
# Generated from Intellog Unique Number	CN_94_101/WELL/3648
WELL.         10-14-096-13W4                 : Well_name    - WELL
LOC .         AA/10-14-096-13W4/0            : Location     - LOCATION
UWI .         AA/10-14-096-13W400            : Uwi          - UNIQUE WELL ID
ENTR.         J                              : Entered      - ENTERED BY
SRVC.         SCHLUMBERGER                   : Scn          - SERVICE COMPANY
DATE.         08/05/92                       : Date         - LOG DATE
STRT.F        50                             : top_depth    - START DEPTH
STOP.F        760.302                        : bot_depth    - STOP DEPTH
STEP.F        0.8202                         : increment    - STEP LENGTH
 NULL. -999.2500:NULL Value
~CURVE INFORMATION BLOCK
#MNEM UNIT       ERCB CURVE CODE    CURVE DESCRIPTION
#-----------   ------------------   ----------------------------------
DEPT.F        00 001 00 00         : DEPTH        - DEPTH
ILD .OHMM     00 120 00 00         : RESD         - DEEP RESISTIVITY (DIL)
GR  .API      00 310 00 00         : GR           - GAMMA RAY
NPHI.V/V      00 330 00 00         : PHIN         - NEUTRON POROSITY (SANDSTONE)
~PARAMETER INFORMATION
#MNEM.UNIT           DATA             DESCRIPTION OF MNEMONIC
#---------         -----------     ------------------------------
GL  .M        418.003              : gl           - GROUND LEVEL ELEVATION
EREF.M        419.527              : kb           - ELEVATION OF DEPTH REFERENCE
DATM.M        419.527              : datum        - DATUM ELEVATION
TDD .M        235.001              : tdd          - TOTAL DEPTH DRILLER
RUN .         ONE                  : Run          - RUN NUMBER
ENG .         BILL                 : Engineer     - RECORDING ENGINEER
WIT .         JIM                  : Witness      - WITNESSED BY
MUD .         GEL                  : Mud_type     - MUD TYPE
MATR.         SANDSTONE            : Logunit      - NEUTRON MATRIX
TMAX.F        40                   : BHT          - MAXIMUM RECORDED TEMPERATURE
BHTD.F        771                  : BHTDEP       - MAXIMUM RECORDED TEMPERATURE
RMT .F        40                   : MDTP         - TEMPERATURE OF MUD
MUDD.LB/G     0.001                : MWT          - MUD DENSITY
NEUT.         1                    : NEUTRON      - NEUTRON TYPE
RESI.         0                    : RESIST       - RESISTIVITY TYPE
RM  .OHMM     0.9                  : RM           - RESISTIVITY OF MUD
RMC .OHMM     0.9                  : RMC          - RESISTIVITY OF MUD CAKE
RMF .OHMM     0.9                  : RMF          - RESISTIVITY OF MUD FILTRATE
SUFT.F        39.2                 : SUFT         - SURFACE TEMPERATURE
~A  DEPTH     RESD       GR     PHIN
# ...
  405.971    7.348   98.679    0.365
  406.791    8.421   99.528    0.353
  407.612    7.104   99.174    0.343
  408.432    6.229   99.220    0.351
  409.252    5.461   99.669    0.350
  410.072    5.071   98.924    0.352
  410.892    4.986   99.762    0.375
  411.713    5.291  100.222    0.365
  412.533    5.950  100.269    0.362
  413.353    6.314  101.509    0.354
  414.173    5.749  105.983    0.359
  414.993    5.240  105.227    0.371
  415.814    4.862   99.252    0.362
  416.634    5.160   94.469    0.351
  417.454    6.890   90.100    0.341
  418.274    6.521   90.158    0.339
  419.094    4.721   92.201    0.392
  419.915    3.230   94.278    0.398
  420.735    3.700   93.912    0.405
  421.555    5.438   94.762    0.403
  422.375    5.552   95.612    0.401
  423.196    4.425   94.855    0.375
  424.016    3.732   93.709    0.355
  424.836    3.886   93.756    0.379
  425.656    4.372   91.784    0.391
  426.476    4.140   89.823    0.393
  427.297    3.992   91.075    0.395
  428.117    4.000   94.735    0.404
  428.937    4.496  100.414    0.398
  429.757    5.246  100.071    0.396
  430.577    5.568   98.099    0.389
  431.398    2.970   94.544    0.370
  432.218    1.647   90.977    0.393
  433.038    1.652   88.993    0.439
  433.858    1.688   84.624    0.468
  434.678    1.690   79.451    0.458
  435.499    1.726   74.279    0.459
  436.319    1.731   76.735    0.459
  437.139    1.768   80.005    0.521
  437.959    1.841   81.256    0.502
  438.780    2.029   79.697    0.504
  439.600    3.037   74.914    0.475
  440.420    6.173   70.946    0.420
  441.240    8.563   67.380    0.367
  442.060    7.504   65.419    0.339
  442.881    7.239   63.848    0.351
  443.701    8.955   60.683    0.370
  444.521   10.657   61.545    0.359
  445.341    9.345   66.409    0.361
  446.161    4.707   78.512    0.413
  446.982    3.039   90.214    0.436
  447.802    2.990   92.268    0.421
  448.622    3.425   92.716    0.411
  449.442    3.923   94.381    0.404
  450.262    4.409   93.613    0.411
  451.083    4.958   92.857    0.416
  451.903    4.601   94.922    0.411
  452.723    5.584   95.772    0.409
  453.543    6.520   91.403    0.420
  454.364    6.919   83.019    0.388
  455.184    4.644   83.455    0.353
  456.004    4.395   92.748    0.429
  456.824    4.492   93.999    0.417
  457.644    4.249   92.841    0.418
  458.465    4.101   95.297    0.403
  459.285    3.954   95.745    0.392
  460.105    3.742   89.368    0.398
  460.925    4.205   83.794    0.394
  461.745    6.542   76.603    0.398
  462.566    7.935   66.200    0.320
  463.386   17.742   56.611    0.320
  464.206   21.936   50.222    0.315
  465.026   15.006   41.047    0.312
  465.846   19.648   40.692    0.313
  466.667   27.781   40.326    0.314
  467.487   12.480   43.986    0.308
  468.307    8.213   44.032    0.306
  469.127   13.023   40.867    0.308
  469.948   20.258   37.301    0.314
  470.768    9.095   39.757    0.312
  471.588    6.589   43.428    0.294
  472.408    7.405   45.483    0.302
  473.228    8.010   47.537    0.318
  474.049    7.876   51.197    0.325
  474.869    8.054   52.861    0.322
  475.689    7.054   53.310    0.330
  476.509    6.550   56.970    0.347
  477.329    7.803   65.861    0.333
  478.150    6.966   64.302    0.310
  478.970    5.996   65.553    0.310
  479.790    7.273   66.001    0.335
  480.610    9.166   62.033    0.325
  481.430   15.687   58.065    0.306
  482.251   20.934   54.889    0.278
  483.071   31.949   47.307    0.264
  483.891   36.598   42.938    0.250
  484.711   47.943   46.999    0.282
  485.531   34.712   56.705    0.312
  486.352   18.527   53.528    0.348
  487.172    9.883   49.962    0.343
  487.992    4.979   54.425    0.331
  488.812    6.395   80.591    0.360
  489.633   11.371   86.660    0.368
  490.453   24.942   87.923    0.418
  491.273   40.310   79.126    0.432
  492.093   50.801   69.537    0.327
  492.913   38.971   65.156    0.274
  493.734   41.358   57.976    0.215
  494.554   44.739   55.626    0.191
  495.374   37.044   52.862    0.265
  496.194   25.328   52.897    0.303
  497.014   14.591   58.565    0.316
  497.835   19.483   59.816    0.303
  498.655   19.156   57.879    0.307
  499.475   14.970   57.902    0.312
  500.295   12.402   65.589    0.303
  501.115   11.509   70.052    0.301
  501.936   10.086   76.133    0.312
  502.756   11.133   74.184    0.313
  503.576   10.733   74.620    0.320
  504.396    9.777   76.674    0.312
  505.217    9.437   74.324    0.296
  506.037   10.010   72.753    0.294
  506.857   10.225   75.221    0.298
  507.677   12.642   73.248    0.298
  508.497   17.876   69.682    0.292
  509.318   14.239   70.532    0.292
  510.138   11.133   74.192    0.308
  510.958    9.044   73.436    0.321
  511.778   18.380   69.869    0.318
  512.598   25.975   66.704    0.310
  513.419   30.946   61.933    0.308
  514.239   30.997   56.761    0.319
  515.059   37.600   52.379    0.328
  515.879   84.068   47.608    0.330
  516.699   40.807   42.837    0.318
  517.520   29.529   51.315    0.308
  518.340   22.653   60.608    0.310
  519.160   16.401   62.674    0.326
  519.980   12.344   67.137    0.340
  520.801    9.646   77.634    0.366
  521.621    5.557   84.506    0.365
  522.441    8.009   80.538    0.373
  523.261    8.659   78.979    0.390
  524.081    8.040   80.242    0.337
  524.902    9.946   77.466    0.338
  525.722    9.594   73.097    0.340
  526.542    8.740   74.761    0.361
  527.362   17.762   71.183    0.341
  528.182   19.962   64.405    0.330
  529.003   12.888   64.452    0.326
  529.823   43.053   62.892    0.329
  530.643   75.102   60.117    0.312
  531.463   35.051   52.134    0.317
  532.283   34.463   44.140    0.320
  533.104   43.456   43.785    0.323
  533.924   39.586   43.844    0.321
  534.744   36.735   41.883    0.320
  535.564   31.003   41.115    0.326
  536.385   24.709   43.984    0.326
  537.205   37.711   48.849    0.317
  538.025   35.670   54.540    0.312
  538.845   25.840   54.988    0.312
  539.665   50.547   53.016    0.314
  540.486  131.737   52.271    0.319
  541.306   58.028   49.496    0.327
  542.126   30.369   43.509    0.335
  542.946   26.628   39.541    0.332
  543.766   51.103   42.410    0.332
  544.587  118.771   38.831    0.314
  545.407  146.849   36.871    0.318
  546.227   91.262   38.134    0.328
  547.047   45.104   39.385    0.340
  547.867   44.348   40.223    0.345
  548.688   86.750   43.895    0.334
  549.508  154.245   45.146    0.319
  550.328  163.695   41.580    0.325
  551.148  143.531   35.203    0.335
  551.969   70.936   36.053    0.344
  552.789   49.462   38.107    0.337
  553.609   63.535   38.578    0.338
  554.429  139.369   36.996    0.331
  555.249  200.861   33.843    0.346
  556.070  273.371   32.283    0.341
  556.890  244.317   33.133    0.335
  557.710  118.463   37.584    0.343
  558.530   29.412   49.286    0.334
  559.350   10.507   60.184    0.329
  560.171    7.607   70.681    0.335
  560.991   10.762   77.152    0.331
  561.811   10.382   82.430    0.331
  562.631    9.452   89.715    0.339
  563.451    9.656   87.353    0.335
  564.272    9.494   90.210    0.324
  565.092    9.698   93.480    0.302
  565.912    9.355   84.671    0.310
  566.732    9.741   83.124    0.322
  567.552   10.947   85.178    0.332
  568.373   10.769   85.626    0.324
  569.193    9.619   84.469    0.326
  570.013   11.025   83.724    0.334
  570.833   12.629   84.161    0.340
  571.654   11.952   86.616    0.306
  572.474   11.318   89.473    0.306
  573.294   12.011   86.710    0.324
  574.114   10.947   79.530    0.329
  574.934   10.549   78.372    0.326
  575.755    9.428   84.843    0.317
  576.575    8.110   89.719    0.319
  577.395    8.284   85.751    0.325
  578.215    8.630   87.002    0.323
  579.035    8.486   84.640    0.326
  579.856    9.174   80.661    0.327
  580.676   12.479   76.291    0.308
  581.496   25.375   67.104    0.304
  582.316   33.224   57.503    0.313
  583.136   57.956   49.108    0.320
