~VERSION INFORMATION
 VERS.                 2.0:   CWLS LOG ASCII STANDARD -VERSION 2.0
 WRAP.                  NO:   ONE LINE PER DEPTH STEP
~WELL INFORMATION BLOCK
#MNEM.UNIT           DATA                    DESCRIPTION OF MNEMONIC
#---------    -------------------            -------------------------------
# Generated from Intellog Unique Number	CS_77_79/WELL/982
LOC .         AA/10-36-079-09W4/0            : Location     - LOCATION
UWI .         AA/10-36-079-09W4/0            : Uwi          - UNIQUE WELL ID
ENTR.         JHS                            : Entered      - ENTERED BY
SRVC.         SCHLUMBERGER                   : Scn          - SERVICE COMPANY
STRT.M        235                            : top_depth    - START DEPTH
STOP.M        455                            : bot_depth    - STOP DEPTH
STEP.M        0.25                           : increment    - STEP LENGTH
 NULL. -999.2500:NULL Value
~CURVE INFORMATION BLOCK
#MNEM UNIT       ERCB CURVE CODE    CURVE DESCRIPTION
#-----------   ------------------   ----------------------------------
DEPT.M        00 001 00 00         : DEPTH        - DEPTH
DPHI.V/V      00 890 00 00         : PHID         - DENSITY POROSITY (LIMESTONE)
NPHI.V/V      00 330 00 00         : PHIN         - NEUTRON POROSITY (LIMESTONE)
GR  .API      00 310 00 00         : GR           - GAMMA RAY
ILD .OHMM     00 120 00 00         : RESD         - DEEP RESISTIVITY (DIL)
RHOB.KG/M3    00 350 00 00         : DENS         - BULK DENSITY
~PARAMETER INFORMATION
#MNEM.UNIT           DATA             DESCRIPTION OF MNEMONIC
#---------         -----------     ------------------------------
GL  .M        672.8                : gl           - GROUND LEVEL ELEVATION
EREF.M        676.49               : kb           - ELEVATION OF DEPTH REFERENCE
DATM.M        676.49               : datum        - DATUM ELEVATION
TDD .M        434.08               : tdd          - TOTAL DEPTH DRILLER
RUN .         ONE                  : Run          - RUN NUMBER
ENG .         BILL                 : Engineer     - RECORDING ENGINEER
WIT .         JIM                  : Witness      - WITNESSED BY
MUD .         GEL                  : Mud_type     - MUD TYPE
MATR.         LIMESTONE            : Logunit      - NEUTRON MATRIX
TMAX.C        18                   : BHT          - MAXIMUM RECORDED TEMPERATURE
BHTD.M        434.08               : BHTDEP       - MAXIMUM RECORDED TEMPERATURE
MATR.         1                    : LOGUNIT      - NEUTRON MATRIX
RMT .C        25                   : MDTP         - TEMPERATURE OF MUD
NEUT.         1                    : NEUTRON      - NEUTRON TYPE
RESI.         0                    : RESIST       - RESISTIVITY TYPE
RMC .OHMM     0.25                 : RMC          - RESISTIVITY OF MUD CAKE
RMF .OHMM     0.25                 : RMF          - RESISTIVITY OF MUD FILTRATE
SUFT.C        15                   : SUFT         - SURFACE TEMPERATURE
~A  DEPTH     PHID     PHIN       GR     RESD     DENS
# ...
  417.500    0.298    0.368   64.309   48.261 2200.200
  417.750    0.291    0.370   71.125   37.841 2212.880
  418.000    0.285    0.370   71.155   32.585 2223.450
  418.250    0.280    0.383   69.938   30.824 2231.920
  418.500    0.278    0.392   79.837   32.024 2234.110
  418.750    0.282    0.394   97.142   34.540 2227.880
  419.000    0.294    0.371   92.231   44.954 2206.990
  419.250    0.300    0.359   79.291   67.981 2196.580
  419.500    0.301    0.363   73.763   93.603 2194.560
  419.750    0.305    0.386   73.783  106.810 2188.360
  420.000    0.307    0.369   67.638  119.629 2184.250
  420.250    0.300    0.356   61.487  113.163 2196.910
  420.500    0.278    0.358   76.944  115.398 2234.770
  420.750    0.248    0.355   76.356   82.353 2285.180
  421.000    0.188    0.350   71.434   57.691 2388.070
  421.250    0.172    0.338   72.693   41.957 2415.430
  421.500    0.161    0.335   83.828   27.782 2434.390
  421.750    0.230    0.381   96.816   19.461 2316.990
  422.000    0.274    0.397  115.355   14.695 2241.540
  422.250    0.264    0.394  124.635   11.525 2258.420
  422.500    0.253    0.405  133.300   11.530 2277.380
  422.750    0.246    0.404  137.648   12.208 2290.070
  423.000    0.246    0.396  133.348   12.682 2290.140
  423.250    0.239    0.384  133.371   11.997 2300.730
  423.500    0.229    0.379  135.251   11.136 2317.570
  423.750    0.215    0.369  135.279   10.145 2342.830
  424.000    0.207    0.388  137.766    9.071 2355.510
  424.250    0.229    0.423  145.814    8.742 2317.830
  424.500    0.226    0.394  145.840    8.268 2324.230
  424.750    0.227    0.378  142.775    7.675 2322.190
  425.000    0.217    0.370  145.268    7.128 2339.060
  425.250    0.203    0.357  145.907    7.267 2362.240
  425.500    0.200    0.341  144.079    7.692 2368.620
  425.750    0.198    0.330  147.190    8.617 2370.780
  426.000    0.197    0.317  142.275    9.293 2372.960
  426.250    0.198    0.317  128.719    9.656 2370.950
  426.500    0.204    0.321  110.844    9.661 2360.550
  426.750    0.206    0.328  120.749    9.851 2358.520
  427.000    0.203    0.344  125.089   10.047 2362.820
  427.250    0.205    0.350  128.815   10.052 2358.690
  427.500    0.189    0.358  124.519   10.059 2386.050
  427.750    0.181    0.346  120.841   10.259 2400.860
  428.000    0.186    0.341  115.306   10.262 2392.530
  428.250    0.189    0.334  114.101   10.080 2386.300
  428.500    0.192    0.346  112.271    9.899 2382.180
  428.750    0.189    0.346  120.936    9.541 2386.490
  429.000    0.189    0.349  127.746    9.196 2386.550
  429.250    0.195    0.352  129.622    9.030 2376.150
  429.500    0.201    0.360  138.905    8.869 2365.730
  429.750    0.196    0.363  148.190    9.043 2374.220
  430.000    0.189    0.361  155.004    9.576 2386.900
  430.250    0.190    0.336  134.040    9.945 2384.880
  430.500    0.197    0.327  133.445   10.334 2372.380
  430.750    0.201    0.340  128.535   11.147 2366.160
  431.000    0.201    0.351  121.769   11.367 2366.250
  431.250    0.197    0.364  126.727   11.372 2372.610
  431.500    0.195    0.365  124.286   11.385 2376.910
  431.750    0.187    0.364  117.520   11.389 2389.570
  432.000    0.178    0.354  113.837   10.977 2406.460
  432.250    0.174    0.358  115.720   10.383 2412.810
  432.500    0.171    0.349  121.293   10.196 2417.080
  432.750    0.174    0.333  127.490   10.013 2412.980
  433.000    0.182    0.323  132.450   10.210 2398.380
  433.250    0.193    0.327  133.092   10.412 2379.570
  433.500    0.198    0.333  124.473   10.420 2371.260
  433.750    0.194    0.338  118.323   10.624 2377.660
  434.000    0.192    0.329  128.224   10.631 2381.960
  434.250    0.193    0.323  122.693   10.841 2379.910
  434.500    0.197    0.327  127.655   10.849 2373.700
  434.750    0.199    0.317  123.977   11.059 2369.590
  435.000    0.198    0.305  112.271   11.068 2371.810
  435.250    0.199    0.304  116.001   11.076 2369.760
  435.500    0.201    0.311  117.874   11.293 2365.640
  435.750    0.210    0.315  117.282   11.515 2351.050
  436.000    0.221    0.334  116.069   11.963 2332.250
  436.250    0.238    0.341   82.764   12.427 2302.950
  436.500    0.226    0.352   84.022   15.005 2324.030
  436.750    0.221    0.366   95.156   17.446 2332.490
  437.000    0.235    0.373   88.390   20.674 2307.400
  437.250    0.321    0.372   61.872   23.594 2160.620
  437.500    0.345    0.378   37.830   26.424 2120.840
  437.750    0.360    0.396   47.107   29.048 2093.650
  438.000    0.340    0.358   58.243   30.749 2129.400
  438.250    0.298    0.338   63.203   33.163 2200.820
  438.500    0.282    0.327   71.250   37.148 2228.190
  438.750    0.290    0.361   80.532   40.825 2213.580
  439.000    0.305    0.361   92.286   47.478 2188.480
  439.250    0.306    0.347   98.483   52.178 2186.480
  439.500    0.300    0.342  106.531   58.438 2197.040
  439.750    0.297    0.350  110.873   55.284 2201.340
  440.000    0.299    0.351   86.825   46.720 2199.320
  440.250    0.299    0.355   78.824   36.625 2199.380
  440.500    0.297    0.354  103.542   22.079 2201.560
  440.750    0.294    0.343  115.907   14.619 2207.960
  441.000    0.290    0.343  128.273   11.902 2214.330
  441.250    0.285    0.327  119.659   10.248 2222.790
  441.500    0.279    0.317  119.063    8.500 2233.360
  441.750    0.273    0.319  141.307    7.320 2243.940
  442.000    0.282    0.322  149.357    6.304 2227.250
  442.250    0.292    0.329  107.407    5.636 2210.540
  442.500    0.291    0.321  111.135    5.135 2212.730
  442.750    0.297    0.328  124.740    4.767 2202.330
  443.000    0.302    0.325  130.319    4.594 2194.010
  443.250    0.297    0.326  135.278    4.512 2202.480
  443.500    0.289    0.332  119.255    4.431 2215.160
  443.750    0.286    0.330  127.303    4.352 2221.540
  444.000    0.289    0.338  121.152    4.356 2215.350
  444.250    0.294    0.337  116.859    4.276 2207.050
  444.500    0.295    0.341  117.497    4.279 2205.000
  444.750    0.293    0.360  127.399    4.364 2209.280
  445.000    0.292    0.337  133.593    4.450 2211.480
  445.250    0.295    0.326  142.258    4.453 2205.260
  445.500    0.298    0.327  153.398    4.373 2201.160
  445.750    0.298    0.353  134.898    4.294 2201.220
  446.000    0.293    0.338  134.924    4.217 2209.730
  446.250    0.290    0.333  139.887    4.142 2214.000
  446.500    0.290    0.328  122.628    4.144 2214.050
  446.750    0.286    0.315  114.011    4.148 2220.450
  447.000    0.284    0.307   84.404    4.228 2224.720
  447.250    0.276    0.294   76.405    4.393 2237.410
  447.500    0.275    0.284   78.288    4.650 2239.610
  447.750    0.280    0.276   82.626    5.209 2231.270
  448.000    0.266    0.270   88.826    5.833 2254.430
  448.250    0.237    0.217   90.083    7.043    0.000
  448.500    0.214    0.200   83.937    8.665    0.000
  448.750    0.195    0.183   73.464   11.276    0.000
  449.000    0.022    0.174   72.256   14.676    0.000
  449.250    0.022    0.156   72.895   17.064    0.000
  449.500    0.022    0.137   77.860   19.842    0.000
  449.750    0.018    0.126   78.495   22.645    0.000
  450.000    0.012    0.113   72.964   25.842    0.000
  450.250    0.007    0.098   46.451   30.049    0.000
  450.500    0.005    0.087   34.127   38.383    0.000
  450.750    0.006    0.077   37.853   43.801    0.000
  451.000    0.011    0.088   50.224   45.502    0.000
  451.250    0.016    0.104   55.184   44.687    0.000
  451.500    0.022    0.105   55.206   44.726    0.000
  451.750    0.022    0.089   42.885   45.604    0.000
  452.000    0.020    0.078   35.504   47.377    0.000
  452.250    0.020    0.071   33.058   49.222    0.000
  452.500    0.024    0.082   35.557   48.338    0.000
  452.750    0.024    0.100   40.512   41.636    0.000
  453.000    0.023    0.112   52.886   39.378    0.000
  453.250    0.025    0.128   60.931   36.551    0.000
  453.500    0.033    0.128   64.655   33.298    0.000
  453.750    0.036    0.109   52.339   32.096    0.000
