~VERSION INFORMATION
 VERS.                 2.0:   CWLS LOG ASCII STANDARD -VERSION 2.0
 WRAP.                  NO:   ONE LINE PER DEPTH STEP
~WELL INFORMATION BLOCK
#MNEM.UNIT           DATA                    DESCRIPTION OF MNEMONIC
#---------    -------------------            -------------------------------
# Generated from Intellog Unique Number	CN_94_101/WELL/5061
WELL.         16-34-099-13W4                 : Well_name    - WELL
LOC .         AA/16-34-099-13W4/0            : Location     - LOCATION
UWI .         AA/16-34-099-13W400            : Uwi          - UNIQUE WELL ID
ENTR.         TIM                            : Entered      - ENTERED BY
SRVC.         SCHLUMBERGER                   : Scn          - SERVICE COMPANY
DATE.         08/13/92                       : Date         - LOG DATE
STRT.M        344.424                        : top_depth    - START DEPTH
STOP.M        557.674                        : bot_depth    - STOP DEPTH
STEP.M        0.25                           : increment    - STEP LENGTH
 NULL. -999.2500:NULL Value
~CURVE INFORMATION BLOCK
#MNEM UNIT       ERCB CURVE CODE    CURVE DESCRIPTION
#-----------   ------------------   ----------------------------------
DEPT.M        00 001 00 00         : DEPTH        - DEPTH
NPHI.V/V      00 330 00 00         : PHIN         - NEUTRON POROSITY (SANDSTONE)
ILD .OHMM     00 120 00 00         : RESD         - DEEP RESISTIVITY (DIL)
GR  .API      00 310 00 00         : GR           - GAMMA RAY
~PARAMETER INFORMATION
#MNEM.UNIT           DATA             DESCRIPTION OF MNEMONIC
#---------         -----------     ------------------------------
GL  .M        802.081              : gl           - GROUND LEVEL ELEVATION
EREF.M        805.099              : kb           - ELEVATION OF DEPTH REFERENCE
DATM.M        805.099              : datum        - DATUM ELEVATION
TDD .M        560.832              : tdd          - TOTAL DEPTH DRILLER
RUN .         ONE                  : Run          - RUN NUMBER
ENG .         BILL                 : Engineer     - RECORDING ENGINEER
WIT .         JIM                  : Witness      - WITNESSED BY
MUD .         GEL                  : Mud_type     - MUD TYPE
MATR.         SANDSTONE            : Logunit      - NEUTRON MATRIX
TMAX.C        21.1111              : BHT          - MAXIMUM RECORDED TEMPERATURE
BHTD.M        560.832              : BHTDEP       - MAXIMUM RECORDED TEMPERATURE
RMT .C        21.1111              : MDTP         - TEMPERATURE OF MUD
MUDD.KG/M     1090                 : MWT          - MUD DENSITY
NEUT.         1                    : NEUTRON      - NEUTRON TYPE
RESI.         0                    : RESIST       - RESISTIVITY TYPE
RM  .OHMM     6                    : RM           - RESISTIVITY OF MUD
RMC .OHMM     6                    : RMC          - RESISTIVITY OF MUD CAKE
RMF .OHMM     6                    : RMF          - RESISTIVITY OF MUD FILTRATE
SUFT.C        4                    : SUFT         - SURFACE TEMPERATURE
~A  DEPTH     PHIN     RESD       GR
  344.424    0.501    2.049   87.051
  344.674    0.498    2.171   87.065
  344.924    0.493    2.258   87.486
  345.174    0.490    2.347   87.904
  345.424    0.486    2.439   87.917
  345.674    0.485    2.536   87.927
  345.924    0.488    2.490   86.727
  346.174    0.494    2.444   87.556
  346.424    0.494    2.310   91.211
  346.674    0.494    2.182   93.244
  346.924    0.500    2.062   94.471
  347.174    0.507    1.986   94.488
  347.424    0.517    1.842   94.501
  347.674    0.528    1.774   93.301
  347.924    0.530    1.709   90.081
  348.174    0.530    1.710   87.259
  348.424    0.531    1.812   82.013
  348.674    0.526    1.994   80.010
  348.924    0.518    2.369   80.020
  349.174    0.507    2.814   80.441
  349.424    0.493    3.344   82.070
  349.674    0.477    3.542   84.106
  349.924    0.448    3.682   86.146
  350.174    0.470    3.686   86.968
  350.424    0.482    3.483   87.787
  350.674    0.471    3.108   87.801
  350.924    0.472    2.670   88.623
  351.174    0.490    2.383   91.876
  351.424    0.516    2.086   94.317
  351.674    0.520    1.898   95.143
  351.924    0.512    1.899   93.130
  352.174    0.518    2.012   92.338
  352.424    0.532    2.091   93.973
  352.674    0.535    2.303   94.792
  352.924    0.536    2.393   96.019
  353.174    0.538    2.488   95.628
  353.424    0.539    2.538   93.622
  353.674    0.540    2.399   93.227
  353.924    0.545    2.266   91.623
  354.174    0.550    1.910   90.425
  354.424    0.553    1.672   89.633
  354.674    0.560    1.550   89.235
  354.924    0.565    1.465   88.844
  355.174    0.577    1.439   88.857
  355.424    0.586    1.439   87.259
  355.674    0.592    1.555   82.819
  355.924    0.572    1.616   80.405
  356.174    0.560    1.712   80.418
  356.424    0.547    1.885   81.649
  356.674    0.539    2.036   82.873
  356.924    0.542    2.116   81.268
  357.174    0.565    2.242   76.022
  357.424    0.571    2.330   71.585
  357.674    0.565    2.614   70.789
  357.924    0.533    2.878   72.026
  358.174    0.505    3.168   72.845
  358.424    0.482    3.357   74.888
  358.674    0.459    3.424   75.296
  358.924    0.448    3.298   77.744
  359.174    0.452    3.177   78.559
  359.424    0.454    2.946   81.000
  359.674    0.460    2.783   81.833
  359.924    0.466    2.580   81.435
  360.174    0.500    2.392   79.425
  360.424    0.552    2.176   78.630
  360.674    0.577    1.942   82.692
  360.924    0.596    1.906   84.725
  361.174    0.575    2.059   86.765
  361.424    0.540    2.493   87.183
  361.674    0.430    2.851   88.005
  361.924    0.450    3.080   88.828
  362.174    0.489    3.202   87.223
  362.424    0.481    3.203   84.003
  362.674    0.477    3.145   81.993
  362.924    0.485    3.087   80.385
  363.174    0.496    3.031   79.994
  363.424    0.522    3.032   83.655
  363.674    0.542    3.152   84.879
  363.924    0.505    3.215   86.915
  364.174    0.481    3.217   87.337
  364.424    0.477    2.984   87.350
  364.674    0.500    2.873   87.367
  364.924    0.508    2.715   86.975
  365.174    0.533    2.471   86.986
  365.424    0.556    2.334   87.002
  365.674    0.571    2.248   87.012
  365.924    0.571    2.165   87.026
  366.174    0.568    2.085   86.638
  366.424    0.566    2.047   85.839
  366.674    0.556    2.088   84.240
  366.924    0.551    2.171   82.636
  367.174    0.556    2.256   81.435
  367.424    0.544    2.581   80.232
  367.674    0.525    2.631   77.821
  367.924    0.503    2.953   77.022
  368.174    0.490    3.070   76.226
  368.424    0.481    3.253   77.457
  368.674    0.451    3.318   79.493
  368.924    0.457    3.383   82.743
  369.174    0.451    3.385   83.973
  369.424    0.445    3.388   84.792
  369.674    0.470    3.325   85.217
  369.924    0.490    3.265   86.444
  370.174    0.525    3.206   86.855
  370.424    0.526    3.208   88.494
  370.674    0.514    3.210   88.908
  370.924    0.504    3.150   88.922
  371.174    0.508    3.152   86.912
  371.424    0.514    3.155   84.903
  371.674    0.517    3.157   84.110
  371.924    0.528    3.158   84.528
  372.174    0.542    3.161   84.946
  372.424    0.548    3.103   84.956
  372.674    0.544    3.105   84.575
  372.924    0.538    3.107   84.582
  373.174    0.534    3.109   84.595
  373.424    0.526    3.052   84.609
  373.674    0.523    2.997   84.625
  373.924    0.521    2.942   85.047
  374.174    0.518    2.888   85.461
  374.424    0.518    2.730   85.475
  374.674    0.527    2.680   85.893
  374.924    0.536    2.532   86.317
  375.174    0.544    2.348   86.732
  375.424    0.546    2.218   87.153
  375.674    0.541    2.136   87.568
  375.924    0.537    2.058   87.581
  376.174    0.534    2.060   87.190
  376.424    0.530    2.100   86.805
  376.674    0.528    2.184   86.411
  376.924    0.525    2.227   86.023
  377.174    0.525    2.272   86.033
  377.424    0.519    2.272   86.454
  377.674    0.518    2.318   88.487
  377.924    0.516    2.319   90.928
  378.174    0.516    2.321   92.560
  378.424    0.516    2.278   93.787
  378.674    0.517    2.195   92.182
  378.924    0.520    2.114   90.577
  379.174    0.526    1.998   92.617
  379.424    0.530    1.817   94.249
  379.674    0.534    1.684   93.453
  379.924    0.542    1.654   93.065
  380.174    0.548    1.720   94.697
  380.424    0.554    1.787   95.924
  380.674    0.562    1.894   93.914
  380.924    0.572    1.969   92.306
  381.174    0.579    2.008   90.296
  381.424    0.589    2.010   89.501
  381.674    0.593    2.010   91.132
  381.924    0.585    1.900   92.363
  382.174    0.579    1.795   89.949
  382.424    0.568    1.697   86.726
  382.674    0.556    1.730   83.907
  382.924    0.535    1.941   79.473
  383.174    0.502    2.220   76.651
  383.424    0.486    2.740   72.215
  383.674    0.465    3.255   68.182
  383.924    0.434    3.651   65.367
  384.174    0.417    4.422   66.999
  384.424    0.402    4.685   71.058
  384.674    0.399    4.779   75.926
  384.924    0.399    4.782   78.771
  385.174    0.403    4.785   82.831
  385.424    0.412    4.698   84.867
  385.674    0.427    4.611   83.265
  385.924    0.422    4.358   83.282
  386.174    0.399    4.198   84.506
  386.424    0.398    4.200   84.519
  386.674    0.409    4.125   84.131
  386.924    0.420    4.126   84.552
  387.174    0.419    4.129   84.559
  387.424    0.408    4.211   84.573
  387.674    0.393    4.213   85.405
  387.924    0.382    4.216   85.412
  388.174    0.375    4.219   85.425
  388.424    0.383    4.222   84.633
  388.674    0.398    4.224   83.837
  388.924    0.398    4.148   83.442
  389.174    0.390    4.150   84.268
  389.424    0.391    4.076   84.278
  389.674    0.403    4.076   84.700
  389.924    0.412    4.002   84.312
  390.174    0.423    4.006   83.516
  390.424    0.418    3.932   82.720
  390.674    0.414    3.935   81.928
  390.924    0.411    3.862   81.537
  391.174    0.407    3.792   81.139
  391.424    0.404    3.723   79.939
  391.674    0.400    3.725   77.531
  391.924    0.399    3.727   75.522
  392.174    0.398    3.730   73.913
  392.424    0.394    3.953   71.095
  392.674    0.393    4.109   67.467
  392.924    0.388    4.353   65.053
  393.174    0.377    4.612   69.112
  393.424    0.369    4.794   72.767
  393.674    0.374    5.179   74.402
  393.924    0.383    5.281   73.609
  394.174    0.393    5.284   72.810
  394.424    0.399    5.390   70.801
  394.674    0.401    5.394   67.578
  394.924    0.399    5.294   63.545
  395.174    0.396    5.297   60.322
  395.424    0.401    5.302   58.721
  395.674    0.404    5.304   61.161
  395.924    0.405    5.310   59.961
  396.174    0.405    5.311   58.761
  396.424    0.401    5.315   57.564
  396.674    0.396    5.319   57.574
  396.924    0.395    5.425   60.824
  397.174    0.397    5.428   64.077
  397.424    0.401    5.431   63.281
  397.674    0.403    5.538   62.081
  397.924    0.405    5.544   60.476
  398.174    0.400    5.546   59.680
  398.424    0.398    5.656   58.884
