~VERSION INFORMATION
 VERS.                 2.0:   CWLS LOG ASCII STANDARD -VERSION 2.0
 WRAP.                  NO:   ONE LINE PER DEPTH STEP
~WELL INFORMATION BLOCK
#MNEM.UNIT           DATA                    DESCRIPTION OF MNEMONIC
#---------    -------------------            -------------------------------
# Generated from Intellog Unique Number	CN_94_101/WELL/5001
WELL.         10-06-098-07W4                 : Well_name    - WELL
LOC .         AA/10-06-098-07W4/0            : Location     - LOCATION
UWI .         AA/10-06-098-07W400            : Uwi          - UNIQUE WELL ID
ENTR.         TIM                            : Entered      - ENTERED BY
SRVC.         SCHLUMBERGER                   : Scn          - SERVICE COMPANY
DATE.         08/11/92                       : Date         - LOG DATE
STRT.M        0                              : top_depth    - START DEPTH
STOP.M        85                             : bot_depth    - STOP DEPTH
STEP.M        0.25                           : increment    - STEP LENGTH
 NULL. -999.2500:NULL Value
~CURVE INFORMATION BLOCK
#MNEM UNIT       ERCB CURVE CODE    CURVE DESCRIPTION
#-----------   ------------------   ----------------------------------
DEPT.M        00 001 00 00         : DEPTH        - DEPTH
GR  .API      00 310 00 00         : GR           - GAMMA RAY
ILD .OHMM     00 120 00 00         : RESD         - DEEP RESISTIVITY (DIL)
NPHI.V/V      00 330 00 00         : PHIN         - NEUTRON POROSITY (SANDSTONE)
DPHI.V/V      00 890 00 00         : PHID         - DENSITY POROSITY (SANDSTONE)
~PARAMETER INFORMATION
#MNEM.UNIT           DATA             DESCRIPTION OF MNEMONIC
#---------         -----------     ------------------------------
GL  .M        292.7                : gl           - GROUND LEVEL ELEVATION
EREF.M        292.7                : kb           - ELEVATION OF DEPTH REFERENCE
DATM.M        292.7                : datum        - DATUM ELEVATION
TDD .M        89.6                 : tdd          - TOTAL DEPTH DRILLER
RUN .         ONE                  : Run          - RUN NUMBER
ENG .         BILL                 : Engineer     - RECORDING ENGINEER
WIT .         JIM                  : Witness      - WITNESSED BY
MUD .         GEL                  : Mud_type     - MUD TYPE
MATR.         SANDSTONE            : Logunit      - NEUTRON MATRIX
TMAX.C        10                   : BHT          - MAXIMUM RECORDED TEMPERATURE
BHTD.M        89.6                 : BHTDEP       - MAXIMUM RECORDED TEMPERATURE
RMT .C        10                   : MDTP         - TEMPERATURE OF MUD
MUDD.KG/M     1090                 : MWT          - MUD DENSITY
NEUT.         1                    : NEUTRON      - NEUTRON TYPE
RESI.         0                    : RESIST       - RESISTIVITY TYPE
RM  .OHMM     13.1                 : RM           - RESISTIVITY OF MUD
RMC .OHMM     13.1                 : RMC          - RESISTIVITY OF MUD CAKE
RMF .OHMM     13.1                 : RMF          - RESISTIVITY OF MUD FILTRATE
SUFT.C        4                    : SUFT         - SURFACE TEMPERATURE
~A  DEPTH       GR     RESD     PHIN     PHID
# ...
   43.500   97.410  301.450    0.727    0.302
   43.750  108.393  323.973    0.729    0.303
   44.000  115.733  368.656    0.729    0.304
   44.250  111.541  642.532    0.729    0.306
   44.500  106.742  599.548    0.725    0.308
   44.750  104.371  575.150    0.724    0.306
   45.000  130.556  521.463    0.719    0.295
   45.250  125.150  434.175    0.713    0.280
   45.500  121.550  388.233    0.715    0.285
   45.750  120.393  372.435    0.703    0.292
   46.000  128.948  372.959    0.705    0.300
   46.250  116.865  347.886    0.713    0.306
   46.500  111.458  281.444    0.722    0.311
   46.750  109.073  227.771    0.734    0.312
   47.000  107.337  212.459    0.743    0.309
   47.250  107.972  238.354    0.751    0.304
   47.500  106.815  636.514    0.759    0.296
   47.750  100.802  560.743    0.782    0.297
   48.000   91.754  440.945    0.780    0.299
   48.250   84.526  405.503    0.777    0.300
   48.500   72.443  604.548    0.768    0.273
   48.750   68.844  555.956    0.757    0.240
   49.000   62.831  437.334    0.736    0.213
   49.250   72.006  369.206    0.705    0.086
   49.500   58.709  339.649    0.696    0.103
   49.750   54.503  381.046    0.711    0.127
   50.000   50.296 4521.080    0.729    0.175
   50.250   41.248 4099.060    0.743    0.194
   50.500   37.677 3561.440    0.758    0.204
   50.750   34.684 1655.460    0.769    0.221
   51.000   29.278 1037.580    0.767    0.230
   51.250   24.479  876.251    0.759    0.229
   51.500   19.087  794.179    0.744    0.202
   51.750   16.701  740.789    0.729    0.071
   52.000   16.151  785.187    0.710    0.030
   52.250   16.208 1059.840    0.651    0.021
   52.500   16.250 1410.900    0.557    0.031
   52.750   18.763 1674.780    0.444    0.061
   53.000   20.641 4667.070    0.568    0.154
   53.250   21.912 4806.580    0.694    0.207
   53.500   21.968 5022.830    0.744    0.237
   53.750   22.011 4958.980    0.723    0.240
   54.000   19.061 4826.910    0.681    0.205
   54.250   17.889 4833.710    0.674    0.214
   54.500   18.539 4909.730    0.661    0.227
   54.750   24.680 4916.640    0.442    0.235
   55.000   22.901 4923.570    0.424    0.232
   55.250   18.723 4932.230    0.430    0.213
   55.500   16.338 4872.960    0.430    0.044
   55.750   14.587 4809.320    0.431    0.042
   56.000   17.058 4746.520    0.426    0.047
   56.250   29.861 4620.110    0.424    0.048
   56.500   40.858 4561.380    0.421    0.039
   56.750   38.487 4504.980    0.419    0.036
   57.000   31.260 4446.150    0.417    0.033
   57.250   27.660 4457.110    0.414    0.030
   57.500   22.861 4460.240    0.412    0.022
   57.750   18.683 4464.950    0.412    0.016
   58.000   17.526 4601.660    0.414    0.016
   58.250   17.568 4672.390    0.413    0.016
   58.500   19.446 4952.420    0.413    0.012
   58.750   20.716 5326.180    0.415    0.004
   59.000   19.559 5333.680    0.416    0.011
   59.250   17.202 5265.880    0.419    0.126
   59.500   15.438 5198.940    0.426    0.229
   59.750   13.688 4990.890    0.452    0.267
   60.000   13.109 4789.470    0.546    0.240
   60.250   13.165 4794.530    0.599    0.031
   60.500   15.057 4802.970    0.568    0.009
   60.750   16.935 4808.030    0.505    0.007
   61.000   16.385 4816.500    0.418    0.008
   61.250   15.213 4821.580    0.404    0.009
   61.500   14.663 4694.820    0.405    0.013
   61.750   15.341 4571.390    0.411    0.015
   62.000   17.233 4574.610    0.418    0.023
   62.250   18.503 4582.660    0.457    0.037
   62.500   18.560 4587.500    0.492    0.235
   62.750   20.423 4593.960    0.507    0.267
   63.000   22.922 4602.040    0.516    0.258
   63.250   22.993 4543.540    0.516    0.217
   63.500   23.021 4487.360    0.503    0.196
   63.750   22.471 4492.100    0.485    0.119
   64.000   21.314 4500.010    0.467    0.004
   64.250   20.156 4569.180    0.443   -0.000
   64.500   18.999 4642.680    0.428   -0.002
   64.750   18.449 4784.820    0.415   -0.004
   65.000   20.933 4788.190    0.410   -0.002
   65.250   26.453 4865.210    0.405    0.003
   65.500   33.215 4872.060    0.404    0.013
   65.750   33.272 4877.200    0.406    0.032
   66.000   35.149 4748.980    0.407    0.111
   66.250   38.241 4622.510    0.409    0.137
   66.500   38.919 4693.560    0.412    0.172
   66.750   35.305 4906.450    0.423    0.168
   67.000   29.913 4983.620    0.438    0.141
   67.250   28.149 4920.270    0.473    0.101
   67.500   28.191 4857.720    0.493    0.008
   67.750   27.655 4467.270    0.452    0.019
   68.000   27.698 3993.170    0.457    0.036
   68.250   27.754 3568.130    0.471    0.046
   68.500   30.846 3189.450    0.489    0.084
   68.750  118.352 2732.060    0.494    0.092
   69.000  112.946 2442.120    0.508    0.097
   69.250   96.007 2310.520    0.531    0.097
   69.500   84.516 2381.260    0.537    0.097
   69.750   58.458 2559.170    0.542    0.097
   70.000   50.624 2997.090    0.548    0.097
   70.250   42.790 3362.370    0.553    0.094
   70.500   37.976 3773.500    0.557    0.086
   70.750   33.177 3468.980    0.559    0.082
   71.000   31.413 2470.620    0.556    0.084
   71.250   30.862 2303.720    0.546    0.085
   71.500   32.133 2179.580    0.528    0.086
   71.750   38.881 1894.380    0.503    0.089
   72.000   46.221 1668.870    0.508    0.092
   72.250   51.134 1429.550    0.516    0.094
   72.500   39.051 1140.610    0.527    0.077
   72.750   31.824  789.327    0.535    0.077
   73.000   30.059  554.041    0.545    0.078
   73.250   29.523  394.591    0.546    0.081
   73.500   29.552  373.459    0.500    0.083
   73.750   29.637  449.646    0.513    0.085
   74.000   29.707 1086.770    0.523    0.087
   74.250   29.157 1715.510    0.534    0.087
   74.500   28.578 1599.620    0.539    0.085
   74.750   28.028 1350.910    0.537    0.078
   75.000   29.313 1173.310    0.531    0.070
   75.250   29.962 1034.010    0.516    0.061
   75.500   30.033  924.268    0.503    0.052
   75.750   30.090  803.045    0.480    0.048
   76.000   30.133  707.948    0.454    0.043
   76.250   31.417  641.639    0.440    0.039
   76.500   32.067  581.542    0.439    0.037
   76.750   32.730  477.370    0.438    0.035
   77.000   33.408  375.516    0.442    0.035
   77.250   33.451  303.903    0.445    0.035
   77.500   33.508  260.230    0.451    0.035
   77.750   34.171  236.022    0.457    0.039
   78.000   39.084  246.554    0.467    0.041
   78.250   40.976  621.838    0.472    0.043
   78.500   41.032  717.976    0.475    0.045
   78.750   44.731  496.854    0.473    0.052
   79.000   46.002  363.927    0.476    0.056
   79.250   43.630  255.536    0.505    0.067
   79.500   36.403  200.943    0.518    0.113
   79.750   34.032  222.334    0.554    0.125
   80.000   33.481  317.533    0.576    0.099
   80.250   31.717  327.255    0.605    0.068
   80.500   29.953  250.134    0.604    0.060
   80.750   29.388  230.029    0.530    0.062
   81.000   28.231  227.105    0.467    0.071
   81.250   28.288  234.058    0.486    0.101
   81.500   30.787  237.656    0.517    0.142
   81.750   32.057  237.991    0.557    0.165
   82.000   32.721  222.070    0.598    0.171
   82.250   32.778  216.155    0.643    0.163
   82.500   32.834  210.325    0.666    0.154
   82.750   32.919  204.723    0.661    0.097
   83.000   32.962  202.121    0.612    0.080
   83.250   33.640  199.552    0.558    0.089
   83.500   33.696  194.237    0.517    0.104
   83.750   33.725  189.131    0.423    0.114
   84.000   33.781  189.397    0.423    0.115
   84.250   33.838  189.663    0.424    0.107
   84.500   33.895  174.480    0.424    0.092
   84.750   33.951  164.962    0.427    0.098
   85.000   34.629  156.128    0.429    0.107
