~VERSION INFORMATION
 VERS.                 2.0:   CWLS LOG ASCII STANDARD -VERSION 2.0
 WRAP.                  NO:   ONE LINE PER DEPTH STEP
~WELL INFORMATION BLOCK
#MNEM.UNIT           DATA                    DESCRIPTION OF MNEMONIC
#---------    -------------------            -------------------------------
# Generated from Intellog Unique Number	CN_94_101/WELL/5017
WELL.         11-13-100-13W4                 : Well_name    - WELL
LOC .         AA/11-13-100-13W4/0            : Location     - LOCATION
UWI .         AA/11-13-100-13W400            : Uwi          - UNIQUE WELL ID
ENTR.         TIM                            : Entered      - ENTERED BY
SRVC.         SCHLUMBERGER                   : Scn          - SERVICE COMPANY
DATE.         08/13/92                       : Date         - LOG DATE
STRT.M        345                            : top_depth    - START DEPTH
STOP.M        600                            : bot_depth    - STOP DEPTH
STEP.M        0.25                           : increment    - STEP LENGTH
 NULL. -999.2500:NULL Value
~CURVE INFORMATION BLOCK
#MNEM UNIT       ERCB CURVE CODE    CURVE DESCRIPTION
#-----------   ------------------   ----------------------------------
DEPT.M        00 001 00 00         : DEPTH        - DEPTH
GR  .API      00 310 00 00         : GR           - GAMMA RAY
ILD .OHMM     00 120 00 00         : RESD         - DEEP RESISTIVITY (DIL)
NPHI.V/V      00 330 00 00         : PHIN         - NEUTRON POROSITY (SANDSTONE)
DPHI.V/V      00 890 00 00         : PHID         - DENSITY POROSITY (SANDSTONE)
~PARAMETER INFORMATION
#MNEM.UNIT           DATA             DESCRIPTION OF MNEMONIC
#---------         -----------     ------------------------------
GL  .M        791                  : gl           - GROUND LEVEL ELEVATION
EREF.M        794.8                : kb           - ELEVATION OF DEPTH REFERENCE
DATM.M        794.8                : datum        - DATUM ELEVATION
TDD .M        606                  : tdd          - TOTAL DEPTH DRILLER
RUN .         ONE                  : Run          - RUN NUMBER
ENG .         BILL                 : Engineer     - RECORDING ENGINEER
WIT .         JIM                  : Witness      - WITNESSED BY
MUD .         GEL                  : Mud_type     - MUD TYPE
MATR.         SANDSTONE            : Logunit      - NEUTRON MATRIX
TMAX.C        28                   : BHT          - MAXIMUM RECORDED TEMPERATURE
BHTD.M        606                  : BHTDEP       - MAXIMUM RECORDED TEMPERATURE
RMT .C        4                    : MDTP         - TEMPERATURE OF MUD
MUDD.KG/M     1090                 : MWT          - MUD DENSITY
NEUT.         1                    : NEUTRON      - NEUTRON TYPE
RESI.         0                    : RESIST       - RESISTIVITY TYPE
RM  .OHMM     0.24                 : RM           - RESISTIVITY OF MUD
RMC .OHMM     0.24                 : RMC          - RESISTIVITY OF MUD CAKE
RMF .OHMM     0.24                 : RMF          - RESISTIVITY OF MUD FILTRATE
SUFT.C        4                    : SUFT         - SURFACE TEMPERATURE
~A  DEPTH       GR     RESD     PHIN     PHID
# ...
  475.500  111.399    1.970    0.548    0.320
  475.750  110.148    1.931    0.540    0.317
  476.000  108.291    1.930    0.548    0.315
  476.250  106.428    2.243    0.552    0.314
  476.500  105.789    2.810    0.516    0.308
  476.750  106.374    3.522    0.487    0.300
  477.000  107.565    3.942    0.460    0.289
  477.250  108.756    4.411    0.452    0.279
  477.500  109.348    4.752    0.447    0.263
  477.750  109.328    5.121    0.440    0.244
  478.000  109.914    5.214    0.435    0.245
  478.250  111.098    5.411    0.430    0.248
  478.500  111.697    5.613    0.426    0.245
  478.750  112.282    5.717    0.423    0.243
  479.000  113.480    5.821    0.426    0.233
  479.250  113.440    5.927    0.436    0.228
  479.500  113.426    6.036    0.440    0.233
  479.750  112.169    6.145    0.436    0.240
  480.000  110.299    6.142    0.431    0.257
  480.250  109.054    6.254    0.429    0.256
  480.500  107.790    6.250    0.430    0.252
  480.750  107.158    6.245    0.430    0.247
  481.000  107.131    6.122    0.429    0.248
  481.250  108.329    6.118    0.424    0.250
  481.500  110.750    6.231    0.408    0.248
  481.750  111.343    6.226    0.411    0.243
  482.000  110.704    6.339    0.419    0.238
  482.250  110.670    6.335    0.424    0.238
  482.500  110.643    6.451    0.422    0.245
  482.750  110.623    6.446    0.422    0.255
  483.000  110.583    6.442    0.429    0.236
  483.250  110.557    6.438    0.431    0.234
  483.500  109.924    6.433    0.438    0.241
  483.750  110.503    6.308    0.442    0.249
  484.000  110.483    6.183    0.446    0.257
  484.250  111.075    6.062    0.452    0.263
  484.500  112.266    6.059    0.449    0.262
  484.750  112.858    6.056    0.445    0.259
  485.000  114.049    6.164    0.441    0.259
  485.250  114.641    6.279    0.435    0.261
  485.500  115.220    6.393    0.431    0.263
  485.750  113.350    6.508    0.430    0.266
  486.000  110.881    6.505    0.429    0.262
  486.250  107.794    6.623    0.426    0.260
  486.500  102.258    6.746    0.423    0.255
  486.750   88.757    6.741    0.421    0.253
  487.000   85.676    6.863    0.416    0.223
  487.250   80.752    7.257    0.403    0.198
  487.500   77.052    7.674    0.384    0.179
  487.750   75.801    7.667    0.412    0.149
  488.000   80.672    7.521    0.434    0.180
  488.250   94.113    6.341    0.442    0.237
  488.500   98.983    5.659    0.460    0.263
  488.750  109.975    4.862    0.471    0.265
  489.000  117.907    4.504    0.474    0.255
  489.250  117.880    4.418    0.480    0.262
  489.500  115.398    4.331    0.486    0.277
  489.750  112.929    4.329    0.488    0.286
  490.000  111.671    4.164    0.482    0.286
  490.250  112.243    4.007    0.483    0.287
  490.500  112.842    3.856    0.493    0.288
  490.750  114.046    3.641    0.502    0.290
  491.000  116.462    3.504    0.508    0.291
  491.250  117.659    3.186    0.513    0.290
  491.500  118.245    2.952    0.517    0.290
  491.750  118.218    2.736    0.520    0.294
  492.000  117.579    2.534    0.526    0.298
  492.250  115.097    2.486    0.536    0.299
  492.500  113.234    2.303    0.548    0.299
  492.750  113.214    2.259    0.553    0.299
  493.000  113.187    2.215    0.524    0.299
  493.250  112.548    2.673    0.511    0.291
  493.500  111.297    3.225    0.496    0.279
  493.750  113.100    3.820    0.484    0.269
  494.000  114.910    4.274    0.458    0.268
  494.250  116.720    4.874    0.442    0.265
  494.500  116.693    5.454    0.446    0.255
  494.750  115.449    5.876    0.448    0.241
  495.000  112.348    6.098    0.443    0.245
  495.250  111.103    6.209    0.435    0.252
  495.500  109.852    6.089    0.418    0.252
  495.750  109.207    5.969    0.415    0.249
  496.000  109.187    5.855    0.421    0.249
  496.250  109.167    5.527    0.429    0.252
  496.500  108.521    5.319    0.434    0.252
  496.750  108.494    5.215    0.439    0.249
  497.000  107.849    5.114    0.435    0.247
  497.250  107.217    4.921    0.431    0.244
  497.500  105.353    4.826    0.440    0.244
  497.750  105.932    4.644    0.445    0.245
  498.000  108.347    4.469    0.451    0.242
  498.250  110.776    4.300    0.453    0.238
  498.500  114.429    4.216    0.454    0.242
  498.750  117.456    4.134    0.457    0.249
  499.000  114.981    4.131    0.458    0.255
  499.250  112.499    4.128    0.457    0.260
  499.500  111.261    4.126    0.465    0.266
  499.750  111.234    4.122    0.476    0.265
  500.000  113.044    4.042    0.490    0.259
  500.250  114.235    3.964    0.491    0.255
  500.500  112.977    3.814    0.498    0.250
  500.750  111.733    3.670    0.504    0.249
  501.000  111.101    3.400    0.498    0.249
  501.250  110.462    3.272    0.492    0.254
  501.500  110.435    3.270    0.488    0.281
  501.750  109.177    3.205    0.493    0.297
  502.000  109.157    3.204    0.498    0.288
  502.250  108.512    3.202    0.475    0.276
  502.500  109.703    3.198    0.478    0.272
  502.750  110.907    3.257    0.492    0.273
  503.000  109.649    3.317    0.502    0.277
  503.250  109.636    3.378    0.510    0.277
  503.500  110.833    3.505    0.504    0.275
  503.750  114.473    3.637    0.488    0.272
  504.000  116.283    3.703    0.480    0.270
  504.250  116.868    3.844    0.471    0.264
  504.500  114.998    4.064    0.451    0.259
  504.750  114.366    4.217    0.439    0.250
  505.000  114.333    4.544    0.466    0.239
  505.250  113.694    4.715    0.455    0.221
  505.500  110.001    4.370    0.438    0.203
  505.750  105.682    3.109    0.428    0.195
  506.000  109.335    2.341    0.491    0.244
  506.250  110.526    2.089    0.507    0.320
  506.500  109.282    1.972    0.522    0.321
  506.750  104.970    1.862    0.537    0.320
  507.000  101.270    1.792    0.554    0.317
  507.250   95.727    1.757    0.580    0.315
  507.500   92.647    1.756    0.552    0.315
  507.750   86.492    1.788    0.545    0.316
  508.000   80.955    1.891    0.522    0.309
  508.250   73.583    2.756    0.481    0.278
  508.500   67.434    3.453    0.449    0.271
  508.750   61.892    4.089    0.416    0.247
  509.000   61.872    4.752    0.405    0.231
  509.250   63.668    4.930    0.395    0.255
  509.500   64.879    5.021    0.386    0.261
  509.750   67.294    5.113    0.395    0.280
  510.000   68.498    5.405    0.410    0.285
  510.250   65.411    5.825    0.426    0.290
  510.500   59.875    6.278    0.417    0.293
  510.750   54.937    7.156    0.409    0.295
  511.000   60.427    7.713    0.418    0.294
  511.250   67.140    7.014    0.442    0.293
  511.500   84.254    4.373    0.471    0.293
  511.750   99.531    3.293    0.493    0.288
  512.000  101.947    2.993    0.504    0.283
  512.250  101.314    2.991    0.523    0.273
  512.500  100.675    2.989    0.513    0.263
  512.750  100.037    2.987    0.506    0.262
  513.000  100.010    2.985    0.503    0.268
  513.250   99.983    2.983    0.501    0.272
  513.500  101.786    2.980    0.500    0.275
  513.750  102.984    3.035    0.496    0.280
  514.000  103.569    3.331    0.490    0.276
  514.250  101.713    3.458    0.476    0.266
  514.500   96.177    3.657    0.464    0.260
  514.750   87.573    5.230    0.452    0.253
  515.000   82.037    8.065    0.427    0.255
  515.250   75.888   10.695    0.391    0.266
  515.500   67.904   14.183    0.317    0.289
  515.750   57.470   14.995    0.317    0.299
  516.000   37.236   14.704    0.322    0.293
  516.250   31.700   13.882    0.346    0.289
  516.500   34.734   13.617    0.354    0.287
  516.750   42.665   13.348    0.374    0.294
  517.000   46.311   13.343    0.382    0.303
  517.250   46.890   13.331    0.387    0.310
  517.500   46.856   12.590    0.391    0.317
  517.750   47.455   10.819    0.396    0.324
  518.000   51.714    9.122    0.397    0.322
  518.250   59.033    7.548    0.398    0.316
  518.500   74.922    5.683    0.408    0.311
  518.750   82.860    4.702    0.419    0.292
