~VERSION INFORMATION
 VERS.                 2.0:   CWLS LOG ASCII STANDARD -VERSION 2.0
 WRAP.                  NO:   ONE LINE PER DEPTH STEP
~WELL INFORMATION BLOCK
#MNEM.UNIT           DATA                    DESCRIPTION OF MNEMONIC
#---------    -------------------            -------------------------------
# Generated from Intellog Unique Number	CN_94_101/WELL/3264
WELL.         10-11-095-06W4                 : Well_name    - WELL
LOC .         AA/10-11-095-06W4/0            : Location     - LOCATION
UWI .         AA/10-11-095-06W400            : Uwi          - UNIQUE WELL ID
ENTR.         TIM                            : Entered      - ENTERED BY
SRVC.         SCHLUMBERGER                   : Scn          - SERVICE COMPANY
DATE.         05/17/92                       : Date         - LOG DATE
STRT.M        100                            : top_depth    - START DEPTH
STOP.M        340                            : bot_depth    - STOP DEPTH
STEP.M        0.25                           : increment    - STEP LENGTH
 NULL. -999.2500:NULL Value
~CURVE INFORMATION BLOCK
#MNEM UNIT       ERCB CURVE CODE    CURVE DESCRIPTION
#-----------   ------------------   ----------------------------------
DEPT.M        00 001 00 00         : DEPTH        - DEPTH
GR  .API      00 310 00 00         : GR           - GAMMA RAY
NPHI.V/V      00 330 00 00         : PHIN         - NEUTRON POROSITY (SANDSTONE)
DPHI.V/V      00 890 00 00         : PHID         - DENSITY POROSITY (SANDSTONE)
ILD .OHMM     00 120 00 00         : RESD         - DEEP RESISTIVITY (DIL)
~PARAMETER INFORMATION
#MNEM.UNIT           DATA             DESCRIPTION OF MNEMONIC
#---------         -----------     ------------------------------
GL  .M        596.9                : gl           - GROUND LEVEL ELEVATION
EREF.M        599.8                : kb           - ELEVATION OF DEPTH REFERENCE
DATM.M        599.8                : datum        - DATUM ELEVATION
TDD .M        342                  : tdd          - TOTAL DEPTH DRILLER
RUN .         0                    : Run          - RUN NUMBER
ENG .         COMPANY:             : Engineer     - RECORDING ENGINEER
MUD .         GEL                  : Mud_type     - MUD TYPE
MATR.         SANDSTONE            : Logunit      - NEUTRON MATRIX
TMAX.C        18                   : BHT          - MAXIMUM RECORDED TEMPERATURE
BHTD.M        342                  : BHTDEP       - MAXIMUM RECORDED TEMPERATURE
RMT .C        18                   : MDTP         - TEMPERATURE OF MUD
MUDD.KG/M     1050                 : MWT          - MUD DENSITY
NEUT.         1                    : NEUTRON      - NEUTRON TYPE
RESI.         0                    : RESIST       - RESISTIVITY TYPE
RM  .OHMM     3.5                  : RM           - RESISTIVITY OF MUD
RMC .OHMM     3.5                  : RMC          - RESISTIVITY OF MUD CAKE
RMF .OHMM     3.5                  : RMF          - RESISTIVITY OF MUD FILTRATE
SUFT.C        4                    : SUFT         - SURFACE TEMPERATURE
~A  DEPTH       GR     PHIN     PHID     RESD
# ...
  317.500   30.092    0.280    0.237  303.753
  317.750   30.088    0.278    0.240  309.498
  318.000   30.081    0.278    0.240  309.406
  318.250   29.438    0.279    0.239  309.291
  318.500   29.434    0.281    0.237  315.188
  318.750   29.431    0.282    0.236  315.071
  319.000   29.425    0.282    0.235  314.977
  319.250   29.422    0.283    0.231  314.883
  319.500   30.697    0.286    0.229  320.863
  319.750   31.332    0.289    0.230  326.909
  320.000   31.969    0.297    0.236  333.093
  320.250   32.605    0.302    0.248  352.567
  320.500   33.877    0.305    0.255  373.179
  320.750   33.875    0.310    0.258  387.576
  321.000   33.869    0.316    0.253  426.126
  321.250   33.866    0.320    0.243  459.708
  321.500   33.859    0.329    0.240  495.975
  321.750   33.856    0.336    0.257  545.306
  322.000   33.853    0.342    0.272  599.589
  322.250   34.487    0.342    0.282  622.721
  322.500   37.043    0.339    0.291  684.710
  322.750   40.878    0.339    0.292  752.870
  323.000   44.074    0.344    0.287  796.885
  323.250   49.189    0.349    0.282  796.647
  323.500   55.584    0.361    0.274  645.925
  323.750   63.258    0.394    0.266  386.161
  324.000   69.013    0.415    0.257  313.100
  324.250   73.488    0.432    0.253  239.769
  324.500   79.241    0.442    0.255  226.390
  324.750   74.758    0.442    0.258  226.306
  325.000   68.995    0.424    0.261  230.604
  325.250   61.312    0.391    0.261  234.967
  325.500   49.150    0.340    0.257  263.283
  325.750   44.666    0.321    0.247  278.717
  326.000   40.182    0.302    0.240  356.883
  326.250   38.898    0.299    0.239  448.352
  326.500   38.254    0.310    0.253  512.117
  326.750   39.527    0.353    0.280  542.058
  327.000   40.162    0.376    0.287  531.676
  327.250   40.798    0.386    0.295  483.253
  327.500   42.073    0.392    0.301  430.956
  327.750   42.711    0.401    0.306  377.043
  328.000   43.346    0.409    0.310  349.291
  328.250   43.982    0.417    0.310  342.601
  328.500   44.617    0.417    0.306  349.108
  328.750   45.252    0.410    0.301  369.491
  329.000   45.248    0.403    0.299  383.717
  329.250   45.244    0.394    0.303  390.975
  329.500   45.879    0.390    0.301  369.187
  329.750   47.794    0.387    0.273  204.546
  330.000   49.070    0.381    0.238  107.028
  330.250   51.626    0.371    0.210   67.752
  330.500   54.821    0.370    0.188   46.283
  330.750   63.135    0.401    0.206   32.844
  331.000   76.569    0.408    0.220   23.307
  331.250   85.523    0.404    0.224   20.393
  331.500   93.198    0.395    0.219   18.186
  331.750   99.592    0.394    0.211   15.911
  332.000  106.627    0.459    0.204   15.022
  332.250  112.382    0.493    0.211   15.020
  332.500  121.976    0.511    0.223   15.015
  332.750  129.010    0.495    0.233   15.892
  333.000  137.965    0.453    0.235   17.146
  333.250  146.279    0.367    0.235   21.954
  333.500  153.314    0.345    0.232   40.363
  333.750  148.830    0.336    0.224   51.679
  334.000  133.467    0.334    0.217   55.756
  334.250  115.545    0.341    0.203   59.015
  334.500   97.624    0.351    0.185   54.667
  334.750   79.062    0.357    0.162   50.647
  335.000   65.619    0.365    0.030   39.531
  335.250   67.534    0.370    0.015   31.445
  335.500   71.370    0.376    0.010   29.130
  335.750   77.125    0.372    0.063   28.572
  336.000   85.439    0.364    0.075   28.560
  336.250   94.394    0.337    0.078   28.555
  336.500  102.708    0.324    0.076   29.093
  336.750  106.543    0.318    0.071   30.216
  337.000  108.459    0.317    0.063   30.783
  337.250  109.094    0.314    0.065   31.367
  337.500  109.727    0.313    0.067   31.360
  337.750  109.725    0.310    0.068   32.563
  338.000  110.360    0.305    0.066   33.184
  338.250  110.356    0.299    0.060   34.459
  338.500  110.991    0.294    0.051   34.449
  338.750  111.627    0.291    0.042   34.441
  339.000  111.622    0.288    0.042   34.431
  339.250  111.618    0.286    0.048   34.420
  339.500  111.612    0.284    0.058   33.759
  339.750  112.248    0.283    0.062   32.485
  340.000  112.884    0.280    0.063   31.868
