~VERSION INFORMATION
 VERS.                 2.0:   CWLS LOG ASCII STANDARD -VERSION 2.0
 WRAP.                  NO:   ONE LINE PER DEPTH STEP
~WELL INFORMATION BLOCK
#MNEM.UNIT           DATA                    DESCRIPTION OF MNEMONIC
#---------    -------------------            -------------------------------
# Generated from Intellog Unique Number	CN_94_101/WELL/1164
WELL.         14-27-094-08W4                 : Well_name    - WELL
LOC .         AA/14-27-094-08W4/0            : Location     - LOCATION
UWI .         AA/14-27-094-08W400            : Uwi          - UNIQUE WELL ID
ENTR.         JOETTE                         : Entered      - ENTERED BY
SRVC.         SCHLUMBERGER                   : Scn          - SERVICE COMPANY
DATE.         04/29/92                       : Date         - LOG DATE
STRT.M        15                             : top_depth    - START DEPTH
STOP.M        140                            : bot_depth    - STOP DEPTH
STEP.M        0.25                           : increment    - STEP LENGTH
 NULL. -999.2500:NULL Value
~CURVE INFORMATION BLOCK
#MNEM UNIT       ERCB CURVE CODE    CURVE DESCRIPTION
#-----------   ------------------   ----------------------------------
DEPT.M        00 001 00 00         : DEPTH        - DEPTH
ILD .OHMM     00 120 00 00         : RESD         - DEEP RESISTIVITY (DIL)
GR  .API      00 310 00 00         : GR           - GAMMA RAY
DPHI.V/V      00 890 00 00         : PHID         - DENSITY POROSITY (SANDSTONE)
NPHI.V/V      00 330 00 00         : PHIN         - NEUTRON POROSITY (SANDSTONE)
CALI.MM       00 280 01 00         : CAL          - CALIPER
~PARAMETER INFORMATION
#MNEM.UNIT           DATA             DESCRIPTION OF MNEMONIC
#---------         -----------     ------------------------------
GL  .M        389.44               : gl           - GROUND LEVEL ELEVATION
EREF.M        389.44               : kb           - ELEVATION OF DEPTH REFERENCE
DATM.M        389.44               : datum        - DATUM ELEVATION
TDD .M        142.2                : tdd          - TOTAL DEPTH DRILLER
RUN .         ONE                  : Run          - RUN NUMBER
ENG .         BILL                 : Engineer     - RECORDING ENGINEER
WIT .         JIM                  : Witness      - WITNESSED BY
MUD .         GEL                  : Mud_type     - MUD TYPE
MATR.         SANDSTONE            : Logunit      - NEUTRON MATRIX
TMAX.C        7                    : BHT          - MAXIMUM RECORDED TEMPERATURE
BHTD.M        142.2                : BHTDEP       - MAXIMUM RECORDED TEMPERATURE
RMT .C        7                    : MDTP         - TEMPERATURE OF MUD
MUDD.KG/M     1040                 : MWT          - MUD DENSITY
NEUT.         1                    : NEUTRON      - NEUTRON TYPE
RESI.         0                    : RESIST       - RESISTIVITY TYPE
RM  .OHMM     7.2                  : RM           - RESISTIVITY OF MUD
RMC .OHMM     9.7                  : RMC          - RESISTIVITY OF MUD CAKE
RMF .OHMM     5.7                  : RMF          - RESISTIVITY OF MUD FILTRATE
SUFT.C        4                    : SUFT         - SURFACE TEMPERATURE
~A  DEPTH     RESD       GR     PHID     PHIN      CAL
   15.000   17.329   88.668    0.309    0.498  143.594
   15.250   16.410   88.692    0.302    0.489  144.243
   15.500   19.408   84.516    0.311    0.493  144.478
   15.750   19.605   81.843    0.311    0.500  144.313
   16.000   17.889   86.687    0.305    0.488  144.340
   16.250   13.812   75.296    0.304    0.490  144.180
   16.500   14.616   74.425    0.320    0.476  144.215
   16.750   17.285   71.456    0.323    0.483  144.251
   17.000   23.275   57.661    0.309    0.478  144.691
   17.250   23.302   65.806    0.312    0.556  145.321
   17.500   22.893   73.053    0.318    0.520  146.756
   17.750   22.915   75.188    0.296    0.476  147.391
   18.000   22.722   82.435    0.281    0.470  146.032
   18.250   20.926   76.753    0.172    0.403  143.664
   18.500   20.944   53.042    0.135    0.392  140.706
   18.750  137.560   62.392    0.162    0.267  139.142
   19.000   53.012   63.626    0.208    0.321  138.982
   19.250   30.429   75.981    0.252    0.371  139.408
   19.500   17.470   98.553    0.289    0.431  140.843
   19.750   10.502   96.481    0.298    0.448  143.281
   20.000   10.610   92.310    0.312    0.446  144.925
   20.250   11.332   77.309    0.322    0.470  145.160
   20.500   16.131  101.387    0.323    0.524  143.788
   20.750   17.716   95.706    0.324    0.504  142.224
   21.000   18.064   87.323    0.325    0.499  142.264
   21.250   14.745   93.669    0.309    0.513  143.308
   21.500   14.222  104.819    0.304    0.544  143.938
   21.750   12.050   99.441    0.303    0.505  144.373
   22.000   10.891   91.660    0.310    0.514  144.813
   22.250   16.391   80.870    0.296    0.480  144.649
   22.500   17.344   92.624    0.269    0.478  144.076
   22.750   20.516   82.138    0.243    0.464  142.312
   23.000   22.738   89.081    0.253    0.502  142.148
   23.250   17.557  111.052    0.282    0.466  144.590
   23.500    9.186  105.976    0.300    0.513  145.621
   23.750    7.159   96.391    0.311    0.553  146.056
   24.000    6.778  119.564    0.310    0.555  145.901
   24.250    6.660  101.563    0.304    0.521  145.532
   24.500    7.520  101.894    0.311    0.573  144.972
   24.750    7.598   97.418    0.308    0.558  144.608
   25.000    7.747  103.163    0.293    0.520  144.248
   25.250    8.275  101.692    0.277    0.452  144.075
   25.500    7.981  118.255    0.292    0.483  144.110
   25.750    8.525   97.849    0.307    0.493  144.145
   26.000    7.220  104.791    0.325    0.523  144.185
   26.250    4.341   97.311    0.328    0.560  144.021
   26.500    3.512  101.849    0.350    0.580  144.256
   26.750    3.264   98.275    0.354    0.578  145.895
   27.000    3.120  104.320    0.355    0.562  146.526
   27.250    2.980  112.168    0.352    0.609  146.561
   27.500    2.822  114.303    0.348    0.665  148.595
   27.750    2.747  122.448    0.348    0.671  146.032
   28.000    2.725  117.375    0.342    0.716  146.468
   28.250    2.628  114.097    0.311    0.721  146.507
   28.500    2.859  106.616    0.303    0.692  146.547
   28.750    3.608  114.160    0.287    0.596  145.379
   29.000    5.429  110.285    0.291    0.507  142.216
   29.250    7.873   98.301    0.303    0.480  142.856
   29.500    9.843   96.826    0.299    0.500  142.887
   29.750   11.012  107.675    0.291    0.503  142.922
   30.000   10.235   99.593    0.262    0.542  142.962
   30.250    7.758   93.314    0.264    0.518  143.593
   30.500    8.441  100.858    0.251    0.483  143.628
   30.750    9.982  115.918    0.243    0.437  145.467
   31.000   10.761   98.821    0.195    0.414  143.100
   31.250   10.972   79.321    0.173    0.338  141.940
   31.500   16.821   78.447    0.219    0.426  140.976
   31.750   34.052   95.314    0.277    0.447  139.808
   32.000   17.168   92.937    0.305    0.426  140.847
   32.250   12.425   92.368    0.305    0.474  142.482
   32.500   13.393   86.994    0.297    0.498  144.116
   32.750    9.340   97.242    0.310    0.489  145.156
   33.000    9.703  105.988    0.309    0.540  142.788
   33.250    9.360   95.198    0.267    0.507  140.629
   33.500    9.282   87.421    0.258    0.513  140.260
   33.750    9.911   91.054    0.276    0.489  140.900
   34.000   10.296   89.883    0.277    0.505  142.539
   34.250   10.597   85.708    0.286    0.492  142.774
   34.500   10.221   92.659    0.291    0.509  143.409
   34.750    8.579   97.494    0.300    0.549  144.440
   35.000    7.542   90.915    0.272    0.507  145.879
   35.250    7.834  104.472    0.259    0.512  146.918
   35.500    7.556  106.607    0.272    0.546  147.353
   35.750    7.023  106.638    0.281    0.504  147.784
   36.000    6.650  107.872    0.266    0.571  147.620
   36.250    6.123  100.992    0.254    0.524  144.857
   36.500    6.129  104.629    0.259    0.444  146.096
   36.750    7.316  109.773    0.277    0.480  144.941
   37.000    8.185  117.617    0.299    0.493  145.176
   37.250    9.156  127.569    0.306    0.504  145.203
   37.500    6.327  109.567    0.308    0.521  145.838
   37.750    6.274   95.471    0.308    0.556  145.678
   38.000    5.725   98.812    0.310    0.632  144.510
   38.250    5.624  115.675    0.316    0.486  145.744
   38.500    4.677  104.584    0.312    0.560  143.781
   38.750    3.783  112.436    0.293    0.601  145.224
   39.000    5.588  102.844    0.279    0.544  145.060
   39.250    6.251  108.288    0.299    0.512  144.696
   39.500    5.920  101.108    0.311    0.546  146.326
   39.750    4.788   98.139    0.325    0.568  144.162
   40.000    4.056  102.377    0.291    0.568  148.999
   40.250    4.022  100.301    0.288    0.535  146.632
   40.500    5.942  103.041    0.301    0.576  148.271
   40.750    6.647  108.782    0.306    0.589  146.108
   41.000    4.186   94.385    0.302    0.534  146.743
   41.250    4.151   96.821    0.298    0.593  148.781
   41.500    5.747  106.472    0.284    0.584  145.419
   41.750    5.970  108.006    0.281    0.601  148.248
   42.000    5.152  107.436    0.282    0.588  146.685
   42.250    4.833  123.999    0.293    0.503  145.325
   42.500    5.021  105.396    0.274    0.514  145.156
   42.750    6.394  120.456    0.273    0.494  145.001
   43.000    7.087  105.158    0.266    0.507  145.636
   43.250    7.363  121.420    0.255    0.479  145.467
   43.500    7.168  112.437    0.252    0.456  144.707
   43.750    7.174  108.862    0.246    0.435  144.139
   44.000    8.175   92.363    0.261    0.484  147.572
   44.250   12.190   97.507    0.276    0.506  145.809
   44.500    8.822   88.523    0.274    0.478  147.852
   44.750    7.070   86.447    0.267    0.472  150.486
   45.000    7.276  109.023    0.258    0.508  150.117
   45.250    7.916  111.763    0.252    0.480  148.353
   45.500    8.612  107.584    0.266    0.468  148.589
   45.750    8.863  105.512    0.292    0.483  145.635
   46.000    8.470  103.139    0.339    0.547  145.462
   46.250    7.176  108.279    0.363    0.649  145.497
   46.500    4.646  114.921    0.363    0.596  145.741
   46.750    2.523   71.378    0.367    0.567  148.175
   47.000    1.619   83.429    0.369    0.529  146.812
   47.250    1.897   98.188    0.363    0.582  146.847
   47.500    2.416   88.304    0.358    0.606  146.078
   47.750    2.374   95.250    0.352    0.598  146.514
   48.000    2.289   80.854    0.329    0.551  145.559
   48.250    2.378  107.036    0.320    0.550  145.390
   48.500    2.685  112.472    0.301    0.524  144.621
   48.750    3.117  104.691    0.291    0.528  146.060
   49.000    3.298  105.624    0.295    0.500  146.096
   49.250    4.360   98.147    0.299    0.510  151.932
   49.500    5.302   99.076    0.302    0.491  145.767
   49.750    6.567   85.586    0.309    0.516  149.604
   50.000    7.014   98.238    0.329    0.470  147.841
   50.250    3.536  102.179    0.256    0.483  147.477
   50.500    5.372   83.877    0.180    0.452  151.110
   50.750    7.100   94.730    0.188    0.415  146.752
   51.000   13.345  101.372    0.224    0.451  141.782
   51.250   11.733   97.197    0.271    0.540  150.816
