~VERSION INFORMATION
 VERS.                 2.0:   CWLS LOG ASCII STANDARD -VERSION 2.0
 WRAP.                  NO:   ONE LINE PER DEPTH STEP
~WELL INFORMATION BLOCK
#MNEM.UNIT           DATA                    DESCRIPTION OF MNEMONIC
#---------    -------------------            -------------------------------
# Generated from Intellog Unique Number	CN_91_93/WELL/4010
WELL.         10-23-092-13W4                 : Well_name    - WELL
LOC .         AA/10-23-092-13W4/0            : Location     - LOCATION
UWI .         AA/10-23-092-13W400            : Uwi          - UNIQUE WELL ID
ENTR.         JOETTE                         : Entered      - ENTERED BY
SRVC.         SCHLUMBERGER                   : Scn          - SERVICE COMPANY
STRT.M        25                             : top_depth    - START DEPTH
STOP.M        177                            : bot_depth    - STOP DEPTH
STEP.M        0.25                           : increment    - STEP LENGTH
 NULL. -999.2500:NULL Value
~CURVE INFORMATION BLOCK
#MNEM UNIT       ERCB CURVE CODE    CURVE DESCRIPTION
#-----------   ------------------   ----------------------------------
DEPT.M        00 001 00 00         : DEPTH        - DEPTH
GR  .API      00 310 00 00         : GR           - GAMMA RAY
DPHI.V/V      00 890 00 00         : PHID         - DENSITY POROSITY (SANDSTONE)
ILD .OHMM     00 120 00 00         : RESD         - DEEP RESISTIVITY (DIL)
~PARAMETER INFORMATION
#MNEM.UNIT           DATA             DESCRIPTION OF MNEMONIC
#---------         -----------     ------------------------------
GL  .M        440.57               : gl           - GROUND LEVEL ELEVATION
EREF.M        440.57               : kb           - ELEVATION OF DEPTH REFERENCE
DATM.M        440.57               : datum        - DATUM ELEVATION
TDD .M        180.3                : tdd          - TOTAL DEPTH DRILLER
RUN .         ONE                  : Run          - RUN NUMBER
ENG .         BILL                 : Engineer     - RECORDING ENGINEER
WIT .         JIM                  : Witness      - WITNESSED BY
MUD .         GEL                  : Mud_type     - MUD TYPE
MATR.         SANDSTONE            : Logunit      - NEUTRON MATRIX
TMAX.C        17                   : BHT          - MAXIMUM RECORDED TEMPERATURE
BHTD.M        180                  : BHTDEP       - MAXIMUM RECORDED TEMPERATURE
RMT .C        17                   : MDTP         - TEMPERATURE OF MUD
MUDD.KG/M     9041.66              : MWT          - MUD DENSITY
NEUT.         1                    : NEUTRON      - NEUTRON TYPE
RESI.         0                    : RESIST       - RESISTIVITY TYPE
RM  .OHMM     5.65                 : RM           - RESISTIVITY OF MUD
RMC .OHMM     5.65                 : RMC          - RESISTIVITY OF MUD CAKE
RMF .OHMM     5.65                 : RMF          - RESISTIVITY OF MUD FILTRATE
SUFT.C        4                    : SUFT         - SURFACE TEMPERATURE
~A  DEPTH       GR     PHID     RESD
# ...
   79.250   72.500    0.525   13.022
   79.500   77.276    0.347   10.435
   79.750   82.060    0.329    9.527
   80.000   81.488    0.393   11.070
   80.250   80.902    0.373   13.855
   80.500   79.729    0.316   15.512
   80.750   83.319    0.318   10.918
   81.000   92.861    0.324   10.935
   81.250   98.241    0.287   10.951
   81.500   98.855    0.323   10.963
   81.750   97.682    0.349   11.395
   82.000   82.224    0.298   12.066
   82.250   84.028    0.262   13.021
   82.500   89.403    0.273   13.787
   82.750   94.779    0.343   13.808
   83.000   98.964    0.371   13.324
   83.250  100.177    0.314   15.197
   83.500   96.024    0.258   19.748
   83.750   90.089    0.208   17.691
   84.000   97.255    0.271   10.925
   84.250  102.630    0.315    7.005
   84.500   97.886    0.343    6.046
   84.750   94.928    0.349    5.944
   85.000  102.094    0.320    6.414
   85.250  100.922    0.307    7.313
   85.500  101.535    0.318   10.429
   85.750  104.525    0.348   12.345
   86.000  111.096    0.317   12.831
   86.250  110.519    0.266   12.154
   86.500   98.631    0.256   11.728
   86.750  102.816    0.282   11.749
   87.000  109.382    0.297   11.771
   87.250  112.972    0.308   12.009
   87.500  110.014    0.311   12.955
   87.750  101.698    0.249   13.970
   88.000   97.550    0.171   17.813
   88.250  102.925    0.195   19.216
   88.500  108.305    0.231   16.897
   88.750  109.518    0.239   14.053
   89.000  104.774    0.257   13.560
   89.250  100.621    0.278   14.094
   89.500   96.472    0.299   15.495
   89.750   92.324    0.285   16.414
   90.000   91.746    0.293   17.054
   90.250   91.765    0.288   18.397
   90.500   91.783    0.281   20.218
   90.750   90.020    0.278   20.247
   91.000   88.843    0.257   20.292
   91.250   82.908    0.252   20.696
   91.500   77.573    0.273   21.115
   91.750   87.716    0.284   21.543
   92.000   90.706    0.284   21.987
   92.250   79.418    0.282   22.012
   92.500   79.432    0.286   22.044
   92.750   81.236    0.299   17.340
   93.000   82.444    0.303   14.691
   93.250   83.653    0.258   15.276
   93.500   83.076    0.240   16.169
   93.750   80.718    0.223   17.442
   94.000   78.355    0.220   19.535
   94.250   75.392    0.233   21.074
   94.500   70.648    0.251   23.602
   94.750   67.094    0.239   25.451
   95.000   65.927    0.060   43.704
   95.250   67.140    0.039   42.172
   95.500   68.344    0.045  124.118
   95.750   72.529    0.068   95.831
   96.000   78.500    0.146   49.147
   96.250   87.447    0.187   17.382
   96.500   94.013    0.237   15.572
   96.750   97.021    0.252   16.191
   97.000   93.459    0.270   19.166
   97.250   85.738    0.252   24.439
   97.500   75.041    0.218   25.401
   97.750   69.112    0.276   23.191
   98.000   68.534    0.258   22.797
   98.250   70.929    0.242   23.259
   98.500   76.900    0.252   22.444
   98.750   82.875    0.273   20.867
   99.000   88.246    0.198   20.513
   99.250   90.059    0.206   20.937
   99.500   90.673    0.233   20.968
   99.750   84.138    0.253   21.006
  100.000   71.665    0.277   19.890
  100.250   72.864    0.290   18.839
  100.500   76.454    0.284   16.870
  100.750   82.425    0.279   19.610
  101.000   87.210    0.272   18.923
  101.250   89.009    0.264   17.587
  101.500   90.222    0.257   14.906
  101.750   92.026    0.261   13.348
  102.000   94.430    0.244   13.122
  102.250   94.444    0.207   14.702
  102.500   97.447    0.208   12.223
  102.750   99.242    0.215   11.155
  103.000  102.246    0.194   12.033
  103.250  103.445    0.197   12.981
  103.500  106.444    0.229   10.796
  103.750  113.010    0.250   10.037
  104.000  118.981    0.272   10.052
  104.250  119.594    0.293   10.256
  104.500  110.684    0.319   10.660
  104.750  102.963    0.330   10.676
  105.000   99.410    0.291   11.520
  105.250   98.833    0.253   13.391
  105.500  101.827    0.177   12.451
  105.750  104.826    0.237   11.363
  106.000  104.249    0.232   10.759
  106.250  101.886    0.230   10.977
  106.500   98.923    0.264   11.841
  106.750   97.160    0.276   13.511
  107.000   97.778    0.294   13.037
  107.250   99.587    0.302   12.348
  107.500  100.786    0.236   12.367
  107.750  101.995    0.215   12.854
  108.000  102.613    0.228   13.360
  108.250  102.031    0.253   12.896
  108.500  101.454    0.285   12.440
  108.750  102.067    0.208   12.930
  109.000  105.662    0.200   13.691
  109.250  107.470    0.267   12.265
  109.500  106.888    0.301   10.789
  109.750  105.716    0.260   11.214
  110.000  105.139    0.309   11.437
  110.250  105.757    0.291   11.247
  110.500  106.970    0.244    9.708
  110.750  106.979    0.280    8.534
  111.000  107.593    0.304    8.880
  111.250  107.611    0.333    9.053
  111.500  107.034    0.338    8.575
  111.750  105.275    0.293    7.972
  112.000  103.507    0.247    7.837
  112.250  101.740    0.182    8.778
  112.500   99.972    0.139    9.643
  112.750  102.962    0.304   11.851
  113.000  108.337    0.351   11.869
  113.250  112.522    0.344    9.874
  113.500  114.326    0.315    9.889
  113.750  114.940    0.258    8.696
  114.000  114.962    0.272    9.038
  114.250  113.195    0.321    9.750
  114.500  107.860    0.325   10.912
  114.750  105.493    0.212   11.996
  115.000  105.511    0.212   11.154
  115.250  106.724    0.284   10.565
  115.500  110.904    0.310   10.779
  115.750  115.685    0.254   10.997
  116.000  120.465    0.241   11.430
  116.250  122.278    0.233   11.880
  116.500  118.125    0.213   12.353
  116.750  105.642    0.192   12.840
  117.000  104.470    0.262   13.100
  117.250  103.893    0.242   12.878
  117.500  105.697    0.202   11.757
  117.750  106.905    0.175   11.557
  118.000  108.119    0.218   11.575
  118.250  111.108    0.254   11.592
  118.500  112.317    0.288   11.395
  118.750  101.025    0.275   11.202
  119.000  105.210    0.270   10.809
  119.250  114.757    0.271   10.046
  119.500  115.371    0.266   10.061
  119.750  105.864    0.250   11.268
  120.000  103.501    0.240   11.492
  120.250  106.496    0.233   11.518
  120.500  113.062    0.222   11.322
  120.750  111.890    0.215   11.339
  121.000  102.388    0.212   11.352
  121.250  107.168    0.240   11.368
  121.500  111.944    0.261   11.176
  121.750  119.110    0.248   10.986
  122.000  119.723    0.240   10.804
  122.250  110.217    0.253   10.820
  122.500  107.259    0.257   10.836
  122.750  115.611    0.239   11.913
  123.000  117.415    0.213   12.846
  123.250  110.889    0.122   13.352
  123.500  107.331    0.151   10.699
  123.750  103.183    0.239    9.065
  124.000  103.796    0.252    8.273
  124.250  107.981    0.254    7.550
  124.500  115.147    0.293    6.893
  124.750  121.713    0.299    6.906
  125.000  125.898    0.281    7.041
  125.250  130.678    0.263    8.033
  125.500  129.510    0.253    8.991
  125.750  125.357    0.252    9.520
  126.000  114.661    0.257    8.372
  126.250  106.945    0.258    8.705
  126.500  106.363    0.252   10.497
  126.750  102.219    0.219   12.659
  127.000   99.256    0.173   16.148
  127.250   96.898    0.145   13.676
  127.500   98.106    0.229    9.987
  127.750   99.315    0.271    7.711
  128.000   97.547    0.330    6.413
  128.250   92.808    0.349    5.535
  128.500   89.254    0.372    5.243
  128.750   86.292    0.365    5.251
  129.000   82.738    0.357    5.359
  129.250   78.594    0.347    5.675
  129.500   78.608    0.339    6.236
  129.750   76.840    0.326    7.382
  130.000   69.715    0.323    9.243
  130.250   68.547    0.280   10.154
  130.500   71.542    0.221   12.714
  130.750   83.470    0.182   14.240
  131.000   86.460    0.174   15.361
  131.250   92.435    0.195   16.564
  131.500   92.458    0.241    7.324
  131.750   91.876    0.281    6.320
  132.000   91.294    0.276    5.986
  132.250   90.722    0.276    6.001
  132.500   93.125    0.286    6.233
  132.750   97.306    0.294    6.979
  133.000  100.896    0.294    7.120
  133.250  100.318    0.281    7.133
