~VERSION INFORMATION
 VERS.                 2.0:   CWLS LOG ASCII STANDARD -VERSION 2.0
 WRAP.                  NO:   ONE LINE PER DEPTH STEP
~WELL INFORMATION BLOCK
#MNEM.UNIT           DATA                    DESCRIPTION OF MNEMONIC
#---------    -------------------            -------------------------------
# Generated from Intellog Unique Number	CC_84_87/WELL/2327
NULL.         -999.25                        : NULL_VALUE
WELL.         SUN CHEECHAM                   : Well_name    - WELL              
LOC .         11-15-084-07W4                 : Location     - LOCATION          
UWI .         AA/11-15-084-07W4/0            : Uwi          - UNIQUE WELL ID    
ENTR.         DW                             : Entered      - ENTERED BY        
SRVC.         SCHLUMBERGER                   : Scn          - SERVICE COMPANY   
DATE.         15 JAN 80                      : Date         - LOG DATE
STRT.M        140                            : top_depth    - START DEPTH       
STOP.M        430.094                        : bot_depth    - STOP DEPTH        
STEP.M        0.3                            : increment    - STEP LENGTH       
~CURVE INFORMATION BLOCK
#MNEM UNIT       ERCB CURVE CODE    CURVE DESCRIPTION
#-----------   ------------------   ----------------------------------
DEPT.M        00 001 00 00         : DEPTH        - DEPTH                       
DPHI.V/V      00 890 00 00         : PHID         - DENSITY POROSITY (LIMESTONE)
NPHI.V/V      00 330 00 00         : PHIN         - NEUTRON POROSITY (LIMESTONE)
GR  .API      00 310 00 00         : GR           - GAMMA RAY                   
ILD .OHMM     00 120 00 00         : RESD         - DEEP RESISTIVITY (DIL)      
~PARAMETER INFORMATION       
#MNEM.UNIT           DATA             DESCRIPTION OF MNEMONIC
#---------         -----------     ------------------------------
GL  .M        591                  : gl           - GROUND LEVEL ELEVATION      
EREF.M        594.35               : kb           - ELEVATION OF DEPTH REFERENCE
DATM.M        594.35               : datum        - DATUM ELEVATION             
TDD .M        435                  : tdd          - TOTAL DEPTH DRILLER         
RUN .         ONE                  : Run          - RUN NUMBER                  
ENG .         BILL                 : Engineer     - RECORDING ENGINEER          
WIT .         JIM                  : Witness      - WITNESSED BY                
MUD .         GEL                  : Mud_type     - MUD TYPE                    
MATR.         LIMESTONE            : Logunit      - NEUTRON MATRIX              
TMAX.C        20.5                 : BHT          - MAXIMUM RECORDED TEMPERATURE
BHTD.M        435                  : BHTDEP       - MAXIMUM RECORDED TEMPERATURE
MATR.         1                    : LOGUNIT      - NEUTRON MATRIX              
RMT .C        25                   : MDTP         - TEMPERATURE OF MUD          
NEUT.         1                    : NEUTRON      - NEUTRON TYPE                
RESI.         0                    : RESIST       - RESISTIVITY TYPE            
RMC .OHMM     0.25                 : RMC          - RESISTIVITY OF MUD CAKE     
RMF .OHMM     0.25                 : RMF          - RESISTIVITY OF MUD FILTRATE 
SUFT.C        4                    : SUFT         - SURFACE TEMPERATURE         
~A  DEPTH     PHID     PHIN       GR     RESD
# ...
  296.600    0.229    0.436   98.018   12.188
  296.900    0.221    0.427   95.610   12.158
  297.199    0.209    0.431   88.970   11.909
  297.499    0.198    0.435   84.142   11.236
  297.799    0.183    0.439   85.360   10.217
  298.099    0.238    0.442   88.390    9.649
  298.399    0.239    0.446   88.398    8.777
  298.699    0.239    0.452   89.014    8.133
  298.999    0.238    0.448   89.623    7.263
  299.299    0.214    0.434   91.446    6.482
  299.599    0.232    0.435   93.266    6.231
  299.899    0.238    0.461   91.462    6.695
  300.199    0.231    0.477   96.306    7.889
  300.499    0.220    0.471   96.920    9.125
  300.799    0.218    0.477   94.509    9.271
  301.099    0.231    0.485   86.660    9.078
  301.399    0.246    0.466   81.833    8.891
  301.699    0.238    0.438   82.445    8.872
  301.999    0.248    0.448   84.872    8.847
  302.299    0.227    0.442   84.276    8.507
  302.599    0.237    0.446   84.888    7.736
  302.899    0.245    0.444   87.314    6.911
  303.199    0.241    0.442   91.552    5.948
  303.499    0.241    0.443   97.002    5.309
  303.799    0.267    0.455   96.406    5.012
  304.099    0.258    0.485   93.996    5.188
  304.399    0.260    0.514   89.773    5.780
  304.699    0.249    0.515   90.387    5.878
  304.999    0.239    0.495   91.603    6.195
  305.299    0.241    0.472   90.402    7.037
  305.599    0.264    0.482   86.180    8.287
  305.899    0.279    0.480   81.957    8.739
  306.199    0.278    0.466   79.548    8.884
  306.499    0.282    0.451   85.600    8.230
  306.799    0.268    0.443   80.773    5.673
  307.099    0.271    0.445   78.365    4.213
  307.399    0.276    0.454   81.396    3.625
  307.699    0.291    0.467   84.425    3.682
  307.999    0.316    0.507   91.081    3.744
  308.299    0.269    0.556   88.067    4.662
  308.599    0.274    0.562   83.243    6.134
  308.899    0.281    0.534   84.458    6.965
  309.199    0.289    0.521   87.489    7.481
  309.499    0.254    0.490   89.914    7.889
  309.799    0.280    0.476   85.691    8.311
  310.099    0.269    0.481   79.658    8.614
  310.399    0.264    0.485   79.061    9.079
  310.699    0.253    0.449   79.069    9.230
  310.999    0.245    0.459   78.472    9.205
  311.299    0.235    0.462   77.876    9.185
  311.599    0.251    0.463   77.281    9.510
  311.899    0.280    0.468   74.872   10.018
  312.199    0.287    0.469   72.463   10.184
  312.499    0.281    0.471   71.261   10.352
  312.799    0.252    0.459   69.456   10.326
  313.099    0.200    0.409   70.069    9.748
  313.399    0.201    0.363   70.683    8.869
  313.699    0.230    0.404   71.899    7.774
  313.999    0.284    0.436   74.929    6.689
  314.299    0.269    0.434   81.586    6.315
  314.599    0.255    0.448   85.221    6.411
  314.899    0.260    0.468   90.064    6.763
  315.199    0.265    0.477   91.886    7.265
  315.499    0.255    0.486   91.290    7.520
  315.799    0.253    0.464   90.090    7.644
  316.099    0.239    0.441   88.284    6.458
  316.399    0.237    0.435   92.524    5.068
  316.699    0.256    0.455   95.553    3.762
  316.999    0.250    0.457   96.166    2.741
  317.299    0.255    0.447   88.317    2.636
  317.599    0.263    0.448   82.282    2.629
  317.899    0.303    0.499   78.664    3.039
  318.199    0.317    0.553   73.233    3.451
  318.499    0.302    0.575   70.219    4.066
  318.799    0.272    0.551   70.229    4.534
  319.099    0.254    0.494   70.840    4.960
  319.399    0.255    0.466   74.476    5.425
  319.699    0.261    0.453   79.922    5.826
  319.999    0.265    0.442   79.328    6.144
  320.299    0.243    0.435   78.730    6.247
  320.599    0.243    0.433   82.969    5.682
  320.899    0.261    0.431   81.772    4.713
  321.199    0.238    0.432   80.569    3.765
  321.499    0.258    0.447   79.972    3.755
  321.798    0.267    0.485   84.211    3.959
  322.098    0.276    0.511   86.033    4.099
  322.398    0.285    0.543   84.832    4.092
  322.698    0.309    0.541   81.215    3.860
  322.998    0.284    0.507   81.828    3.714
  323.298    0.256    0.450   83.649    3.504
  323.598    0.272    0.462   87.283    3.495
  323.898    0.287    0.523   86.689    3.551
  324.198    0.297    0.543   86.695    3.544
  324.498    0.275    0.529   88.517    3.345
  324.798    0.291    0.495   91.547    3.216
  325.098    0.280    0.486   92.159    3.266
  325.398    0.290    0.519   91.563    3.443
  325.698    0.276    0.541   95.804    3.769
  325.998    0.275    0.518   97.019    4.280
  326.298    0.299    0.514   94.610    4.771
  326.598    0.294    0.498   90.388    5.031
  326.898    0.292    0.481   89.189    5.018
  327.198    0.288    0.485   88.592    4.822
  327.498    0.289    0.472   87.995    5.181
  327.798    0.295    0.468   88.609    5.779
  328.098    0.294    0.470   86.803    6.684
  328.398    0.264    0.503   78.350    6.912
  328.698    0.247    0.496   70.501    6.770
  328.998    0.216    0.426   72.323    6.272
  329.298    0.169    0.367   71.728    5.922
  329.598    0.240    0.422   71.130    5.390
  329.898    0.263    0.422   70.534    5.179
  330.198    0.266    0.420   74.169    5.266
  330.498    0.264    0.444   77.199    5.657
  330.798    0.254    0.473   77.207    6.541
  331.098    0.251    0.473   71.777    8.451
  331.398    0.305    0.448   68.158   10.144
  331.698    0.288    0.477   63.936   12.868
  331.998    0.282    0.488   59.109   13.313
  332.298    0.289    0.452   54.282   12.340
  332.598    0.304    0.453   56.709    8.826
  332.898    0.328    0.462   59.134    6.797
  333.198    0.345    0.456   61.560    6.300
  333.498    0.301    0.428   65.194    6.053
  333.798    0.287    0.441   79.103    6.151
  334.098    0.258    0.435   88.783    6.490
  334.398    0.260    0.442   86.375    7.234
  334.698    0.261    0.435   79.129    8.679
  334.998    0.249    0.419   75.511    8.986
  335.298    0.260    0.459   61.014    8.480
  335.598    0.253    0.405   59.814    7.430
  335.898    0.198    0.340   62.240    6.887
  336.198    0.218    0.317   66.478    6.379
  336.498    0.260    0.379   76.157    6.139
  336.798    0.245    0.389   81.605    6.012
  337.098    0.224    0.411   85.843    5.988
  337.398    0.274    0.435   86.456    5.979
  337.698    0.261    0.437   83.442    5.744
  337.998    0.234    0.419   83.451    5.734
  338.298    0.216    0.423   85.877    5.620
  338.598    0.223    0.444   90.117    5.601
  338.898    0.248    0.466   89.520    5.589
  339.198    0.242    0.465   85.902    5.789
  339.498    0.235    0.471   85.308    6.332
  339.798    0.238    0.462   85.315    6.556
  340.098    0.241    0.375   69.239    6.662
  340.398    0.238    0.382   72.260    6.648
  340.698    0.230    0.417   74.084    6.393
  340.998    0.270    0.408   70.482    6.257
  341.298    0.283    0.395   69.295    6.129
  341.598    0.232    0.391   73.523    6.115
  341.898    0.222    0.392   80.158    6.100
  342.198    0.232    0.433   86.795    6.199
  342.498    0.234    0.476   89.218    6.177
  342.798    0.237    0.462   86.824    6.167
  343.098    0.220    0.415   78.412    6.038
  343.398    0.251    0.427   79.025    5.804
  343.698    0.208    0.396   80.245    5.691
  343.998    0.220    0.409   82.067    5.676
  344.298    0.229    0.460   84.487    5.877
  344.598    0.233    0.446   81.492    6.083
  344.898    0.241    0.401   77.291    6.291
  345.198    0.212    0.400   81.520    6.167
  345.498    0.217    0.408   83.340    6.153
  345.798    0.231    0.436   83.354    5.917
  346.098    0.212    0.451   82.164    6.005
  346.397    0.222    0.454   77.966    6.107
  346.697    0.176    0.423   76.173    6.322
  346.997    0.198    0.441   86.422    6.309
  347.297    0.224    0.460   85.835    6.180
  347.597    0.241    0.429   78.022    5.940
  347.897    0.195    0.401   75.629    5.606
  348.197    0.193    0.407   80.461    5.390
  348.497    0.227    0.419   84.687    5.279
