~VERSION INFORMATION
 VERS.                 2.0:   CWLS LOG ASCII STANDARD -VERSION 2.0
 WRAP.                  NO:   ONE LINE PER DEPTH STEP
~WELL INFORMATION BLOCK
#MNEM.UNIT           DATA                    DESCRIPTION OF MNEMONIC
#---------    -------------------            -------------------------------
# Generated from Intellog Unique Number	CC_88_90/WELL/3160
WELL.         HUSKY OIL OPERATIONS LTD.      : Well_name    - WELL
LOC .         AA/16-19-089-07W4/0            : Location     - LOCATION
UWI .         AA/16-19-089-07W400            : Uwi          - UNIQUE WELL ID
ENTR.         JOETTE                         : Entered      - ENTERED BY
SRVC.         SCHLUMBERGER                   : Scn          - SERVICE COMPANY
DATE.         03/06/92                       : Date         - LOG DATE
STRT.M        15.240                         : top_depth    - START DEPTH
STOP.M        116.240                        : bot_depth    - STOP DEPTH
STEP.M        0.25                           : increment    - STEP LENGTH
 NULL. -999.2500:NULL Value
~CURVE INFORMATION BLOCK
#MNEM UNIT       ERCB CURVE CODE    CURVE DESCRIPTION
#-----------   ------------------   ----------------------------------
DEPT.M        00 001 00 00         : DEPTH        - DEPTH
GR  .API      00 310 00 00         : GR           - GAMMA RAY
CALI.MM       00 280 01 00         : CAL          - CALIPER
DPHI.V/V      00 890 00 00         : PHID         - DENSITY POROSITY (SANDSTONE)
ILD .OHMM     00 120 00 00         : RESD         - DEEP RESISTIVITY (DIL)
~PARAMETER INFORMATION
#MNEM.UNIT           DATA             DESCRIPTION OF MNEMONIC
#---------         -----------     ------------------------------
GL  .M        428.244              : gl           - GROUND LEVEL ELEVATION
EREF.M        429.463              : kb           - ELEVATION OF DEPTH REFERENCE
DATM.M        429.463              : datum        - DATUM ELEVATION
TDD .M        180.746              : tdd          - TOTAL DEPTH DRILLER
RUN .         ONE                  : Run          - RUN NUMBER
ENG .         BILL                 : Engineer     - RECORDING ENGINEER
WIT .         JIM                  : Witness      - WITNESSED BY
MUD .         GEL                  : Mud_type     - MUD TYPE
MATR.         SANDSTONE            : Logunit      - NEUTRON MATRIX
TMAX.C        11.1111              : BHT          - MAXIMUM RECORDED TEMPERATURE
BHTD.M        180.746              : BHTDEP       - MAXIMUM RECORDED TEMPERATURE
RMT .C        10                   : MDTP         - TEMPERATURE OF MUD
MUDD.KG/M     9800                 : MWT          - MUD DENSITY
NEUT.         1                    : NEUTRON      - NEUTRON TYPE
RESI.         0                    : RESIST       - RESISTIVITY TYPE
RM  .OHMM     5.68                 : RM           - RESISTIVITY OF MUD
RMC .OHMM     5.68                 : RMC          - RESISTIVITY OF MUD CAKE
RMF .OHMM     5.68                 : RMF          - RESISTIVITY OF MUD FILTRATE
SUFT.C        4                    : SUFT         - SURFACE TEMPERATURE
~A  DEPTH       GR      CAL     PHID     RESD
# ...
   58.740  102.567  802.186    0.400    7.516
   58.990  110.560  792.443    0.413    6.616
   59.240  116.708  772.636    0.419    5.513
   59.490  103.806  742.764    0.412    6.510
   59.740   81.685  733.021    0.402   12.865
   59.990   82.302  713.374    0.397   17.927
   60.240  101.972  703.792    0.406   18.623
   60.490  102.590  704.433    0.393   14.682
   60.740   88.457  715.300    0.378   14.168
   60.990   79.857  726.166    0.370   16.733
   61.240   83.548  737.193    0.384    9.305
   61.490   81.093  768.509    0.422    6.104
   61.740   77.408  820.594    0.458    5.275
   61.990   94.619  841.364    0.465    3.398
   62.240  107.528  872.680    0.452    3.798
   62.490  105.073  873.482    0.461    3.873
   62.740   96.472  874.124    0.473    3.877
   62.990  105.079  864.542    0.455    4.101
   63.240  108.770  865.183    0.427    5.822
   63.490   95.867  865.825    0.407    5.829
   63.740   91.568  846.018    0.395    6.166
   63.990   87.884  826.532    0.392    8.133
   64.240   89.116  796.660    0.388   11.127
   64.490   77.443  796.981    0.375   13.895
   64.740   80.519  797.783    0.377   13.160
   64.990  111.865  798.586    0.400   12.244
   65.240  114.941  798.907    0.407   10.978
   65.490  114.329  799.709    0.416   10.208
   65.740  111.260  800.511    0.420    9.155
   65.990   84.836  780.704    0.401    8.832
   66.240   81.767  770.961    0.379   11.650
   66.490   84.843  751.154    0.358   12.100
   66.740   89.148  690.769    0.362   11.676
   66.990  103.900  680.866    0.348   13.293
   67.240  130.330  671.604    0.337   15.995
   67.490  124.188  692.855    0.344   19.242
   67.740  111.899  713.625    0.362   23.578
   67.990  104.529  755.165    0.387   23.610
   68.240  105.146  796.866    0.382   17.615
   68.490   91.013  818.117    0.398    7.165
   68.740   85.486  798.310    0.409    9.108
   68.990   83.031  788.727    0.416   10.764
   69.240   82.420  820.043    0.420    9.648
   69.490   84.881  861.744    0.417    8.186
   69.740   82.425  882.835    0.396    7.616
   69.990   80.585  903.926    0.377    8.669
   70.240   91.650  914.632    0.378    9.872
   70.490  115.622  915.434    0.390    9.703
   70.740  122.385  926.140    0.391    8.699
   70.990  116.857  927.103    0.392    7.802
   71.240  121.162  927.584    0.393    7.666
   71.490  121.780  928.226    0.379    7.535
   71.740  121.783  929.028    0.383    6.884
   71.990  108.880  929.510    0.388    6.403
   72.240   92.905  920.087    0.382    6.179
   72.490   83.075  879.991    0.388    6.535
   72.740  100.286  849.960    0.382   11.780
   72.990  124.257  840.377    0.362   16.122
   73.240  124.875  851.243    0.368   14.718
   73.490  116.889  872.334    0.380   13.196
   73.740  111.361  873.137    0.363   10.403
   73.990   97.229  873.939    0.346    9.503
   74.240   84.940  864.035    0.344   11.860
   74.490   64.663  834.004    0.368   11.657
   74.740   41.313  804.132    0.381    9.891
   74.990   43.774  774.100    0.391    9.032
   75.240   40.705  754.293    0.394   10.480
   75.490   33.333  744.710    0.395   10.683
   75.740   35.179  745.513    0.399   11.723
   75.990   59.151  745.994    0.391   13.847
   76.240   99.101  736.572    0.396   16.971
   76.490  105.250  737.053    0.389   15.498
   76.740  108.326  727.631    0.331   13.398
   76.990   84.361  738.658    0.297   12.458
   77.240   68.385  749.364    0.282   14.447
   77.490   48.722  781.000    0.203   26.044
   77.740   46.267  791.706    0.219   39.796
   77.990   60.406  812.637    0.304   23.810
   78.240   65.940  844.113    0.369   17.441
   78.490   57.953  875.749    0.377   13.254
   78.740   45.050  886.455    0.380    7.506
   78.990   45.668  897.482    0.392    7.654
   79.240   51.203  908.349    0.376    7.525
   79.490   58.581  919.215    0.385    6.999
   79.740   58.584  919.857    0.399    5.830
   79.990   54.900  920.499    0.391    5.626
   80.240   57.975  910.756    0.394    6.896
   80.490   63.510  890.948    0.407    6.778
   80.740   61.669  881.687    0.377    8.938
   80.990   61.673  882.328    0.355   11.572
   81.240   55.530  903.580    0.364   15.266
   81.490   62.908  924.350    0.347   19.052
   81.740   75.817  955.826    0.327   22.509
   81.990   83.809  987.142    0.333   22.533
   82.240   83.198 1008.390    0.347   19.119
   82.490   78.284 1019.260    0.381   14.799
   82.740   67.840 1029.970    0.393    7.785
   82.990   57.396 1040.990    0.387    6.606
   83.240   47.566 1041.630    0.402    6.258
   83.490   35.892 1042.440    0.437    5.715
   83.740   32.823 1043.240    0.430    5.416
   83.990   35.284 1043.560    0.425    5.038
   84.240   38.360 1054.430    0.433    4.600
   84.490   37.134 1055.070    0.451    3.976
   84.740   40.210 1056.030    0.464    3.312
   84.990   46.359 1067.060    0.432    2.915
   85.240   38.987 1067.380    0.417    2.919
   85.490   43.907 1068.020    0.404    2.923
   85.740   48.826 1058.600    0.374    3.268
   85.990   48.830 1049.180    0.376    3.719
   86.240   46.989 1039.590    0.370    4.642
   86.490   46.377 1040.240    0.367    6.123
   86.740   46.381  999.979    0.345    7.366
   86.990   42.697  969.787    0.341    6.980
   87.240   48.231  949.979    0.333    6.988
   87.490   48.849  950.782    0.345    8.406
   87.740   36.560  951.424    0.364    9.932
   87.990   29.189  952.226    0.355   11.098
   88.240   25.505  932.579    0.349   11.532
   88.490   21.820  922.675    0.330   10.337
   88.740   31.042  892.644    0.316    8.457
   88.990   48.867  852.387    0.311    8.780
   89.240   44.568  812.452    0.308    9.996
   89.490   42.728  792.644    0.323   11.384
   89.740   45.190  782.901    0.337   11.396
   89.990   47.651  783.864    0.331   11.835
   90.240   71.622  774.121    0.314   13.229
   90.490   87.604  774.602    0.278   14.522
   90.740   92.523  775.405    0.256   13.261
   90.990   94.370  776.207    0.265   14.553
   91.240   77.780  776.688    0.333   19.911
   91.490   71.638  797.779    0.357   13.551
   91.740   86.391  818.870    0.377    9.748
   91.990   96.841  860.571    0.362    9.581
   92.240   96.230  871.437    0.358    8.912
   92.490   95.618  872.240    0.354   10.146
   92.740   82.716  862.657    0.360   11.554
   92.990   72.272  853.074    0.361   11.149
   93.240   64.285  884.550    0.379   10.368
   93.490   64.903  925.930    0.366    9.646
   93.740   82.728  967.631    0.378    9.308
   93.990   82.117  988.722    0.381    8.503
   94.240   75.360 1020.040    0.373    8.355
   94.490   75.363 1041.290    0.376    8.211
   94.740   77.210 1052.320    0.386    7.638
   94.990   71.068 1063.020    0.368    6.852
   95.240   69.227 1063.500    0.352    6.734
   95.490   66.772 1054.240    0.323    7.254
   95.740   63.702 1044.500    0.307    8.567
   95.990   46.498 1024.690    0.318   11.724
   96.240   45.886 1005.040    0.337   15.180
   96.490   55.722 1025.970    0.360   15.478
   96.740   73.548 1108.570    0.376   12.203
   96.990   83.999 1119.280    0.365    9.445
   97.240   79.700 1099.790    0.367    9.286
   97.490   66.797 1079.990    0.373    9.644
   97.740   48.978 1090.690    0.385    7.744
   97.990   71.105 1091.490    0.376    6.105
   98.240   95.691 1092.140    0.368    5.375
   98.490  123.964 1092.780    0.338    6.232
   98.740  115.978 1083.190    0.333    7.636
   98.990  115.981 1063.550    0.347    7.932
   99.240  124.588 1043.580    0.371    6.982
   99.490  120.904 1023.930    0.366    7.386
   99.740   92.637 1003.970    0.384   10.489
   99.990   76.047  984.159    0.426    8.267
  100.240   47.780  944.223    0.443    6.166
  100.490   63.762  914.191    0.403    3.623
  100.740  106.785  894.224    0.363    3.694
  100.990  104.330  864.352    0.355    4.365
  101.240  106.176  834.481    0.325    4.879
  101.490   93.888  814.353    0.305    5.453
  101.740   61.934  794.866    0.289    6.934
  101.990   44.115  775.220    0.276    7.752
