~VERSION INFORMATION
 VERS.                 2.0:   CWLS LOG ASCII STANDARD -VERSION 2.0
 WRAP.                  NO:   ONE LINE PER DEPTH STEP
~WELL INFORMATION BLOCK
#MNEM.UNIT           DATA                    DESCRIPTION OF MNEMONIC
#---------    -------------------            -------------------------------
# Generated from Intellog Unique Number	CW_79_81/WELL/2479
WELL.         GULF HOOLE OV                  : Well_name    - WELL
LOC .         AA/11-01-080-23W4/0            : Location     - LOCATION
UWI .         AA/11-01-080-23W4/0            : Uwi          - UNIQUE WELL ID
ENTR.         MAX                            : Entered      - ENTERED BY
SRVC.         SCHLUMBERGER                   : Scn          - SERVICE COMPANY
STRT.M        215                            : top_depth    - START DEPTH
STOP.M        485                            : bot_depth    - STOP DEPTH
STEP.M        0.25                           : increment    - STEP LENGTH
 NULL. -999.2500:NULL Value
~CURVE INFORMATION BLOCK
#MNEM UNIT       ERCB CURVE CODE    CURVE DESCRIPTION
#-----------   ------------------   ----------------------------------
DEPT.M        00 001 00 00         : DEPTH        - DEPTH
ILD .OHMM     00 120 00 00         : RESD         - DEEP RESISTIVITY (DIL)
NPHI.V/V      00 330 00 00         : PHIN         - NEUTRON POROSITY (SANDSTONE)
DPHI.V/V      00 890 00 00         : PHID         - DENSITY POROSITY (SANDSTONE)
GR  .API      00 310 00 00         : GR           - GAMMA RAY
CALI.MM       00 280 01 00         : CAL          - CALIPER
~PARAMETER INFORMATION
#MNEM.UNIT           DATA             DESCRIPTION OF MNEMONIC
#---------         -----------     ------------------------------
GL  .M        583.2                : gl           - GROUND LEVEL ELEVATION
EREF.M        586.7                : kb           - ELEVATION OF DEPTH REFERENCE
DATM.M        583.2                : datum        - DATUM ELEVATION
TDD .M        490                  : tdd          - TOTAL DEPTH DRILLER
RUN .         ONE                  : Run          - RUN NUMBER
ENG .         BILL                 : Engineer     - RECORDING ENGINEER
WIT .         JIM                  : Witness      - WITNESSED BY
MUD .         GEL                  : Mud_type     - MUD TYPE
MATR.         SANDSTONE            : Logunit      - NEUTRON MATRIX
TMAX.C        29                   : BHT          - MAXIMUM RECORDED TEMPERATURE
BHTD.M        490                  : BHTDEP       - MAXIMUM RECORDED TEMPERATURE
MATR.         1                    : LOGUNIT      - NEUTRON MATRIX
RMT .C        17                   : MDTP         - TEMPERATURE OF MUD
NEUT.         1                    : NEUTRON      - NEUTRON TYPE
RESI.         0                    : RESIST       - RESISTIVITY TYPE
RMC .OHMM     8.12                 : RMC          - RESISTIVITY OF MUD CAKE
RMF .OHMM     7.56                 : RMF          - RESISTIVITY OF MUD FILTRATE
SUFT.C        15                   : SUFT         - SURFACE TEMPERATURE
~A  DEPTH     RESD     PHIN     PHID       GR      CAL
# ...
  324.500   10.259    0.457    0.257   85.306  262.220
  324.750   10.259    0.448    0.247   87.961  263.479
  325.000   10.213    0.444    0.236   87.936  264.124
  325.250   10.036    0.451    0.228   87.020  264.577
  325.500    9.771    0.462    0.223   86.166  264.942
  325.750    9.567    0.459    0.217   85.449  265.099
  326.000    9.575    0.454    0.217   85.244  265.571
  326.250    9.725    0.456    0.222   85.037  265.634
  326.500    9.877    0.465    0.230   84.834  265.711
  326.750    9.958    0.466    0.235   84.751  265.774
  327.000    9.911    0.454    0.236   85.025  265.920
  327.250    9.673    0.439    0.241   86.026  266.799
  327.500    9.533    0.462    0.241   86.065  268.930
  327.750    9.262    0.475    0.240   85.385  266.626
  328.000    8.948    0.480    0.241   83.816  264.015
  328.250    8.728    0.483    0.243   82.186  261.695
  328.500    8.687    0.482    0.249   80.972  260.067
  328.750    9.024    0.472    0.256   80.305  259.178
  329.000    9.759    0.481    0.262   80.353  258.417
  329.250   10.059    0.483    0.257   80.866  259.267
  329.500   10.030    0.486    0.249   81.023  259.824
  329.750    9.927    0.477    0.245   81.176  260.088
  330.000    9.862    0.458    0.248   81.445  260.154
  330.250    9.799    0.454    0.257   81.675  260.222
  330.500    9.808    0.462    0.257   81.466  260.281
  330.750    9.887    0.453    0.250   82.459  258.368
  331.000    9.804    0.449    0.249   82.019  256.157
  331.250    9.632    0.459    0.252   80.863  254.038
  331.500    9.446    0.478    0.257   78.222  252.408
  331.750    9.358    0.487    0.265   71.596  251.680
  332.000    9.586    0.482    0.280   70.395  251.751
  332.250    9.809    0.477    0.285   70.192  252.204
  332.500   10.423    0.470    0.286   70.526  252.960
  332.750   11.193    0.459    0.282   71.874  254.215
  333.000   11.827    0.446    0.274   74.234  255.966
  333.250   11.825    0.443    0.260   77.629  258.681
  333.500   10.963    0.437    0.256   80.143  262.057
  333.750   10.032    0.442    0.251   81.374  261.717
  334.000    9.504    0.447    0.249   82.246  261.080
  334.250    9.099    0.452    0.248   83.116  260.746
  334.500    8.763    0.459    0.248   83.809  260.910
  334.750    8.553    0.469    0.248   83.718  261.619
  335.000    8.428    0.464    0.245   84.245  262.930
  335.250    8.311    0.452    0.241   85.952  264.585
  335.500    8.241    0.460    0.239   87.653  264.739
  335.750    8.339    0.472    0.239   87.092  263.011
  336.000    8.612    0.473    0.248   83.736  259.405
  336.250    9.026    0.455    0.274   77.889  253.658
  336.500    9.464    0.443    0.286   73.467  250.419
  336.750    9.898    0.442    0.290   69.460  248.499
  337.000   10.353    0.440    0.297   66.348  247.481
  337.250   10.714    0.442    0.296   64.244  247.150
  337.500   10.924    0.446    0.286   63.271  247.205
  337.750   11.017    0.438    0.270   63.712  247.270
  338.000   11.025    0.435    0.294   64.483  247.342
  338.250   11.033    0.443    0.309   64.513  247.398
  338.500   11.165    0.449    0.312   64.195  247.757
  338.750   11.257    0.448    0.310   63.876  248.216
  339.000   11.265    0.450    0.307   63.791  248.776
  339.250   11.242    0.472    0.308   64.424  249.732
  339.500   11.081    0.470    0.309   66.206  250.197
  339.750   10.845    0.451    0.304   69.566  249.863
  340.000   10.495    0.446    0.272   73.115  249.832
  340.250   10.045    0.446    0.239   76.725  249.894
  340.500    9.567    0.444    0.219   79.618  249.953
  340.750    9.163    0.430    0.215   80.469  249.947
  341.000    9.170    0.444    0.231   81.004  249.606
  341.250    9.313    0.451    0.249   80.328  249.260
  341.500    9.512    0.468    0.269   78.046  249.820
  341.750    9.556    0.470    0.287   76.299  250.484
  342.000    9.278    0.456    0.295   76.278  251.442
  342.250    8.364    0.451    0.286   78.076  254.798
  342.500    7.247    0.499    0.265   77.364  259.401
  342.750    6.434    0.500    0.290   75.502  257.475
  343.000    6.297    0.501    0.282   73.099  254.075
  343.250    6.322    0.495    0.254   69.921  251.960
  343.500    6.416    0.467    0.217   66.092  251.620
  343.750    7.161    0.379    0.169   62.247  251.292
  344.000    9.522    0.306    0.130   63.022  251.351
  344.250   11.653    0.310    0.193   66.156  251.823
  344.500   12.766    0.356    0.233   71.248  251.978
  344.750   12.630    0.403    0.249   74.496  251.638
  345.000   11.686    0.434    0.218   72.749  251.009
  345.250   10.673    0.428    0.091   62.520  250.611
  345.500   11.725    0.296    0.049   57.602  250.256
  345.750   15.905    0.187    0.011   57.402  250.313
  346.000   19.638    0.174    0.012   58.986  250.081
  346.250   22.517    0.209    0.040   62.712  249.955
  346.500   23.748    0.272    0.078   67.686  250.223
  346.750   19.809    0.377    0.130   72.371  251.326
  347.000   14.305    0.407    0.232   75.385  252.624
  347.250   12.603    0.427    0.245   75.898  251.887
  347.500   11.441    0.443    0.251   76.944  252.354
  347.750   10.643    0.451    0.247   78.885  253.409
  348.000   10.002    0.451    0.235   81.484  254.750
  348.250    9.234    0.449    0.221   83.961  256.580
  348.500    8.893    0.448    0.222   84.240  257.485
  348.750    8.576    0.448    0.230   82.612  257.535
  349.000    8.411    0.458    0.229   79.911  254.319
  349.250    8.448    0.465    0.229   77.330  251.999
  349.500    8.596    0.467    0.232   76.119  251.765
  349.750    8.612    0.475    0.231   77.844  252.752
  350.000    8.694    0.478    0.230   79.122  257.374
  350.250    8.700    0.477    0.235   78.446  258.620
  350.500    8.658    0.468    0.239   78.127  259.866
  350.750    8.569    0.458    0.241   78.163  260.920
  351.000    8.418    0.450    0.240   78.376  261.580
  351.250    8.156    0.454    0.238   78.323  261.646
  351.500    8.039    0.476    0.237   77.866  261.724
  351.750    8.046    0.463    0.250   77.194  262.171
  352.000    8.052    0.460    0.252   76.870  259.951
  352.250    7.998    0.464    0.250   76.188  256.444
  352.500    7.930    0.470    0.251   74.320  253.535
  352.750    8.104    0.472    0.259   69.378  253.616
  353.000    8.698    0.470    0.267   64.704  253.674
  353.250   10.423    0.458    0.269   60.705  254.530
  353.500   12.712    0.444    0.262   59.192  257.473
  353.750   16.135    0.419    0.205   59.468  259.915
  354.000   20.728    0.369    0.123   61.294  259.874
  354.250   22.751    0.266    0.122   65.995  255.734
  354.500   21.415    0.264    0.168   71.483  254.547
  354.750   17.072    0.311    0.205   75.568  253.817
  355.000   15.016    0.384    0.232   78.760  253.978
  355.250   14.033    0.427    0.247   81.298  254.444
  355.500   13.533    0.428    0.251   82.585  254.711
  355.750   12.956    0.425    0.249   80.700  254.707
  356.000   12.479    0.427    0.253   78.261  256.418
  356.250   11.944    0.426    0.243   78.057  260.062
  356.500   11.112    0.427    0.231   78.216  262.498
  356.750   10.212    0.432    0.219   78.376  264.538
  357.000    9.394    0.441    0.209   78.356  266.385
  357.250    8.671    0.456    0.207   78.209  267.817
  357.500    8.351    0.460    0.218   78.496  268.715
  357.750    8.420    0.456    0.217   78.530  269.181
  358.000    8.724    0.443    0.218   77.856  269.330
  358.250    9.192    0.437    0.225   77.775  269.387
  358.500    9.761    0.439    0.233   78.167  269.651
  358.750   10.386    0.435    0.233   77.448  270.761
  359.000   10.476    0.424    0.230   77.236  272.066
  359.250   10.331    0.436    0.228   78.229  273.715
  359.500   10.416    0.446    0.227   78.681  275.368
  359.750   10.656    0.450    0.229   79.428  276.819
  360.000   10.884    0.448    0.229   80.803  277.323
  360.250   10.739    0.446    0.220   82.139  275.936
  360.500   10.422    0.443    0.216   79.686  277.624
  360.750   10.051    0.432    0.226   79.705  279.243
