~VERSION INFORMATION
 VERS.                 2.0:   CWLS LOG ASCII STANDARD -VERSION 2.0
 WRAP.                  NO:   ONE LINE PER DEPTH STEP
~WELL INFORMATION BLOCK
#MNEM.UNIT           DATA                    DESCRIPTION OF MNEMONIC
#---------    -------------------            -------------------------------
# Generated from Intellog Unique Number	CW_79_81/WELL/2485
WELL.         GAO JOLI FOU OV                : Well_name    - WELL
LOC .         AA/11-14-081-20W4/0            : Location     - LOCATION
UWI .         AA/11-14-081-20W4/0            : Uwi          - UNIQUE WELL ID
ENTR.         MAX                            : Entered      - ENTERED BY
SRVC.         SCHLUMBERGER                   : Scn          - SERVICE COMPANY
STRT.M        175                            : top_depth    - START DEPTH
STOP.M        374.75                         : bot_depth    - STOP DEPTH
STEP.M        0.25                           : increment    - STEP LENGTH
 NULL. -999.2500:NULL Value
~CURVE INFORMATION BLOCK
#MNEM UNIT       ERCB CURVE CODE    CURVE DESCRIPTION
#-----------   ------------------   ----------------------------------
DEPT.M        00 001 00 00         : DEPTH        - DEPTH
ILD .OHMM     00 120 00 00         : RESD         - DEEP RESISTIVITY (DIL)
NPHI.V/V      00 330 00 00         : PHIN         - NEUTRON POROSITY (SANDSTONE)
DPHI.V/V      00 890 00 00         : PHID         - DENSITY POROSITY (SANDSTONE)
GR  .API      00 310 00 00         : GR           - GAMMA RAY
CALI.MM       00 280 01 00         : CAL          - CALIPER
~PARAMETER INFORMATION
#MNEM.UNIT           DATA             DESCRIPTION OF MNEMONIC
#---------         -----------     ------------------------------
GL  .M        580.1                : gl           - GROUND LEVEL ELEVATION
EREF.M        583.6                : kb           - ELEVATION OF DEPTH REFERENCE
DATM.M        580.1                : datum        - DATUM ELEVATION
TDD .M        381                  : tdd          - TOTAL DEPTH DRILLER
RUN .         ONE                  : Run          - RUN NUMBER
ENG .         BILL                 : Engineer     - RECORDING ENGINEER
WIT .         JIM                  : Witness      - WITNESSED BY
MUD .         GEL                  : Mud_type     - MUD TYPE
MATR.         SANDSTONE            : Logunit      - NEUTRON MATRIX
TMAX.C        22.2                 : BHT          - MAXIMUM RECORDED TEMPERATURE
BHTD.M        381                  : BHTDEP       - MAXIMUM RECORDED TEMPERATURE
MATR.         1                    : LOGUNIT      - NEUTRON MATRIX
RMT .C        13.3                 : MDTP         - TEMPERATURE OF MUD
NEUT.         1                    : NEUTRON      - NEUTRON TYPE
RESI.         0                    : RESIST       - RESISTIVITY TYPE
RMC .OHMM     3.98                 : RMC          - RESISTIVITY OF MUD CAKE
RMF .OHMM     2.14                 : RMF          - RESISTIVITY OF MUD FILTRATE
SUFT.C        -20                  : SUFT         - SURFACE TEMPERATURE
~A  DEPTH     RESD     PHIN     PHID       GR      CAL
# ...
  321.000   12.621    0.403    0.206   62.160  260.826
  321.250   13.729    0.384    0.185   61.189  261.021
  321.500   14.966    0.372    0.182   61.245  261.215
  321.750   15.763    0.368    0.230   64.563  260.383
  322.000   15.761    0.392    0.258   69.090  258.277
  322.250   13.870    0.432    0.253   73.920  255.854
  322.500   11.438    0.451    0.248   76.211  254.637
  322.750    9.928    0.462    0.246   77.657  254.831
  323.000    9.266    0.470    0.246   79.103  256.939
  323.250    9.156    0.474    0.240   80.900  262.015
  323.500    9.297    0.474    0.233   82.659  263.267
  323.750    9.715    0.467    0.225   85.071  262.857
  324.000   10.263    0.459    0.224   86.214  261.843
  324.250   10.771    0.463    0.226   86.089  260.828
  324.500   11.156    0.468    0.229   84.877  260.216
  324.750   11.542    0.440    0.231   82.888  260.208
  325.000   11.810    0.421    0.227   82.631  260.200
  325.250   11.635    0.443    0.230   82.868  260.193
  325.500   11.398    0.459    0.232   83.468  260.185
  325.750   11.271    0.461    0.232   84.310  260.379
  326.000   11.270    0.452    0.229   84.789  260.776
  326.250   11.302    0.440    0.221   83.464  261.170
  326.500   11.476    0.443    0.215   81.696  261.161
  326.750   11.474    0.476    0.214   83.385  259.544
  327.000   11.535    0.481    0.211   84.166  257.624
  327.250   11.662    0.466    0.207   85.129  256.206
  327.500   11.812    0.444    0.206   86.333  256.500
  327.750   11.879    0.432    0.206   86.307  260.368
  328.000   11.786    0.433    0.195   83.785  261.619
  328.250   11.784    0.437    0.205   83.056  262.015
  328.500   11.848    0.433    0.211   84.138  262.411
  328.750   11.977    0.427    0.213   86.067  262.605
  329.000   12.109    0.421    0.212   88.177  262.598
  329.250   12.088    0.421    0.212   90.409  262.590
  329.500   11.994    0.430    0.208   91.915  262.582
  329.750   11.992    0.450    0.201   90.219  262.977
  330.000   12.056    0.458    0.194   87.797  263.070
  330.250   12.144    0.451    0.197   86.463  263.265
  330.500   12.277    0.439    0.210   86.278  263.661
  330.750   12.569    0.439    0.220   85.648  264.054
  331.000   12.665    0.459    0.210   86.147  264.047
  331.250   12.663    0.446    0.200   88.560  264.040
  331.500   12.590    0.433    0.205   90.247  264.033
  331.750   12.262    0.427    0.211   91.087  264.025
  332.000   11.707    0.430    0.208   91.322  264.018
  332.250   11.101    0.436    0.192   91.612  263.924
  332.500   11.014    0.443    0.180   91.860  263.497
  332.750   11.259    0.442    0.181   91.856  263.489
  333.000   11.572    0.439    0.193   91.489  263.482
  333.250   11.788    0.435    0.202   91.243  263.677
  333.500   11.807    0.432    0.203   91.118  264.072
  333.750   11.632    0.442    0.202   90.227  264.468
  334.000   11.629    0.449    0.199   88.207  264.459
  334.250   11.542    0.434    0.197   88.445  265.258
  334.500   11.519    0.430    0.200   93.576  265.754
  334.750   11.602    0.432    0.202   97.198  265.947
  335.000   11.752    0.436    0.203   97.132  265.940
  335.250   11.800    0.440    0.203   95.334  265.933
  335.500   11.618    0.440    0.191   94.826  265.925
  335.750   10.944    0.438    0.185   94.822  265.917
  336.000   10.548    0.447    0.183   99.169  266.212
  336.250   10.316    0.465    0.182  102.669  266.607
  336.500   10.276    0.479    0.182  102.907  266.902
  336.750   10.741    0.455    0.185   99.739  266.978
  337.000   11.606    0.423    0.177   97.217  267.390
  337.250   11.604    0.419    0.164   93.828  267.381
  337.500   11.219    0.428    0.167   94.427  267.978
  337.750   10.689    0.441    0.176   96.115  268.777
  338.000   10.342    0.451    0.184   97.018  269.374
  338.250   10.731    0.455    0.186   95.734  269.367
  338.500   11.595    0.455    0.181   92.960  269.359
  338.750   13.118    0.451    0.168   86.672  266.935
  339.000   14.551    0.424    0.170   83.826  264.509
  339.250   16.072    0.394    0.198   84.305  263.092
  339.500   17.774    0.378    0.240   86.235  262.683
  339.750   19.468    0.384    0.253   85.535  261.934
  340.000   19.615    0.397    0.258   83.264  260.248
  340.250   20.198    0.405    0.238   80.118  260.241
  340.500   22.291    0.412    0.179   76.428  260.234
  340.750   25.528    0.393    0.124   72.798  260.429
  341.000   29.633    0.347    0.106   69.772  260.622
  341.250   34.852    0.296    0.149   67.782  259.624
  341.500   37.074    0.296    0.177   67.526  256.678
  341.750   36.523    0.369    0.175   66.797  257.074
  342.000   34.781    0.363    0.145   66.611  259.584
  342.250   31.760    0.336    0.136   68.057  261.389
  342.500   28.864    0.324    0.152   70.590  261.684
  342.750   27.554    0.338    0.148   71.934  261.844
  343.000   26.310    0.319    0.115   71.427  262.673
  343.250   23.332    0.301    0.113   74.564  263.071
  343.500   20.223    0.322    0.150   80.421  263.164
  343.750   17.582    0.357    0.186   85.614  263.157
  344.000   15.783    0.387    0.200   88.329  263.150
  344.250   15.099    0.396    0.198   88.322  263.140
  344.500   15.096    0.401    0.205   88.318  263.134
  344.750   15.206    0.404    0.209   89.280  263.126
  345.000   15.401    0.413    0.201   89.155  263.119
  345.250   15.742    0.415    0.188   87.217  263.313
  345.500   16.241    0.412    0.176   85.098  263.708
  345.750   17.006    0.410    0.176   87.439  264.355
  346.000   17.810    0.405    0.192   90.708  265.606
  346.250   18.610    0.406    0.195   91.671  266.404
  346.500   20.084    0.379    0.173   88.464  266.900
  346.750   22.020    0.341    0.131   82.659  267.296
  347.000   23.747    0.296    0.085   76.008  267.591
  347.250   23.177    0.244    0.072   71.751  267.499
  347.500   20.064    0.255    0.114   78.294  267.072
  347.750   17.258    0.281    0.145   86.265  266.661
  348.000   15.394    0.350    0.185   94.055  266.250
  348.250   14.645    0.393    0.210   98.523  265.840
  348.500   14.697    0.399    0.207   99.063  265.531
  348.750   15.072    0.413    0.170   96.449  265.437
  349.000   15.908    0.408    0.124   90.653  265.010
  349.250   20.560    0.340    0.091   87.991  265.003
  349.500   23.797    0.292    0.097   89.497  265.299
  349.750   22.652    0.294    0.131   93.602  265.695
  350.000   18.823    0.337    0.175   98.189  266.190
  350.250   15.381    0.380    0.208  100.803  267.156
  350.500   14.356    0.395    0.205  101.805  267.987
  350.750   14.248    0.396    0.189  101.558  267.980
  351.000   14.377    0.399    0.175  100.949  267.973
  351.250   14.267    0.406    0.169   99.132  267.965
  351.500   13.850    0.414    0.175   94.839  267.956
  351.750   13.361    0.415    0.195   86.222  267.948
  352.000   12.955    0.405    0.198   85.463  267.940
  352.250   12.480    0.403    0.183   85.459  267.531
  352.500   12.024    0.403    0.164   87.085  267.424
  352.750   11.410    0.409    0.168   88.531  267.618
  353.000   10.760    0.424    0.191   89.010  267.913
  353.250   10.304    0.450    0.196   89.519  267.904
  353.500    9.991    0.459    0.176   93.291  267.896
  353.750    9.770    0.468    0.192   97.395  267.887
  354.000    9.500    0.464    0.197   98.056  267.881
  354.250    9.291    0.452    0.199   98.172  267.874
  354.500    9.238    0.438    0.199   99.195  267.866
  354.750    9.544    0.429    0.200  101.577  267.522
  355.000   10.073    0.422    0.198  103.838  265.835
  355.250   10.221    0.398    0.201  102.383  264.620
  355.500   10.429    0.402    0.204  104.554  263.404
  355.750   10.816    0.419    0.204  105.154  263.397
  356.000   11.527    0.438    0.201  100.679  264.396
  356.250   13.169    0.440    0.192   87.903  264.790
  356.500   15.395    0.411    0.167   80.849  264.783
  356.750   18.825    0.390    0.110   79.153  264.373
  357.000   22.522    0.374    0.113   81.445  264.266
  357.250   24.376    0.377    0.152   85.066  264.258
