~VERSION INFORMATION
 VERS.                 2.0:   CWLS LOG ASCII STANDARD -VERSION 2.0
 WRAP.                  NO:   ONE LINE PER DEPTH STEP
~WELL INFORMATION BLOCK
#MNEM.UNIT           DATA                    DESCRIPTION OF MNEMONIC
#---------    -------------------            -------------------------------
# Generated from Intellog Unique Number	CN_94_101/WELL/5018
WELL.         11-16-099-13W4                 : Well_name    - WELL
LOC .         AA/11-16-099-13W4/0            : Location     - LOCATION
UWI .         AA/11-16-099-13W400            : Uwi          - UNIQUE WELL ID
ENTR.         TIM                            : Entered      - ENTERED BY
SRVC.         SCHLUMBERGER                   : Scn          - SERVICE COMPANY
DATE.         08/13/92                       : Date         - LOG DATE
STRT.M        393.192                        : top_depth    - START DEPTH
STOP.M        594.442                        : bot_depth    - STOP DEPTH
STEP.M        0.25                           : increment    - STEP LENGTH
 NULL. -999.2500:NULL Value
~CURVE INFORMATION BLOCK
#MNEM UNIT       ERCB CURVE CODE    CURVE DESCRIPTION
#-----------   ------------------   ----------------------------------
DEPT.M        00 001 00 00         : DEPTH        - DEPTH
GR  .API      00 310 00 00         : GR           - GAMMA RAY
ILD .OHMM     00 120 00 00         : RESD         - DEEP RESISTIVITY (DIL)
NPHI.V/V      00 330 00 00         : PHIN         - NEUTRON POROSITY (SANDSTONE)
~PARAMETER INFORMATION
#MNEM.UNIT           DATA             DESCRIPTION OF MNEMONIC
#---------         -----------     ------------------------------
GL  .M        829.97               : gl           - GROUND LEVEL ELEVATION
EREF.M        833.323              : kb           - ELEVATION OF DEPTH REFERENCE
DATM.M        833.323              : datum        - DATUM ELEVATION
TDD .M        596.189              : tdd          - TOTAL DEPTH DRILLER
RUN .         ONE                  : Run          - RUN NUMBER
ENG .         BILL                 : Engineer     - RECORDING ENGINEER
WIT .         JIM                  : Witness      - WITNESSED BY
MUD .         GEL                  : Mud_type     - MUD TYPE
MATR.         SANDSTONE            : Logunit      - NEUTRON MATRIX
TMAX.C        33.3333              : BHT          - MAXIMUM RECORDED TEMPERATURE
BHTD.M        596.189              : BHTDEP       - MAXIMUM RECORDED TEMPERATURE
RMT .C        21.1111              : MDTP         - TEMPERATURE OF MUD
MUDD.KG/M     1090                 : MWT          - MUD DENSITY
NEUT.         1                    : NEUTRON      - NEUTRON TYPE
RESI.         0                    : RESIST       - RESISTIVITY TYPE
RM  .OHMM     6                    : RM           - RESISTIVITY OF MUD
RMC .OHMM     6                    : RMC          - RESISTIVITY OF MUD CAKE
RMF .OHMM     6                    : RMF          - RESISTIVITY OF MUD FILTRATE
SUFT.C        4                    : SUFT         - SURFACE TEMPERATURE
~A  DEPTH       GR     RESD     PHIN
# ...
  447.442  135.304    2.502    0.336
  447.692  136.552    2.413    0.342
  447.942  137.248    2.372    0.346
  448.192  137.907    2.333    0.344
  448.442  138.567    2.384    0.342
  448.692  139.227    2.438    0.343
  448.942  139.318    2.442    0.343
  449.192  139.372    2.547    0.343
  449.442  140.050    2.550    0.343
  449.692  140.104    2.609    0.344
  449.942  140.764    2.615    0.344
  450.192  140.267    2.621    0.344
  450.442  138.576    2.628    0.342
  450.692  136.886    2.582    0.341
  450.942  135.196    2.592    0.339
  451.192  134.093    2.597    0.340
  451.442  132.403    2.654    0.340
  451.692  131.300    2.712    0.341
  451.942  131.390    2.771    0.341
  452.192  131.463    2.832    0.341
  452.442  131.535    2.786    0.341
  452.692  132.782    2.737    0.342
  452.942  134.635    2.592    0.344
  453.192  135.295    2.545    0.348
  453.442  134.816    2.458    0.354
  453.692  134.265    2.370    0.356
  453.942  133.750    2.329    0.360
  454.192  133.252    2.246    0.363
  454.442  132.168    2.086    0.363
  454.692  131.083    2.009    0.364
  454.942  130.550    1.940    0.364
  455.192  130.640    1.907    0.362
  455.442  130.694    1.911    0.355
  455.692  131.354    1.915    0.347
  455.942  131.427    1.921    0.331
  456.192  126.229    1.964    0.320
  456.442  122.758    1.967    0.303
  456.692  118.717    1.972    0.333
  456.942  124.683    2.017    0.359
  457.192  128.850    2.022    0.365
  457.442  134.229    2.026    0.368
  457.692  136.082    2.030    0.369
  457.942  134.961    2.035    0.367
  458.192  132.719    2.081    0.365
  458.442  131.029    2.170    0.362
  458.692  128.751    2.217    0.358
  458.942  127.630    2.308    0.351
  459.192  125.976    2.454    0.346
  459.442  124.855    2.555    0.341
  459.692  121.990    2.824    0.330
  459.942  120.281    3.120    0.319
  460.192  116.828    3.310    0.303
  460.442  113.375    3.874    0.282
  460.692  105.809    4.532    0.272
  460.942  101.787    4.907    0.269
  461.192  103.016    5.218    0.274
  461.442  108.394    5.228    0.278
  461.692  111.441    5.143    0.285
  461.942  113.276    4.864    0.292
  462.192  112.155    4.427    0.298
  462.442  111.070    4.110    0.310
  462.692  110.555    3.961    0.318
  462.942  111.820    3.824    0.328
  463.192  112.444    3.831    0.339
  463.442  113.122    3.840    0.341
  463.692  112.037    3.998    0.337
  463.942  109.190    4.419    0.327
  464.192  107.482    4.691    0.311
  464.442  104.616    5.181    0.304
  464.692  101.751    5.835    0.299
  464.942   99.455    6.567    0.298
  465.192   96.589    7.115    0.298
  465.442   93.136    7.417    0.297
  465.692   90.858    7.426    0.289
  465.942   87.405    6.890    0.273
  466.192   86.908    5.917    0.245
  466.442   86.393    4.614    0.219
  466.692   87.640    3.668    0.220
  466.942  100.657    3.090    0.263
  467.192  108.955    2.813    0.290
  467.442  116.114    2.712    0.318
  467.692  120.300    2.566    0.345
  467.942  124.485    2.571    0.364
  468.192  124.557    2.683    0.363
  468.442  124.042    2.794    0.362
  468.692  122.352    2.909    0.362
  468.942  120.679    3.153    0.357
  469.192  119.595    3.221    0.347
  469.442  119.685    3.295    0.340
  469.692  119.721    3.301    0.337
  469.942  120.381    3.312    0.336
  470.192  120.472    3.318    0.335
  470.442  120.580    3.262    0.334
  470.692  120.616    3.270    0.334
  470.942  120.707    3.213    0.333
  471.192  120.761    3.162    0.329
  471.442  120.264    3.107    0.326
  471.692  119.767    2.885    0.322
  471.942  121.602    2.780    0.327
  472.192  124.594    2.583    0.339
  472.442  127.052    2.536    0.346
  472.692  126.555    2.495    0.347
  472.942  125.434    2.551    0.341
  473.192  124.901    2.656    0.332
  473.442  123.816    2.936    0.324
  473.692  123.870    3.116    0.314
  473.942  122.804    3.314    0.301
  474.192  122.271    3.386    0.295
  474.442  121.204    3.458    0.292
  474.692  120.671    3.534    0.293
  474.942  120.743    3.611    0.294
  475.192  120.797    3.762    0.297
  475.442  120.906    3.847    0.300
  475.692  119.821    4.010    0.301
  475.942  118.682    4.019    0.304
  476.192  117.597    3.802    0.306
  476.442  117.064    3.596    0.307
  476.692  115.979    3.605    0.309
  476.942  115.482    3.979    0.312
  477.192  113.222    4.227    0.310
  477.442  112.101    4.160    0.304
  477.692  110.981    4.012    0.291
  477.942  109.878    3.871    0.279
  478.192  111.749    3.876    0.268
  478.442  112.978    3.813    0.270
  478.692  115.419    3.679    0.281
  478.942  117.254    3.546    0.321
  479.192  117.326    3.421    0.331
  479.442  116.242    3.364    0.332
  479.692  115.708    3.372    0.332
  479.942  115.229    3.379    0.330
  480.192  115.265    3.453    0.328
  480.442  114.786    3.465    0.324
  480.692  114.840    3.470    0.321
  480.942  114.967    3.413    0.320
  481.192  115.003    3.293    0.320
  481.442  115.663    3.305    0.325
  481.692  115.717    3.371    0.337
  481.942  116.395    3.447    0.344
  482.192  117.109    3.593    0.349
  482.442  117.128    3.602    0.347
  482.692  117.787    3.681    0.343
  482.942  118.483    3.834    0.337
  483.192  119.713    3.698    0.327
  483.442  120.373    3.365    0.323
  483.692  122.831    3.006    0.323
  483.942  124.061    2.897    0.327
  484.192  126.520    2.795    0.330
  484.442  127.731    2.746    0.335
  484.692  129.584    2.649    0.333
  484.942  130.244    2.656    0.332
  485.192  130.334    2.825    0.332
  485.442  130.425    2.941    0.334
  485.692  130.461    3.062    0.335
  485.942  130.551    3.012    0.329
  486.192  130.036    2.910    0.325
  486.442  127.758    2.915    0.322
  486.692  126.655    2.864    0.327
  486.942  126.140    2.871    0.330
  487.192  126.230    2.878    0.333
  487.442  125.715    2.886    0.335
  487.692  125.806    3.009    0.334
  487.942  125.896    3.131    0.331
  488.192  125.932    3.667    0.329
  488.442  126.628    4.046    0.325
  488.692  127.270    4.386    0.324
  488.942  127.966    4.658    0.323
  489.192  128.590    5.044    0.322
  489.442  129.268    5.575    0.319
  489.692  130.515    5.691    0.316
  489.942  130.606    5.815    0.308
  490.192  130.678    5.943    0.300
  490.442  130.145    5.963    0.292
  490.692  127.903    5.977    0.283
  490.942  127.351    5.995    0.276
  491.192  125.697    5.890    0.263
  491.442  125.752    5.795    0.258
  491.692  123.474    5.694    0.257
  491.942  121.801    5.494    0.256
  492.192  121.286    5.298    0.258
  492.442  120.771    5.109    0.260
  492.692  120.843    5.118    0.267
  492.942  120.916    5.133    0.279
  493.192  120.400    5.145    0.286
  493.442  119.297    5.160    0.281
  493.692  118.213    5.175    0.277
  493.942  117.110    5.184    0.271
  494.192  116.595    5.196    0.262
  494.442  115.510    5.313    0.259
  494.692  113.820    5.426    0.255
  494.942  112.735    5.551    0.253
  495.192  112.184    5.568    0.256
  495.442  111.099    5.467    0.260
  495.692  111.171    5.487    0.268
  495.942  111.262    5.603    0.275
  496.192  111.903    5.733    0.286
  496.442  112.563    5.851    0.296
  496.692  114.416    5.865    0.299
  496.942  115.094    5.448    0.294
  497.192  115.754    5.350    0.287
  497.442  115.808    4.969    0.282
  497.692  116.486    4.883    0.280
  497.942  116.577    4.712    0.282
  498.192  116.649    4.544    0.284
  498.442  116.722    4.557    0.288
  498.692  117.399    4.565    0.295
  498.942  118.023    4.759    0.298
  499.192  121.657    4.860    0.302
  499.442  124.062    4.966    0.303
  499.692  122.389    4.795    0.302
  499.942  120.681    4.621    0.293
  500.192  117.264    4.374    0.274
  500.442  115.537    4.298    0.269
  500.692  112.690    4.392    0.263
  500.942  109.219    4.667    0.253
  501.192  104.627    5.155    0.227
  501.442  104.681    5.368    0.225
