~VERSION INFORMATION
 VERS.                 2.0:   CWLS LOG ASCII STANDARD -VERSION 2.0
 WRAP.                  NO:   ONE LINE PER DEPTH STEP
~WELL INFORMATION BLOCK
#MNEM.UNIT           DATA                    DESCRIPTION OF MNEMONIC
#---------    -------------------            -------------------------------
# Generated from Intellog Unique Number	CN_94_101/WELL/5014
WELL.         11-08-101-14W4                 : Well_name    - WELL
LOC .         AA/11-08-101-14W4/0            : Location     - LOCATION
UWI .         AA/11-08-101-14W400            : Uwi          - UNIQUE WELL ID
ENTR.         TIM                            : Entered      - ENTERED BY
SRVC.         SCHLUMBERGER                   : Scn          - SERVICE COMPANY
DATE.         08/13/92                       : Date         - LOG DATE
STRT.M        300                            : top_depth    - START DEPTH
STOP.M        506                            : bot_depth    - STOP DEPTH
STEP.M        0.25                           : increment    - STEP LENGTH
NULL. -999.2500:NULL Value
~CURVE INFORMATION BLOCK
#MNEM UNIT       ERCB CURVE CODE    CURVE DESCRIPTION
#-----------   ------------------   ----------------------------------
DEPT.M        00 001 00 00         : DEPTH        - DEPTH
GR  .API      00 310 00 00         : GR           - GAMMA RAY
ILD .OHMM     00 120 00 00         : RESD         - DEEP RESISTIVITY (DIL)
NPHI.V/V      00 330 00 00         : PHIN         - NEUTRON POROSITY (SANDSTONE)
DPHI.V/V      00 890 00 00         : PHID         - DENSITY POROSITY (SANDSTONE)
~PARAMETER INFORMATION
#MNEM.UNIT           DATA             DESCRIPTION OF MNEMONIC
#---------         -----------     ------------------------------
GL  .M        734.7                : gl           - GROUND LEVEL ELEVATION
EREF.M        737.96               : kb           - ELEVATION OF DEPTH REFERENCE
DATM.M        737.96               : datum        - DATUM ELEVATION
TDD .M        508                  : tdd          - TOTAL DEPTH DRILLER
RUN .         ONE                  : Run          - RUN NUMBER
ENG .         BILL                 : Engineer     - RECORDING ENGINEER
WIT .         JIM                  : Witness      - WITNESSED BY
MUD .         GEL                  : Mud_type     - MUD TYPE
MATR.         SANDSTONE            : Logunit      - NEUTRON MATRIX
TMAX.C        20                   : BHT          - MAXIMUM RECORDED TEMPERATURE
BHTD.M        508                  : BHTDEP       - MAXIMUM RECORDED TEMPERATURE
RMT .C        12                   : MDTP         - TEMPERATURE OF MUD
MUDD.KG/M     1150                 : MWT          - MUD DENSITY
NEUT.         1                    : NEUTRON      - NEUTRON TYPE
RESI.         0                    : RESIST       - RESISTIVITY TYPE
RM  .OHMM     1.01                 : RM           - RESISTIVITY OF MUD
RMC .OHMM     1.01                 : RMC          - RESISTIVITY OF MUD CAKE
RMF .OHMM     1.01                 : RMF          - RESISTIVITY OF MUD FILTRATE
SUFT.C        4                    : SUFT         - SURFACE TEMPERATURE
~A  DEPTH       GR     RESD     PHIN     PHID
# ...
  430.500  127.628    6.985    0.440    0.216
  430.750  127.626    7.392    0.444    0.219
  431.000  128.242    7.798    0.454    0.225
  431.250  129.476    8.000    0.446    0.232
  431.500  129.474    7.998    0.434    0.236
  431.750  129.472    7.996    0.437    0.242
  432.000  129.471    7.993    0.451    0.245
  432.250  128.234    7.991    0.470    0.250
  432.500  125.145    7.580    0.478    0.245
  432.750  118.968    7.169    0.453    0.238
  433.000  100.439    6.964    0.459    0.226
  433.250   97.967    6.756    0.396    0.220
  433.500  106.612    6.755    0.369    0.218
  433.750  119.579    6.753    0.376    0.214
  434.000  126.370    6.750    0.401    0.209
  434.250  127.604    6.748    0.411    0.211
  434.500  127.603    6.745    0.424    0.219
  434.750  127.601    6.742    0.427    0.226
  435.000  127.599    6.741    0.430    0.234
  435.250  127.598    6.739    0.446    0.241
  435.500  127.596    6.941    0.459    0.246
  435.750  129.447    6.939    0.458    0.246
  436.000  131.916    7.139    0.460    0.251
  436.250  130.062    7.137    0.472    0.262
  436.500  125.737    7.340    0.476    0.271
  436.750  120.795    7.541    0.465    0.280
  437.000  115.235    7.744    0.451    0.285
  437.250  113.999    7.946    0.453    0.274
  437.500  112.761    8.147    0.458    0.242
  437.750  110.908    7.941    0.444    0.235
  438.000  105.965    7.735    0.355    0.240
  438.250  105.963    7.527    0.381    0.247
  438.500  110.903    7.321    0.405    0.252
  438.750  115.224    7.115    0.415    0.255
  439.000  115.840    6.704    0.426    0.255
  439.250  110.898    6.498    0.434    0.247
  439.500  104.721    6.496    0.422    0.247
  439.750  105.954    6.289    0.388    0.251
  440.000  112.746    6.083    0.385    0.253
  440.250  118.303    5.877    0.431    0.260
  440.500  121.389    5.466    0.450    0.264
  440.750  122.623    5.260    0.482    0.272
  441.000  123.239    5.052    0.512    0.279
  441.250  123.855    5.051    0.534    0.287
  441.500  123.853    5.049    0.532    0.288
  441.750  124.469    5.046    0.503    0.288
  442.000  125.085    4.840    0.484    0.283
  442.250  126.318    4.633    0.487    0.256
  442.500  127.552    4.427    0.504    0.251
  442.750  128.785    4.221    0.516    0.252
  443.000  130.636    3.605    0.527    0.256
  443.250  131.252    3.399    0.556    0.260
  443.500  129.397    3.193    0.564    0.268
  443.750  128.161    3.191    0.570    0.278
  444.000  126.924    3.392    0.557    0.281
  444.250  125.070    3.594    0.543    0.278
  444.500  121.981    4.205    0.511    0.276
  444.750  120.127    4.815    0.486    0.273
  445.000  118.890    5.221    0.477    0.274
  445.250  121.976    5.423    0.475    0.276
  445.500  125.680    5.421    0.474    0.279
  445.750  131.237    5.623    0.468    0.276
  446.000  133.087    5.824    0.460    0.247
  446.250  133.086    6.027    0.450    0.234
  446.500  133.084    6.227    0.438    0.213
  446.750  132.465    6.226    0.433    0.202
  447.000  131.228    6.427    0.429    0.196
  447.250  128.757    6.426    0.426    0.188
  447.500  127.520    6.424    0.425    0.193
  447.750  127.519    6.421    0.428    0.196
  448.000  128.135    6.419    0.438    0.203
  448.250  129.986    6.212    0.452    0.208
  448.500  131.837    6.006    0.460    0.212
  448.750  132.453    5.800    0.459    0.215
  449.000  132.451    5.592    0.463    0.219
  449.250  133.067    5.387    0.470    0.219
  449.500  133.065    5.181    0.476    0.218
  449.750  133.064    4.974    0.466    0.218
  450.000  133.062    4.972    0.457    0.219
  450.250  133.061    4.765    0.468    0.222
  450.500  133.060    4.559    0.492    0.224
  450.750  133.057    4.556    0.519    0.230
  451.000  131.820    4.350    0.546    0.235
  451.250  128.114    4.144    0.567    0.239
  451.500  126.876    3.733    0.574    0.244
  451.750  127.493    3.322    0.539    0.250
  452.000  126.874    3.320    0.524    0.256
  452.250  125.637    3.318    0.511    0.262
  452.500  125.018    3.316    0.500    0.271
  452.750  124.399    3.518    0.495    0.270
  453.000  123.779    3.719    0.495    0.268
  453.250  123.778    3.717    0.494    0.263
  453.500  122.542    3.918    0.486    0.260
  453.750  121.922    3.916    0.489    0.255
  454.000  121.921    4.119    0.501    0.251
  454.250  123.153    4.116    0.531    0.250
  454.500  125.005    4.114    0.549    0.249
  454.750  127.474    4.316    0.518    0.249
  455.000  132.413    4.313    0.496    0.249
  455.250  136.117    4.516    0.478    0.249
  455.500  141.673    4.514    0.468    0.251
  455.750  144.142    4.307    0.479    0.255
  456.000  142.288    4.101    0.501    0.257
  456.250  138.581    3.894    0.489    0.280
  456.500  124.375    3.483    0.473    0.281
  456.750  114.493    3.277    0.504    0.284
  457.000  113.256    2.866    0.550    0.289
  457.250  112.637    2.660    0.564    0.298
  457.500  110.782    2.250    0.572    0.305
  457.750  103.988    2.452    0.543    0.310
  458.000   95.958    3.674    0.528    0.318
  458.250   79.899   15.107    0.490    0.320
  458.500   65.693   35.115    0.459    0.324
  458.750   53.340   38.380    0.438    0.326
  459.000   42.222   41.236    0.398    0.326
  459.250   43.456   44.501    0.381    0.326
  459.500   44.689   46.132    0.387    0.328
  459.750   45.923   46.742    0.389    0.328
  460.000   45.921   47.148    0.390    0.328
  460.250   45.920   47.350    0.393    0.328
  460.500   45.919   47.349    0.394    0.328
  460.750   45.917   47.346    0.397    0.328
  461.000   46.533   47.344    0.398    0.328
  461.250   47.767   47.138    0.400    0.328
  461.500   49.000   46.727    0.401    0.329
  461.750   50.851   45.499    0.403    0.330
  462.000   52.702   44.681    0.410    0.331
  462.250   54.553   43.249    0.413    0.331
  462.500   56.404   41.001    0.416    0.331
  462.750   59.490   38.752    0.414    0.330
  463.000   61.959   36.913    0.408    0.326
  463.250   65.046   33.643    0.408    0.320
  463.500   68.750   30.986    0.411    0.315
  463.750   73.071   27.921    0.416    0.307
  464.000   78.010   24.856    0.421    0.299
  464.250   87.272   19.545    0.424    0.292
  464.500   95.917   13.621    0.426    0.288
  464.750  100.238    9.331    0.430    0.269
  465.000  100.854    6.265    0.432    0.266
  465.250  103.940    4.426    0.441    0.261
  465.500  108.879    3.607    0.456    0.249
  465.750  115.671    3.196    0.480    0.253
  466.000  121.227    2.989    0.573    0.261
  466.250  121.843    2.782    0.564    0.269
  466.500  122.459    2.780    0.554    0.277
  466.750  123.693    2.779    0.542    0.282
  467.000  124.308    2.776    0.526    0.283
  467.250  123.689    2.774    0.518    0.277
  467.500  122.452    2.976    0.515    0.265
  467.750  121.834    3.382    0.509    0.253
  468.000  119.361    4.400    0.501    0.244
  468.250  117.508    5.215    0.500    0.237
  468.500  109.478    7.868    0.496    0.232
  468.750   84.773   15.012    0.489    0.287
  469.000   76.126   19.298    0.479    0.292
  469.250   71.801   20.929    0.464    0.303
  469.500   72.417   19.702    0.451    0.309
  469.750   73.033   17.249    0.453    0.314
  470.000   75.501   16.634    0.451    0.314
  470.250   76.118   16.427    0.447    0.312
  470.500   77.969   16.221    0.447    0.311
  470.750   80.438   15.606    0.450    0.307
  471.000   82.906   13.153    0.453    0.302
  471.250   86.610   10.701    0.455    0.295
  471.500   92.167    8.453    0.460    0.287
  471.750   97.106    6.817    0.471    0.281
  472.000  102.662    5.589    0.493    0.281
  472.250  108.219    4.975    0.492    0.281
  472.500  111.923    4.359    0.490    0.281
  472.750  115.626    4.153    0.498    0.282
  473.000  118.095    4.151    0.509    0.286
  473.250  119.328    4.149    0.515    0.289
  473.500  115.621    4.759    0.509    0.291
  473.750  112.532    5.573    0.501    0.289
