~VERSION INFORMATION
 VERS.                 2.0:   CWLS LOG ASCII STANDARD -VERSION 2.0
 WRAP.                  NO:   ONE LINE PER DEPTH STEP
~WELL INFORMATION BLOCK
#MNEM.UNIT           DATA                    DESCRIPTION OF MNEMONIC
#---------    -------------------            -------------------------------
# Generated from Intellog Unique Number	CN_91_93/WELL/2691
WELL.         PETRO CANADA                   : Well_name    - WELL
LOC .         AA/10-29-091-15W4/0            : Location     - LOCATION
UWI .         AA/10-29-091-15W400            : Uwi          - UNIQUE WELL ID
ENTR.         JOETTE                         : Entered      - ENTERED BY
SRVC.         SCHLUMBERGER                   : Scn          - SERVICE COMPANY
DATE.         02/06/92                       : Date         - LOG DATE
STRT.F        250                            : top_depth    - START DEPTH
STOP.F        700.295                        : bot_depth    - STOP DEPTH
STEP.F        0.82                           : increment    - STEP LENGTH
 NULL. -999.2500:NULL Value
~CURVE INFORMATION BLOCK
#MNEM UNIT       ERCB CURVE CODE    CURVE DESCRIPTION
#-----------   ------------------   ----------------------------------
DEPT.F        00 001 00 00         : DEPTH        - DEPTH
GR  .API      00 310 00 00         : GR           - GAMMA RAY
CALI.MM       00 280 01 00         : CAL          - CALIPER
NPHI.V/V      00 330 00 00         : PHIN         - NEUTRON POROSITY (SANDSTONE)
DPHI.V/V      00 890 00 00         : PHID         - DENSITY POROSITY (SANDSTONE)
ILD .OHMM     00 120 00 00         : RESD         - DEEP RESISTIVITY (DIL)
~PARAMETER INFORMATION
#MNEM.UNIT           DATA             DESCRIPTION OF MNEMONIC
#---------         -----------     ------------------------------
GL  .M        479.755              : gl           - GROUND LEVEL ELEVATION
EREF.M        480.974              : kb           - ELEVATION OF DEPTH REFERENCE
DATM.M        480.974              : datum        - DATUM ELEVATION
TDD .M        100.584              : tdd          - TOTAL DEPTH DRILLER
RUN .         ONE                  : Run          - RUN NUMBER
ENG .         BILL                 : Engineer     - RECORDING ENGINEER
WIT .         JIM                  : Witness      - WITNESSED BY
MUD .         GEL                  : Mud_type     - MUD TYPE
MATR.         SANDSTONE            : Logunit      - NEUTRON MATRIX
TMAX.C        8.88889              : BHT          - MAXIMUM RECORDED TEMPERATURE
BHTD.M        100.584              : BHTDEP       - MAXIMUM RECORDED TEMPERATURE
RMT .C        9.44444              : MDTP         - TEMPERATURE OF MUD
MUDD.KG/M     8600                 : MWT          - MUD DENSITY
NEUT.         1                    : NEUTRON      - NEUTRON TYPE
RESI.         0                    : RESIST       - RESISTIVITY TYPE
RM  .OHMM     0.787                : RM           - RESISTIVITY OF MUD
RMC .OHMM     9.8                  : RMC          - RESISTIVITY OF MUD CAKE
RMF .OHMM     0.678                : RMF          - RESISTIVITY OF MUD FILTRATE
SUFT.C        4                    : SUFT         - SURFACE TEMPERATURE
~A  DEPTH       GR      CAL     PHIN     PHID     RESD
# ...
  369.751   59.600  155.320    0.367    0.059   19.561
  370.571   62.288  155.320    0.285    0.087   15.995
  371.391   69.740  154.848    0.341    0.141   14.866
  372.211   78.981  154.857    0.465    0.245   13.816
  373.031   99.244  154.868    0.462    0.233   12.959
  373.852  106.699  155.382    0.466    0.222   12.380
  374.672  107.599  155.386    0.470    0.209   12.267
  375.492  107.010  155.386    0.469    0.210   12.155
  376.312  106.419  155.410    0.473    0.217   12.267
  377.133  105.233  155.912    0.460    0.223   12.380
  377.953  102.559  155.922    0.452    0.218   12.494
  378.773   95.118  155.931    0.434    0.214   12.380
  379.593   92.443  156.439    0.451    0.231   12.045
  380.413   88.875  156.452    0.459    0.254   11.297
  381.234   86.200  156.461    0.461    0.277   10.892
  382.054   85.610  156.470    0.472    0.285   10.792
  382.874   89.786  156.480    0.479    0.291   10.792
  383.694   94.262  155.995    0.461    0.272   11.297
  384.514   91.289  155.995    0.447    0.249   12.155
  385.335   86.231  156.015    0.462    0.239   12.380
  386.155   79.386  156.015    0.438    0.266   12.155
  386.975   74.626  154.552    0.417    0.305   12.380
  387.795   73.441  153.565    0.429    0.321   13.199
  388.615   74.937  153.565    0.453    0.294   13.199
  389.436   77.922  153.091    0.459    0.225   12.841
  390.256   80.906  152.606    0.449    0.233   12.045
  391.076   83.593  152.606    0.447    0.272   11.506
  391.896   86.578  152.128    0.455    0.252   11.195
  392.717   90.459  151.643    0.447    0.267   10.992
  393.537   92.849  151.643    0.436    0.249   10.992
  394.357   93.748  151.661    0.443    0.249   11.195
  395.177   94.350  151.175    0.456    0.238   11.297
  395.997   94.355  151.193    0.466    0.238   11.297
  396.818   94.065  151.693    0.455    0.261   11.297
  397.638   94.070  151.693    0.457    0.264   11.826
  398.458   93.480  151.719    0.472    0.267   12.724
  399.278   91.700  151.229    0.477    0.218   12.494
  400.098   88.727  150.744    0.453    0.181   12.045
  400.919   87.541  150.752    0.426    0.175   11.297
  401.739   90.825  150.762    0.402    0.212   10.694
  402.559  100.661  151.269    0.430    0.235   10.310
  403.379  105.434  153.763    0.457    0.226   10.216
  404.199  106.333  160.723    0.471    0.226   10.310
  405.020  105.745  162.720    0.477    0.207   10.404
  405.840   98.303  160.745    0.485    0.214   10.310
  406.660   92.948  155.793    0.485    0.218   10.030
  407.480   92.060  154.809    0.475    0.194    9.495
  408.301   94.449  154.818    0.486    0.202    9.323
  409.121   94.456  155.326    0.500    0.170   12.045
  409.941   83.738  155.833    0.502    0.065   15.140
  410.761   73.616  155.842    0.351    0.097   14.866
  411.581   74.218  155.357    0.356    0.149   11.612
  412.402   81.373  155.863    0.389    0.154    9.154
  413.222   79.891  158.854    0.414    0.261    7.417
  414.042   86.450  163.331    0.582    0.284    6.525
  414.862   98.968  169.797    0.599    0.288    4.525
  415.682  109.998  171.794    0.585    0.267    3.600
  416.503  110.301  170.316    0.573    0.254    3.803
  417.323  110.606  168.836    0.561    0.238    5.534
  418.143  111.206  166.363    0.545    0.231    7.282
  418.963  113.000  162.897    0.523    0.187    8.744
  419.783  110.027  159.928    0.490    0.172    9.238
  420.604  103.778  157.952    0.475    0.193    9.495
  421.424  104.976  157.466    0.467    0.209    9.582
  422.244  107.961  157.479    0.495    0.193    9.849
  423.064  108.264  156.993    0.499    0.169   10.597
  423.885  104.101  157.003    0.462    0.148   12.380
  424.705  105.597  156.517    0.406    0.098   13.320
  425.525  101.730  156.031    0.364    0.161   13.566
  426.345   95.183  154.553    0.386    0.215   13.566
  427.165  100.850  154.553    0.406    0.226   13.442
  427.986  102.644  154.078    0.426    0.237   12.959
  428.806  102.948  154.086    0.440    0.235   12.608
  429.626  104.444  154.096    0.444    0.242   12.494
  430.446  103.853  154.606    0.445    0.239   12.724
  431.266   96.710  154.614    0.443    0.240   13.442
  432.087   88.374  154.625    0.430    0.249   13.944
  432.907   87.489  154.637    0.419    0.191   14.201
  433.727   88.984  154.148    0.403    0.212   14.332
  434.547   86.606  154.148    0.398    0.213   14.596
  435.367   85.124  154.170    0.420    0.213   15.705
  436.188   83.343  154.170    0.408    0.154   19.561
  437.008   80.369  154.194    0.366    0.099   21.831
  437.828   75.609  154.200    0.277   -0.002   25.505
  438.648   69.956  154.200    0.247   -0.015   25.976
  439.469   66.089  154.221    0.247   -0.011   21.240
  440.289   63.712  153.735    0.259    0.022   16.290
  441.109   66.102  152.753    0.286    0.048   14.596
  441.929   76.832  151.770    0.327    0.150   14.201
  442.749   84.882  151.285    0.433    0.208   14.072
  443.570   92.335  150.800    0.464    0.233   14.072
  444.390   78.937  150.313    0.434    0.250   13.944
  445.210   77.155  149.330    0.433    0.263   13.691
  446.030   76.566  149.339    0.434    0.267   13.320
  446.850   76.870  149.352    0.451    0.266   12.841
  447.671   76.876  149.361    0.462    0.253   12.841
  448.491   75.691  149.373    0.463    0.225   13.816
  449.311   73.612  148.885    0.431    0.156   18.348
  450.131   69.448  148.885    0.407    0.069   22.032
  450.951   62.900  148.414    0.362    0.094   22.234
  451.772   59.928  148.419    0.324    0.114   26.944
  452.592   59.935  148.430    0.306    0.144   29.797
  453.412   66.196  148.430    0.332    0.174   26.215
  454.232   68.288  148.457    0.365    0.201   22.234
  455.052   70.677  148.960    0.365    0.187   19.741
  455.873   69.492  148.474    0.383    0.203   17.688
  456.693   72.476  148.483    0.430    0.218   15.849
  457.513   75.461  148.499    0.442    0.190   18.516
  458.333   77.255  148.503    0.447    0.097   22.645
  459.154   77.561  148.516    0.444    0.043   23.923
  459.974   69.523  148.524    0.429    0.054   20.105
  460.794   65.656  148.524    0.359    0.081   16.743
  461.614   64.472  149.042    0.301    0.105   13.816
  462.434   72.520  150.541    0.347    0.126   12.841
  463.255   84.443  152.539    0.392    0.165   12.045
  464.075   95.770  153.541    0.417    0.203   11.612
  464.895   99.052  156.035    0.446    0.222   11.719
  465.715  102.335  157.037    0.455    0.189   11.935
  466.535  104.128  157.048    0.470    0.164   12.045
  467.356   94.007  156.066    0.449    0.131   11.826
  468.176   93.715  156.077    0.451    0.143   11.195
  468.996  102.955  158.073    0.457    0.171   10.892
  469.816  110.111  158.580    0.465    0.184   11.093
  470.636  108.927  158.092    0.464    0.200   11.297
  471.457  107.741  157.610    0.464    0.181   11.506
  472.277  107.151  157.618    0.471    0.172   11.093
  473.097  106.860  156.638    0.455    0.159   10.992
  473.917  106.270  155.652    0.470    0.152   11.093
  474.738  105.085  155.664    0.484    0.207   10.404
  475.558  109.261  156.669    0.488    0.182   10.310
  476.378  112.246  156.181    0.485    0.167   12.380
  477.198  109.572  155.198    0.496    0.113   12.608
  478.018  106.600  153.719    0.456    0.116   11.935
  478.839  103.924  153.232    0.441    0.149   10.500
  479.659  103.633  156.224    0.469    0.173    9.323
  480.479  109.001  158.716    0.488    0.236    8.430
  481.299  114.669  160.215    0.503    0.229    8.277
  482.119  116.163  159.232    0.518    0.214   10.123
  482.940  115.871  156.761    0.530    0.199   10.694
  483.760  106.941  155.281    0.506    0.164   11.195
  484.580   95.329  155.790    0.480    0.024   11.195
  485.400   91.166  156.791    0.418    0.062   10.892
  486.220   99.214  156.801    0.400    0.126   10.694
  487.041  106.668  155.818    0.422    0.162   10.500
  487.861  112.036  155.831    0.447    0.215    9.759
  488.681  108.170  155.831    0.473    0.209    9.849
