~VERSION INFORMATION
 VERS.                 2.0:   CWLS LOG ASCII STANDARD -VERSION 2.0
 WRAP.                  NO:   ONE LINE PER DEPTH STEP
~WELL INFORMATION BLOCK
#MNEM.UNIT           DATA                    DESCRIPTION OF MNEMONIC
#---------    -------------------            -------------------------------
# Generated from Intellog Unique Number	CS_73_76/WELL/3285
WELL.         AMOCO KIRBY                    : Well_name    - WELL
LOC .         AA/10-11-074-07W4/0            : Location     - LOCATION
UWI .         AA/10-11-074-07W4/0            : Uwi          - UNIQUE WELL ID
ENTR.         TIM                            : Entered      - ENTERED BY
SRVC.         SCHLUMBERGER                   : Scn          - SERVICE COMPANY
STRT.M        300                            : top_depth    - START DEPTH
STOP.M        515                            : bot_depth    - STOP DEPTH
STEP.M        0.25                           : increment    - STEP LENGTH
 NULL. -999.2500:NULL Value
~CURVE INFORMATION BLOCK
#MNEM UNIT       ERCB CURVE CODE    CURVE DESCRIPTION
#-----------   ------------------   ----------------------------------
DEPT.M        00 001 00 00         : DEPTH        - DEPTH
NPHI.V/V      00 330 00 00         : PHIN         - NEUTRON POROSITY (SANDSTONE)
GR  .API      00 310 00 00         : GR           - GAMMA RAY
DPHI.V/V      00 890 00 00         : PHID         - DENSITY POROSITY (SANDSTONE)
ILD .OHMM     00 120 00 00         : RESD         - DEEP RESISTIVITY (DIL)
~PARAMETER INFORMATION
#MNEM.UNIT           DATA             DESCRIPTION OF MNEMONIC
#---------         -----------     ------------------------------
GL  .M        685.15               : gl           - GROUND LEVEL ELEVATION
EREF.M        688.25               : kb           - ELEVATION OF DEPTH REFERENCE
DATM.M        688.25               : datum        - DATUM ELEVATION
TDD .M        519                  : tdd          - TOTAL DEPTH DRILLER
RUN .         ONE                  : Run          - RUN NUMBER
ENG .         BILL                 : Engineer     - RECORDING ENGINEER
WIT .         JIM                  : Witness      - WITNESSED BY
MUD .         GEL                  : Mud_type     - MUD TYPE
MATR.         SANDSTONE            : Logunit      - NEUTRON MATRIX
TMAX.C        22                   : BHT          - MAXIMUM RECORDED TEMPERATURE
BHTD.M        519                  : BHTDEP       - MAXIMUM RECORDED TEMPERATURE
RMT .C        20                   : MDTP         - TEMPERATURE OF MUD
MUDD.KG/M     1150                 : MWT          - MUD DENSITY
NEUT.         1                    : NEUTRON      - NEUTRON TYPE
RESI.         0                    : RESIST       - RESISTIVITY TYPE
RM  .OHMM     6.05                 : RM           - RESISTIVITY OF MUD
RMC .OHMM     5.92                 : RMC          - RESISTIVITY OF MUD CAKE
RMF .OHMM     6.3                  : RMF          - RESISTIVITY OF MUD FILTRATE
SUFT.C        4                    : SUFT         - SURFACE TEMPERATURE
~A  DEPTH     PHIN       GR     PHID     RESD
# ...
  343.500    0.368   83.785    0.224   12.046
  343.750    0.398   81.400    0.216   12.264
  344.000    0.406   77.824    0.194   12.490
  344.250    0.395   70.687    0.159   12.713
  344.500    0.386   66.514    0.141   12.706
  344.750    0.388   73.021    0.173   12.457
  345.000    0.405   78.925    0.230   12.220
  345.250    0.409   80.097    0.256   11.981
  345.500    0.408   80.671    0.255   11.311
  345.750    0.408   84.209    0.247   10.480
  346.000    0.413   87.154    0.254   10.088
  346.250    0.415   84.764    0.266    9.892
  346.500    0.416   81.183    0.279   10.263
  346.750    0.418   78.798    0.279   10.450
  347.000    0.419   77.589    0.283   10.842
  347.250    0.415   74.601    0.295   10.838
  347.500    0.403   69.844    0.295   10.826
  347.750    0.396   71.604    0.282   10.618
  348.000    0.397   77.508    0.270   10.414
  348.250    0.412   75.123    0.261   10.019
  348.500    0.421   74.511    0.256    9.459
  348.750    0.408   82.199    0.252    9.277
  349.000    0.413   83.366    0.250    8.927
  349.250    0.422   80.976    0.250    8.589
  349.500    0.404   81.550    0.252    8.422
  349.750    0.385   85.676    0.255    8.259
  350.000    0.386   81.507    0.265    8.251
  350.250    0.392   77.339    0.277    8.246
  350.500    0.404   73.170    0.301    8.239
  350.750    0.416   69.590    0.328    8.236
  351.000    0.423   67.797    0.316    8.228
  351.250    0.415   67.778    0.304    8.220
  351.500    0.403   67.760    0.310    8.213
  351.750    0.389   65.369    0.317    8.208
  352.000    0.383   60.006    0.321    8.202
  352.250    0.376   58.213    0.320    8.194
  352.500    0.386   55.823    0.318    8.190
  352.750    0.402   62.325    0.310    8.031
  353.000    0.398   72.384    0.298    7.875
  353.250    0.392   87.778    0.282    7.722
  353.500    0.396   98.430    0.281    7.718
  353.750    0.403   95.447    0.289    7.285
  354.000    0.413   91.278    0.296    7.145
  354.250    0.410   82.956    0.312    6.875
  354.500    0.395   78.199    0.325    6.742
  354.750    0.398   71.659    0.336    6.488
  355.000    0.404   60.965    0.341    6.241
  355.250    0.397   58.570    0.342    6.122
  355.500    0.402   58.547    0.344    6.003
  355.750    0.407   58.537    0.347    5.775
  356.000    0.413   57.926    0.348    5.664
  356.250    0.425   56.721    0.347    5.450
  356.500    0.428   56.105    0.344    5.244
  356.750    0.407   56.081    0.346    5.141
  357.000    0.408   56.067    0.351    5.041
  357.250    0.410   56.043    0.355    4.944
  357.500    0.408   54.246    0.358    4.941
  357.750    0.404   53.046    0.359    4.843
  358.000    0.399   50.652    0.360    4.751
  358.250    0.400   53.004    0.362    4.747
  358.500    0.401   54.764    0.366    4.654
  358.750    0.404   54.745    0.365    4.651
  359.000    0.410   54.138    0.359    4.647
  359.250    0.412   53.521    0.355    4.645
  359.500    0.415   54.683    0.355    4.641
  359.750    0.415   55.860    0.355    4.637
  360.000    0.402   59.393    0.356    4.633
  360.250    0.391   61.740    0.357    4.629
  360.500    0.399   62.314    0.360    4.625
  360.750    0.405   61.703    0.361    4.623
  361.000    0.397   60.498    0.361    4.533
  361.250    0.393   58.696    0.360    4.445
  361.500    0.395   57.501    0.357    4.358
  361.750    0.390   55.704    0.349    4.355
  362.000    0.386   55.092    0.351    4.271
  362.250    0.382   54.481    0.353    4.267
  362.500    0.388   53.276    0.355    4.265
  362.750    0.399   53.841    0.356    4.262
  363.000    0.407   55.007    0.356    4.178
  363.250    0.399   56.169    0.356    4.096
  363.500    0.396   56.160    0.356    4.017
  363.750    0.389   55.539    0.358    4.014
  364.000    0.384   55.525    0.359    3.935
  364.250    0.379   54.913    0.360    3.934
  364.500    0.376   54.894    0.361    3.930
  364.750    0.384   54.880    0.364    3.928
  365.000    0.395   54.259    0.366    3.924
  365.250    0.405   54.245    0.368    3.922
  365.500    0.403   54.226    0.368    3.919
  365.750    0.405   53.022    0.366    3.916
  366.000    0.406   50.631    0.368    3.839
  366.250    0.409   48.834    0.370    3.837
  366.500    0.409   51.187    0.373    3.833
  366.750    0.406   54.132    0.373    3.830
  367.000    0.402   57.665    0.373    3.828
  367.250    0.388   59.425    0.370    3.823
  367.500    0.384   59.998    0.369    3.821
  367.750    0.391   58.201    0.369    3.819
  368.000    0.414   55.816    0.372    3.817
  368.250    0.440   54.607    0.381    3.812
  368.500    0.440   53.402    0.390    3.810
  368.750    0.431   51.012    0.389    3.808
  369.000    0.421   48.622    0.377    3.734
  369.250    0.409   44.449    0.362    3.730
  369.500    0.396   45.615    0.351    3.658
  369.750    0.388   48.565    0.345    3.655
  370.000    0.386   51.511    0.341    3.652
  370.250    0.391   51.492    0.342    3.581
  370.500    0.396   49.097    0.343    3.578
  370.750    0.406   46.707    0.344    3.577
  371.000    0.406   45.498    0.348    3.506
  371.250    0.406   45.483    0.354    3.504
  371.500    0.407   46.057    0.361    3.435
  371.750    0.400   47.817    0.367    3.434
  372.000    0.390   47.205    0.363    3.431
  372.250    0.398   47.182    0.352    3.364
  372.500    0.406   47.751    0.344    3.362
  372.750    0.410   48.927    0.341    3.357
  373.000    0.400   52.465    0.347    3.356
  373.250    0.393   54.225    0.352    3.354
  373.500    0.392   55.391    0.355    3.351
  373.750    0.394   54.173    0.355    3.349
  374.000    0.397   52.978    0.356    3.347
  374.250    0.404   50.588    0.358    3.344
  374.500    0.415   51.162    0.361    3.342
  374.750    0.431   56.473    0.362    3.277
  375.000    0.439   58.238    0.360    3.273
  375.250    0.438   58.812    0.357    3.271
  375.500    0.431   58.195    0.354    3.268
  375.750    0.384   56.995    0.353    3.267
  376.000    0.390   55.791    0.351    3.263
  376.250    0.401   53.401    0.354    3.262
  376.500    0.413   49.816    0.359    3.259
  376.750    0.410   49.204    0.361    3.256
  377.000    0.408   49.180    0.364    3.254
  377.250    0.419   48.578    0.365    3.251
  377.500    0.420   47.374    0.367    3.189
  377.750    0.409   46.169    0.369    3.186
  378.000    0.399   45.558    0.369    3.184
  378.250    0.400   45.539    0.367    3.181
  378.500    0.410   46.108    0.366    3.179
  378.750    0.422   48.465    0.369    3.115
  379.000    0.436   52.596    0.374    3.114
  379.250    0.415   53.165    0.382    3.112
  379.500    0.410   52.553    0.388    3.051
  379.750    0.412   51.344    0.385    2.992
  380.000    0.413   49.547    0.380    2.990
  380.250    0.411   48.347    0.377    2.932
  380.500    0.412   46.550    0.375    2.930
  380.750    0.418   48.309    0.373    2.928
  381.000    0.424   50.662    0.370    2.926
  381.250    0.416   51.236    0.372    2.868
  381.500    0.402   51.810    0.376    2.866
  381.750    0.403   51.791    0.379    2.863
  382.000    0.405   49.979    0.380    2.862
  382.250    0.409   48.780    0.379    2.915
  382.500    0.413   50.539    0.377    3.024
  382.750    0.414   52.896    0.375    3.197
  383.000    0.418   55.244    0.373    3.256
  383.250    0.420   52.858    0.371    3.379
  383.500    0.420   51.061    0.367    3.506
  383.750    0.423   54.594    0.360    3.570
  384.000    0.425   57.540    0.356    3.635
  384.250    0.430   60.490    0.359    3.772
  384.500    0.433   61.652    0.359    3.841
  384.750    0.437   59.261    0.356    3.911
  385.000    0.436   59.836    0.352    3.982
  385.250    0.424   65.745    0.342    4.054
  385.500    0.410   74.618    0.319    4.052
  385.750    0.396   83.491    0.295    4.048
  386.000    0.406   81.689    0.280    4.046
  386.250    0.418   78.711    0.271    4.042
  386.500    0.403   75.728    0.274    3.890
  386.750    0.399   74.524    0.278    3.888
