~VERSION INFORMATION
 VERS.                 2.0:   CWLS LOG ASCII STANDARD -VERSION 2.0
 WRAP.                  NO:   ONE LINE PER DEPTH STEP
~WELL INFORMATION BLOCK
#MNEM.UNIT           DATA                    DESCRIPTION OF MNEMONIC
#---------    -------------------            -------------------------------
# Generated from Intellog Unique Number	CX_WELLS/WELL/3810
WELL.         HUDSON BAY                     : Well_name    - WELL
LOC .         AA/12-28-086-10W4/0            : Location     - LOCATION
UWI .         AA/12-28-086-10W400            : Uwi          - UNIQUE WELL ID
ENTR.         T                              : Entered      - ENTERED BY
SRVC.         SCHLUMBERGER                   : Scn          - SERVICE COMPANY
STRT.F        100                            : top_depth    - START DEPTH
STOP.F        620.013                        : bot_depth    - STOP DEPTH
STEP.F        0.82                           : increment    - STEP LENGTH
 NULL. -999.2500:NULL Value
~CURVE INFORMATION BLOCK
#MNEM UNIT       ERCB CURVE CODE    CURVE DESCRIPTION
#-----------   ------------------   ----------------------------------
DEPT.F        00 001 00 00         : DEPTH        - DEPTH
GR  .API      00 310 00 00         : GR           - GAMMA RAY
NPHI.V/V      00 330 00 00         : PHIN         - NEUTRON POROSITY (SANDSTONE)
ILD .OHMM     00 120 00 00         : RESD         - DEEP RESISTIVITY (DIL)
~PARAMETER INFORMATION
#MNEM.UNIT           DATA             DESCRIPTION OF MNEMONIC
#---------         -----------     ------------------------------
GL  .F        1474                 : gl           - GROUND LEVEL ELEVATION
EREF.F        1474                 : kb           - ELEVATION OF DEPTH REFERENCE
DATM.F        1474                 : datum        - DATUM ELEVATION
TDD .F        625                  : tdd          - TOTAL DEPTH DRILLER
RUN .         ONE                  : Run          - RUN NUMBER
ENG .         BILL                 : Engineer     - RECORDING ENGINEER
WIT .         JIM                  : Witness      - WITNESSED BY
MUD .         GEL                  : Mud_type     - MUD TYPE
MATR.         SANDSTONE            : Logunit      - NEUTRON MATRIX
TMAX.F        58                   : BHT          - MAXIMUM RECORDED TEMPERATURE
BHTD.F        625                  : BHTDEP       - MAXIMUM RECORDED TEMPERATURE
MATR.         1                    : LOGUNIT      - NEUTRON MATRIX
RMT .F        58                   : MDTP         - TEMPERATURE OF MUD
NEUT.         1                    : NEUTRON      - NEUTRON TYPE
RESI.         7                    : RESIST       - RESISTIVITY TYPE
RMC .OHMM     8.2                  : RMC          - RESISTIVITY OF MUD CAKE
RMF .OHMM     8.2                  : RMF          - RESISTIVITY OF MUD FILTRATE
SUFT.F        39.2                 : SUFT         - SURFACE TEMPERATURE
~A  DEPTH       GR     PHIN     RESD
# ...
  277.986   88.040    0.372   15.730
  278.806   88.107    0.369   17.152
  279.626   87.378    0.363   17.891
  280.446   85.517    0.356   16.932
  281.266   83.274    0.346   15.289
  282.087   76.850    0.329   13.961
  282.907   76.109    0.318   12.989
  283.727   72.723    0.303   11.332
  284.547   68.575    0.291   10.031
  285.367   63.664    0.294    9.387
  286.188   62.554    0.315    8.442
  287.008   71.759    0.319    8.127
  287.828   74.483    0.351    7.866
  288.648   79.483    0.354    7.893
  289.469   81.815    0.360    7.975
  290.289   83.788    0.369    8.015
  291.109   85.358    0.373    8.767
  291.929   86.546    0.377    9.848
  292.749   87.354    0.381   10.915
  293.570   88.161    0.384   14.062
  294.390   89.349    0.384   15.485
  295.210   90.537    0.385   14.526
  296.030   90.582    0.369   14.936
  296.850   92.152    0.354   16.714
  297.671   94.484    0.346   17.768
  298.491   90.716    0.344   21.942
  299.311   80.076    0.341   20.969
  300.131   78.596    0.332   18.286
  300.951   79.795    0.295   20.051
  301.772   79.089    0.251   24.225
  302.592   74.548    0.241   35.241
  303.412   66.576    0.251   66.828
  304.232   62.046    0.273   54.209
  305.052   89.179    0.309   16.585
  305.873   90.760    0.229   16.297
  306.693   87.363    0.174   16.365
  307.513   79.772    0.164   16.050
  308.333   71.430    0.202   16.104
  309.154   71.094    0.263   15.829
  309.974   78.774    0.312   14.857
  310.794   77.294    0.315   12.858
  311.614   73.919    0.319   10.518
  312.434   74.345    0.327    8.847
  313.255   75.141    0.334   11.652
  314.075   76.733    0.344   16.182
  314.895   77.136    0.347   14.881
  315.715   77.192    0.352   13.895
  316.535   77.618    0.358   12.909
  317.356   78.806    0.355   12.279
  318.176   80.376    0.330   12.347
  318.996   80.039    0.321   13.098
  319.816   77.034    0.345   13.837
  320.636   76.698    0.349   14.918
  321.457   81.317    0.358   13.945
  322.277   85.566    0.368   12.275
  323.097   85.241    0.362    9.606
  323.917   84.905    0.346    9.646
  324.738   84.557    0.337    9.700
  325.558   84.602    0.339   10.466
  326.378   84.276    0.346   10.849
  327.198   84.310    0.356   11.614
  328.018   88.178    0.368   12.326
  328.839   88.223    0.375   13.078
  329.659   89.030    0.371   13.501
  330.479   90.218    0.362   14.568
  331.299   87.987    0.354   20.781
  332.119   85.733    0.358   29.403
  332.940   83.109    0.364   34.261
  333.760   81.248    0.371   37.394
  334.580   84.735    0.331   42.608
  335.400   82.481    0.308   36.490
  336.220   77.951    0.283   30.385
  337.041   69.979    0.258   23.938
  337.861   60.494    0.238   21.570
  338.681   55.202    0.190   14.781
  339.501   47.230    0.196   13.138
  340.322   70.551    0.220   13.534
  341.142   75.170    0.258   13.260
  341.962   80.182    0.293   13.287
  342.782   83.657    0.335   12.684
  343.602   86.000    0.353   12.382
  344.423   84.531    0.341   12.121
  345.243   85.327    0.344   11.806
  346.063   87.671    0.346   10.848
  346.883   87.334    0.350   10.546
  347.703   87.771    0.354    9.259
  348.524   90.462    0.358    8.273
  349.344   92.828    0.365    7.643
  350.164   92.469    0.373    7.013
  350.984   92.513    0.384    6.382
  351.804   95.608    0.395    6.450
  352.625   96.796    0.399    6.491
  353.445   95.720    0.404    7.571
  354.265   96.516    0.414    9.706
  355.085   98.085    0.421   10.786
  355.906   98.892    0.424   11.182
  356.726   97.412    0.411   10.881
  357.546   95.551    0.400   10.962
  358.366   93.320    0.390   11.030
  359.186   91.828    0.385   11.057
  360.007   91.122    0.386   11.125
  360.827   92.691    0.388   11.179
  361.647   92.355    0.393   12.246
  362.467   93.532    0.396   14.367
  363.287   94.731    0.392   14.079
  364.108   95.942    0.389   14.160
  364.928   96.727    0.385   14.187
  365.748   98.678    0.376   14.953
  366.568  101.021    0.361   15.691
  367.388   98.778    0.356   16.074
  368.209   91.950    0.361   16.826
  369.029   95.426    0.369   16.565
  369.849   98.531    0.366   15.908
  370.669  100.482    0.355   15.633
  371.490  102.063    0.342   15.674
  372.310  104.025    0.339   16.097
  373.130  101.760    0.336   16.138
  373.950   96.468    0.343   16.206
  374.770   94.988    0.348   14.905
  375.591   95.032    0.351   14.247
  376.411   94.326    0.353   13.275
  377.231   94.752    0.353   12.645
  378.051   94.796    0.352   14.068
  378.871   94.090    0.353   16.188
  379.692   94.124    0.354   17.282
  380.512   94.180    0.357   17.679
  381.332   95.379    0.360   17.391
  382.152   96.164    0.367   16.747
  382.972   97.352    0.368   15.802
  383.793   97.778    0.365   15.500
  384.613   96.679    0.357   16.239
  385.433   94.437    0.349   19.386
  386.253   92.194    0.349   18.769
  387.073   91.095    0.349   17.783
  387.894   90.377    0.347   18.878
  388.714   89.279    0.343   24.406
  389.534   87.417    0.339   23.092
  390.354   84.805    0.335   20.409
  391.175   82.170    0.330   18.068
  391.995   80.690    0.323   16.753
  392.815   87.607    0.323   16.479
  393.635   89.177    0.317   15.862
  394.455   88.089    0.297   15.889
  395.276   85.465    0.240   15.601
  396.096   82.831    0.225   15.313
  396.916   80.218    0.230   15.381
  397.736   83.682    0.291   15.449
  398.556   89.457    0.310   15.845
  399.377   93.695    0.334   16.241
  400.197   94.894    0.343   16.296
  401.017   95.309    0.359   16.350
  401.837   95.746    0.365   16.062
  402.657   95.421    0.367   14.419
  403.478   93.559    0.363   12.748
  404.298   90.924    0.360   10.750
  405.118   87.527    0.350    8.751
  405.938   85.296    0.343    8.490
  406.759   85.722    0.339    8.873
  407.579   85.396    0.347    9.256
  408.399   85.049    0.370   10.692
  409.219   84.331    0.386   13.497
  410.039   83.994    0.398   14.906
  410.860   87.470    0.400   16.014
  411.680   92.863    0.399   16.410
  412.500   97.482    0.396   16.136
  413.320   97.157    0.388   15.821
  414.140   96.058    0.379   15.533
  414.961   94.567    0.368   15.258
  415.781   90.799    0.363   15.654
  416.601   86.651    0.358   16.735
  417.421   85.563    0.353   16.803
  418.241   87.514    0.345   17.186
  419.062   88.310    0.343   17.609
  419.882   86.460    0.337   18.347
  420.702   84.217    0.329   18.744
  421.522   83.499    0.316   18.114
  422.343   85.439    0.316   16.799
  423.163   89.699    0.319   15.143
  423.983   90.876    0.326   13.815
  424.803   89.789    0.316   11.131
  425.623   87.546    0.317    7.778
  426.444   86.817    0.326    9.214
  427.264   90.293    0.344   10.267
  428.084   93.399    0.362   12.388
  428.904   94.587    0.379   13.127
  429.724   93.880    0.399   13.523
  430.545   91.638    0.416   12.564
  431.365   89.384    0.431   10.894
  432.185   84.854    0.416    9.935
  433.005   80.313    0.391   10.003
  433.825   72.353    0.365   10.043
  434.646   66.668    0.364   11.466
  435.466   77.790    0.371   14.640
  436.286   77.454    0.375   15.379
  437.106   77.117    0.364   15.406
  437.927   77.162    0.356   14.434
  438.747   76.063    0.349   13.133
  439.567   74.583    0.344   13.200
  440.387   72.340    0.341   12.570
  441.207   70.098    0.338   11.927
  442.028   69.391    0.340   10.612
  442.848   69.425    0.346    8.969
  443.668   77.856    0.348    7.997
  444.488   82.487    0.350    8.037
  445.308   86.344    0.352    7.776
  446.129   90.223    0.361    7.475
  446.949   92.566    0.382    7.516
  447.769   93.743    0.388    8.295
  448.589   97.219    0.395    8.322
  449.409   97.645    0.405    8.718
  450.230   96.557    0.398    9.128
  451.050   95.077    0.394    9.169
  451.870   94.359    0.394    9.250
  452.690   94.404    0.393    9.633
  453.510   94.437    0.393    9.700
  454.331   93.720    0.392    9.426
  455.151   93.383    0.390    9.466
