~VERSION INFORMATION
 VERS.                 2.0:   CWLS LOG ASCII STANDARD -VERSION 2.0
 WRAP.                  NO:   ONE LINE PER DEPTH STEP
~WELL INFORMATION BLOCK
#MNEM.UNIT           DATA                    DESCRIPTION OF MNEMONIC
#---------    -------------------            -------------------------------
# Generated from Intellog Unique Number	CN_91_93/WELL/2975
WELL.         10-11-092-16W4                 : Well_name    - WELL
LOC .         AA/10-11-092-16W4/0            : Location     - LOCATION
UWI .         AA/10-11-092-16W400            : Uwi          - UNIQUE WELL ID
ENTR.         JOETTE                         : Entered      - ENTERED BY
SRVC.         SCHLUMBERGER                   : Scn          - SERVICE COMPANY
DATE.         04/07/92                       : Date         - LOG DATE
STRT.F        400                            : top_depth    - START DEPTH
STOP.F        760.072                        : bot_depth    - STOP DEPTH
STEP.F        0.82                           : increment    - STEP LENGTH
 NULL. -999.2500:NULL Value
~CURVE INFORMATION BLOCK
#MNEM UNIT       ERCB CURVE CODE    CURVE DESCRIPTION
#-----------   ------------------   ----------------------------------
DEPT.F        00 001 00 00         : DEPTH        - DEPTH
CALI.IN       00 280 01 00         : CAL          - CALIPER
GR  .API      00 310 00 00         : GR           - GAMMA RAY
NPHI.V/V      00 330 00 00         : PHIN         - NEUTRON POROSITY (SANDSTONE)
DPHI.V/V      00 890 00 00         : PHID         - DENSITY POROSITY (SANDSTONE)
ILD .OHMM     00 120 00 00         : RESD         - DEEP RESISTIVITY (DIL)
~PARAMETER INFORMATION
#MNEM.UNIT           DATA             DESCRIPTION OF MNEMONIC
#---------         -----------     ------------------------------
GL  .M        483.413              : gl           - GROUND LEVEL ELEVATION
EREF.M        487.07               : kb           - ELEVATION OF DEPTH REFERENCE
DATM.M        487.07               : datum        - DATUM ELEVATION
TDD .M        233.172              : tdd          - TOTAL DEPTH DRILLER
RUN .         ONE                  : Run          - RUN NUMBER
ENG .         BILL                 : Engineer     - RECORDING ENGINEER
WIT .         JIM                  : Witness      - WITNESSED BY
MUD .         GEL                  : Mud_type     - MUD TYPE
MATR.         SANDSTONE            : Logunit      - NEUTRON MATRIX
TMAX.F        66                   : BHT          - MAXIMUM RECORDED TEMPERATURE
BHTD.F        765                  : BHTDEP       - MAXIMUM RECORDED TEMPERATURE
RMT .F        67                   : MDTP         - TEMPERATURE OF MUD
MUDD.LB/G     930                  : MWT          - MUD DENSITY
NEUT.         1                    : NEUTRON      - NEUTRON TYPE
RESI.         0                    : RESIST       - RESISTIVITY TYPE
RM  .OHMM     0.76                 : RM           - RESISTIVITY OF MUD
RMC .OHMM     0.76                 : RMC          - RESISTIVITY OF MUD CAKE
RMF .OHMM     0.76                 : RMF          - RESISTIVITY OF MUD FILTRATE
SUFT.F        39.2                 : SUFT         - SURFACE TEMPERATURE
~A  DEPTH      CAL       GR     PHIN     PHID     RESD
  400.000    7.808   68.815    0.501    0.384   10.042
  400.820    8.106   68.240    0.515    0.374   10.903
  401.640    8.404   66.196    0.501    0.291   14.214
  402.461    8.367   64.140    0.437    0.247   17.542
  403.281    8.131   60.610    0.377    0.104   23.724
  404.101    9.121   56.777    0.265    0.148   26.717
  404.921    9.676   51.761    0.292    0.174   30.925
  405.741    9.362   54.455    0.336    0.201   29.000
  406.562    8.850   61.004    0.394    0.218   25.508
  407.382    8.594   72.598    0.433    0.244   21.236
  408.202    8.517   80.630    0.464    0.279   16.889
  409.022    8.420   85.997    0.485    0.296   15.128
  409.843    8.224   82.757    0.501    0.306   13.428
  410.663    9.392   76.555    0.519    0.352   12.364
  411.483   11.173   73.618    0.547    0.387   11.917
  412.303    9.277   79.868    0.525    0.374   11.915
  413.123    8.725   81.675    0.526    0.374   12.245
  413.944    9.023   82.291    0.544    0.322   13.916
  414.764    8.530   80.540    0.482    0.319   11.800
  415.584   10.213   80.862    0.519    0.337   11.906
  416.404   10.926   82.963    0.537    0.254   12.926
  417.224    9.386   83.285    0.513    0.208   13.905
  418.045    8.616   79.155    0.454    0.183   14.159
  418.865    7.748   71.471    0.411    0.211   13.157
  419.685    7.493   69.717    0.425    0.262   12.003
  420.505    7.455   73.597    0.444    0.280   11.256
  421.325    7.457   73.629    0.444    0.258   10.653
  422.146    7.557   76.913    0.452    0.231   11.252
  422.966    7.934   78.421    0.435    0.255   11.669
  423.786    7.738   76.377    0.425    0.266   12.102
  424.606    7.621   77.289    0.432    0.260   11.989
  425.427    7.386   79.683    0.444    0.274   11.451
  426.247    7.467   80.302    0.426    0.278   10.936
  427.067    8.101   85.368    0.436    0.270   11.658
  427.887    8.459   88.359    0.445    0.271   11.980
  428.707    8.402   86.605    0.449    0.251   12.088
  429.528    8.363   83.665    0.468    0.264   11.232
  430.348    8.009   78.056    0.486    0.276   10.826
  431.168    8.505   76.899    0.493    0.289   11.024
  431.988    8.982   77.811    0.480    0.291   11.123
  432.808    8.370   76.949    0.481    0.291   11.223
  433.629    7.719   75.785    0.453    0.302   11.118
  434.449    7.504   77.297    0.440    0.264   11.219
  435.269    8.059   82.660    0.459    0.257   12.069
  436.089    8.041   81.199    0.484    0.272   13.103
  436.909    8.023   82.414    0.437    0.229   13.714
  437.730    8.025   86.591    0.426    0.223   12.743
  438.550    8.046   91.065    0.450    0.248   11.005
  439.370    8.878   92.573    0.492    0.269   10.414
  440.190    9.216   88.743    0.524    0.273   10.412
  441.010    9.633   85.213    0.494    0.252   10.506
  441.831    9.041   83.759    0.460    0.233   10.126
  442.651    8.351   84.374    0.481    0.201   10.217
  443.471    7.740   80.245    0.484    0.163   10.693
  444.291    7.642   77.601    0.471    0.137   10.028
  445.112    7.664   84.150    0.484    0.247    9.233
  445.932    7.725   82.693    0.512    0.254   11.188
  446.752    7.687   81.829    0.463    0.216   11.186
  447.572    7.412   80.964    0.457    0.170   11.924
  448.392    7.513   80.696    0.448    0.203   10.111
  449.213    7.297   82.794    0.457    0.246    7.138
  450.033    8.188   90.830    0.488    0.293    6.222
  450.853    8.862   95.903    0.557    0.330    4.770
  451.673    9.536   96.218    0.595    0.355    4.157
  452.493    9.657   93.575    0.608    0.336    3.690
  453.314    9.678   92.417    0.601    0.314    3.557
  454.134    8.197   94.515    0.562    0.259    5.672
  454.954    8.535   95.133    0.527    0.260    7.395
  455.774    7.963   94.279    0.513    0.232    9.125
  456.594    7.866   94.295    0.499    0.228    9.728
  457.415    8.579   95.809    0.466    0.252    9.376
  458.235    8.462   97.014    0.492    0.248    9.037
  459.055    7.851   97.043    0.508    0.206    8.631
  459.875    7.556   94.696    0.480    0.184   10.363
  460.696    7.716   91.456    0.455    0.158   10.748
  461.516    7.916   86.440    0.411    0.145   11.146
  462.336    7.265   82.614    0.386    0.125   12.213
  463.156    7.108   86.790    0.403    0.190   13.138
  463.976    7.110   91.267    0.415    0.224   13.378
  464.797    7.152   93.069    0.432    0.234   15.066
  465.617    7.192   93.391    0.416    0.213   14.258
  466.437    7.214   91.044    0.421    0.200   13.493
  467.257    7.137   88.107    0.407    0.222   13.866
  468.077    7.079   87.542    0.410    0.223   14.249
  468.898    7.101   86.968    0.413    0.223   14.117
  469.718    7.122   85.220    0.413    0.246   13.985
  470.538    7.124   84.053    0.417    0.268   13.855
  471.358    7.125   84.675    0.423    0.261   13.477
  472.178    7.186   85.290    0.426    0.249   13.110
  472.999    7.307   84.726    0.423    0.255   12.293
  473.819    7.328   81.789    0.417    0.264   12.404
  474.639    7.270   80.328    0.420    0.242   13.716
  475.459    7.114   79.164    0.416    0.193   16.022
  476.280    7.076   77.114    0.405    0.215   17.879
  477.100    6.979   72.987    0.419    0.192   19.589
  477.920    6.862   68.561    0.392    0.137   24.848
  478.740    6.824   64.732    0.326    0.117   28.499
  479.560    6.826   60.908    0.326    0.142   30.102
  480.381    6.828   60.934    0.358    0.169   27.971
  481.201    6.869   63.328    0.373    0.203   20.114
  482.021    6.851   67.209    0.395    0.245   16.746
  482.841    6.853   68.423    0.404    0.260   16.897
  483.661    6.874   67.259    0.415    0.251   17.048
  484.482    6.896   66.695    0.411    0.227   15.413
  485.302    6.878   69.093    0.407    0.250   16.733
  486.122    6.839   68.818    0.405    0.256   16.577
  486.942    6.821   65.878    0.383    0.247   15.545
  487.762    6.843   64.127    0.387    0.242   16.420
  488.583    6.845   64.743    0.401    0.242   16.874
  489.403    6.827   65.658    0.400    0.210   15.678
  490.223    6.809   65.090    0.414    0.244   14.975
  491.043    6.791   68.084    0.412    0.266   14.043
  491.864    6.812   67.513    0.411    0.267   13.535
  492.684    6.893   67.835    0.414    0.240   13.782
  493.504    6.954   76.466    0.417    0.202   14.692
  494.324    6.955   71.744    0.417    0.229   15.805
  495.144    6.819   67.914    0.419    0.234   15.947
  495.965    6.840   68.826    0.418    0.207   14.549
  496.785    6.881   75.082    0.418    0.236   14.951
  497.605    6.923   81.631    0.419    0.266   15.792
  498.425    6.846   84.329    0.419    0.244   15.935
  499.245    6.788   83.468    0.417    0.242   14.942
  500.066    6.809   84.083    0.423    0.242   14.402
  500.886    6.811   84.705    0.429    0.236   14.936
  501.706    6.872   82.651    0.433    0.231   16.365
  502.526    6.992   78.225    0.437    0.204   16.972
  503.346    6.935   83.888    0.420    0.158   16.814
  504.167    6.758   81.538    0.381    0.043   15.481
  504.987    6.780   85.421    0.392    0.087   13.996
  505.807    6.940   93.750    0.408    0.203   12.886
  506.627    6.981   94.665    0.419    0.207   11.649
  507.448    7.418   94.394    0.429    0.206   11.332
  508.268    7.143   94.425    0.437    0.187   11.330
  509.088    6.927   93.555    0.430    0.190   11.643
  509.908    6.850   92.691    0.431    0.203   11.855
  510.728    6.832   93.909    0.434    0.208   11.853
  511.549    6.833   95.120    0.436    0.206   11.851
  512.369    6.934   95.439    0.438    0.208   11.740
  513.189    6.955   96.354    0.442    0.180   11.525
  514.009    6.838   93.414    0.446    0.130   11.008
  514.829    6.800   90.770    0.430    0.075   10.806
  515.650    6.881   95.837    0.407    0.196   10.804
  516.470    7.061  101.500    0.432    0.227   10.318
  517.290    7.161  100.039    0.447    0.237    9.501
  518.110    7.440  100.068    0.446    0.241    8.668
  518.930    8.173   98.904    0.453    0.245    8.203
