~VERSION INFORMATION
 VERS.                 2.0:   CWLS LOG ASCII STANDARD -VERSION 2.0
 WRAP.                  NO:   ONE LINE PER DEPTH STEP
~WELL INFORMATION BLOCK
#MNEM.UNIT           DATA                    DESCRIPTION OF MNEMONIC
#---------    -------------------            -------------------------------
# Generated from Intellog Unique Number	CN_94_101/WELL/5041
WELL.         MOBIL OIL OF CANADA LTD.       : Well_name    - WELL
LOC .         AA/15-15-097-13W4/0            : Location     - LOCATION
UWI .         AA/15-15-097-13W400            : Uwi          - UNIQUE WELL ID
ENTR.         JOETTE                         : Entered      - ENTERED BY
SRVC.         SCHLUMBERGER                   : Scn          - SERVICE COMPANY
DATE.         08/17/92                       : Date         - LOG DATE
STRT.M        45.72                          : top_depth    - START DEPTH
STOP.M        283.47                         : bot_depth    - STOP DEPTH
STEP.M        0.25                           : increment    - STEP LENGTH
 NULL. -999.2500:NULL Value
~CURVE INFORMATION BLOCK
#MNEM UNIT       ERCB CURVE CODE    CURVE DESCRIPTION
#-----------   ------------------   ----------------------------------
DEPT.M        00 001 00 00         : DEPTH        - DEPTH
ILD .OHMM     00 120 00 00         : RESD         - DEEP RESISTIVITY (DIL)
GR  .API      00 310 00 00         : GR           - GAMMA RAY
NPHI.V/V      00 330 00 00         : PHIN         - NEUTRON POROSITY (SANDSTONE)
~PARAMETER INFORMATION
#MNEM.UNIT           DATA             DESCRIPTION OF MNEMONIC
#---------         -----------     ------------------------------
GL  .M        484.632              : gl           - GROUND LEVEL ELEVATION
EREF.M        484.632              : kb           - ELEVATION OF DEPTH REFERENCE
DATM.M        484.632              : datum        - DATUM ELEVATION
TDD .M        281.026              : tdd          - TOTAL DEPTH DRILLER
RUN .         ONE                  : Run          - RUN NUMBER
ENG .         BILL                 : Engineer     - RECORDING ENGINEER
WIT .         JIM                  : Witness      - WITNESSED BY
MUD .         GEL                  : Mud_type     - MUD TYPE
MATR.         SANDSTONE            : Logunit      - NEUTRON MATRIX
TMAX.C        12.2222              : BHT          - MAXIMUM RECORDED TEMPERATURE
BHTD.M        281.026              : BHTDEP       - MAXIMUM RECORDED TEMPERATURE
RMT .C        12.2222              : MDTP         - TEMPERATURE OF MUD
MUDD.KG/M     0                    : MWT          - MUD DENSITY
NEUT.         1                    : NEUTRON      - NEUTRON TYPE
RESI.         0                    : RESIST       - RESISTIVITY TYPE
RM  .OHMM     5.2                  : RM           - RESISTIVITY OF MUD
RMC .OHMM     5.2                  : RMC          - RESISTIVITY OF MUD CAKE
RMF .OHMM     5.2                  : RMF          - RESISTIVITY OF MUD FILTRATE
SUFT.C        4                    : SUFT         - SURFACE TEMPERATURE
~A  DEPTH     RESD       GR     PHIN
# ...
   99.970   18.531   65.365    0.461
  100.220   18.222   61.862    0.471
  100.470   18.963   60.573    0.480
  100.720   19.720   62.838    0.480
  100.970   20.839   65.093    0.457
  101.220   19.789   65.576    0.450
  101.470   16.546   65.617    0.452
  101.720   10.408   65.224    0.449
  101.970   14.431   64.811    0.442
  102.220   19.187   65.295    0.434
  102.470   23.572   68.435    0.440
  102.720   18.893   68.939    0.437
  102.970   18.916   64.540    0.432
  103.220   17.858   60.614    0.427
  103.470   13.172   59.306    0.426
  103.720   16.106   57.152    0.426
  103.970   12.145   56.729    0.427
  104.220    9.636   58.541    0.430
  104.470    8.948   62.578    0.446
  104.720    7.898   66.604    0.462
  104.970    7.551   67.973    0.467
  105.220    7.605   67.128    0.475
  105.470    7.620   64.068    0.493
  105.720    8.029   61.451    0.507
  105.970    8.045   60.183    0.517
  106.220    8.091   60.213    0.507
  106.470    7.381   60.253    0.503
  106.720    6.694   60.736    0.496
  106.970    6.717   66.534    0.494
  107.220    6.755   84.301    0.527
  107.470    6.439   95.866    0.526
  107.720    6.454  102.107    0.501
  107.970    6.130  104.825    0.502
  108.220    6.531  103.094    0.508
  108.470    7.272  101.352    0.512
  108.720    9.481   98.293    0.504
  108.970    8.423   96.571    0.496
  109.220    7.736   94.840    0.492
  109.470    7.419   95.766    0.494
  109.720    7.434   98.454    0.500
  109.970    7.465  101.152    0.508
  110.220    7.504   99.430    0.512
  110.470    7.905   99.914    0.509
  110.720    8.284  101.283    0.507
  110.970    8.330  101.333    0.509
  111.220    7.635  100.045    0.510
  111.470    7.303   99.209    0.510
  111.720    6.979  100.115    0.507
  111.970    7.002  104.605    0.505
  112.220    7.033  106.850    0.513
  112.470    7.063  106.890    0.520
  112.720    7.087  105.602    0.514
  112.970    7.117  104.756    0.513
  113.220    7.527  105.692    0.532
  113.470    7.928  106.196    0.521
  113.720    7.951  104.887    0.504
  113.970    7.611  101.827    0.514
  114.220    7.650   99.210    0.520
  114.470    7.681  100.146    0.520
  114.720    6.994  101.948    0.513
  114.970    7.017  105.985    0.511
  115.220    6.685  104.696    0.515
  115.470    6.723  102.975    0.517
  115.720    6.746  100.801    0.518
  115.970    7.148  100.841    0.511
  116.220    7.534  103.529    0.506
  116.470    8.298  104.918    0.507
  116.720    8.329  103.177    0.530
  116.970    7.271  100.560    0.536
  117.220    6.939   97.953    0.526
  117.470    5.526   97.097    0.524
  117.720    6.646   96.262    0.529
  117.970    5.951   97.631    0.530
  118.220    5.627   98.990    0.524
  118.470    5.657  101.245    0.530
  118.720    5.673  101.738    0.537
  118.970    5.704  100.007    0.528
  119.220    5.750   97.410    0.525
  119.470    5.773   96.112    0.517
  119.720    5.804   94.823    0.509
  119.970    5.842   94.864    0.514
  120.220    5.873   95.337    0.518
  120.470    5.912   96.263    0.519
  120.720    5.927   95.438    0.518
  120.970    5.974   95.468    0.514
  121.220    5.997   95.518    0.510
  121.470    6.028   95.992    0.509
  121.720    6.058   96.485    0.519
  121.970    6.452   97.854    0.526
  122.220    6.483  100.562    0.531
  122.470    6.514  102.806    0.530
  122.720    6.552  101.961    0.522
  122.970    6.583  100.693    0.517
  123.220    6.622   99.837    0.511
  123.470    6.653   99.002    0.501
  123.720    6.684   99.032    0.505
  123.970    6.722   99.535    0.511
  124.220    7.100  100.009    0.510
  124.470    7.139  101.821    0.516
  124.720    7.533  102.314    0.525
  124.970    7.564   99.697    0.531
  125.220    7.247   98.398    0.521
  125.470    6.900   97.543    0.511
  125.720    6.567   99.808    0.513
  125.970    6.961  102.063    0.513
  126.220    7.718   99.888    0.501
  126.470    8.112   97.281    0.501
  126.720    7.795   97.312    0.507
  126.970    8.559   99.134    0.516
  127.220    9.671   99.174    0.512
  127.470   11.516   96.557    0.506
  127.720   11.547   93.497    0.495
  127.970    9.756   91.323    0.498
  128.220    7.980   94.041    0.494
  128.470    7.648   96.719    0.488
  128.720    9.130  100.745    0.482
  128.970   11.701   87.951    0.486
  129.220   11.369   88.435    0.488
  129.470   11.037   88.908    0.493
  129.720   11.431   89.844    0.495
  129.970   10.736   87.227    0.496
  130.220   10.412   82.828    0.493
  130.470   14.797   80.211    0.487
  130.720   14.102   85.587    0.463
  130.970   12.689   88.274    0.457
  131.220   11.261   93.196    0.473
  131.470   12.018   95.894    0.481
  131.720   13.137   96.377    0.483
  131.970   13.176   95.975    0.474
  132.220   17.924   92.029    0.459
  132.470   13.963   88.083    0.462
  132.720   12.180   86.815    0.463
  132.970   15.839   85.950    0.454
  133.220   14.056   75.803    0.444
  133.470    9.747   72.743    0.454
  133.720   10.126   70.126    0.470
  133.970    9.431   74.596    0.486
  134.220    8.373   79.538    0.503
  134.470    9.500   79.125    0.503
  134.720    8.813   76.498    0.500
  134.970    8.489   73.891    0.501
  135.220    8.504   71.264    0.507
  135.470    8.543   69.090    0.510
  135.720    8.574   71.355    0.506
  135.970   10.419   74.043    0.504
  136.220   11.538   82.528    0.504
  136.470    9.755   83.877    0.501
  136.720    8.705   86.575    0.490
  136.970    7.655   89.736    0.475
  137.220    7.315   91.094    0.473
  137.470    7.353   92.031    0.487
  137.720    7.006   90.299    0.503
  137.970    7.045   89.444    0.514
  138.220    7.068   89.041    0.522
  138.470    7.106   91.749    0.519
  138.720    7.145   95.343    0.514
  138.970    7.168   94.507    0.503
  139.220    7.222   92.766    0.502
  139.470    7.245   92.796    0.511
  139.720    7.268   95.957    0.522
  139.970    8.033   98.202    0.522
  140.220    8.056  101.785    0.516
  140.470    8.465  104.060    0.513
  140.720    8.843  103.225    0.512
  140.970    9.237  101.927    0.511
  141.220    9.275   99.752    0.515
  141.470    8.943   98.021    0.546
  141.720    8.256   98.072    0.524
  141.970    8.635   98.978    0.500
  142.220   23.551   98.132    0.494
  142.470   32.299   96.411    0.485
  142.720   18.540   97.780    0.489
  142.970   16.386   98.263    0.504
  143.220   12.788   96.089    0.512
  143.470   10.642   93.029    0.481
  143.720    8.866   92.204    0.470
  143.970    8.534   92.234    0.446
  144.220    8.935   90.050    0.480
  144.470    9.329   87.886    0.482
  144.720   10.811   90.573    0.474
  144.970   10.109   95.053    0.489
  145.220    7.962   92.436    0.495
  145.470    7.267   80.065    0.491
  145.720    8.395   68.590    0.492
  145.970    9.151   66.859    0.499
  146.220    8.464   78.425    0.498
  146.470    7.769   86.880    0.502
  146.720    8.526   90.927    0.508
  146.970    9.275   93.171    0.508
  147.220   10.039   92.769    0.508
  147.470    9.344   87.937    0.507
  147.720    7.553   82.673    0.505
  147.970    6.132   84.928    0.501
  148.220    6.171   86.730    0.497
  148.470    6.572   88.994    0.495
  148.720    7.336   90.374    0.507
  148.970    7.352   88.199    0.509
  149.220    8.132   86.015    0.505
  149.470    8.518   83.841    0.494
  149.720    8.904   85.653    0.497
  149.970    8.942   88.804    0.504
  150.220    8.603   87.072    0.509
  150.470    8.270   85.331    0.503
  150.720    9.390   84.506    0.499
  150.970    9.791   86.751    0.501
  151.220    8.378   89.891    0.505
  151.470    7.684   91.703    0.495
  151.720    7.344   90.435    0.487
  151.970    7.375   87.798    0.481
  152.220    7.406   83.852    0.502
  152.470    7.444   85.241    0.521
  152.720    8.564   87.929    0.525
  152.970    8.587   87.979    0.518
  153.220    7.529   86.248    0.513
  153.470    7.205   88.936    0.508
  153.720    7.591  100.501    0.503
  153.970    7.645  104.991    0.502
