~VERSION INFORMATION
 VERS.                 2.0:   CWLS LOG ASCII STANDARD -VERSION 2.0
 WRAP.                  NO:   ONE LINE PER DEPTH STEP
~WELL INFORMATION BLOCK
#MNEM.UNIT           DATA                    DESCRIPTION OF MNEMONIC
#---------    -------------------            -------------------------------
# Generated from Intellog Unique Number	CN_94_101/WELL/2560
WELL.         PETRO-CANADA EXPLORATION INC.  : Well_name    - WELL
LOC .         AA/10-11-094-16W4/0            : Location     - LOCATION
UWI .         AA/10-11-094-16W400            : Uwi          - UNIQUE WELL ID
ENTR.         JOETTE                         : Entered      - ENTERED BY
SRVC.         SCHLUMBERGER                   : Scn          - SERVICE COMPANY
DATE.         05/17/92                       : Date         - LOG DATE
STRT.F        300                            : top_depth    - START DEPTH
STOP.F        820.013                        : bot_depth    - STOP DEPTH
STEP.F        0.82                           : increment    - STEP LENGTH
 NULL. -999.2500:NULL Value
~CURVE INFORMATION BLOCK
#MNEM UNIT       ERCB CURVE CODE    CURVE DESCRIPTION
#-----------   ------------------   ----------------------------------
DEPT.F        00 001 00 00         : DEPTH        - DEPTH
CALI.IN       00 280 01 00         : CAL          - CALIPER
GR  .API      00 310 00 00         : GR           - GAMMA RAY
NPHI.V/V      00 330 00 00         : PHIN         - NEUTRON POROSITY (SANDSTONE)
DPHI.V/V      00 890 00 00         : PHID         - DENSITY POROSITY (SANDSTONE)
ILD .OHMM     00 120 00 00         : RESD         - DEEP RESISTIVITY (DIL)
~PARAMETER INFORMATION
#MNEM.UNIT           DATA             DESCRIPTION OF MNEMONIC
#---------         -----------     ------------------------------
GL  .F        1644.4               : gl           - GROUND LEVEL ELEVATION
EREF.F        1655.8               : kb           - ELEVATION OF DEPTH REFERENCE
DATM.F        1655.8               : datum        - DATUM ELEVATION
TDD .F        859                  : tdd          - TOTAL DEPTH DRILLER
RUN .         ONE                  : Run          - RUN NUMBER
ENG .         BILL                 : Engineer     - RECORDING ENGINEER
WIT .         JIM                  : Witness      - WITNESSED BY
MUD .         GEL                  : Mud_type     - MUD TYPE
MATR.         SANDSTONE            : Logunit      - NEUTRON MATRIX
TMAX.F        84                   : BHT          - MAXIMUM RECORDED TEMPERATURE
BHTD.F        859                  : BHTDEP       - MAXIMUM RECORDED TEMPERATURE
RMT .F        75                   : MDTP         - TEMPERATURE OF MUD
MUDD.LB/G     3                    : MWT          - MUD DENSITY
NEUT.         1                    : NEUTRON      - NEUTRON TYPE
RESI.         0                    : RESIST       - RESISTIVITY TYPE
RM  .OHMM     0.84                 : RM           - RESISTIVITY OF MUD
RMC .OHMM     0.84                 : RMC          - RESISTIVITY OF MUD CAKE
RMF .OHMM     0.7                  : RMF          - RESISTIVITY OF MUD FILTRATE
SUFT.F        39.2                 : SUFT         - SURFACE TEMPERATURE
~A  DEPTH      CAL       GR     PHIN     PHID     RESD
# ...
  419.751    6.473   94.594    0.557    0.246    4.201
  420.571    6.317   94.617    0.550    0.230    4.702
  421.391    6.240   95.814    0.545    0.232    5.362
  422.211    6.241   98.194    0.521    0.240    5.568
  423.031    6.242   99.382    0.517    0.247    5.464
  423.852    6.323   98.222    0.508    0.258    5.263
  424.672    6.324   93.525    0.496    0.268    4.976
  425.492    6.325   92.369    0.488    0.273    5.166
  426.312    6.365   94.740    0.495    0.279    5.569
  427.133    6.367   97.705    0.505    0.271    5.892
  427.953    6.368   99.491    0.513    0.258    6.118
  428.773    6.408   97.746    0.518    0.276    6.119
  429.593    6.410   93.638    0.522    0.288    5.571
  430.413    6.410   90.705    0.525    0.301    4.978
  431.234    6.412   85.419    0.526    0.301    4.365
  432.054    6.374   79.544    0.525    0.313    3.901
  432.874    6.375   73.673    0.523    0.283    3.901
  433.694    6.376   74.276    0.521    0.237    4.366
  434.514    6.377   80.777    0.520    0.235    6.355
  435.335    6.379   86.100    0.521    0.248    6.981
  436.155    6.380   92.605    0.523    0.264    7.525
  436.975    6.381   94.387    0.524    0.263    7.386
  437.795    6.382   93.820    0.525    0.266    6.009
  438.615    6.383   92.071    0.529    0.274    5.575
  439.436    6.385   91.499    0.530    0.284    4.981
  440.256    6.425   93.875    0.527    0.289    4.709
  441.076    6.505   96.840    0.526    0.267    4.622
  441.896    6.703   98.626    0.534    0.258    4.622
  442.717    6.861   98.055    0.518    0.274    4.799
  443.537    6.823   96.310    0.526    0.262    4.890
  444.357    6.746   95.140    0.547    0.279    4.710
  445.177    6.668   92.810    0.543    0.285    4.537
  445.997    6.512   92.819    0.535    0.272    4.054
  446.818    6.435   92.248    0.551    0.257    3.832
  447.638    6.436   92.860    0.555    0.273    4.210
  448.458    6.437   92.874    0.546    0.280    4.538
  449.278    6.360   94.665    0.550    0.279    5.176
  450.098    6.243   95.272    0.534    0.275    6.014
  450.919    6.323   94.706    0.503    0.269    6.363
  451.739    6.521   94.719    0.453    0.257    6.860
  452.559    6.600   95.322    0.483    0.255    6.860
  453.379    6.759   97.113    0.513    0.240    6.016
  454.199    6.839  100.668    0.539    0.228    4.894
  455.020    6.879  104.807    0.544    0.233    4.292
  455.840    6.880  104.236    0.539    0.218    3.908
  456.660    6.803  100.722    0.540    0.168    3.764
  457.480    6.568  100.142    0.545    0.221    3.694
  458.301    6.491  100.160    0.551    0.221    3.695
  459.121    6.806  105.487    0.547    0.218    3.695
  459.941    7.083  115.525    0.541    0.237    3.695
  460.761    7.202  116.726    0.546    0.242    3.626
  461.581    7.164  118.508    0.566    0.240    3.559
  462.402    7.125  122.062    0.566    0.247    3.493
  463.222    7.166  121.491    0.561    0.233    3.428
  464.042    7.285  117.973    0.571    0.226    3.365
  464.862    7.325  113.281    0.585    0.224    3.365
  465.682    7.287  109.169    0.580    0.208    3.303
  466.503    7.210  105.646    0.569    0.147    3.366
  467.323    6.975   99.182    0.560    0.210    3.494
  468.143    6.702  102.147    0.563    0.235    4.061
  468.963    6.781  108.063    0.573    0.228    4.719
  469.783    6.940  106.898    0.579    0.215    5.282
  470.604    7.020  102.206    0.586    0.206    5.588
  471.424    7.021   99.867    0.580    0.212    5.588
  472.244    6.943   98.706    0.565    0.216    5.802
  473.064    6.866   98.720    0.531    0.212    7.001
  473.885    6.749  101.694    0.500    0.206    7.690
  474.705    6.672  102.886    0.463    0.204    8.447
  475.525    6.556  104.672    0.440    0.202    8.937
  476.345    6.400  102.918    0.447    0.199    9.455
  477.165    6.283   99.405    0.440    0.194    9.817
  477.986    6.127   98.244    0.425    0.193    9.818
  478.806    6.128   98.258    0.424    0.198    9.818
  479.626    6.287  100.044    0.433    0.208   10.005
  480.446    6.484  102.424    0.429    0.220   10.195
  481.266    6.721  101.259    0.445    0.225   10.196
  482.087    6.958   98.924    0.477    0.232   10.007
  482.907    7.038   99.537    0.490    0.222    9.639
  483.727    7.000   99.546    0.476    0.229    8.776
  484.547    6.922  100.743    0.478    0.251    8.453
  485.367    6.963  101.939    0.493    0.250    8.297
  486.188    6.964  101.368    0.509    0.235    8.297
  487.008    6.887   98.440    0.503    0.224    8.455
  487.828    6.770   94.922    0.487    0.249    8.779
  488.648    6.457   92.582    0.490    0.251    9.115
  489.469    6.222   93.779    0.494    0.233    9.464
  490.289    6.185   95.566    0.463    0.230    9.644
  491.109    6.186   94.405    0.446    0.239    9.465
  491.929    6.187   93.245    0.456    0.217    8.948
  492.749    6.228   94.446    0.428    0.205    8.782
  493.570    6.229   96.822    0.429    0.212    8.619
  494.390    6.190   98.019    0.442    0.211    8.620
  495.210    6.074   98.631    0.467    0.206    8.783
  496.030    5.997   96.876    0.471    0.204    9.293
  496.850    5.880   94.537    0.461    0.200    9.469
  497.671    5.802   93.376    0.440    0.211    9.470
  498.491    5.725   93.390    0.434    0.218    9.471
  499.311    5.765   93.408    0.427    0.235    9.295
  500.131    5.924   93.427    0.430    0.246    9.123
  500.951    6.082   92.261    0.440    0.250    8.787
  501.772    6.122   91.690    0.444    0.250    8.464
  502.592    6.124   97.017    0.435    0.237    8.001
  503.412    6.125   99.987    0.428    0.220    7.707
  504.232    6.126  100.005    0.435    0.228    7.423
  505.052    6.128  100.604    0.448    0.239    7.708
  505.873    6.168  100.622    0.460    0.231    8.467
  506.693    6.209  102.413    0.450    0.209    9.300
  507.513    6.288  103.610    0.446    0.235    9.477
  508.333    6.407  103.038    0.452    0.251    9.128
  509.154    6.566  106.004    0.462    0.229    8.629
  509.974    6.685  106.611    0.470    0.228    7.567
  510.794    6.764  105.446    0.481    0.247    7.021
  511.614    6.923  101.343    0.503    0.242    6.392
  512.434    7.042  100.178    0.499    0.241    6.157
  513.255    7.082   98.437    0.487    0.243    6.637
  514.075    7.005   97.857    0.496    0.192    7.291
  514.895    6.771   97.875    0.505    0.167    7.570
  515.715    6.693   99.077    0.512    0.254    7.292
  516.535    6.734  100.269    0.518    0.285    6.893
  517.356    6.774  102.645    0.514    0.285    6.276
  518.176    6.775  104.431    0.506    0.276    6.160
  518.996    6.737  100.918    0.498    0.267    6.160
  519.816    6.660   98.578    0.474    0.263    6.277
  520.636    6.583   98.597    0.467    0.261    6.278
  521.457    6.741   99.200    0.477    0.273    6.278
  522.277    7.174   99.812    0.501    0.282    5.934
  523.097    7.608   99.830    0.512    0.305    5.107
  523.917    7.727  101.031    0.525    0.325    4.078
  524.738    7.453  102.219    0.535    0.314    3.444
  525.558    7.219  103.421    0.534    0.299    2.855
  526.378    7.063  101.081    0.520    0.278    2.699
  527.198    7.143  100.510    0.496    0.251    3.644
  528.018    7.144  103.475    0.492    0.246    5.612
  528.839    7.145  106.436    0.482    0.233    6.050
  529.659    7.146  107.043    0.472    0.212    7.164
  530.479    7.226  107.066    0.501    0.212    7.438
  531.299    7.345  107.080    0.510    0.222    7.300
  532.119    7.346  107.103    0.521    0.221    7.032
  532.940    7.269  107.121    0.516    0.219    6.902
  533.760    7.192  104.781    0.518    0.216    7.033
  534.580    7.115  101.848    0.504    0.204    7.725
  535.400    7.076   99.513    0.474    0.209    8.173
  536.220    7.038   98.942    0.452    0.208    8.810
  537.041    7.000   97.192    0.435    0.128   10.048
  537.861    6.962   94.849    0.416    0.104   10.433
  538.681    6.845   95.456    0.409    0.142   11.460
