~VERSION INFORMATION
 VERS.                 2.0:   CWLS LOG ASCII STANDARD -VERSION 2.0
 WRAP.                  NO:   ONE LINE PER DEPTH STEP
~WELL INFORMATION BLOCK
#MNEM.UNIT           DATA                    DESCRIPTION OF MNEMONIC
#---------    -------------------            -------------------------------
# Generated from Intellog Unique Number	CN_94_101/WELL/5022
WELL.         11-26-099-15W4                 : Well_name    - WELL
LOC .         AA/11-26-099-15W4/0            : Location     - LOCATION
UWI .         AA/11-26-099-15W400            : Uwi          - UNIQUE WELL ID
ENTR.         TIM                            : Entered      - ENTERED BY
SRVC.         SCHLUMBERGER                   : Scn          - SERVICE COMPANY
DATE.         08/13/92                       : Date         - LOG DATE
STRT.M        275                            : top_depth    - START DEPTH
STOP.M        485                            : bot_depth    - STOP DEPTH
STEP.M        0.25                           : increment    - STEP LENGTH
 NULL. -999.2500:NULL Value
~CURVE INFORMATION BLOCK
#MNEM UNIT       ERCB CURVE CODE    CURVE DESCRIPTION
#-----------   ------------------   ----------------------------------
DEPT.M        00 001 00 00         : DEPTH        - DEPTH
GR  .API      00 310 00 00         : GR           - GAMMA RAY
ILD .OHMM     00 120 00 00         : RESD         - DEEP RESISTIVITY (DIL)
NPHI.V/V      00 330 00 00         : PHIN         - NEUTRON POROSITY (SANDSTONE)
DPHI.V/V      00 890 00 00         : PHID         - DENSITY POROSITY (SANDSTONE)
~PARAMETER INFORMATION
#MNEM.UNIT           DATA             DESCRIPTION OF MNEMONIC
#---------         -----------     ------------------------------
GL  .M        724.5                : gl           - GROUND LEVEL ELEVATION
EREF.M        727.9                : kb           - ELEVATION OF DEPTH REFERENCE
DATM.M        727.9                : datum        - DATUM ELEVATION
TDD .M        488                  : tdd          - TOTAL DEPTH DRILLER
RUN .         ONE                  : Run          - RUN NUMBER
ENG .         BILL                 : Engineer     - RECORDING ENGINEER
WIT .         JIM                  : Witness      - WITNESSED BY
MUD .         GEL                  : Mud_type     - MUD TYPE
MATR.         SANDSTONE            : Logunit      - NEUTRON MATRIX
TMAX.C        28                   : BHT          - MAXIMUM RECORDED TEMPERATURE
BHTD.M        488                  : BHTDEP       - MAXIMUM RECORDED TEMPERATURE
RMT .C        10                   : MDTP         - TEMPERATURE OF MUD
MUDD.KG/M     1140                 : MWT          - MUD DENSITY
NEUT.         1                    : NEUTRON      - NEUTRON TYPE
RESI.         0                    : RESIST       - RESISTIVITY TYPE
RM  .OHMM     1.08                 : RM           - RESISTIVITY OF MUD
RMC .OHMM     1.08                 : RMC          - RESISTIVITY OF MUD CAKE
RMF .OHMM     1.08                 : RMF          - RESISTIVITY OF MUD FILTRATE
SUFT.C        4                    : SUFT         - SURFACE TEMPERATURE
~A  DEPTH       GR     RESD     PHIN     PHID
# ...
  405.500  156.156    9.305    0.417    0.209
  405.750  156.754    9.499    0.414    0.213
  406.000  156.741    9.693    0.410    0.218
  406.250  157.339    9.691    0.408    0.219
  406.500  157.329    9.686    0.410    0.218
  406.750  159.143    9.484    0.426    0.215
  407.000  160.356    9.081    0.440    0.209
  407.250  162.177    8.881    0.433    0.208
  407.500  160.941    8.678    0.422    0.211
  407.750  159.090    8.275    0.418    0.217
  408.000  159.080    8.271    0.417    0.222
  408.250  158.456    8.070    0.417    0.226
  408.500  158.442    7.868    0.417    0.230
  408.750  158.422    7.862    0.419    0.230
  409.000  157.186    7.860    0.420    0.230
  409.250  154.122    7.855    0.423    0.229
  409.500  148.599    8.051    0.451    0.229
  409.750  144.917    8.444    0.461    0.235
  410.000  142.461    9.235    0.468    0.241
  410.250  136.945    9.827    0.457    0.248
  410.500  133.875   10.022    0.447    0.259
  410.750  128.355    9.223    0.441    0.269
  411.000  130.176    8.425    0.433    0.266
  411.250  133.223    8.024    0.427    0.261
  411.500  136.264    8.217    0.425    0.257
  411.750  135.636    8.414    0.422    0.258
  412.000  134.400    8.807    0.421    0.261
  412.250  132.555    9.399    0.422    0.269
  412.500  130.704    9.793    0.433    0.272
  412.750  133.137   10.185    0.445    0.267
  413.000  134.347   10.181    0.443    0.263
  413.250  131.891    9.781    0.438    0.254
  413.500  128.820    8.783    0.433    0.248
  413.750  123.915    8.183    0.427    0.252
  414.000  118.392    8.179    0.401    0.263
  414.250  118.994    8.373    0.388    0.263
  414.500  136.101    8.371    0.413    0.260
  414.750  146.483    7.374    0.438    0.264
  415.000  159.922    6.575    0.447    0.268
  415.250  163.577    5.776    0.467    0.265
  415.500  161.726    5.572    0.493    0.264
  415.750  159.882    5.570    0.510    0.260
  416.000  158.034    5.564    0.515    0.258
  416.250  157.406    5.362    0.510    0.253
  416.500  157.396    5.360    0.494    0.240
  416.750  158.603    5.154    0.478    0.223
  417.000  159.201    5.153    0.484    0.222
  417.250  160.407    5.150    0.496    0.232
  417.500  161.005    4.946    0.502    0.240
  417.750  162.218    4.744    0.502    0.250
  418.000  162.817    4.540    0.503    0.255
  418.250  164.023    3.940    0.506    0.255
  418.500  165.233    3.539    0.510    0.253
  418.750  164.611    3.337    0.524    0.256
  419.000  162.149    3.333    0.561    0.258
  419.250  159.082    3.727    0.577    0.263
  419.500  154.781    4.121    0.579    0.270
  419.750  152.326    4.713    0.553    0.275
  420.000  149.255    5.502    0.544    0.268
  420.250  147.407    5.897    0.531    0.263
  420.500  144.945    6.291    0.508    0.262
  420.750  143.094    6.287    0.502    0.268
  421.000  142.476    6.282    0.499    0.278
  421.250  143.074    6.079    0.491    0.284
  421.500  146.730    6.275    0.490    0.285
  421.750  151.608    6.272    0.484    0.289
  422.000  156.483    6.665    0.482    0.281
  422.250  158.298    7.256    0.476    0.277
  422.500  158.288    7.453    0.474    0.267
  422.750  157.663    8.043    0.476    0.255
  423.000  153.984    7.642    0.477    0.233
  423.250  145.411    7.241    0.475    0.208
  423.500  140.506    6.840    0.463    0.201
  423.750  141.104    6.637    0.460    0.212
  424.000  144.759    6.436    0.463    0.215
  424.250  152.084    6.232    0.466    0.214
  424.500  159.398    6.031    0.474    0.214
  424.750  160.003    6.027    0.478    0.244
  425.000  159.989    5.823    0.476    0.259
  425.250  159.365    5.818    0.474    0.262
  425.500  158.125    5.616    0.470    0.259
  425.750  157.504    5.414    0.471    0.254
  426.000  159.322    5.211    0.481    0.247
  426.250  162.362    4.811    0.489    0.249
  426.500  163.579    4.013    0.505    0.254
  426.750  163.565    3.611    0.516    0.249
  427.000  157.434    3.408    0.515    0.244
  427.250  154.364    3.604    0.511    0.241
  427.500  150.067    3.995    0.511    0.241
  427.750  148.834    4.191    0.512    0.242
  428.000  145.145    4.187    0.521    0.243
  428.250  143.916    4.184    0.522    0.245
  428.500  142.068    4.179    0.511    0.251
  428.750  140.217    4.375    0.503    0.253
  429.000  138.363    4.569    0.486    0.258
  429.250  138.353    4.764    0.491    0.264
  429.500  138.951    4.958    0.502    0.265
  429.750  140.769    5.153    0.512    0.264
  430.000  141.982    4.751    0.523    0.263
  430.250  144.414    4.749    0.514    0.257
  430.500  145.627    4.546    0.507    0.254
  430.750  149.891    4.343    0.498    0.246
  431.000  152.938    4.338    0.486    0.215
  431.250  155.371    4.138    0.480    0.222
  431.500  158.415    3.736    0.504    0.233
  431.750  161.456    3.534    0.507    0.244
  432.000  163.888    3.331    0.514    0.252
  432.250  163.875    3.328    0.514    0.260
  432.500  158.970    3.322    0.553    0.278
  432.750  151.008    3.716    0.566    0.324
  433.000  138.765    4.905    0.537    0.317
  433.250  127.746    6.291    0.484    0.306
  433.500  115.500    7.083    0.444    0.297
  433.750  105.092    7.278    0.418    0.283
  434.000  105.079    6.876    0.414    0.270
  434.250  114.237    6.873    0.438    0.261
  434.500  120.339    6.669    0.453    0.259
  434.750  119.099    6.667    0.462    0.264
  435.000  117.252    6.463    0.472    0.265
  435.250  117.238    6.261    0.474    0.271
  435.500  118.451    5.660    0.458    0.275
  435.750  122.103    5.459    0.450    0.275
  436.000  125.756    5.057    0.478    0.268
  436.250  129.411    4.854    0.491    0.260
  436.500  132.458    5.050    0.491    0.255
  436.750  134.276    5.641    0.483    0.250
  437.000  131.209    6.831    0.475    0.249
  437.250  118.355    8.814    0.471    0.249
  437.500  109.170   10.797    0.441    0.249
  437.750   91.421   10.792    0.428    0.249
  438.000   87.739   10.590    0.422    0.251
  438.250   93.840   10.785    0.433    0.260
  438.500   95.050   11.774    0.445    0.274
  438.750   92.591   15.347    0.453    0.289
  439.000   86.463   17.330    0.424    0.291
  439.250   77.889   19.115    0.399    0.301
  439.500   72.981   23.481    0.393    0.311
  439.750   74.799   23.677    0.439    0.316
  440.000   76.623   24.468    0.463    0.319
  440.250   79.664   25.258    0.462    0.320
  440.500   80.877   25.453    0.439    0.321
  440.750   82.698   24.854    0.438    0.322
  441.000   83.908   16.902    0.464    0.322
  441.250   86.948   10.937    0.468    0.320
  441.500   89.996    8.152    0.469    0.314
  441.750   99.154    6.160    0.456    0.307
  442.000  102.810    5.162    0.446    0.302
  442.250  107.688    4.960    0.438    0.296
  442.500  112.567    4.557    0.432    0.289
  442.750  118.668    4.555    0.433    0.280
  443.000  123.546    4.550    0.437    0.276
  443.250  126.587    4.944    0.445    0.274
  443.500  122.905    5.934    0.456    0.273
  443.750  111.268    7.122    0.487    0.273
  444.000  110.038    8.908    0.446    0.279
  444.250  103.910   10.891    0.439    0.285
  444.500   92.891   12.675    0.438    0.296
  444.750   87.986   14.261    0.438    0.307
  445.000   81.855   16.642    0.437    0.300
  445.250   76.338   19.022    0.433    0.294
  445.500   67.153   21.800    0.389    0.291
  445.750   54.911   23.982    0.347    0.284
  446.000   40.831   24.177    0.308    0.281
  446.250   45.101   20.198    0.311    0.279
  446.500   53.645   17.810    0.318    0.281
  446.750   59.746   15.819    0.350    0.289
  447.000   64.624   14.027    0.384    0.287
  447.250   67.668   13.229    0.394    0.282
  447.500   70.712   12.628    0.401    0.283
  447.750   74.976   12.623    0.406    0.287
  448.000   78.023   12.621    0.414    0.294
  448.250   81.672   13.012    0.417    0.293
  448.500   82.888   13.010    0.420    0.293
  448.750   85.321   13.204    0.423    0.295
