~Version : LASO    vs 4.00
VERS.                2.00:   CWLS Log ASCII Standard -VERSION 2.0
WRAP.                  NO:
~Well Information Block
#MNEM.UNIT       Data                        Description of Mnemonic
#----.----      -------------------------- : -----------------------------
STRT.M            15.0000:
STOP.M           206.4000:
STEP.M             0.2000:
NULL.           -999.2500:
COMP.  MOBIL OIL OF CANADA     :COMPANY
WELL.  MOBIL CLARKE OV 13-4    :WELL
FLD.                           :FIELD
LOC.   13-04-090-07W4          :LOCATION
CTRY.  CANADA                  :COUNTRY
PROV.  ALBERTA                 :PROVINCE
SRVC.  SCHLUMBERGER            :SERVICE COMPANY
DATE.  06-MAR-81               :LOG DATE
UWI.   AA/13-04-090-07W400     :UNIQUE WELL ID
~Parameter Information Block
#MNEM.UNIT       Data                        Description of Mnemonic
#----.----      -------------------------- : -----------------------------
RUN .                   1                 : Run Number
GL  .M           458.6000                 : Ground Level Elevation
DREF.                  KB                 : Depth Reference
EREF.M           458.6000                 : Elevation of Depth Reference
TDL .M           206.5000                 : Total Depth Logger
TDD .M           207.0000                 : Total Depth Driller
CSGL.M             0.0000                 : Casing Bottom Logger
CSGD.M             8.0000                 : Casing Bottom Driller
CSGS.MM          219.0000                 : Casing Size
CSGW.KG/M          0.0000                 : Casing Weight
BS  .MM          159.0000                 : Bit Size
DFD .            999.0000                 : Mud Weight (Density)
~Curve Information Block
#MNEM.UNIT        API CODE    Curve Description
#---------    ------------    ------------------------------
DEPT.M                    :   DEPTH
CALI.MM       42 280  1  1:   2 DENSITY CALIPER
DPHI.V/V                  :   DPHI
GR  .GAPI     42 310  1  1:   3 GAMMA RAY
LLD .Ohmm                 :   LLD
NPHI.V/V      42 890  3  1:   4 NEUTRON POROSITY (SANDSTONE)
RHOB.K/M3     42 350  1  1:   5 BULK DENSITY
~A  Depth           CALI        DPHI          GR         LLD        NPHI        RHOB
# ...
110.0000        187.9000      0.3500    108.1500     17.9041      0.5110   2173.0000
110.2000        187.9000      0.3561    109.5450     20.0425      0.5032   2171.0000
110.4000        188.9750      0.3603    108.2400     24.0989      0.4936   2157.0000
110.6000        184.6750      0.3556    106.8450     28.8742      0.5054   2106.0000
110.8000        184.6750      0.3494    105.2400     34.8489      0.5188   2118.0000
111.0000        180.3750      0.3464    102.4500     37.8974      0.5298   2141.0000
111.2000        178.2250      0.3426     90.1350     43.6227      0.5392   2162.0000
111.4000        184.6750      0.3339     85.4400     48.1498      0.5456   2194.0000
111.6000        184.6750      0.3281     85.4400     54.2952      0.5456   2194.0000
111.8000        181.4500      0.3229     82.5300     56.8387      0.5226   2221.0000
112.0000        185.7500      0.3299     81.4350     60.0309      0.4478   2299.0000
112.2000        185.7500      0.3300     82.6350     62.4439      0.4254   2295.0000
112.4000        178.2250      0.3391     84.7350     62.9783      0.4148   2312.0000
112.6000        176.0750      0.3532     89.8350     64.8350      0.3776   2290.0000
112.8000        177.1500      0.3642     92.3400     66.9438      0.3702   2304.0000
113.0000        178.2250      0.3585     93.3450     67.1135      0.3822   2321.0000
113.2000        177.1500      0.3553     88.9350     65.6064      0.4556   2238.0000
113.4000        185.7500      0.3547     88.5300     65.2387      0.4654   2210.0000
113.6000        188.9750      0.3406     89.9400     66.8608      0.4592   2208.0000
113.8000        187.9000      0.3175     94.3350     72.4280      0.4536   2219.0000
114.0000        191.1250      0.2982     94.8450     80.5090      0.4478   2232.0000
114.2000        186.8250      0.2934     94.8450     90.8111      0.4346   2250.8999
114.4000        180.3750      0.2871     94.4400     99.4414      0.4262   2284.0000
114.6000        185.7500      0.2672     96.0450    103.4157      0.4008   2326.0000
114.8000        192.2000      0.2255     96.9450    105.3982      0.4004   2316.0000
115.0000        192.2000      0.1556     96.8400    102.4082      0.4100   2289.0000
115.2000        191.1250      0.1155     97.0350     96.4692      0.4394   2299.0000
115.4000        190.0500      0.0893     96.9450     89.9950      0.4434   2293.0000
115.6000        191.1250      0.1246     94.0350     80.2653      0.4464   2258.0000
115.8000        190.0500      0.1698     86.2350     77.9588      0.4404   2269.0000
116.0000        185.7500      0.2309     81.9300     77.4968      0.4248   2281.0000
116.2000        186.8250      0.2900     80.9400     78.8501      0.4136   2268.0000
116.4000        191.1250      0.3180     87.1350     81.2981      0.3944   2356.0000
116.6000        191.1250      0.3327     89.6400     81.4913      0.3908   2347.0000
116.8000        194.3500      0.3426     92.8350     79.9064      0.3974   2331.0000
117.0000        194.3500      0.3518     98.9400     76.1955      0.4054   2324.0000
117.2000        191.1250      0.3567    101.9400     72.8768      0.4192   2272.8999
117.4000        185.7500      0.3650    100.3500     67.7160      0.4474   2219.0000
117.6000        186.8250      0.3518     97.8450     65.2936      0.4814   2164.8999
117.8000        192.2000      0.3392     97.7400     63.6561      0.4914   2112.0000
118.0000        195.4250      0.3255    100.0350     61.6165      0.4914   2124.0000
118.2000        190.0500      0.3160    100.5450     59.4785      0.4916   2146.0000
118.4000        191.1250      0.3081     95.6400     57.3204      0.4802   2168.0000
118.6000        188.9750      0.3085     93.2400     55.1590      0.4640   2200.0000
118.8000        199.7250      0.3036     92.0400     53.5204      0.4494   2246.0000
119.0000        188.9750      0.3113     95.5350     51.4863      0.4180   2293.0000
119.2000        188.9750      0.3307     95.7450     49.3508      0.4148   2270.0000
119.4000        184.6750      0.3450     96.2400     50.8038      0.4274   2266.0000
119.6000        181.4500      0.3489     97.6350     56.5956      0.4406   2321.0000
119.8000        184.6750      0.3283     94.4400     61.0061      0.4350   2270.0000
120.0000        190.0500      0.3141     92.0400     61.1487      0.4354   2245.0000
120.2000        185.7500      0.3085     86.8350     61.1858      0.4646   2201.0000
120.4000        186.8250      0.3132     82.3350     57.7487      0.4716   2184.0000
120.6000        190.0500      0.3122     76.4250     55.3807      0.4764   2218.0000
120.8000        190.0500      0.3120     70.1250     49.2082      0.4764   2237.0000
121.0000        181.4500      0.3141     67.9200     44.3500      0.4612   2156.0000
121.2000        180.3750      0.3259     70.2300     41.5319      0.4328   2196.0000
121.4000        182.5250      0.3353     69.4200     39.2353      0.3870   2258.0000
121.6000        181.4500      0.3278     63.9300     37.0516      0.3778   2278.0000
121.8000        180.3750      0.3211     61.2300     35.3819      0.3906   2272.8999
122.0000        183.6000      0.3089     59.9250     32.7283      0.3920   2254.0000
122.2000        181.4500      0.3155     57.2250     34.3252      0.3418   2334.0000
122.4000        177.1500      0.3113     58.3200     36.3541      0.3048   2350.0000
122.6000        177.1500      0.3140     63.9300     38.4825      0.2986   2355.0000
122.8000        173.9250      0.3178     80.0250     38.8028      0.3128   2366.0000
123.0000        179.3000      0.3229     86.4300     35.8399      0.3020   2397.0000
123.2000        181.4500      0.3248     91.5450     33.4559      0.2798   2493.0000
123.4000        190.0500      0.3193    101.8500     31.2401      0.2968   2438.0000
123.6000        187.9000      0.3212    104.7450     27.3333      0.3496   2340.8999
123.8000        182.5250      0.3259    106.9500     24.8922      0.4032   2271.0000
124.0000        179.3000      0.3209    107.4450     22.6989      0.4450   2250.8999
124.2000        179.3000      0.3274    108.5400     24.5895      0.4888   2230.0000
124.4000        181.4500      0.3411    111.2550     24.6062      0.4834   2226.0000
124.6000        182.5250      0.3462    113.2500     27.9508      0.4828   2243.0000
124.8000        186.8250      0.3381    114.0450     33.7743      0.4926   2248.0000
125.0000        186.8250      0.3440    112.4550     38.2968      0.4934   2249.0000
125.2000        187.9000      0.3575    109.1400     41.6354      0.4944   2225.0000
125.4000        184.6750      0.3597    107.7450     44.9001      0.4972   2250.8999
125.6000        182.5250      0.3487    109.0500     46.5529      0.5092   2256.0000
125.8000        179.3000      0.3313    108.1500     49.4782      0.5150   2232.0000
126.0000        180.3750      0.3190    105.9450     52.5594      0.5140   2270.0000
126.2000        188.9750      0.3131    105.7500     54.3691      0.5072   2261.0000
126.4000        186.8250      0.3179    105.5400     56.9983      0.5034   2281.0000
126.6000        182.5250      0.3135    106.4400     57.2282      0.4718   2261.0000
126.8000        181.4500      0.3074    103.6500     55.6575      0.4800   2249.0000
127.0000        181.4500      0.3044    102.1500     53.6347      0.4944   2254.0000
127.2000        181.4500      0.3099    103.2450     51.5003      0.4980   2241.0000
127.4000        187.9000      0.3205    104.5500     51.1776      0.4848   2189.0000
127.6000        184.6750      0.3211    103.3500     51.1458      0.4794   2189.0000
127.8000        181.4500      0.3182    102.8400     51.1474      0.4680   2208.0000
128.0000        183.6000      0.3155    102.5400     51.1509      0.4948   2200.0000
128.2000        182.5250      0.3108    102.7500     51.1545      0.5340   2194.0000
128.4000        182.5250      0.3138    102.2400     51.1581      0.5646   2206.0000
128.6000        191.1250      0.3103    104.1450     51.1617      0.5444   2204.0000
128.8000        201.8750      0.3162    106.0500     49.2008      0.5276   2219.0000
