~VERSION INFORMATION
 VERS.                 2.0:   CWLS LOG ASCII STANDARD -VERSION 2.0
 WRAP.                  NO:   ONE LINE PER DEPTH STEP
~WELL INFORMATION BLOCK
#MNEM.UNIT           DATA                    DESCRIPTION OF MNEMONIC
#---------    -------------------            -------------------------------
# Generated from Intellog Unique Number	CC_80_83/WELL/2338
NULL.         -999.25                        : NULL_VALUE
COMP.         PETRO CANADA                   : COMPANY
WELL.         PEX PCEJ HOUSE OV              : Well_name    - WELL
LOC .         10-08-081-14W4                 : Location     - LOCATION          
UWI .         AA/10-08-081-14W400            : Uwi          - UNIQUE WELL ID    
ENTR.         DW                             : Entered      - ENTERED BY        
SRVC.         SCHLUMBERGER                   : Scn          - SERVICE COMPANY   
DATE.         19 JAN 82                      : Date         - LOG DATE
STRT.M        200                            : top_depth    - START DEPTH       
STOP.M        379.996                        : bot_depth    - STOP DEPTH        
STEP.M        0.3                            : increment    - STEP LENGTH       
~CURVE INFORMATION BLOCK
#MNEM UNIT       ERCB CURVE CODE    CURVE DESCRIPTION
#-----------   ------------------   ----------------------------------
DEPT.M        00 001 00 00         : DEPTH        - DEPTH                       
DPHI.V/V      00 890 00 00         : PHID         - DENSITY POROSITY (LIMESTONE)
NPHI.V/V      00 330 00 00         : PHIN         - NEUTRON POROSITY (LIMESTONE)
GR  .API      00 310 00 00         : GR           - GAMMA RAY                   
ILD .OHMM     00 120 00 00         : RESD         - DEEP RESISTIVITY (DIL)      
~PARAMETER INFORMATION       
#MNEM.UNIT           DATA             DESCRIPTION OF MNEMONIC
#---------         -----------     ------------------------------
GL  .M        587.4                : gl           - GROUND LEVEL ELEVATION      
EREF.M        590.9                : kb           - ELEVATION OF DEPTH REFERENCE
DATM.M        590.9                : datum        - DATUM ELEVATION             
TDD .M        390                  : tdd          - TOTAL DEPTH DRILLER         
RUN .         ONE                  : Run          - RUN NUMBER                  
ENG .         BILL                 : Engineer     - RECORDING ENGINEER          
WIT .         JIM                  : Witness      - WITNESSED BY                
MUD .         GEL                  : Mud_type     - MUD TYPE                    
MATR.         LIMESTONE            : Logunit      - NEUTRON MATRIX              
TMAX.C        18.3                 : BHT          - MAXIMUM RECORDED TEMPERATURE
BHTD.M        390                  : BHTDEP       - MAXIMUM RECORDED TEMPERATURE
MATR.         1                    : LOGUNIT      - NEUTRON MATRIX              
RMT .C        25                   : MDTP         - TEMPERATURE OF MUD          
NEUT.         1                    : NEUTRON      - NEUTRON TYPE                
RESI.         0                    : RESIST       - RESISTIVITY TYPE            
RMC .OHMM     0.25                 : RMC          - RESISTIVITY OF MUD CAKE     
RMF .OHMM     0.25                 : RMF          - RESISTIVITY OF MUD FILTRATE 
SUFT.C        15                   : SUFT         - SURFACE TEMPERATURE         
~A  DEPTH     PHID     PHIN       GR     RESD
# ...
  304.399    0.338    0.418   86.102   14.488
  304.699    0.329    0.406   89.108   11.548
  304.999    0.331    0.408   90.911    9.741
  305.299    0.378    0.512   74.446    8.372
  305.599    0.608    0.545   73.812    8.061
  305.899    0.467    0.488   84.131    7.613
  306.199    0.501    0.498   82.276    7.611
  306.499    0.564    0.551   73.715    7.753
  306.798    0.614    0.559   78.565    7.464
  307.098    0.483    0.454   88.879    7.051
  307.398    0.327    0.410   89.454    7.183
  307.698    0.318    0.399   87.608    7.743
  307.998    0.426    0.416   78.441    8.347
  308.298    0.583    0.613   76.586    8.503
  308.598    0.613    0.476   85.693    8.033
  308.898    0.443    0.435   93.577    7.732
  309.198    0.360    0.412   90.506    8.027
  309.498    0.372    0.410   81.957    8.333
  309.798    0.349    0.447   80.708    8.815
  310.098    0.364    0.462   84.937    9.152
  310.398    0.353    0.458   78.824    8.977
  310.698    0.318    0.407   72.102    8.974
  310.998    0.283    0.298   69.631    9.674
  311.298    0.361    0.357   74.476   10.430
  311.598    0.388    0.394   89.668   10.827
  311.898    0.378    0.452   95.727    9.848
  312.198    0.371    0.428   89.609    8.465
  312.498    0.360    0.473   78.014    8.149
  312.798    0.320    0.308   73.111    8.460
  313.098    0.311    0.333   76.124    9.834
  313.398    0.354    0.387   81.573   10.405
  313.698    0.355    0.427   83.986   11.216
  313.998    0.323    0.433   84.560   10.203
  314.298    0.320    0.443   88.794    8.936
  314.598    0.380    0.442   86.937    8.442
  314.898    0.364    0.388   82.654    7.678
  315.198    0.331    0.386   75.927    7.254
  315.498    0.323    0.416   65.548    6.853
  315.798    0.425    0.463   55.770    7.249
  316.098    0.578    0.595   54.533    7.112
  316.398    0.614    0.576   59.370    6.230
  316.698    0.500    0.542   72.736    4.965
  316.998    0.416    0.544   73.926    5.455
  317.298    0.498    0.603   79.376    5.056
  317.598    0.521    0.602   87.868    4.107
  317.898    0.460    0.526   92.103    3.598
  318.198    0.450    0.479   90.858    3.665
  318.498    0.599    0.487   87.783    4.103
  318.798    0.607    0.538   84.704    5.144
  319.098    0.449    0.415   81.029    6.955
  319.398    0.356    0.403   68.216    9.055
  319.698    0.408    0.516   57.230    9.761
  319.998    0.542    0.601   53.547    9.221
  320.298    0.634    0.617   57.169    7.632
  320.598    0.720    0.544   65.057    6.813
  320.898    0.757    0.503   72.936    6.940
  321.198    0.656    0.505   76.563    7.342
  321.498    0.640    0.512   73.489    7.767
  321.798    0.651    0.552   67.984    7.619
  322.098    0.626    0.537   73.435    7.197
  322.398    0.622    0.521   67.317    7.061
  322.698    0.597    0.529   56.940    7.904
  322.998    0.679    0.602   59.952    8.521
  323.298    0.704    0.609   71.491    8.359
  323.598    0.676    0.528   81.812    7.322
  323.898    0.643    0.512   80.566    7.319
  324.198    0.657    0.520   69.578    8.041
  324.498    0.684    0.568   62.242    9.002
  324.798    0.662    0.598   58.561    9.171
  325.098    0.611    0.635   71.310    8.663
  325.398    0.592    0.612   76.160    7.733
  325.698    0.569    0.560   79.174    6.903
  325.998    0.556    0.545   84.008    6.398
  326.298    0.545    0.556   83.375    5.712
  326.598    0.528    0.596   77.870    4.909
  326.898    0.607    0.610   67.491    3.988
  327.198    0.644    0.643   70.508    3.061
  327.498    0.539    0.634   73.515    2.440
  327.798    0.536    0.644   69.839    2.581
  328.098    0.626    0.677   53.980    2.945
  328.398    0.679    0.699   50.903    3.691
  328.698    0.709    0.709   52.098    4.133
  328.998    0.728    0.677   59.982    4.896
  329.298    0.651    0.578   68.472    5.910
  329.598    0.563    0.532   72.708    6.872
  329.898    0.461    0.490   64.765    8.296
  330.198    0.568    0.525   50.733    9.114
  330.498    0.623    0.598   49.481    8.136
  330.798    0.658    0.633   51.889    4.795
  331.098    0.706    0.655   59.172    3.895
  331.397    0.753    0.629   67.055    3.610
  331.697    0.483    0.640   63.376    3.892
  331.997    0.465    0.600   62.128    4.040
  332.297    0.525    0.577   69.405    4.523
  332.597    0.541    0.547   81.551    4.785
  332.897    0.415    0.507   93.090    4.435
  333.197    0.408    0.497   89.396    4.035
  333.497    0.401    0.513   86.930    3.601
  333.797    0.393    0.584   86.906    3.533
  334.097    0.384    0.521   88.097    3.532
  334.397    0.341    0.492   89.285    3.807
  334.697    0.384    0.542   86.826    3.879
  334.997    0.430    0.511   86.796    3.877
  335.297    0.429    0.534   92.248    3.804
  335.597    0.408    0.561   94.654    3.874
  335.897    0.391    0.548   80.016    4.099
  336.197    0.385    0.593   62.331    4.336
  336.497    0.498    0.642   48.302    4.587
  336.797    0.546    0.681   52.534    4.945
  337.097    0.527    0.707   67.724    5.536
  337.397    0.455    0.746   70.735    6.436
  337.697    0.439    0.560   66.448    7.770
  337.997    0.426    0.576   62.766    9.380
  338.297    0.410    0.542   63.346   10.112
  338.597    0.386    0.529   73.665    9.552
  338.897    0.375    0.553   82.154    7.614
  339.197    0.413    0.522   81.514    5.523
  339.497    0.407    0.486   74.796    5.521
  339.797    0.405    0.498   58.940    6.665
  340.097    0.457    0.566   56.476    8.046
  340.397    0.464    0.571   58.882    9.355
  340.697    0.420    0.556   51.544   10.276
  340.997    0.393    0.482   41.170   10.872
  341.297    0.396    0.420   39.314   13.124
  341.597    0.402    0.386   57.547   16.146
  341.897    0.375    0.405   82.480   22.246
  342.197    0.377    0.432   92.800   20.237
  342.497    0.385    0.442  101.293   18.757
  342.797    0.405    0.467  100.045   19.845
  343.097    0.409    0.482   71.400   25.353
  343.397    0.405    0.464   78.070   33.633
  343.697    0.403    0.407   79.871   34.916
  343.997    0.405    0.379   78.010   34.253
  344.297    0.405    0.354   89.554   27.821
  344.597    0.394    0.346   98.049   23.028
  344.897    0.389    0.343   93.751   21.752
  345.197    0.377    0.328   87.025   21.747
  345.497    0.366    0.337   80.913   23.007
  345.797    0.359    0.336   71.752   25.754
  346.097    0.360    0.314   57.715   29.381
  346.397    0.376    0.305   62.565   32.892
  346.697    0.392    0.325   64.354   38.968
  346.997    0.397    0.369   64.327   42.809
  347.297    0.396    0.375   71.608   44.443
  347.597    0.381    0.327   89.236   39.671
  347.897    0.379    0.335   92.853   29.322
  348.197    0.386    0.377   85.521   26.176
  348.497    0.390    0.368   72.102   25.677
  348.797    0.394    0.338   63.547   28.745
  349.097    0.387    0.320   59.869   32.793
  349.397    0.378    0.312   68.970   34.687
  349.697    0.373    0.312   89.638   30.967
  349.997    0.401    0.414   86.567   23.325
  350.297    0.417    0.389   54.880   21.216
  350.597    0.427    0.309   57.285   22.026
  350.897    0.433    0.298   59.688   25.605
  351.197    0.446    0.331   58.443   29.213
  351.497    0.440    0.396   60.237   35.937
  351.797    0.435    0.407   62.031   42.572
  352.097    0.440    0.412   64.445   46.770
  352.397    0.428    0.390   68.067   46.754
  352.697    0.412    0.376   77.166   44.167
  352.997    0.409    0.369   82.006   34.549
  353.297    0.446    0.373   83.206   31.426
  353.597    0.468    0.435   81.958   28.054
  353.897    0.476    0.451   77.664   22.786
  354.197    0.467    0.456   76.421   19.586
  354.497    0.462    0.456   76.996   18.158
  354.797    0.457    0.456   76.351   16.831
  355.097    0.480    0.462   75.719   16.201
  355.397    0.492    0.461   76.305   16.506
  355.697    0.483    0.461   75.664   17.458
  355.996    0.477    0.460   73.807   17.787
  356.296    0.469    0.447   71.948   17.780
