~VERSION INFORMATION
 VERS.                 2.0:   CWLS LOG ASCII STANDARD -VERSION 2.0
 WRAP.                  NO:   ONE LINE PER DEPTH STEP
~WELL INFORMATION BLOCK
#MNEM.UNIT           DATA                    DESCRIPTION OF MNEMONIC
#---------    -------------------            -------------------------------
# Generated from Intellog Unique Number	CN_94_101/WELL/5024
WELL.         TEXACO                         : Well_name    - WELL
LOC .         AA/11-29-100-12W4/0            : Location     - LOCATION
UWI .         AA/11-29-100-12W400            : Uwi          - UNIQUE WELL ID
ENTR.         TIM                            : Entered      - ENTERED BY
SRVC.         SCHLUMBERGER                   : Scn          - SERVICE COMPANY
DATE.         08/13/92                       : Date         - LOG DATE
STRT.M        325                            : top_depth    - START DEPTH
STOP.M        575                            : bot_depth    - STOP DEPTH
STEP.M        0.25                           : increment    - STEP LENGTH
 NULL. -999.2500:NULL Value
~CURVE INFORMATION BLOCK
#MNEM UNIT       ERCB CURVE CODE    CURVE DESCRIPTION
#-----------   ------------------   ----------------------------------
DEPT.M        00 001 00 00         : DEPTH        - DEPTH
GR  .API      00 310 00 00         : GR           - GAMMA RAY
ILD .OHMM     00 120 00 00         : RESD         - DEEP RESISTIVITY (DIL)
NPHI.V/V      00 330 00 00         : PHIN         - NEUTRON POROSITY (SANDSTONE)
DPHI.V/V      00 890 00 00         : PHID         - DENSITY POROSITY (SANDSTONE)
~PARAMETER INFORMATION
#MNEM.UNIT           DATA             DESCRIPTION OF MNEMONIC
#---------         -----------     ------------------------------
GL  .M        776.4                : gl           - GROUND LEVEL ELEVATION
EREF.M        779.8                : kb           - ELEVATION OF DEPTH REFERENCE
DATM.M        779.8                : datum        - DATUM ELEVATION
TDD .M        634                  : tdd          - TOTAL DEPTH DRILLER
RUN .         ONE                  : Run          - RUN NUMBER
ENG .         BILL                 : Engineer     - RECORDING ENGINEER
WIT .         JIM                  : Witness      - WITNESSED BY
MUD .         GEL                  : Mud_type     - MUD TYPE
MATR.         SANDSTONE            : Logunit      - NEUTRON MATRIX
TMAX.C        28                   : BHT          - MAXIMUM RECORDED TEMPERATURE
BHTD.M        57634                : BHTDEP       - MAXIMUM RECORDED TEMPERATURE
RMT .C        25                   : MDTP         - TEMPERATURE OF MUD
MUDD.KG/M     1090                 : MWT          - MUD DENSITY
NEUT.         1                    : NEUTRON      - NEUTRON TYPE
RESI.         0                    : RESIST       - RESISTIVITY TYPE
RM  .OHMM     4.6                  : RM           - RESISTIVITY OF MUD
RMC .OHMM     4.6                  : RMC          - RESISTIVITY OF MUD CAKE
RMF .OHMM     4.6                  : RMF          - RESISTIVITY OF MUD FILTRATE
SUFT.C        4                    : SUFT         - SURFACE TEMPERATURE
~A  DEPTH       GR     RESD     PHIN     PHID
# ...
  412.000  125.593    6.299    0.431    0.301
  412.250  126.167    6.051    0.434    0.306
  412.500  124.190    5.587    0.435    0.311
  412.750  122.238    5.259    0.439    0.319
  413.000  120.286    5.052    0.444    0.318
  413.250  115.132    5.044    0.452    0.308
  413.500  110.603    5.233    0.451    0.304
  413.750  111.203    5.229    0.451    0.304
  414.000  116.255    5.220    0.459    0.301
  414.250  121.933    5.314    0.471    0.298
  414.500  125.072    5.306    0.467    0.297
  414.750  126.296    5.505    0.457    0.292
  415.000  123.681    5.714    0.451    0.289
  415.250  120.454    6.045    0.449    0.289
  415.500  112.736    6.280    0.450    0.294
  415.750  107.582    6.905    0.451    0.296
  416.000  103.691    7.311    0.451    0.299
  416.250  101.752    7.894    0.449    0.296
  416.500   99.775    8.850    0.442    0.268
  416.750   99.099    9.193    0.429    0.259
  417.000   95.195    9.730    0.412    0.230
  417.250   92.605    8.979    0.385    0.188
  417.500   90.641    7.980    0.352    0.162
  417.750  111.653    6.558    0.379    0.192
  418.000  121.170    5.389    0.410    0.223
  418.250  128.136    4.603    0.437    0.271
  418.500  131.900    4.087    0.470    0.285
  418.750  131.837    3.926    0.483    0.292
  419.000  131.811    3.768    0.488    0.299
  419.250  130.472    3.764    0.491    0.300
  419.500  129.796    3.755    0.491    0.303
  419.750  129.094    3.750    0.490    0.311
  420.000  128.418    3.819    0.485    0.309
  420.250  128.993    3.886    0.483    0.307
  420.500  131.506    4.034    0.489    0.305
  420.750  133.369    4.185    0.492    0.297
  421.000  133.943    4.264    0.495    0.288
  421.250  131.966    4.341    0.497    0.281
  421.500  131.290    4.166    0.498    0.271
  421.750  129.300    4.001    0.502    0.246
  422.000  128.624    3.917    0.508    0.220
  422.250  129.849    3.760    0.519    0.219
  422.500  133.000    3.680    0.528    0.229
  422.750  141.242    3.675    0.533    0.252
  423.000  141.816    3.671    0.533    0.257
  423.250  141.778    3.665    0.530    0.268
  423.500  139.151    3.731    0.501    0.290
  423.750  137.849    4.023    0.494    0.289
  424.000  133.971    4.178    0.486    0.285
  424.250  130.731    4.338    0.482    0.286
  424.500  124.926    4.680    0.478    0.293
  424.750  121.673    4.766    0.479    0.303
  425.000  122.248    4.945    0.484    0.304
  425.250  122.222    4.939    0.487    0.300
  425.500  122.159    4.931    0.482    0.295
  425.750  122.121    4.919    0.482    0.290
  426.000  122.070    4.912    0.490    0.284
  426.250  122.019    4.904    0.502    0.283
  426.500  121.955    4.896    0.492    0.281
  426.750  121.917    4.984    0.465    0.283
  427.000  121.866    5.072    0.455    0.298
  427.250  121.178    5.064    0.463    0.310
  427.500  121.752    5.058    0.474    0.323
  427.750  121.701    5.047    0.480    0.329
  428.000  121.625    5.041    0.488    0.319
  428.250  120.324    5.031    0.487    0.303
  428.500  118.972    5.025    0.484    0.287
  428.750  117.671    4.916    0.483    0.288
  429.000  116.331    4.817    0.483    0.295
  429.250  115.655    4.714    0.485    0.303
  429.500  120.695    4.616    0.487    0.307
  429.750  122.558    4.518    0.491    0.314
  430.000  124.420    4.425    0.492    0.322
  430.250  124.382    4.248    0.496    0.327
  430.500  124.944    4.161    0.500    0.324
  430.750  124.919    3.992    0.504    0.320
  431.000  122.291    3.985    0.498    0.310
  431.250  121.627    3.977    0.488    0.314
  431.500  118.362    3.974    0.483    0.320
  431.750  117.048    4.047    0.484    0.327
  432.000  115.683    4.120    0.484    0.329
  432.250  115.032    4.194    0.486    0.327
  432.500  114.982    4.353    0.489    0.322
  432.750  114.931    4.428    0.493    0.316
  433.000  115.518    4.419    0.502    0.317
  433.250  116.092    4.413    0.509    0.318
  433.500  117.942    4.408    0.510    0.319
  433.750  119.193    4.401    0.481    0.317
  434.000  122.331    4.394    0.477    0.313
  434.250  126.108    4.058    0.480    0.308
  434.500  126.695    3.746    0.490    0.299
  434.750  127.920    3.597    0.510    0.292
  435.000  125.292    3.524    0.519    0.282
  435.250  123.978    3.447    0.515    0.278
  435.500  122.651    3.374    0.505    0.271
  435.750  121.325    3.370    0.488    0.267
  436.000  127.028    3.364    0.489    0.267
  436.250  128.865    3.425    0.496    0.270
  436.500  130.103    3.488    0.506    0.269
  436.750  131.328    3.691    0.514    0.266
  437.000  132.553    3.905    0.516    0.259
  437.250  133.152    4.052    0.512    0.249
  437.500  133.089    4.128    0.494    0.232
  437.750  131.762    4.120    0.469    0.210
  438.000  129.772    4.111    0.454    0.201
  438.250  129.096    4.027    0.458    0.232
  438.500  129.671    4.100    0.464    0.235
  438.750  130.283    4.257    0.469    0.266
  439.000  131.508    4.594    0.469    0.270
  439.250  132.720    5.056    0.463    0.265
  439.500  133.295    5.563    0.440    0.259
  439.750  133.907    6.240    0.432    0.257
  440.000  134.494    6.866    0.411    0.259
  440.250  134.443    7.130    0.403    0.261
  440.500  134.367    7.255    0.390    0.263
  440.750  133.704    7.243    0.389    0.266
  441.000  131.727    7.232    0.394    0.269
  441.250  129.111    7.223    0.398    0.270
  441.500  127.798    7.208    0.401    0.264
  441.750  126.458    7.060    0.401    0.258
  442.000  125.770    6.907    0.406    0.262
  442.250  125.081    6.899    0.410    0.279
  442.500  124.379    6.885    0.433    0.289
  442.750  124.354    7.008    0.438    0.294
  443.000  123.653    7.134    0.447    0.294
  443.250  123.589    7.126    0.443    0.290
  443.500  123.551    7.396    0.424    0.284
  443.750  122.849    7.674    0.420    0.271
  444.000  122.811    7.665    0.419    0.256
  444.250  122.110    7.357    0.415    0.250
  444.500  121.421    7.206    0.412    0.250
  444.750  121.421    7.056    0.414    0.250
  445.000  119.380    7.177    0.425    0.252
  445.250  121.269    7.309    0.432    0.254
  445.500  121.868    7.441    0.431    0.257
  445.750  122.443    7.568    0.424    0.258
  446.000  123.030    7.559    0.420    0.253
  446.250  124.242    7.255    0.411    0.248
  446.500  125.492    7.110    0.406    0.245
  446.750  127.993    6.821    0.412    0.275
  447.000  131.132    6.682    0.435    0.280
  447.250  132.982    6.545    0.442    0.276
  447.500  133.556    6.282    0.450    0.271
  447.750  132.893    6.154    0.441    0.261
  448.000  131.566    6.025    0.419    0.259
  448.250  130.240    6.251    0.414    0.264
  448.500  130.176    6.486    0.406    0.288
  448.750  130.113    6.478    0.406    0.294
  449.000  129.437    6.218    0.428    0.303
  449.250  128.735    5.973    0.452    0.312
  449.500  128.046    5.517    0.460    0.318
  449.750  131.198    5.295    0.472    0.322
  450.000  134.961    5.187    0.466    0.314
  450.250  134.923    5.179    0.451    0.303
  450.500  132.296    5.373    0.430    0.286
  450.750  131.632    5.799    0.403    0.274
  451.000  128.367    6.509    0.394    0.264
  451.250  127.053    6.751    0.397    0.261
  451.500  125.726    6.485    0.402    0.271
  451.750  124.387    5.758    0.410    0.280
  452.000  124.361    5.318    0.407    0.283
  452.250  123.660    5.008    0.435    0.284
  452.500  123.609    4.626    0.465    0.288
  452.750  124.196    4.358    0.472    0.290
  453.000  125.396    3.868    0.480    0.295
  453.250  125.370    3.717    0.485    0.298
  453.500  124.018    3.300    0.493    0.302
  453.750  123.342    3.049    0.505    0.308
  454.000  122.016    2.816    0.513    0.316
  454.250  122.603    2.652    0.509    0.314
  454.500  124.465    2.698    0.485    0.308
  454.750  126.966    2.695    0.475    0.308
  455.000  130.105    2.691    0.469    0.314
  455.250  132.605    2.633    0.500    0.335
