~VERSION INFORMATION
 VERS.                 2.0:   CWLS LOG ASCII STANDARD -VERSION 2.0
 WRAP.                  NO:   ONE LINE PER DEPTH STEP
~WELL INFORMATION BLOCK
#MNEM.UNIT           DATA                    DESCRIPTION OF MNEMONIC
#---------    -------------------            -------------------------------
# Generated from Intellog Unique Number	CN_94_101/WELL/5056
WELL.         16-07-097-11W4                 : Well_name    - WELL
LOC .         AA/16-07-097-11W4/0            : Location     - LOCATION
UWI .         AA/16-07-097-11W400            : Uwi          - UNIQUE WELL ID
ENTR.         JOETTE                         : Entered      - ENTERED BY
SRVC.         SCHLUMBERGER                   : Scn          - SERVICE COMPANY
DATE.         08/13/92                       : Date         - LOG DATE
STRT.M        0                              : top_depth    - START DEPTH
STOP.M        70                             : bot_depth    - STOP DEPTH
STEP.M        0.25                           : increment    - STEP LENGTH
 NULL. -999.2500:NULL Value
~CURVE INFORMATION BLOCK
#MNEM UNIT       ERCB CURVE CODE    CURVE DESCRIPTION
#-----------   ------------------   ----------------------------------
DEPT.M        00 001 00 00         : DEPTH        - DEPTH
GR  .API      00 310 00 00         : GR           - GAMMA RAY
ILD .OHMM     00 120 00 00         : RESD         - DEEP RESISTIVITY (DIL)
NPHI.V/V      00 330 00 00         : PHIN         - NEUTRON POROSITY (SANDSTONE)
~PARAMETER INFORMATION
#MNEM.UNIT           DATA             DESCRIPTION OF MNEMONIC
#---------         -----------     ------------------------------
GL  .M        298.55               : gl           - GROUND LEVEL ELEVATION
EREF.M        298.55               : kb           - ELEVATION OF DEPTH REFERENCE
DATM.M        298.55               : datum        - DATUM ELEVATION
TDD .M        73.3                 : tdd          - TOTAL DEPTH DRILLER
RUN .         ONE                  : Run          - RUN NUMBER
ENG .         BILL                 : Engineer     - RECORDING ENGINEER
WIT .         JIM                  : Witness      - WITNESSED BY
MUD .         GEL                  : Mud_type     - MUD TYPE
MATR.         SANDSTONE            : Logunit      - NEUTRON MATRIX
TMAX.C        15                   : BHT          - MAXIMUM RECORDED TEMPERATURE
BHTD.M        73.3                 : BHTDEP       - MAXIMUM RECORDED TEMPERATURE
RMT .C        10                   : MDTP         - TEMPERATURE OF MUD
MUDD.KG/M     1090                 : MWT          - MUD DENSITY
NEUT.         1                    : NEUTRON      - NEUTRON TYPE
RESI.         0                    : RESIST       - RESISTIVITY TYPE
RM  .OHMM     13.1                 : RM           - RESISTIVITY OF MUD
RMC .OHMM     13.1                 : RMC          - RESISTIVITY OF MUD CAKE
RMF .OHMM     13.1                 : RMF          - RESISTIVITY OF MUD FILTRATE
SUFT.C        4                    : SUFT         - SURFACE TEMPERATURE
~A  DEPTH       GR     RESD     PHIN
    0.000   63.772   58.069    0.217
    0.250   63.162   58.081    0.222
    0.500   63.171   57.277    0.226
    0.750   63.178   57.289    0.229
    1.000   64.428   57.301    0.230
    1.250   66.912   56.517    0.224
    1.500   71.874   56.526    0.211
    1.750   73.741   56.540    0.191
    2.000   74.369   56.549    0.223
    2.250   66.952   55.767    0.170
    2.500   62.008   54.998    0.184
    2.750   58.301   55.009    0.180
    3.000   65.739   57.400    0.228
    3.250   67.606   60.744    0.262
    3.500   67.618   62.493    0.230
    3.750   68.244   63.390    0.205
    4.000   66.396   63.407    0.198
    4.250   62.072   63.420    0.199
    4.500   64.560   61.670    0.190
    4.750   67.663   59.969    0.178
    5.000   67.053   57.501    0.169
    5.250   69.543   56.706    0.216
    5.500   73.884   55.141    0.276
    5.750   80.085   54.383    0.306
    6.000   79.475   55.164    0.283
    6.250   72.055   57.561    0.272
    6.500   67.731   57.567    0.315
    6.750   71.455   59.225    0.328
    7.000   75.798   59.240    0.366
    7.250   66.521   58.424    0.292
    7.500   64.673   57.615    0.290
    7.750   69.635   53.706    0.323
    8.000   84.503   47.319    0.404
    8.250   90.084   31.011    0.434
    8.500  108.047   23.399    0.467
    8.750  104.342   18.680    0.469
    9.000   99.399   17.413    0.464
    9.250   96.932   17.416    0.445
    9.500  104.992   19.775    0.420
    9.750   96.951   22.773    0.390
   10.000   89.531   24.788    0.328
   10.250   79.016   25.863    0.323
   10.500   71.598   28.151    0.329
   10.750   72.843   36.801    0.313
   11.000   67.900   40.059    0.316
   11.250   58.004   44.219    0.344
   11.500   43.774  125.493    0.372
   11.750   39.450  220.558    0.402
   12.000   32.030  356.207    0.429
   12.250   36.373  513.950    0.428
   12.500   35.764  700.902    0.384
   12.750   38.249  903.515    0.372
   13.000   37.020  983.387    0.354
   13.250   37.649 1148.520    0.339
   13.500   37.042 1360.490    0.342
   13.750   37.670 1380.080    0.352
   14.000   36.439 1361.050    0.348
   14.250   35.829 1286.790    0.343
   14.500   35.220 1166.090    0.344
   14.750   38.325 1027.460    0.341
   15.000   34.622 1134.160    0.332
   15.250   37.105 1306.070    0.346
   15.500   40.831 1421.680    0.340
   15.750   34.031 1483.380    0.347
   16.000   28.468 1614.520    0.351
   16.250   26.623 1732.740    0.346
   16.500   30.345 1733.100    0.345
   16.750   27.880 1733.550    0.351
   17.000   26.030 1733.920    0.354
   17.250   29.137 1734.280    0.349
   17.500   32.858 1734.550    0.340
   17.750   35.344 1686.780    0.340
   18.000   37.213 1640.160    0.350
   18.250   34.744 1486.400    0.351
   18.500   34.756 1291.280    0.354
   18.750   38.477 1075.350    0.360
   19.000   45.297  509.641    0.370
   19.250   50.878  274.197    0.371
   19.500   57.698  215.828    0.344
   19.750   60.803  218.948    0.338
   20.000   55.859  255.701    0.334
   20.250   46.582  353.662    0.360
   20.500   44.117  413.050    0.385
   20.750   42.270  430.999    0.382
   21.000   44.753  449.681    0.355
   21.250   39.191  462.632    0.358
   21.500   42.295  294.766    0.333
   21.750   60.259  149.897    0.308
   22.000   89.368   91.553    0.304
   22.250   86.282   90.291    0.372
   22.500   71.433  123.135    0.359
   22.750   63.397  170.309    0.358
   23.000   64.025  177.701    0.370
   23.250   67.747  150.085    0.366
   23.500   67.758  126.767    0.341
   23.750   72.099  119.838    0.335
   24.000   81.395  102.650    0.343
   24.250   90.691   84.288    0.368
   24.500   95.653   78.570    0.368
   24.750   80.185  119.937    0.352
   25.000   70.289  156.803    0.345
   25.250   74.632   82.014    0.346
   25.500   82.690   66.401    0.344
   25.750   89.509   68.313    0.340
   26.000   82.711   77.567    0.375
   26.250   77.765   84.429    0.383
   26.500   81.489   83.265    0.373
   26.750   76.546   74.403    0.359
   27.000   86.461   58.565    0.350
   27.250   90.185   47.418    0.343
   27.500   88.339   50.888    0.338
   27.750   88.968   50.189    0.329
   28.000   79.069   49.497    0.308
   28.250   77.221   53.118    0.348
   28.500   80.329   56.210    0.343
   28.750   76.002   56.222    0.333
   29.000   75.392   53.160    0.327
   29.250   77.259   54.691    0.318
   29.500   80.983   50.975    0.312
   29.750   85.326   40.124    0.336
   30.000   82.859   41.279    0.329
   30.250   77.916   44.931    0.321
   30.500   71.734   46.884    0.312
   30.750   74.841   42.486    0.308
   31.000   74.232   37.433    0.312
   31.250   78.575   33.451    0.318
   31.500   80.444   32.073    0.317
   31.750   81.070   31.188    0.325
   32.000   81.698   31.193    0.330
   32.250   79.231   30.334    0.317
   32.500   81.098   27.104    0.307
   32.750  102.157   22.893    0.296
   33.000  108.976   21.643    0.265
   33.250   94.127   22.266    0.235
   33.500   97.851   21.959    0.271
   33.750  100.337   21.353    0.270
   34.000  103.444   20.472    0.266
   34.250  104.690   19.355    0.269
   34.500  104.082   19.358    0.262
   34.750  102.853   19.363    0.251
   35.000  107.813   19.366    0.257
   35.250  102.870   19.371    0.269
   35.500   93.593   19.374    0.273
   35.750   99.177   20.216    0.275
   36.000   99.183   20.799    0.283
   36.250   91.145   21.396    0.296
   36.500   86.201   21.706    0.308
   36.750   83.739   21.709    0.317
   37.000   82.506   23.965    0.318
   37.250   79.419   29.198    0.314
   37.500   73.238   37.636    0.307
   37.750   64.580   41.547    0.300
   38.000   64.589   65.238    0.287
   38.250   64.599  103.887    0.243
   38.500   59.656  160.834    0.157
   38.750   71.428   31.370    0.272
   39.000   92.493   26.494    0.289
   39.250   91.260   22.378    0.286
   39.500   91.269   22.383    0.278
   39.750  101.184   22.389    0.279
   40.000  103.672   22.393    0.304
   40.250  105.537   22.398    0.306
   40.500   96.260   22.088    0.302
   40.750   96.888   21.785    0.312
   41.000  101.231   21.483    0.310
   41.250   94.431   21.489    0.303
   41.500   91.345   21.491    0.310
   41.750  100.026   21.496    0.287
   42.000   98.174   21.501    0.287
   42.250   98.804   21.505    0.287
   42.500  101.907   21.816    0.276
   42.750  106.250   21.820    0.277
   43.000  109.357   22.133    0.282
   43.250  102.554   22.772    0.292
   43.500  101.328   22.777    0.267
   43.750   93.287   22.780    0.146
   44.000   88.962   23.108    0.151
   44.250  101.354   26.239    0.176
   44.500  104.459   25.517    0.293
   44.750   97.039   24.811    0.288
   45.000   98.906   22.805    0.280
   45.250  105.725   21.561    0.285
   45.500  105.737   21.261    0.295
   45.750  103.886   20.970    0.297
   46.000  102.658   20.973    0.298
   46.250   99.572   22.508    0.290
   46.500  100.819   23.157    0.298
   46.750  102.688   22.837    0.300
   47.000  100.840   20.991    0.293
   47.250  105.803   21.294    0.339
   47.500  107.669   22.216    0.361
   47.750  102.726   24.183    0.392
   48.000   97.163   39.056    0.388
   48.250   86.031   51.058    0.388
   48.500   84.800   77.941    0.393
   48.750   82.333   82.486    0.402
   49.000   77.390   79.080    0.372
   49.250   76.783   71.670    0.343
   49.500   79.268   81.374    0.335
   49.750   81.752   65.883    0.338
   50.000   91.048   40.811    0.326
   50.250   92.917   32.579    0.314
   50.500   92.924   28.704    0.312
   50.750  102.220   26.384    0.311
   51.000  107.182   21.971    0.315
   51.250  100.381   20.194    0.326
   51.500   94.200   21.980    0.334
   51.750   88.637   22.935    0.305
   52.000   95.457   21.681    0.305
   52.250   96.085   20.497    0.315
   52.500   91.761   22.627    0.303
   52.750  103.533   21.695    0.341
   53.000   98.590   19.387    0.311
   53.250   91.170   20.805    0.311
   53.500   83.750   21.105    0.314
   53.750   85.617   22.651    0.285
   54.000   86.865   24.309    0.269
