~Version : LASO    vs 4.00
VERS.                2.00:   CWLS Log ASCII Standard -VERSION 2.0
WRAP.                  NO:
~Well Information Block
#MNEM.UNIT       Data                        Description of Mnemonic
#----.----      -------------------------- : -----------------------------
STRT.M            21.0000:
STOP.M           215.4000:
STEP.M             0.2000:
NULL.           -999.2500:
COMP.  MOBIL OIL CANADA                 :COMPANY
WELL.  MOBIL CLARKE OV PROG. 2-81       :WELL
FLD.                                    :FIELD
LOC.   13-28-089-07W4                   :LOCATION
CTRY.  CANADA                           :COUNTRY
PROV.  ALBERTA                          :PROVINCE
SRVC.  SCHLUMBERGER                     :SERVICE COMPANY
DATE.  31-JAN-81                        :LOG DATE
UWI.   AA/13-28-089-07W400              :UNIQUE WELL ID
~Parameter Information Block
#MNEM.UNIT       Data                        Description of Mnemonic
#----.----      -------------------------- : -----------------------------
RUN .                   1                 : Run Number
GL  .M           458.5000                 : Ground Level Elevation
DREF.                  GD                 : Depth Reference
EREF.M           458.5000                 : Elevation of Depth Reference
TDL .M           216.0000                 : Total Depth Logger
TDD .M           216.0000                 : Total Depth Driller
CSGL.M            22.0000                 : Casing Bottom Logger
CSGD.M            22.0000                 : Casing Bottom Driller
CSGS.MM          219.0000                 : Casing Size
CSGW.KG/M          0.0000                 : Casing Weight
BHT .DEGC         12.0000                 : Bottom Hole Temperature
BS  .MM          171.0000                 : Bit Size
DFD .           9999.0000                 : Mud Weight (Density)
DFV .             45.0000                 : Mud Viscosity
DFPH.             11.0000                 : Mud pH
RM  .OHMM          5.7400                 : Mud Resistivity
RMT .DEGC         12.0000                 : Mud Resistivity Temperature
~Curve Information Block
#MNEM.UNIT        API CODE    Curve Description
#---------    ------------    -------------------------------------------
DEPT.M                    :   DEPTH
CALI.MM       42 280  1  1:   3 DENSITY CALIPER
DPHI.V/V                  :   DPHI
DT  .US/M     60 520  0  1:   2 SONIC INTERVAL TRANSIT TIME (COMPENSATED)
GR  .GAPI     42 310  1  1:   4 GAMMA RAY
ILD .OHMM      5 120 46  1:   7 DEEP INDUCTION
ILM .OHMM      5 120 44  1:   8 MEDIUM INDUCTION
NPHI.V/V      42 890  3  1:   5 NEUTRON POROSITY (SANDSTONE)
RHOB.K/M3     42 350  1  1:   6 BULK DENSITY
SFLU.OHMM      5 220  1  1:   9 FOCUSSED RESISTIVITY
SP  .MV        5  10  1  1:   10 SPONTANEOUS POTENTIAL
~A  Depth           CALI        DPHI          DT          GR         ILD         ILM        NPHI        RHOB        SFLU          SP
# ...
94.2000         180.2000      0.2562    502.4400     90.5100      6.1920      5.8537      0.4909   2295.2000      7.4719    -83.3400
94.4000         180.9250      0.2712    496.9600     90.4050      6.3071      5.9079      0.4751   2280.0000      7.4034    -83.8500
94.6000         182.4500      0.2563    482.4400     91.3200      6.2493      6.1296      0.4645   2311.0000      5.6628    -84.8400
94.8000         182.8250      0.2459    478.6400     91.3500      5.9680      6.0734      0.4657   2324.2000      6.8144    -87.0750
95.0000         182.6250      0.2398    476.7200     91.8300      5.7521      5.7469      0.4703   2316.2000      8.5002    -89.0700
95.2000         182.2000      0.2356    473.5200     95.3250      5.4429      4.8689      0.4832   2309.3000      6.7520    -87.0750
95.4000         182.4500      0.2292    476.7200     97.0650      5.3436      4.7362      0.4834   2312.2000      3.5045    -82.0950
95.6000         183.9000      0.2308    482.6800     98.5350      5.2460      4.7362      0.4790   2321.8999      2.5860    -77.1300
95.8000         186.5750      0.2369    488.8400    100.1850      5.1031      4.7800      0.4893   2383.5000      3.3161    -75.3900
96.0000         194.0000      0.2312    507.1600     97.7250      4.9640      4.8689      0.5089   2325.0000      5.2605    -74.6400
96.2000         193.1250      0.2227    513.3600     95.9250      5.0099      4.8689      0.5100   2307.3999      5.4079    -74.8950
96.4000         189.9500      0.2202    513.1200     95.6250      5.0563      4.8689      0.5084   2294.8999      5.2605    -75.6300
96.6000         185.5250      0.2309    505.2400     97.0200      5.1979      4.7800      0.5155   2285.6001      5.8214    -77.1300
96.8000         184.3000      0.2320    502.6400     97.9350      5.1979      4.7800      0.5103   2327.3000      5.2605    -76.3800
97.0000         183.3000      0.2247    502.4400     98.7300      5.1979      4.8243      0.4988   2325.3000      4.6241    -75.1350
97.2000         183.6000      0.2168    503.2800    100.3050      5.2460      5.0053      0.5109   2312.1001      5.1645    -73.3950
97.4000         184.0250      0.2068    505.8800    101.1000      5.2460      5.0516      0.5175   2317.1001      5.4580    -73.3950
97.6000         184.9750      0.1985    506.3200    101.4300      5.2460      5.1455      0.5170   2331.7000      5.7152    -73.8900
97.8000         186.9500      0.1995    500.3200    100.8600      5.1979      5.0053      0.5163   2337.2000      6.1522    -74.6400
98.0000         187.4750      0.2074    500.5200     99.9000      5.1031      4.8243      0.5201   2319.3999      5.8214    -74.8950
98.2000         188.1250      0.2126    505.0400     99.3600      5.0099      4.6928      0.5240   2319.1001      5.4079    -74.6400
98.4000         190.3250      0.2068    510.1600    100.5000      4.7844      4.3998      0.5318   2261.8999      4.3755    -74.3850
98.6000         189.0500      0.2114    514.0000    101.7600      4.6540      4.3594      0.5339   2248.5000      4.1403    -74.3850
98.8000         187.9250      0.2114    517.8400    102.6600      4.6114      4.3195      0.5413   2242.8000      4.1403    -74.3850
99.0000         187.5250      0.2203    521.6400    102.3450      4.6540      4.2799      0.5418   2266.0000      4.2563    -74.6400
99.2000         188.0500      0.2310    525.4800     99.1950      5.0099      4.5649      0.5305   2277.3999      3.9177    -75.6300
99.4000         188.7000      0.2330    528.0400     96.7650      5.1979      4.9594      0.5278   2264.6001      3.9539    -76.6350
99.6000         188.5250      0.2288    530.4000     94.4250      5.3930      5.2897      0.5252   2250.1001      4.9777    -78.6150
99.8000         186.1500      0.2305    524.2000     90.4650      5.6472      5.5902      0.5089   2234.7000      8.0432    -81.3600
100.0000        185.8250      0.2271    515.2800     89.9550      5.7521      5.5390      0.4985   2233.0000      7.8240    -80.6100
100.2000        185.4750      0.2280    503.2800     90.3900      5.8591      5.4882      0.4929   2239.2000      6.8144    -78.6150
100.4000        184.7750      0.2463    496.5200     91.1100      5.9133      5.4379      0.4861   2282.7000      5.0703    -75.1350
100.6000        184.4000      0.2557    499.9200     90.3600      5.8591      5.5390      0.4844   2300.0000      4.8869    -74.8950
100.8000        183.9500      0.2430    501.6000     89.5200      5.8591      5.6420      0.4833   2312.7000      5.1172    -75.1350
101.0000        183.2000      0.2254    494.6000     90.1650      5.9133      5.7469      0.4837   2306.7000      6.2091    -75.8850
101.2000        183.0000      0.2150    486.2800     90.3150      6.0232      5.8537      0.4828   2309.8000      6.5680    -76.1250
101.4000        182.8250      0.2105    476.7200     90.4800      6.1352      5.9079      0.4811   2312.8999      6.6901    -76.8750
101.6000        182.2000      0.2036    466.6800     91.0350      6.2493      5.9079      0.4749   2303.3999      7.2683    -78.8700
101.8000        181.7250      0.1990    470.9600     91.9800      6.3655      5.7469      0.4757   2295.2000      7.6108    -78.8700
102.0000        180.8750      0.2059    476.7200     92.3400      6.6043      5.7469      0.4780   2283.6001      6.9411    -77.8800
102.2000        180.1750      0.2173    484.3600     92.0250      6.9156      5.9079      0.4802   2269.6001      5.5085    -75.8850
102.4000        179.1000      0.2255    489.2800     89.9550      7.5133      7.2349      0.4883   2292.3999      5.0238    -75.6300
102.6000        182.6500      0.2289    488.8400     87.2400      7.5133      7.9256      0.4908   2282.8000      6.2091    -76.8750
102.8000        188.9750      0.2226    489.2800     84.6600      7.6530      8.1476      0.4862   2273.3000      9.4065    -77.8800
103.0000        183.4250      0.2136    432.2000     80.7300      7.9402      7.4995      0.4609   2291.7000      9.4936    -80.3550
103.2000        182.1250      0.2144    399.1600     81.4200      8.0136      7.4307      0.4566   2311.3999      6.8144    -82.6050
103.4000        182.4500      0.2246    393.6000     82.7700      7.8674      7.2951      0.4667   2277.0000      6.3890    -85.3350
103.6000        182.0500      0.2202    462.4400     84.8700      6.9796      6.6593      0.4806   2248.8000      7.9695    -88.3200
103.8000        181.2000      0.2141    486.2800     85.2750      6.7271      6.4184      0.4783   2251.2000      7.4719    -88.5750
104.0000        180.3750      0.2494    490.5600     84.5100      6.6655      6.3013      0.4752   2255.8999      7.0702    -89.0700
104.2000        180.0000      0.2577    497.3600     81.4800      6.9156      6.2435      0.4750   2280.5000      8.1176    -92.2950
104.4000        179.8750      0.2581    499.9200     81.5850      7.1751      6.4184      0.4771   2268.0000      8.1928    -91.5600
104.6000        180.1500      0.2624    502.6400     82.3350      7.4444      6.8459      0.4762   2259.8999      6.9411    -88.0800
104.8000        181.7750      0.2651    507.1600     80.2800      7.3085      8.0729      0.4501   2252.8000      7.3355    -77.8800
105.0000        181.6500      0.2582    490.5600     80.3400      7.1094      7.7096      0.4373   2432.3999     14.7853    -76.1250
105.2000        181.5500      0.2566    443.8800     82.3800      6.9796      7.0377      0.4270   2503.0000     13.9904    -76.6350
105.4000        181.4250      0.2396    395.7600     84.9000      6.7271      6.4778      0.4189   2538.6001      8.5002    -77.8800
105.6000        182.0500      0.2245    392.5600     94.3650      6.0232      5.6420      0.4654   2337.8000      5.1172    -78.6150
105.8000        186.2500      0.2221    441.5600     97.3500      5.5441      5.2897      0.4870   2320.0000      4.8869    -78.1200
106.0000        191.8750      0.2252    492.2400     99.3150      5.1503      5.0053      0.5003   2306.6001      4.8869    -77.3700
106.2000        204.6500      0.2199    527.8400    100.7400      4.6971      4.4405      0.5036   2341.3999      4.8869    -76.6350
