~VERSION INFORMATION
 VERS.                 2.0:   CWLS LOG ASCII STANDARD -VERSION 2.0
 WRAP.                  NO:   ONE LINE PER DEPTH STEP
~WELL INFORMATION BLOCK
#MNEM.UNIT           DATA                    DESCRIPTION OF MNEMONIC
#---------    -------------------            -------------------------------
# Generated from Intellog Unique Number	CN_91_93/WELL/3686
WELL.         10-14-093-08W4                 : Well_name    - WELL
LOC .         AA/10-14-093-08W4/0            : Location     - LOCATION
UWI .         AA/10-14-093-08W400            : Uwi          - UNIQUE WELL ID
ENTR.         JOETTE                         : Entered      - ENTERED BY
SRVC.         SCHLUMBERGER                   : Scn          - SERVICE COMPANY
DATE.         03/22/92                       : Date         - LOG DATE
STRT.M        50                             : top_depth    - START DEPTH
STOP.M        219                            : bot_depth    - STOP DEPTH
STEP.M        0.25                           : increment    - STEP LENGTH
 NULL. -999.2500:NULL Value
~CURVE INFORMATION BLOCK
#MNEM UNIT       ERCB CURVE CODE    CURVE DESCRIPTION
#-----------   ------------------   ----------------------------------
DEPT.M        00 001 00 00         : DEPTH        - DEPTH
CALI.MM       00 280 01 00         : CAL          - CALIPER
GR  .API      00 310 00 00         : GR           - GAMMA RAY
NPHI.V/V      00 330 00 00         : PHIN         - NEUTRON POROSITY (SANDSTONE)
DPHI.V/V      00 890 00 00         : PHID         - DENSITY POROSITY (SANDSTONE)
ILD .OHMM     00 120 00 00         : RESD         - DEEP RESISTIVITY (DIL)
~PARAMETER INFORMATION
#MNEM.UNIT           DATA             DESCRIPTION OF MNEMONIC
#---------         -----------     ------------------------------
GL  .M        466.5                : gl           - GROUND LEVEL ELEVATION
EREF.M        466.5                : kb           - ELEVATION OF DEPTH REFERENCE
DATM.M        466.5                : datum        - DATUM ELEVATION
TDD .M        219.4                : tdd          - TOTAL DEPTH DRILLER
RUN .         ONE                  : Run          - RUN NUMBER
ENG .         BILL                 : Engineer     - RECORDING ENGINEER
WIT .         JIM                  : Witness      - WITNESSED BY
MUD .         GEL                  : Mud_type     - MUD TYPE
MATR.         SANDSTONE            : Logunit      - NEUTRON MATRIX
TMAX.C        16                   : BHT          - MAXIMUM RECORDED TEMPERATURE
BHTD.M        219.4                : BHTDEP       - MAXIMUM RECORDED TEMPERATURE
RMT .C        14                   : MDTP         - TEMPERATURE OF MUD
MUDD.KG/M     9666.66              : MWT          - MUD DENSITY
NEUT.         1                    : NEUTRON      - NEUTRON TYPE
RESI.         0                    : RESIST       - RESISTIVITY TYPE
RM  .OHMM     4.5                  : RM           - RESISTIVITY OF MUD
RMC .OHMM     4.5                  : RMC          - RESISTIVITY OF MUD CAKE
RMF .OHMM     4.5                  : RMF          - RESISTIVITY OF MUD FILTRATE
SUFT.C        4                    : SUFT         - SURFACE TEMPERATURE
~A  DEPTH      CAL       GR     PHIN     PHID     RESD
# ...
  123.000  208.972  152.095    0.475    0.262   75.121
  123.250  210.035  152.732    0.451    0.233   75.163
  123.500  210.112  145.685    0.446    0.211   76.294
  123.750  211.155  142.184    0.455    0.221   76.337
  124.000  212.257  146.369    0.469    0.253   77.475
  124.250  212.315  145.824    0.488    0.245   78.640
  124.500  212.392  148.235    0.501    0.239   78.684
  124.750  213.455  142.961    0.514    0.239   76.497
  125.000  213.532  146.555    0.491    0.316   72.263
  125.250  213.629  151.342    0.484    0.276   68.264
  125.500  213.706  148.421    0.544    0.244   65.419
  125.750  213.784  143.147    0.490    0.234   72.385
  126.000  213.842  141.420    0.480    0.221   76.722
  126.250  212.973  142.058    0.513    0.272   74.590
  126.500  213.011  147.424    0.503    0.285   73.556
  126.750  213.108  147.471    0.492    0.243   75.765
  127.000  213.166  151.655    0.495    0.247   76.883
  127.250  213.243  151.702    0.492    0.285   78.051
  127.500  211.389  147.019    0.484    0.275   73.731
  127.750  209.477  145.895    0.484    0.263   69.641
  128.000  207.584  145.350    0.480    0.249   65.787
  128.250  204.686  143.032    0.473    0.240   63.054
  128.500  198.891  144.249    0.469    0.227   63.098
  128.750  196.959  147.251    0.469    0.218   64.975
  129.000  197.075  154.403    0.466    0.224   66.916
  129.250  198.099  155.040    0.448    0.229   68.897
  129.500  200.147  156.860    0.449    0.220   69.924
  129.750  199.239  155.133    0.438    0.211   73.066
  130.000  200.301  149.268    0.444    0.214   74.155
  130.250  208.261  138.663    0.429    0.227   76.371
  130.500  207.353  139.300    0.439    0.226   76.393
  130.750  197.578  140.540    0.458    0.231   77.542
  131.000  188.788  150.045    0.466    0.252   77.597
  131.250  184.944  150.683    0.474    0.279   76.521
  131.500  184.036  157.232    0.442    0.254   74.405
  131.750  185.079  148.411    0.452    0.248   72.337
  132.000  189.117  137.226    0.449    0.223   71.344
  132.250  193.135  130.758    0.470    0.240   69.352
  132.500  196.168  129.622    0.497    0.327   67.424
  132.750  199.202  130.862    0.535    0.464   64.623
  133.000  205.190  133.273    0.560    0.397   61.931
  133.250  204.283  133.331    0.528    0.365   60.201
  133.500  194.546  137.504    0.539    0.345   58.528
  133.750  192.634  136.971    0.541    0.400   56.096
  134.000  192.692  134.641    0.534    0.425   56.136
  134.250  195.744  134.097    0.524    0.434   56.972
  134.500  199.763  132.961    0.525    0.440   58.675
  134.750  198.855  135.372    0.521    0.386   60.420
  135.000  193.987  144.877    0.494    0.348   61.338
  135.250  191.108  136.647    0.442    0.373   63.153
  135.500  191.186  136.693    0.432    0.218   63.188
  135.750  191.263  137.343    0.457    0.248   64.130
  136.000  194.296  140.333    0.476    0.308   64.175
  136.250  196.344  136.833    0.497    0.421   65.132
  136.500  188.559  136.288    0.469    0.153   65.168
  136.750  194.528  128.661    0.456    0.116   66.158
  137.000  191.669  128.105    0.426    0.093   69.112
  137.250  189.776  144.727    0.436    0.213   73.243
  137.500  196.750  147.717    0.449    0.231   79.885
  137.750  191.882  144.808    0.467    0.254   78.789
  138.000  191.960  147.810    0.499    0.279   72.309
  138.250  200.943  152.597    0.503    0.317   60.887
  138.500  198.064  150.279    0.517    0.306   55.895
  138.750  203.049  145.585    0.505    0.320   55.120
  139.000  208.052  143.267    0.531    0.361   54.371
  139.250  203.223  140.369    0.529    0.347   54.394
  139.500  199.359  141.018    0.500    0.338   54.440
  139.750  193.525  140.462    0.492    0.340   55.244
  140.000  194.607  141.099    0.498    0.333   55.275
  140.250  195.650  139.964    0.508    0.325   55.306
  140.500  196.713  142.363    0.517    0.334   56.145
  140.750  197.776  141.830    0.515    0.332   56.177
  141.000  197.834  141.865    0.516    0.336   56.200
  141.250  197.911  146.049    0.526    0.345   56.248
  141.500  195.033  143.140    0.511    0.349   56.271
  141.750  191.169  141.413    0.469    0.305   57.110
  142.000  197.177  147.382    0.464    0.229   57.158
  142.250  195.284  145.655    0.474    0.219   57.190
  142.500  191.401  143.337    0.489    0.234   57.222
  142.750  185.567  143.384    0.489    0.256   58.075
  143.000  181.743  143.430    0.474    0.213   58.957
  143.250  180.796  135.792    0.442    0.194   61.589
  143.500  181.859  132.882    0.438    0.149   63.412
  143.750  181.936  144.752    0.456    0.142   69.162
  144.000  188.910  153.086    0.478    0.184   73.307
  144.250  192.948  149.574    0.487    0.324   69.249
  144.500  188.080  143.117    0.473    0.314   66.355
  144.750  179.309  134.888    0.423    0.324   63.590
  145.000  176.431  124.873    0.426    0.254   63.625
  145.250  175.523  117.826    0.441    0.248   68.414
  145.500  175.600  122.613    0.428    0.244   68.443
  145.750  175.658  121.477    0.411    0.245   66.540
  146.000  176.721  124.479    0.418    0.255   66.578
  146.250  176.818  118.012    0.415    0.260   70.557
  146.500  176.818  115.694    0.376    0.255   78.070
  146.750  179.001  128.757    0.386    0.280   88.914
  147.000  181.010  121.710    0.380    0.296   99.819
  147.250  181.068  115.242    0.381    0.318  108.871
  147.500  180.199  114.106    0.388    0.274  115.362
  147.750  180.257  112.970    0.397    0.292  124.045
  148.000  180.315  110.652    0.392    0.294  127.717
  148.250  180.412  109.516    0.358    0.263  133.438
  148.500  180.470  124.944    0.374    0.249  135.484
  148.750  180.586  123.217    0.369    0.264  135.540
  149.000  180.625  123.263    0.360    0.279  131.755
  149.250  180.722  107.349    0.373    0.263  129.947
  149.500  180.780   95.561    0.364    0.286  124.515
  149.750  180.857   86.149    0.334    0.306  119.343
  150.000  180.954   87.969    0.366    0.323  117.722
  150.250  181.031  111.081    0.411    0.290  116.075
  150.500  181.128  135.967    0.460    0.275  109.650
  150.750  181.186  116.495    0.424    0.282  100.674
  151.000  182.248   97.624    0.376    0.293   97.849
  151.250  182.326   94.704    0.379    0.287   99.335
  151.500  182.403  118.407    0.390    0.282  106.796
  151.750  181.495  107.222    0.385    0.300  116.481
  152.000  180.607   99.595    0.388    0.326  132.642
  152.250  179.680  100.812    0.364    0.314  153.232
  152.500  179.757   98.506    0.372    0.320  174.517
  152.750  179.854   98.541    0.397    0.302  172.122
  153.000  181.902  111.001    0.418    0.274  162.619
  153.250  184.935  116.368    0.369    0.275  155.799
  153.500  185.012  106.365    0.316    0.287  145.096
  153.750  185.070   95.180    0.319    0.288  135.109
  154.000  185.186   93.464    0.313    0.286  127.614
  154.250  186.210   92.908    0.302    0.288  156.148
  154.500  186.307   85.269    0.292    0.291  196.635
  154.750  186.404   81.178    0.295    0.282  233.849
  155.000  186.442   88.318    0.303    0.290  244.256
  155.250  187.524   87.182    0.309    0.296  294.606
  155.500  187.602   86.637    0.312    0.288  376.364
  155.750  187.698   88.457    0.309    0.280  371.201
  156.000  187.737   78.454    0.299    0.270  312.565
  156.250  187.834   79.683    0.294    0.266  270.868
  156.500  186.945   82.697    0.296    0.263  263.340
  156.750  186.984   81.561    0.303    0.271  442.071
  157.000  186.096   83.960    0.307    0.281  556.693
  157.250  184.203   88.145    0.302    0.293  681.264
  157.500  183.333   84.076    0.302    0.291  821.697
  157.750  182.387   82.338    0.304    0.287 1049.730
  158.000  182.464   81.793    0.308    0.287  822.616
  158.250  180.590   86.569    0.312    0.297  599.935
  158.500  180.649   85.433    0.319    0.305  470.201
  158.750  179.760   86.650    0.325    0.309  419.301
  159.000  179.818   94.393    0.319    0.309  379.377
  159.250  178.930  100.942    0.322    0.307  310.397
