~VERSION INFORMATION
 VERS.                 2.0:   CWLS LOG ASCII STANDARD -VERSION 2.0
 WRAP.                  NO:   ONE LINE PER DEPTH STEP
~WELL INFORMATION BLOCK
#MNEM.UNIT           DATA                    DESCRIPTION OF MNEMONIC
#---------    -------------------            -------------------------------
# Generated from Intellog Unique Number	CN_94_101/WELL/5030
WELL.         12-16-098-10W4                 : Well_name    - WELL
LOC .         AA/12-16-098-10W4/0            : Location     - LOCATION
UWI .         AA/12-16-098-10W400            : Uwi          - UNIQUE WELL ID
ENTR.         TIM                            : Entered      - ENTERED BY
SRVC.         SCHLUMBERGER                   : Scn          - SERVICE COMPANY
DATE.         08/13/92                       : Date         - LOG DATE
STRT.M        0                              : top_depth    - START DEPTH
STOP.M        65                             : bot_depth    - STOP DEPTH
STEP.M        0.25                           : increment    - STEP LENGTH
 NULL. -999.2500:NULL Value
~CURVE INFORMATION BLOCK
#MNEM UNIT       ERCB CURVE CODE    CURVE DESCRIPTION
#-----------   ------------------   ----------------------------------
DEPT.M        00 001 00 00         : DEPTH        - DEPTH
GR  .API      00 310 00 00         : GR           - GAMMA RAY
ILD .OHMM     00 120 00 00         : RESD         - DEEP RESISTIVITY (DIL)
NPHI.V/V      00 330 00 00         : PHIN         - NEUTRON POROSITY (SANDSTONE)
DPHI.V/V      00 890 00 00         : PHID         - DENSITY POROSITY (SANDSTONE)
~PARAMETER INFORMATION
#MNEM.UNIT           DATA             DESCRIPTION OF MNEMONIC
#---------         -----------     ------------------------------
GL  .M        257.06               : gl           - GROUND LEVEL ELEVATION
EREF.M        257.06               : kb           - ELEVATION OF DEPTH REFERENCE
DATM.M        257.06               : datum        - DATUM ELEVATION
TDD .M        71                   : tdd          - TOTAL DEPTH DRILLER
RUN .         ONE                  : Run          - RUN NUMBER
ENG .         BILL                 : Engineer     - RECORDING ENGINEER
WIT .         JIM                  : Witness      - WITNESSED BY
MUD .         GEL                  : Mud_type     - MUD TYPE
MATR.         SANDSTONE            : Logunit      - NEUTRON MATRIX
TMAX.C        10                   : BHT          - MAXIMUM RECORDED TEMPERATURE
BHTD.M        71                   : BHTDEP       - MAXIMUM RECORDED TEMPERATURE
RMT .C        8                    : MDTP         - TEMPERATURE OF MUD
MUDD.KG/M     1050                 : MWT          - MUD DENSITY
NEUT.         1                    : NEUTRON      - NEUTRON TYPE
RESI.         0                    : RESIST       - RESISTIVITY TYPE
RM  .OHMM     16.4                 : RM           - RESISTIVITY OF MUD
RMC .OHMM     16.4                 : RMC          - RESISTIVITY OF MUD CAKE
RMF .OHMM     16.4                 : RMF          - RESISTIVITY OF MUD FILTRATE
SUFT.C        4                    : SUFT         - SURFACE TEMPERATURE
~A  DEPTH       GR     RESD     PHIN     PHID
    0.000   46.730   30.231    0.317    0.062
    0.250   45.532   30.734    0.316    0.062
    0.500   45.005   30.772    0.314    0.067
    0.750   45.084   30.410    0.314    0.073
    1.000   45.738   30.013    0.315    0.091
    1.250   46.423   29.635    0.319    0.117
    1.500   47.731   28.855    0.336    0.167
    1.750   50.285   28.467    0.354    0.223
    2.000   52.215   26.547    0.637    0.247
    2.250   52.901   25.106    0.748    0.267
    2.500   51.096   23.742    0.752    0.267
    2.750   45.558   22.132    0.741    0.117
    3.000   41.886   20.622    0.714    0.086
    3.250   39.476   17.383    0.728    0.072
    3.500   40.784   15.298    0.707    0.059
    3.750   42.092   13.076    0.684    0.062
    4.000   42.778   10.556    0.647    0.077
    4.250   43.463    8.898    0.637    0.075
    4.500   46.670    7.719    0.652    0.066
    4.750   47.947    6.892    0.681    0.068
    5.000   51.760    6.330    0.714    0.070
    5.250   54.297    5.816    0.726    0.070
    5.500   59.978    5.500    0.717    0.076
    5.750   66.888    5.431    0.684    0.101
    6.000   72.553   25.380    0.657    0.400
    6.250   75.106   32.948    0.622    0.437
    6.500   77.037   38.661    0.660    0.461
    6.750   78.345   42.216    0.679    0.477
    7.000   75.918   46.137    0.652    0.481
    7.250   71.625   49.639    0.548    0.480
    7.500   66.708   53.453    0.549    0.478
    7.750   63.675   55.904    0.582    0.470
    8.000   64.361   57.608    0.650    0.464
    8.250   65.062   61.147    0.658    0.457
    8.500   63.849   63.064    0.648    0.439
    8.750   61.423   63.170    0.633    0.406
    9.000   60.863   62.373    0.520    0.407
    9.250   62.794   62.478    0.627    0.402
    9.500   66.623   63.464    0.618    0.386
    9.750   68.554   64.519    0.597    0.384
   10.000   71.713   65.591    0.606    0.376
   10.250   74.905   64.736    0.595    0.368
   10.500   71.840   63.919    0.602    0.373
   10.750   64.450   63.086    0.612    0.379
   11.000   68.232   63.219    0.619    0.386
   11.250   73.913   64.270    0.618    0.385
   11.500   74.614   64.405    0.620    0.362
   11.750   74.055   64.487    0.618    0.348
   12.000   75.363   63.673    0.612    0.338
   12.250   76.671   61.087    0.604    0.335
   12.500   77.341   58.606    0.599    0.335
   12.750   78.026   56.225    0.591    0.334
   13.000   68.131   55.492    0.582    0.327
   13.250   64.475   54.033    0.578    0.314
   13.500   64.538   54.124    0.582    0.302
   13.750   67.076   53.441    0.559    0.293
   14.000   69.006   53.508    0.553    0.293
   14.250   69.692   53.598    0.549    0.298
   14.500   68.542   54.489    0.555    0.300
   14.750   67.328   53.802    0.565    0.295
   15.000   67.407   53.892    0.572    0.290
   15.250   68.093   53.190    0.564    0.290
   15.500   66.911   54.074    0.544    0.296
   15.750   65.107   54.973    0.542    0.299
   16.000   63.910   55.019    0.541    0.293
   16.250   64.611   55.112    0.541    0.284
   16.500   66.542   53.662    0.549    0.274
   16.750   67.228   52.985    0.570    0.258
   17.000   69.796   52.316    0.584    0.263
   17.250   71.088   53.956    0.572    0.279
   17.500   72.397   54.047    0.553    0.296
   17.750   68.725   53.343    0.540    0.296
   18.000   65.054   54.207    0.544    0.291
   18.250   62.627   55.883    0.565    0.285
   18.500   61.446   55.977    0.592    0.289
   18.750   60.918   51.435    0.616    0.307
   19.000   60.343   51.544    0.623    0.342
   19.250   58.523   76.129    0.536    0.404
   19.500   55.474   89.328    0.506    0.445
   19.750   51.803  126.417    0.486    0.415
   20.000   48.132  178.905    0.508    0.359
   20.250   45.114  242.393    0.536    0.312
   20.500   45.146  358.159    0.538    0.311
   20.750   47.699  478.531    0.534    0.323
   21.000   49.007  696.980    0.529    0.347
   21.250   48.448 1206.380    0.519    0.355
   21.500   50.378 1521.070    0.518    0.359
   21.750   52.309 1687.140    0.521    0.359
   22.000   52.372 1617.940    0.520    0.355
   22.250   46.211 1464.830    0.513    0.348
   22.500   45.667 1270.210    0.516    0.342
   22.750   46.353  968.127    0.531    0.341
   23.000   46.416  792.901    0.528    0.342
   23.250   46.495  749.520    0.524    0.343
   23.500   45.904  709.109    0.521    0.344
   23.750   42.871  731.339    0.514    0.345
   24.000   37.317  798.258    0.508    0.348
   24.250   33.661  963.989    0.509    0.351
   24.500   35.592 1215.970    0.513    0.349
   24.750   37.506 1601.440    0.514    0.349
   25.000   36.356 1748.710    0.516    0.349
   25.250   35.159 1777.030    0.515    0.349
   25.500   33.993 1729.550    0.514    0.369
   25.750   37.168 1522.120    0.516    0.394
   26.000   40.344 1033.610    0.529    0.404
   26.250   43.503  691.856    0.560    0.443
   26.500   44.811  527.096    0.651    0.414
   26.750   44.268  242.746    0.688    0.407
   27.000   45.576  185.016    0.719    0.359
   27.250   46.884  155.886    0.426    0.343
   27.500   48.192  125.848    0.432    0.262
   27.750   48.878  107.615    0.441    0.262
   28.000   50.186   97.431    0.443    0.243
   28.250   52.739   88.285    0.442    0.237
   28.500   56.553   84.664    0.443    0.237
   28.750   55.355   84.842    0.450    0.228
   29.000   52.306   86.216    0.459    0.236
   29.250   48.635   92.801    0.460    0.250
   29.500   48.698  104.292    0.459    0.270
   29.750   51.251  117.206    0.460    0.278
   30.000   51.937  137.642    0.463    0.270
   30.250   48.903  150.300    0.464    0.272
   30.500   45.232  164.053    0.463    0.283
   30.750   44.050  225.585    0.462    0.297
   31.000   44.720  373.967    0.466    0.311
   31.250   46.028  426.362    0.470    0.315
   31.500   46.746  452.560    0.474    0.313
   31.750   46.793  466.551    0.474    0.309
   32.000   45.611  495.011    0.475    0.313
   32.250   45.052  532.814    0.479    0.322
   32.500   43.870  590.240    0.487    0.331
   32.750   42.082  626.244    0.488    0.341
   33.000   39.640  636.386    0.484    0.345
   33.250   35.984  619.384    0.491    0.350
   33.500   36.670  561.008    0.495    0.352
   33.750   41.697  493.725    0.504    0.347
   34.000   52.341  376.307    0.508    0.324
   34.250   59.283  255.534    0.499    0.317
   34.500   58.086  186.459    0.492    0.272
   34.750   54.430  134.170    0.492    0.290
   35.000   48.253  150.784    0.490    0.313
   35.250   40.209  232.622    0.488    0.325
   35.500   37.782  408.468    0.481    0.333
   35.750   39.106  522.922    0.474    0.315
   36.000   37.925  516.323    0.462    0.308
   36.250   39.233  488.074    0.454    0.304
   36.500   43.653  423.228    0.441    0.297
   36.750   51.185  300.193    0.428    0.276
   37.000   55.605  138.192    0.424    0.227
   37.250   56.291  128.820    0.420    0.223
   37.500   48.263  151.218    0.424    0.241
   37.750   45.214  158.151    0.443    0.261
   38.000   57.742  131.347    0.460    0.251
   38.250   67.764   95.883    0.479    0.237
   38.500   79.669   76.270    0.491    0.231
   38.750   86.579   59.828    0.496    0.221
   39.000   90.392   49.709    0.482    0.210
   39.250   87.344   47.029    0.480    0.221
   39.500   84.901   46.435    0.483    0.232
   39.750   79.362   47.187    0.480    0.240
   40.000   79.426   47.952    0.474    0.229
   40.250   98.178   46.670    0.479    0.224
   40.500  105.088   41.056    0.516    0.217
   40.750  105.151   35.646    0.512    0.214
   41.000  103.347   34.184    0.498    0.219
   41.250   90.339   34.752    0.479    0.237
   41.500   84.800   35.796    0.480    0.252
   41.750   78.017   37.980    0.500    0.251
   42.000   74.329   39.721    0.516    0.253
   42.250   67.562   42.755    0.529    0.260
   42.500   63.875   44.715    0.540    0.270
   42.750   58.336   47.462    0.535    0.283
   43.000   54.665   49.639    0.503    0.300
   43.250   55.973   50.464    0.488    0.312
