~Version : LASO    vs 4.00
VERS.                2.00:   CWLS Log ASCII Standard -VERSION 2.0
WRAP.                  NO:
~Well Information Block
#MNEM.UNIT       Data                        Description of Mnemonic
#----.----      -------------------------- : -----------------------------
STRT.M            15.0000:
STOP.M           206.4000:
STEP.M             0.2000:
NULL.           -999.2500:
COMP.  MOBIL OIL OF CANADA     :COMPANY
WELL.  MOBIL CLARKE OV 13-4    :WELL
FLD.                           :FIELD
LOC.   13-04-090-07W4          :LOCATION
CTRY.  CANADA                  :COUNTRY
PROV.  ALBERTA                 :PROVINCE
SRVC.  SCHLUMBERGER            :SERVICE COMPANY
DATE.  06-MAR-81               :LOG DATE
UWI.   AA/13-04-090-07W400     :UNIQUE WELL ID
~Parameter Information Block
#MNEM.UNIT       Data                        Description of Mnemonic
#----.----      -------------------------- : -----------------------------
RUN .                   1                 : Run Number
GL  .M           458.6000                 : Ground Level Elevation
DREF.                  KB                 : Depth Reference
EREF.M           458.6000                 : Elevation of Depth Reference
TDL .M           206.5000                 : Total Depth Logger
TDD .M           207.0000                 : Total Depth Driller
CSGL.M             0.0000                 : Casing Bottom Logger
CSGD.M             8.0000                 : Casing Bottom Driller
CSGS.MM          219.0000                 : Casing Size
CSGW.KG/M          0.0000                 : Casing Weight
BS  .MM          159.0000                 : Bit Size
DFD .            999.0000                 : Mud Weight (Density)
~Curve Information Block
#MNEM.UNIT        API CODE    Curve Description
#---------    ------------    ------------------------------
DEPT.M                    :   DEPTH
CALI.MM       42 280  1  1:   2 DENSITY CALIPER
DPHI.V/V                  :   DPHI
GR  .GAPI     42 310  1  1:   3 GAMMA RAY
LLD .Ohmm                 :   LLD
NPHI.V/V      42 890  3  1:   4 NEUTRON POROSITY (SANDSTONE)
RHOB.K/M3     42 350  1  1:   5 BULK DENSITY
~A  Depth           CALI        DPHI          GR         LLD        NPHI        RHOB
# ...
34.0000         206.1750      0.1855     75.4350    487.3429      0.3228   2358.0000
34.2000         205.1000      0.1903     73.5300    485.4339      0.3466   2345.0000
34.4000         198.6500      0.1934     69.4200    485.3132      0.3864   2293.0000
34.6000         205.1000      0.2015     69.5250    485.3158      0.3932   2281.0000
34.8000         201.8750      0.2031     70.0200    485.3192      0.3944   2282.0000
35.0000         200.8000      0.2038     65.8200    709.2675      0.4086   2327.0000
35.2000         201.8750      0.2172     62.2200    748.2202      0.4014   2347.0000
35.4000         201.8750      0.2264     58.7250    773.1575      0.3796   2371.0000
35.6000         193.2750      0.2388     57.5250    795.6157      0.3584   2402.0000
35.8000         190.0500      0.2508     57.2250    797.5407      0.3092   2397.0000
36.0000         193.2750      0.2615     58.2150    797.9570      0.2846   2414.0000
36.2000         191.1250      0.2551     58.6200    781.2423      0.2684   2417.0000
36.4000         193.2750      0.2468     59.3250    760.6233      0.2602   2457.0000
36.6000         193.2750      0.2381     60.9300    758.5281      0.2574   2483.0000
36.8000         180.3750      0.2322     62.6250    758.8139      0.2608   2512.8999
37.0000         186.8250      0.2269     65.7300    775.4621      0.2632   2478.0000
37.2000         184.6750      0.2186     66.3300    779.3353      0.2630   2493.0000
37.4000         183.6000      0.2066     64.9200    744.0280      0.2766   2445.0000
37.6000         186.8250      0.1984     61.8300    720.9797      0.3126   2407.0000
37.8000         191.1250      0.2009     60.7200    689.0247      0.3224   2400.0000
38.0000         197.5750      0.2142     58.7250    665.0195      0.3264   2408.0000
38.2000         184.6750      0.2380     51.2250    620.1596      0.3166   2473.0000
38.4000         180.3750      0.2694     48.3150    582.3380      0.3058   2509.0000
38.6000         180.3750      0.2845     46.1100    539.5268      0.2874   2493.0000
38.8000         184.6750      0.2945     43.9200    506.8531      0.2732   2464.0000
39.0000         185.7500      0.2957     41.7150    499.6284      0.2544   2433.0000
39.2000         181.4500      0.2849     42.7200    498.5928      0.2526   2413.0000
39.4000         182.5250      0.2746     43.8150    498.7948      0.2594   2375.8999
39.6000         184.6750      0.2739     48.0150    514.3475      0.2872   2321.0000
39.8000         182.5250      0.2840     48.5100    534.6978      0.2936   2353.8999
40.0000         182.5250      0.2789     48.8100    539.7718      0.2862   2359.0000
40.2000         177.1500      0.2599     54.1200    541.0793      0.2748   2362.0000
40.4000         182.5250      0.2345     57.9150    523.0049      0.2802   2332.0000
40.6000         183.6000      0.2122     62.4300    521.6909      0.2830   2381.0000
40.8000         181.4500      0.2095     67.3200    490.1346      0.2980   2397.8999
41.0000         181.4500      0.2020     67.1250    483.2169      0.3188   2349.0000
41.2000         182.5250      0.1906     63.3300    482.2519      0.3484   2256.0000
41.4000         184.6750      0.1830     56.6250    482.5097      0.3804   2197.0000
41.6000         181.4500      0.1784     44.6100    482.8588      0.4162   2178.0000
41.8000         180.3750      0.1848     39.6150    499.1925      0.4226   2132.0000
42.0000         182.5250      0.2005     36.4050    536.6089      0.4262   2089.0000
42.2000         184.6750      0.2054     32.4150    561.6702      0.4242   2098.0000
42.4000         186.8250      0.1971     32.1150    602.6153      0.4140   2107.0000
42.6000         188.9750      0.1857     32.6100    646.0438      0.4112   2097.0000
42.8000         186.8250      0.1781     32.6100    663.7565      0.4198   2084.0000
43.0000         182.5250      0.1783     32.1150    668.3790      0.4164   2122.0000
43.2000         182.5250      0.1879     32.1150    652.2672      0.4108   2157.0000
43.4000         181.4500      0.2040     32.9100    631.6816      0.3932   2119.0000
43.6000         182.5250      0.2239     32.7150    590.7042      0.3972   2091.0000
43.8000         181.4500      0.2308     33.4050    542.0879      0.4080   2080.0000
44.0000         186.8250      0.2343     35.1150    497.4952      0.3946   2117.0000
44.2000         188.9750      0.2308     37.7100    471.7194      0.3838   2115.0000
44.4000         186.8250      0.2270     41.5200    449.6926      0.3766   2120.0000
44.6000         185.7500      0.2220     47.3100    448.2084      0.3772   2135.0000
44.8000         188.9750      0.2238     60.9300    448.5811      0.3856   2150.0000
45.0000         186.8250      0.2352     66.2250    448.9812      0.3934   2133.0000
45.2000         185.7500      0.2409     67.8300    439.8907      0.4038   2117.0000
45.4000         184.6750      0.2331     64.0200    418.2367      0.4458   2104.0000
45.6000         183.6000      0.2214     62.5200    401.2740      0.4564   2101.0000
45.8000         182.5250      0.2110     61.2300    377.8510      0.4564   2092.0000
46.0000         184.6750      0.2104     57.2250    363.6075      0.4552   2098.0000
46.2000         183.6000      0.2102     52.6200    362.1505      0.4556   2102.0000
46.4000         182.5250      0.2067     48.4200    361.4473      0.4674   2109.0000
46.6000         180.3750      0.1993     44.2200    359.5621      0.4644   2084.0000
46.8000         182.5250      0.2010     42.2100    353.7005      0.4536   2088.0000
47.0000         183.6000      0.2053     41.7150    345.2006      0.4384   2096.0000
47.2000         184.6750      0.2146     40.1100    335.3435      0.4174   2078.0000
47.4000         185.7500      0.2166     37.2150    328.2276      0.4148   2055.0000
47.6000         185.7500      0.2197     37.2150    321.4270      0.4148   2055.0000
47.8000         182.5250      0.2272     34.7100    319.3411      0.4126   2085.0000
48.0000         183.6000      0.2263     32.9100    320.5713      0.4118   2102.0000
48.2000         180.3750      0.2222     31.0050    323.1387      0.4186   2109.0000
48.4000         188.9750      0.2173     30.5100    324.3881      0.4254   2106.0000
48.6000         182.5250      0.2174     31.5150    329.8034      0.4152   2153.0000
48.8000         179.3000      0.2131     32.5050    336.0424      0.4010   2170.0000
49.0000         188.9750      0.2125     32.6100    336.8347      0.3956   2121.0000
49.2000         179.3000      0.2133     29.7000    338.8788      0.4160   2113.0000
49.4000         178.2250      0.2148     27.9000    338.9291      0.4148   2125.0000
49.6000         188.9750      0.2158     26.9100    335.6200      0.4200   2088.0000
49.8000         182.5250      0.2180     25.5000    329.7043      0.4340   2130.8999
50.0000         180.3750      0.2236     26.1000    321.3542      0.4144   2168.0000
50.2000         181.4500      0.2334     26.2050    314.6537      0.3898   2153.0000
50.4000         187.9000      0.2344     25.9050    304.8234      0.3898   2065.0000
50.6000         182.5250      0.2333     27.1050    297.5692      0.3942   2101.0000
50.8000         182.5250      0.2323     27.4050    294.5539      0.3970   2110.0000
51.0000         180.3750      0.2330     26.7000    294.1922      0.4052   2089.0000
51.2000         187.9000      0.2394     24.0000    292.1626      0.4144   2079.0000
51.4000         182.5250      0.2514     24.0000    295.3196      0.4056   2109.0000
51.6000         181.4500      0.2460     25.5000    296.0483      0.3960   2145.0000
51.8000         183.6000      0.2409     28.2000    296.1624      0.3828   2117.0000
52.0000         182.5250      0.2357     28.5000    296.2141      0.3840   2121.0000
52.2000         184.6750      0.2366     27.6000    296.2230      0.3894   2105.0000
52.4000         188.9750      0.2309     26.1000    296.2269      0.4008   2138.0000
52.6000         186.8250      0.2317     26.5050    296.2305      0.3954   2150.0000
52.8000         180.3750      0.2403     27.1050    296.2341      0.3928   2162.0000
