~VERSION INFORMATION
 VERS.                 2.0:   CWLS LOG ASCII STANDARD -VERSION 2.0
 WRAP.                  NO:   ONE LINE PER DEPTH STEP
~WELL INFORMATION BLOCK
#MNEM.UNIT           DATA                    DESCRIPTION OF MNEMONIC
#---------    -------------------            -------------------------------
# Generated from Intellog Unique Number	CN_91_93/WELL/1163
WELL.         10-36-091-09W4                 : Well_name    - WELL
LOC .         AA/10-36-091-09W4/0            : Location     - LOCATION
UWI .         AA/10-36-091-09W400            : Uwi          - UNIQUE WELL ID
ENTR.         JOETTE                         : Entered      - ENTERED BY
SRVC.         SCHLUMBERGER                   : Scn          - SERVICE COMPANY
DATE.         01/22/92                       : Date         - LOG DATE
STRT.F        50                             : top_depth    - START DEPTH
STOP.F        479.79                         : bot_depth    - STOP DEPTH
STEP.F        0.8202                         : increment    - STEP LENGTH
 NULL. -999.2500:NULL Value
~CURVE INFORMATION BLOCK
#MNEM UNIT       ERCB CURVE CODE    CURVE DESCRIPTION
#-----------   ------------------   ----------------------------------
DEPT.F        00 001 00 00         : DEPTH        - DEPTH
CALI.IN       00 280 01 00         : CAL          - CALIPER
GR  .API      00 310 00 00         : GR           - GAMMA RAY
NPHI.V/V      00 330 00 00         : PHIN         - NEUTRON POROSITY (SANDSTONE)
ILD .OHMM     00 120 00 00         : RESD         - DEEP RESISTIVITY (DIL)
~PARAMETER INFORMATION
#MNEM.UNIT           DATA             DESCRIPTION OF MNEMONIC
#---------         -----------     ------------------------------
GL  .M        370.637              : gl           - GROUND LEVEL ELEVATION
EREF.M        372.161              : kb           - ELEVATION OF DEPTH REFERENCE
DATM.M        372.161              : datum        - DATUM ELEVATION
TDD .M        148.133              : tdd          - TOTAL DEPTH DRILLER
RUN .         ONE                  : Run          - RUN NUMBER
ENG .         BILL                 : Engineer     - RECORDING ENGINEER
WIT .         JIM                  : Witness      - WITNESSED BY
MUD .         GEL                  : Mud_type     - MUD TYPE
MATR.         SANDSTONE            : Logunit      - NEUTRON MATRIX
TMAX.F        48                   : BHT          - MAXIMUM RECORDED TEMPERATURE
BHTD.F        486                  : BHTDEP       - MAXIMUM RECORDED TEMPERATURE
RMT .F        47                   : MDTP         - TEMPERATURE OF MUD
MUDD.LB/G     9.16666              : MWT          - MUD DENSITY
NEUT.         1                    : NEUTRON      - NEUTRON TYPE
RESI.         0                    : RESIST       - RESISTIVITY TYPE
RM  .OHMM     9.8                  : RM           - RESISTIVITY OF MUD
RMC .OHMM     9.8                  : RMC          - RESISTIVITY OF MUD CAKE
RMF .OHMM     9.8                  : RMF          - RESISTIVITY OF MUD FILTRATE
SUFT.F        39.2                 : SUFT         - SURFACE TEMPERATURE
~A  DEPTH      CAL       GR     PHIN     RESD
# ...
  192.717    8.201   32.522    0.314  264.972
  193.537    8.200   29.898    0.324  280.264
  194.357    8.199   28.059    0.319  299.036
  195.177    8.199   33.117    0.316  319.110
  195.997    8.158   36.256    0.321  242.959
  196.818    8.117   38.642    0.327  155.484
  197.638    8.116   36.402    0.330  102.267
  198.458    8.075   33.762    0.324  119.594
  199.278    8.034   29.602    0.323  197.794
  200.098    8.034   34.677    0.321  285.305
  200.919    7.993   35.895    0.318  169.726
  201.739    7.953   33.287    0.318  136.499
  202.559    7.912   29.879    0.321  117.004
  203.379    7.911   25.318    0.324  130.688
  204.199    7.870   19.621    0.326  180.075
  205.020    7.829   18.166    0.312  406.314
  205.840    7.828   21.672    0.305  570.251
  206.660    7.788   28.668    0.297  625.424
  207.480    7.787   36.816    0.302  382.492
  208.301    7.825   44.581    0.293  293.808
  209.121    7.904   46.967    0.277  359.586
  209.941    8.022   46.648    0.288  428.145
  210.761    8.100   45.945    0.307  478.220
  211.581    8.218   45.626    0.324  510.389
  212.402    8.376   46.843    0.317  361.129
  213.222    8.534   53.071    0.305  218.821
  214.042    8.652   60.067    0.298  237.812
  214.862    8.731   46.655    0.291  423.222
  215.682    8.849   32.875    0.279  588.583
  216.503    8.927   26.009    0.272  720.259
  217.323    9.045   23.385    0.283  727.642
  218.143    9.202   21.146    0.302  843.084
  218.963    9.281   18.906    0.307 1109.850
  219.783    9.399   20.124    0.302 1370.780
  220.604    9.477   22.894    0.298  853.553
  221.424    9.596   22.959    0.300  285.704
  222.244    9.674   23.024    0.302  270.766
  223.064    9.752   22.722    0.311  523.060
  223.885    9.752   22.019    0.322  714.269
  224.705    9.790   20.931    0.337  421.109
  225.525    9.789   20.228    0.345  341.773
  226.345    9.749   19.525    0.363  466.587
  227.165    9.708   18.822    0.346  685.423
  227.986    9.667   18.887    0.314 1450.830
  228.806    9.587   18.952    0.304 1221.280
  229.626    9.546   19.017    0.310 1095.600
  230.446    9.466   19.083    0.324 2097.220
  231.266    9.385   18.764    0.327 2864.260
  232.087    9.305   18.445    0.324 2866.950
  232.907    9.185   18.526    0.323 2870.780
  233.727    9.065   18.591    0.316 2847.750
  234.547    8.984   18.272    0.315 2723.240
  235.367    8.904   18.738    0.315 2488.330
  236.188    8.824   19.571    0.320 2172.530
  237.008    8.744   21.157    0.322 1699.560
  237.828    8.623   23.559    0.323 1068.120
  238.648    8.583   25.145    0.322  228.526
  239.468    8.502   27.899    0.317  155.919
  240.289    8.382   28.765    0.312  100.711
  241.109    8.342   26.893    0.310   79.518
  241.929    8.261   23.885    0.308  118.950
  242.749    8.181   22.013    0.306  278.374
  243.570    8.140   20.959    0.305  347.020
  244.390    8.099   21.024    0.298  380.544
  245.210    8.059   21.089    0.307  483.060
  246.030    8.018   21.538    0.321  506.227
  246.850    7.977   21.988    0.315  570.620
  247.671    7.977   22.821    0.308  685.645
  248.491    7.935   23.254    0.299 1288.730
  249.311    7.935   23.720    0.298 1534.650
  250.131    7.934   23.785    0.313 1778.120
  250.951    7.933   21.161    0.332 1780.020
  251.772    7.971   18.921    0.332 1882.500
  252.592    7.970   17.818    0.327 2027.290
  253.412    8.009   18.684    0.320 1886.540
  254.232    8.048   21.038    0.330  614.327
  255.052    8.047   26.497    0.342  400.443
  255.873    8.125   27.731    0.349  412.001
  256.693    8.164   28.564    0.337  532.627
  257.513    8.203   29.398    0.330  617.129
  258.333    8.202   31.400    0.335  347.560
  259.154    8.240   31.097    0.340  267.011
  259.974    8.279   30.745    0.334  155.969
  260.794    8.317   26.585    0.323  147.815
  261.614    8.357   26.266    0.311  174.421
  262.434    8.356   26.331    0.300  186.179
  263.255    8.394   25.244    0.317  193.258
  264.075    8.433   23.389    0.324  611.260
  264.895    8.432   27.295    0.324  500.583
  265.715    8.431   38.917    0.324  437.053
  266.535    8.430   47.834    0.321  180.443
  267.356    8.429   49.435    0.321   88.620
  268.176    8.428   44.123    0.332   19.139
  268.996    8.427   36.489    0.341   27.857
  269.816    8.426   28.487    0.338  726.130
  270.636    8.425   26.231    0.316 1096.310
  271.457    8.424   28.249    0.312 1148.740
  272.277    8.383   28.682    0.339  721.944
  273.097    8.342   27.611    0.343  529.813
  273.917    8.262   26.524    0.333  525.702
  274.738    8.261   26.589    0.323  521.483
  275.558    8.221   28.191    0.311  476.435
  276.378    8.180   30.177    0.334  334.132
  277.198    8.179   32.547    0.327  261.389
  278.018    8.139   37.238    0.319  168.813
  278.839    8.137   41.913    0.314  132.079
  279.659    8.136   38.137    0.321   87.680
  280.479    8.135   29.735    0.337   32.449
  281.299    8.134   23.654    0.349  535.732
  282.119    8.133   23.351    0.358  816.374
  282.940    8.133   23.800    0.350  706.195
  283.760    8.171   25.018    0.336  639.414
  284.580    8.170   26.235    0.341  622.724
  285.400    8.169   27.837    0.349  538.681
  286.220    8.168   28.670    0.361  374.353
  287.041    8.167   28.368    0.376  345.150
  287.861    8.206   28.049    0.387  446.204
  288.681    8.205   28.098    0.382  551.182
  289.501    8.243   26.275    0.348  598.936
  290.322    8.243   25.539    0.336  739.847
  291.142    8.281   22.931    0.324 1495.760
  291.962    8.280   21.444    0.328 1951.420
  292.782    8.319   21.125    0.325 2366.290
  293.602    8.358   23.127    0.319 3059.090
  294.423    8.356   23.208    0.310 3511.740
  295.243    8.356   22.873    0.299 3390.360
  296.063    8.355   23.322    0.291 3183.910
  296.883    8.353   22.619    0.285 2990.030
  297.703    8.353   22.684    0.279 2965.640
  298.524    8.352   22.750    0.288 2969.210
  299.344    8.351   22.463    0.296 2839.780
  300.164    8.350   22.144    0.300 2618.610
  300.984    8.349   22.594    0.298 2527.420
  301.804    8.348   23.411    0.296 2439.740
  302.625    8.347   25.012    0.294 1634.250
  303.445    8.346   28.167    0.299  687.249
  304.265    8.305   29.769    0.304  552.631
  305.085    8.304   32.171    0.298  202.631
  305.906    8.264   30.684    0.304  204.736
  306.726    8.223   28.044    0.308  314.804
  307.546    8.222   22.747    0.310 1014.050
  308.366    8.220   22.812    0.311 2484.300
  309.186    8.220   22.109    0.315 2333.020
  310.007    8.219   21.006    0.319 2092.920
  310.827    8.257   20.686    0.317 2038.840
  311.647    8.296   22.689    0.317 2003.830
  312.467    8.375   25.843    0.316 2178.030
  313.287    8.453   30.518    0.319 2220.530
  314.108    8.492   29.815    0.320 2010.820
  314.928    8.491   27.959    0.319 2106.980
  315.748    8.450   27.256    0.320 2149.820
  316.568    8.409   26.937    0.330 2250.820
  317.388    8.369   25.098    0.347 2631.830
  318.209    8.328   23.610    0.355  811.345
  319.029    8.288   22.907    0.359  689.148
  319.849    8.247   22.973    0.358  976.200
  320.669    8.246   23.038    0.353 1004.240
  321.490    8.245   22.334    0.348 1616.250
  322.310    8.283   21.631    0.341 2747.660
  323.130    8.282   21.329    0.335 2676.660
  323.950    8.321   21.010    0.329 2805.040
  324.770    8.320   21.459    0.330 2610.290
  325.591    8.319   21.908    0.325 2176.750
  326.411    8.318   22.758    0.325 1882.970
  327.231    8.317   22.840    0.334 1768.550
  328.051    8.316   22.872    0.342 1754.590
  328.871    8.315   22.937    0.337 1855.360
  329.692    8.314   24.572    0.335 1336.960
  330.512    8.313   26.157    0.334  945.974
  331.332    8.312   28.543    0.323  616.624
  332.152    8.271   28.224    0.311  754.875
  332.972    8.271   27.137    0.302  769.401
  333.793    8.270   25.682    0.301  875.223
  334.613    8.268   24.211    0.318 1408.600
