~Version : LASO    vs 4.00
VERS.                2.00:   CWLS Log ASCII Standard -VERSION 2.0
WRAP.                  NO:
~Well Information Block
#MNEM.UNIT       Data                        Description of Mnemonic
#----.----      -------------------------- : -----------------------------
STRT.M             3.0000:
STOP.M           202.0000:
STEP.M             0.1250:
NULL.           -999.2500:
COMP.  MOBILOIL CANADA             :COMPANY
WELL.  MOBIL CLARKE OV 10-26       :WELL
FLD.   CLARKE                      :FIELD
LOC.   10-26-090-07W4              :LOCATION
CTRY.  CANADA                      :COUNTRY
PROV.  ALBERTA                     :PROVINCE
SRVC.  DRESSER ATLAS               :SERVICE COMPANY
DATE.  31-JAN-81                   :LOG DATE
UWI.   AA/10-26-090-07W400         :UNIQUE WELL ID
~Parameter Information Block
#MNEM.UNIT       Data                        Description of Mnemonic
#----.----      -------------------------- : -----------------------------
RUN .                   1                 : Run Number
GL  .M           456.0000                 : Ground Level Elevation
DREF.                  KB                 : Depth Reference
EREF.M           456.0000                 : Elevation of Depth Reference
TDL .M           201.0000                 : Total Depth Logger
TDD .M           203.0000                 : Total Depth Driller
CSGL.M            13.0000                 : Casing Bottom Logger
CSGD.M            12.0000                 : Casing Bottom Driller
CSGS.MM          219.0000                 : Casing Size
CSGW.KG/M          0.0000                 : Casing Weight
BHT .DEGC         18.0000                 : Bottom Hole Temperature
BS  .MM          171.4000                 : Bit Size
DFD .              9.7000                 : Mud Weight (Density)
DFV .             85.0000                 : Mud Viscosity
RM  .OHMM          4.0000                 : Mud Resistivity
RMT .DEGC         18.0000                 : Mud Resistivity Temperature
RMF .OHMM          6.2000                 : Mud Filtrate Resistivity
RMFT.DEGC         12.0000                 : RMF Temperature
RMC .OHMM         11.6000                 : Mud Cake Resistivity
RMCT.DEGC         12.0000                 : RMC Temperature
~Curve Information Block
#MNEM.UNIT        API CODE    Curve Description
#---------    ------------    -------------------------------------------
DEPT.M                    :   DEPTH
CALI.MM       42 280  1  1:   3 DENSITY CALIPER
DPHI.V/V                  :   DPHI
DT  .US/M     60 520 42  1:   2 SONIC INTERVAL TRANSIT TIME (COMPENSATED)
GR  .GAPI     42 310  1  1:   4 GAMMA RAY
LLD .Ohmm                 :   LLD
NPHI.V/V      42 890  3  1:   5 NEUTRON POROSITY (SANDSTONE)
RHOB.K/M3     42 350  1  1:   6 BULK DENSITY
~A  Depth           CALI        DPHI          DT          GR         LLD        NPHI        RHOB
# ...
65.2500         192.2750      0.2426    529.2000     92.5200     61.2610      0.4729   2266.0000
65.3750         194.1000      0.2401    530.1600     93.0750     60.5682      0.4714   2264.2000
65.5000         196.5500      0.2377    529.6801     95.1000     56.6139      0.4687   2260.5000
65.6250         198.1000      0.2370    527.4800     98.7900     56.4584      0.4676   2257.5000
65.7500         201.7750      0.2385    526.4800    100.9950     56.5402      0.4672   2252.6001
65.8750         207.2750      0.2414    528.2000    100.4400     57.6096      0.4654   2248.3000
66.0000         208.5000      0.2439    530.4000     99.3300     58.7334      0.4665   2244.6001
66.1250         208.5000      0.2462    531.8800     98.5950     60.4635      0.4687   2240.3000
66.2500         207.5750      0.2485    532.8800     96.9450     61.7206      0.4766   2239.7000
66.3750         204.8250      0.2497    533.1200     94.9200     62.8745      0.4792   2237.8999
66.5000         200.2250      0.2505    529.6801     93.9900     64.8328      0.4807   2236.7000
66.6250         199.6250      0.2509    526.4800     94.9200     66.9583      0.4759   2235.3999
66.7500         199.3250      0.2519    524.5200     96.3900     68.7660      0.4646   2236.1001
66.8750         199.3250      0.2520    525.7600     95.8350     71.2239      0.4612   2236.1001
67.0000         198.4000      0.2529    525.0000     96.0150     72.5729      0.4635   2233.6001
67.1250         196.8750      0.2543    527.4800     95.2800     73.7351      0.4627   2230.5000
67.2500         194.1000      0.2561    531.1600     92.7000     73.9951      0.4627   2229.3000
67.3750         191.3500      0.2573    531.4000     91.5900     74.1119      0.4695   2227.5000
67.5000         191.0500      0.2582    534.5600     91.4100     75.0936      0.4751   2226.3000
67.6250         191.0500      0.2595    534.5600     92.7000     76.7536      0.4777   2225.0000
67.7500         192.8750      0.2607    530.1600     94.1700     78.0328      0.4804   2219.5000
67.8750         194.1000      0.2624    520.1200     92.3400     78.5336      0.4796   2214.6001
68.0000         193.1750      0.2647    509.0800     89.7600     78.6783      0.4751   2214.6001
68.1250         193.5000      0.2659    502.9200     88.0950     79.6907      0.4695   2215.2000
68.2500         195.0250      0.2670    494.8800     84.7800     80.8047      0.4642   2216.5000
68.3750         195.6250      0.2681    493.6400     82.2000     80.9851      0.4582   2214.6001
68.5000         195.3250      0.2693    496.3600     82.5600     81.8613      0.4545   2215.2000
68.6250         195.3250      0.2704    489.9600     84.7800     82.9228      0.4496   2211.0000
68.7500         195.3250      0.2706    480.6400     86.9850     83.3199      0.4478   2208.5000
68.8750         192.8750      0.2715    481.4000     89.7600     81.5670      0.4478   2204.8000
69.0000         191.0500      0.2734    481.6400     91.9650     79.6482      0.4489   2203.6001
69.1250         190.4250      0.2739    480.1600     91.9650     78.0902      0.4496   2201.8000
69.2500         191.6500      0.2756    492.1600     90.6750     76.7348      0.4522   2198.7000
69.3750         193.1750      0.2765    500.0000     90.1200     73.9437      0.4522   2195.1001
69.5000         194.7250      0.2756    504.6800     90.8550     69.2441      0.4549   2195.7000
69.6250         193.1750      0.2752    506.8800     91.5900     65.2308      0.4519   2198.1001
69.7500         191.9500      0.2751    507.3600     90.6750     62.1609      0.4597   2201.8000
69.8750         194.7250      0.2760    509.8400     89.5650     58.3494      0.4691   2203.0000
70.0000         196.2500      0.2781    510.5600     89.9400     56.1437      0.4695   2198.7000
70.1250         195.9500      0.2804    512.5200     91.7850     54.1697      0.4665   2195.7000
70.2500         195.0250      0.2827    521.3600     93.9900     54.8176      0.4687   2192.6001
70.3750         194.4000      0.2849    526.2400     97.1250     56.7590      0.4680   2192.0000
70.5000         194.7250      0.2864    528.4400     98.2350     59.2712      0.4676   2190.2000
70.6250         193.1750      0.2884    533.1200     98.5950     62.0149      0.4627   2185.3000
70.7500         193.8000      0.2894    533.1200     97.3050     63.3219      0.4552   2182.2000
70.8750         194.7250      0.2900    532.8800     96.5700     63.5211      0.4466   2177.8999
71.0000         195.0250      0.2903    534.0800     94.9200     64.5773      0.4406   2177.3000
71.1250         195.3250      0.2903    536.0400     92.1450     62.0081      0.4388   2177.8999
71.2500         195.3250      0.2902    538.2400     89.5650     58.9208      0.4328   2179.1001
71.3750         195.9500      0.2894    538.7600     88.2750     55.2725      0.4373   2178.5000
71.5000         197.7750      0.2889    538.0000     87.7200     52.8089      0.4403   2180.3999
71.6250         195.6250      0.2866    535.3200     85.5150     50.2546      0.4425   2185.3000
71.7500         193.1750      0.2852    524.0400     84.0450     48.2395      0.4478   2190.8000
71.8750         191.3500      0.2840    522.3200     86.4300     45.4291      0.4496   2195.1001
72.0000         189.8250      0.2827    523.3200     89.0100     42.5126      0.4500   2198.1001
72.1250         190.1250      0.2824    524.0400     90.3000     39.5811      0.4552   2202.3999
72.2500         189.8250      0.2816    529.2000     93.0750     39.1978      0.4657   2205.5000
72.3750         191.0500      0.2811    533.6000     94.7250     40.9649      0.4721   2202.3999
72.5000         191.0500      0.2809    539.2400     96.9450     42.7163      0.4736   2197.5000
72.6250         191.6500      0.2817    548.8000     99.7050     44.0237      0.4702   2195.7000
72.7500         191.3500      0.2845    559.0800     98.5950     45.4385      0.4680   2185.3000
72.8750         191.6500      0.2860    560.0800     96.9450     46.4073      0.4654   2182.8000
73.0000         190.1250      0.2865    560.3200     95.4600     47.4903      0.4627   2183.3999
73.1250         187.9750      0.2855    560.3200     96.0150     48.8336      0.4612   2187.7000
73.2500         189.2000      0.2846    545.8400     93.8100     53.7787      0.4616   2191.3999
73.3750         191.3500      0.2841    532.1200     89.9400     61.1031      0.4541   2191.3999
73.5000         194.4000      0.2840    520.3600     87.9150     73.1684      0.4526   2188.3000
73.6250         195.0250      0.2840    514.7200     86.8050     81.5336      0.4508   2187.7000
73.7500         194.7250      0.2860    515.7200     86.9850     87.3552      0.4500   2187.1001
73.8750         193.1750      0.2861    520.8400     84.6000     91.8408      0.4440   2182.8000
74.0000         189.2000      0.2852    524.5200     80.5350     91.5330      0.4388   2178.5000
74.1250         184.9250      0.2859    523.0400     77.2200     90.1162      0.4414   2178.5000
74.2500         181.2500      0.2860    516.2000     75.3750     88.8025      0.4478   2181.6001
74.3750         180.9250      0.2860    504.9200     73.3500     80.0791      0.4474   2183.3999
74.5000         179.7000      0.2859    489.4800     72.6150     76.2758      0.4444   2185.8999
74.6250         176.3250      0.2859    476.4800     72.0600     72.3698      0.4425   2179.1001
74.7500         171.7500      0.2858    460.8000     72.2550     69.2727      0.4388   2175.5000
74.8750         170.2000      0.2866    457.3600     75.9300     59.5394      0.4451   2176.1001
75.0000         170.2000      0.2861    460.5600     79.9800     53.6468      0.4478   2173.0000
75.1250         173.2750      0.2856    472.0800     82.0200     49.6685      0.4567   2174.2000
75.2500         176.3250      0.2855    488.0000     83.8500     46.6917      0.4717   2177.8999
75.3750         177.8750      0.2877    496.3600     84.7800     44.7058      0.4721   2177.8999
75.5000         180.0000      0.2889    506.4000     83.6700     42.7693      0.4672   2172.3999
