~VERSION INFORMATION
 VERS.                 2.0:   CWLS LOG ASCII STANDARD -VERSION 2.0
 WRAP.                  NO:   ONE LINE PER DEPTH STEP
~WELL INFORMATION BLOCK
#MNEM.UNIT           DATA                    DESCRIPTION OF MNEMONIC
#---------    -------------------            -------------------------------
# Generated from Intellog Unique Number	CN_91_93/WELL/1149
WELL.         10-26-091-15W4                 : Well_name    - WELL
LOC .         AA/10-26-091-15W4/0            : Location     - LOCATION
UWI .         AA/10-26-091-15W400            : Uwi          - UNIQUE WELL ID
ENTR.         JOETTE                         : Entered      - ENTERED BY
SRVC.         SCHLUMBERGER                   : Scn          - SERVICE COMPANY
STRT.F        213.255                        : top_depth    - START DEPTH
STOP.F        672.572                        : bot_depth    - STOP DEPTH
STEP.F        0.82                           : increment    - STEP LENGTH
 NULL. -999.2500:NULL Value
~CURVE INFORMATION BLOCK
#MNEM UNIT       ERCB CURVE CODE    CURVE DESCRIPTION
#-----------   ------------------   ----------------------------------
DEPT.F        00 001 00 00         : DEPTH        - DEPTH
ILD .OHMM     00 120 00 00         : RESD         - DEEP RESISTIVITY (DIL)
DPHI.V/V      00 890 00 00         : PHID         - DENSITY POROSITY (SANDSTONE)
NPHI.V/V      00 330 00 00         : PHIN         - NEUTRON POROSITY (SANDSTONE)
CALI.IN       00 280 01 00         : CAL          - CALIPER
GR  .API      00 310 00 00         : GR           - GAMMA RAY
~PARAMETER INFORMATION
#MNEM.UNIT           DATA             DESCRIPTION OF MNEMONIC
#---------         -----------     ------------------------------
GL  .M        474.15               : gl           - GROUND LEVEL ELEVATION
EREF.M        477.15               : kb           - ELEVATION OF DEPTH REFERENCE
DATM.M        477.15               : datum        - DATUM ELEVATION
TDD .M        216                  : tdd          - TOTAL DEPTH DRILLER
RUN .         ONE                  : Run          - RUN NUMBER
ENG .         BILL                 : Engineer     - RECORDING ENGINEER
WIT .         JIM                  : Witness      - WITNESSED BY
MUD .         GEL                  : Mud_type     - MUD TYPE
MATR.         SANDSTONE            : Logunit      - NEUTRON MATRIX
TMAX.F        140                  : BHT          - MAXIMUM RECORDED TEMPERATURE
BHTD.F        6797.9               : BHTDEP       - MAXIMUM RECORDED TEMPERATURE
RMT .F        77                   : MDTP         - TEMPERATURE OF MUD
MUDD.LB/G     9.04166              : MWT          - MUD DENSITY
NEUT.         1                    : NEUTRON      - NEUTRON TYPE
RESI.         0                    : RESIST       - RESISTIVITY TYPE
RM  .OHMM     7.6                  : RM           - RESISTIVITY OF MUD
RMC .OHMM     0.25                 : RMC          - RESISTIVITY OF MUD CAKE
RMF .OHMM     6.9                  : RMF          - RESISTIVITY OF MUD FILTRATE
SUFT.F        39.2                 : SUFT         - SURFACE TEMPERATURE
~A  DEPTH     RESD     PHID     PHIN      CAL       GR
  213.255    8.784    0.342    0.593    6.742   58.812
  214.075    9.895    0.349    0.592    6.743   73.001
  214.895    9.966    0.319    0.596    6.843   78.139
  215.715    9.668    0.264    0.600    7.101   85.689
  216.535    9.310    0.297    0.599    7.616   89.924
  217.356    9.733    0.348    0.597    8.091   89.935
  218.176    9.513    0.367    0.600    8.547   88.439
  218.996    8.892    0.373    0.605    8.865   88.451
  219.816    8.248    0.389    0.608    9.123   89.366
  220.636    9.430    0.402    0.605    9.262   87.872
  221.457    9.081    0.412    0.597    9.303   86.373
  222.277    9.146    0.391    0.596    9.442   85.479
  223.097   10.937    0.371    0.599    9.561   82.778
  223.917   10.222    0.361    0.602    9.681   84.600
  224.738    9.482    0.350    0.604    9.741   85.216
  225.558    9.063    0.335    0.601   10.316   85.226
  226.378    9.474    0.352    0.595   11.444   85.236
  227.198    9.904    0.365    0.594   12.534   87.963
  228.018    9.900    0.374    0.597   12.218   91.592
  228.839    9.604    0.379    0.601   11.387  102.763
  229.659    9.530    0.292    0.601   10.240  102.775
  230.479    9.741    0.298    0.601    9.746  100.375
  231.299    9.737    0.307    0.604    9.490  100.688
  232.119    9.589    0.293    0.605    9.431  100.094
  232.940    9.585    0.297    0.596    9.432   98.899
  233.760    9.581    0.299    0.590    9.433   98.007
  234.580    9.577    0.290    0.585    9.434   98.019
  235.400    9.573    0.289    0.589    9.434   98.333
  236.220    9.641    0.300    0.574    9.375   98.041
  237.041   10.004    0.307    0.552    9.297   96.244
  237.861   10.380    0.314    0.531    9.258   95.051
  238.681   11.097    0.305    0.538    9.259   95.362
  239.501   12.133    0.302    0.557    9.260   96.280
  240.322   12.874    0.298    0.557    9.260   94.480
  241.142   13.660    0.300    0.530    9.281   92.379
  241.962   14.713    0.288    0.484    9.262   89.677
  242.782   14.062    0.242    0.497    9.223   87.276
  243.602   13.541    0.202    0.520    9.184   85.779
  244.423   12.847    0.219    0.538    9.146   88.203
  245.243   12.557    0.236    0.554    9.186   86.406
  246.063   12.646    0.266    0.573    9.246   84.908
  246.883   13.520    0.296    0.571    9.286   84.015
  247.703   14.345    0.280    0.540    9.346   83.727
  248.524   15.109    0.270    0.499    9.387   81.625
  249.344   16.032    0.247    0.480    9.427   79.828
  250.164   16.390    0.271    0.508    9.448   79.236
  250.984   17.522    0.285    0.506    9.468   76.838
  251.804   18.317    0.260    0.505    9.509   80.465
  252.625   19.291    0.273    0.528    9.529   83.795
  253.445   18.999    0.277    0.568    9.569   86.821
  254.265   17.494    0.293    0.536    9.610   94.674
  255.085   14.080    0.290    0.479    9.610   98.610
  255.906   13.866    0.290    0.492    9.611   97.412
  256.726   14.069    0.296    0.491    9.612   93.201
  257.546   14.708    0.284    0.495    9.593   80.244
  258.366   15.724    0.287    0.515    9.574   75.731
  259.186   18.386    0.234    0.485    9.555   69.711
  260.007   20.102    0.220    0.427    9.556   71.532
  260.827   22.644    0.236    0.464    9.576   73.654
  261.647   23.670    0.309    0.481    9.577   72.461
  262.467   24.197    0.309    0.475    9.578   75.487
  263.287   23.651    0.305    0.487    9.579   77.610
  264.108   24.541    0.294    0.508    9.599   74.606
  264.928   27.234    0.312    0.514    9.580   70.093
  265.748   27.427    0.307    0.510    9.561   65.584
  266.568   27.415    0.312    0.496    9.542   65.593
  267.388   30.424    0.298    0.487    9.503   65.906
  268.209   31.102    0.276    0.480    9.484   65.615
  269.029   29.725    0.252    0.475    9.485   68.943
  269.849   26.566    0.237    0.451    9.525   74.385
  270.669   23.740    0.285    0.439    9.546   83.142
  271.490   21.697    0.302    0.465    9.566   90.995
  272.310   18.540    0.287    0.464    9.567   91.609
  273.130   17.987    0.277    0.481    9.528   90.716
  273.950   18.663    0.252    0.505    9.489   86.507
  274.770   18.106    0.223    0.490    9.431   83.200
  275.591   16.797    0.198    0.469    9.432   91.658
  276.411   15.237    0.237    0.504    9.393   94.082
  277.231   13.822    0.283    0.541    9.393   95.901
  278.051   12.821    0.297    0.551    9.374   98.024
  278.871   12.073    0.282    0.568    9.375   99.543
  279.692   11.626    0.247    0.582    9.396   95.635
  280.512   11.363    0.245    0.558    9.396   92.932
  281.332   11.106    0.227    0.556    9.377   94.151
  282.152   11.186    0.276    0.584    9.358   94.765
  282.972   11.606    0.292    0.595    9.339   91.759
  283.793   12.785    0.267    0.505    9.340   85.136
  284.613   14.509    0.267    0.483    9.340   82.433
  285.433   17.218    0.268    0.480    9.342   84.256
  286.253   17.472    0.278    0.490    9.342   83.662
  287.073   17.862    0.287    0.499    9.343   82.166
  287.894   17.589    0.286    0.520    9.344   83.084
  288.714   16.686    0.282    0.512    9.325   82.189
  289.534   15.250    0.283    0.524    9.266   81.899
  290.354   13.730    0.295    0.524    9.168   84.023
  291.175   15.011    0.307    0.520    9.070   79.509
  291.995   17.951    0.305    0.505    8.952   73.790
  292.815   20.679    0.288    0.495    8.794   71.390
  293.635   26.054    0.243    0.444    8.518   69.590
  294.455   31.861    0.093    0.390    8.321   63.268
  295.276   37.535    0.065    0.280    8.163   57.550
  296.096   43.239    0.086    0.306    8.085   61.784
  296.916   48.344    0.076    0.331    8.244   61.192
  297.736   49.051    0.084    0.314    8.660   61.507
  298.556   44.495    0.133    0.315    8.700   65.135
  299.377   40.970    0.164    0.337    8.721   70.877
  300.197   34.747    0.215    0.372    8.722   79.635
  301.017   28.604    0.293    0.408    8.881   86.584
  301.837   21.690    0.287    0.436    9.376   82.674
  302.657   19.383    0.286    0.511    9.714   78.162
  303.478   19.664    0.294    0.525    9.794   74.556
  304.298   19.658    0.299    0.508    9.814   75.773
  305.118   19.070    0.280    0.493    9.815   77.896
  305.938   18.366    0.282    0.470    9.815   78.810
  306.759   18.084    0.276    0.483    9.836   81.841
  307.579   17.155    0.291    0.505    9.916   84.565
  308.399   16.521    0.279    0.487   10.115   88.195
  309.219   16.390    0.246    0.486   10.313   92.429
  310.039   16.507    0.231    0.513   10.413   90.632
  310.860   16.625    0.248    0.483   10.453   89.134
  311.680   16.494    0.230    0.450   10.494   90.656
  312.500   16.364    0.284    0.475   10.554   90.063
  313.320   16.236    0.293    0.523   10.575   90.376
  314.140   15.751    0.292    0.570   10.635   89.784
  314.961   15.282    0.294    0.573   10.675   88.892
  315.781   15.282    0.289    0.521   10.715   90.108
  316.601   15.040    0.287    0.497   10.756   90.121
  317.421   15.037    0.263    0.490   10.756   91.337
  318.241   15.037    0.270    0.491   10.756   94.366
  319.062   14.910    0.257    0.505   10.778   95.585
  319.882   14.796    0.210    0.549   10.818   94.991
  320.702   14.141    0.152    0.541   10.818   94.099
  321.522   13.720    0.152    0.518   10.839   96.523
  322.343   13.720    0.195    0.528   10.839  103.474
  323.163   13.306    0.192    0.547   10.900  104.389
  323.983   12.435    0.234    0.533   10.901  106.811
  324.803   11.796    0.256    0.557   10.901  108.634
  325.623   11.531    0.254    0.583   10.902  108.644
  326.444   11.355    0.241    0.560   10.902  106.845
  327.264   11.782    0.238    0.554   10.904  103.539
  328.084   12.317    0.235    0.559   10.905  101.138
  328.904   12.312    0.223    0.557   10.905  100.849
  329.724   11.945    0.215    0.561   10.906   99.049
  330.545   11.763    0.224    0.583   10.907   94.538
  331.365   11.845    0.162    0.565   10.868   87.010
  332.185   12.759    0.136    0.543   10.730   80.688
