~VERSION INFORMATION
 VERS.                 2.0:   CWLS LOG ASCII STANDARD -VERSION 2.0
 WRAP.                  NO:   ONE LINE PER DEPTH STEP
~WELL INFORMATION BLOCK
#MNEM.UNIT           DATA                    DESCRIPTION OF MNEMONIC
#---------    -------------------            -------------------------------
# Generated from Intellog Unique Number	CC_80_83/WELL/2401
NULL.         -999.25                        : NULL_VALUE
WELL.         DOME BUTTES NEWBY OV           : Well_name    - WELL              
LOC .         11-19-081-05W4                 : Location     - LOCATION          
UWI .         AA/11-19-081-05W4/0            : Uwi          - UNIQUE WELL ID    
ENTR.         DW                             : Entered      - ENTERED BY        
SRVC.         SCHLUMBERGER                   : Scn          - SERVICE COMPANY   
DATE.         07 MAR 81                      : Date         - LOG DATE
STRT.M        100                            : top_depth    - START DEPTH       
STOP.M        300.1                          : bot_depth    - STOP DEPTH        
STEP.M        0.3                            : increment    - STEP LENGTH       
~CURVE INFORMATION BLOCK
#MNEM UNIT       ERCB CURVE CODE    CURVE DESCRIPTION
#-----------   ------------------   ----------------------------------
DEPT.M        00 001 00 00         : DEPTH        - DEPTH                       
ILD .OHMM     00 120 00 00         : RESD         - DEEP RESISTIVITY (DIL)      
GR  .API      00 310 00 00         : GR           - GAMMA RAY                   
NPHI.V/V      00 330 00 00         : PHIN         - NEUTRON POROSITY (LIMESTONE)
DPHI.V/V      00 890 00 00         : PHID         - DENSITY POROSITY (LIMESTONE)
~PARAMETER INFORMATION       
#MNEM.UNIT           DATA             DESCRIPTION OF MNEMONIC
#---------         -----------     ------------------------------
GL  .M        487                  : gl           - GROUND LEVEL ELEVATION      
EREF.M        491.5                : kb           - ELEVATION OF DEPTH REFERENCE
DATM.M        491.5                : datum        - DATUM ELEVATION             
TDD .M        305                  : tdd          - TOTAL DEPTH DRILLER         
RUN .         ONE                  : Run          - RUN NUMBER                  
ENG .         BILL                 : Engineer     - RECORDING ENGINEER          
WIT .         JIM                  : Witness      - WITNESSED BY                
MUD .         GEL                  : Mud_type     - MUD TYPE                    
MATR.         LIMESTONE            : Logunit      - NEUTRON MATRIX              
TMAX.C        20                   : BHT          - MAXIMUM RECORDED TEMPERATURE
BHTD.M        305                  : BHTDEP       - MAXIMUM RECORDED TEMPERATURE
MATR.         1                    : LOGUNIT      - NEUTRON MATRIX              
RMT .C        25                   : MDTP         - TEMPERATURE OF MUD          
NEUT.         1                    : NEUTRON      - NEUTRON TYPE                
RESI.         0                    : RESIST       - RESISTIVITY TYPE            
RMC .OHMM     0.25                 : RMC          - RESISTIVITY OF MUD CAKE     
RMF .OHMM     0.25                 : RMF          - RESISTIVITY OF MUD FILTRATE 
SUFT.C        4                    : SUFT         - SURFACE TEMPERATURE         
~A  DEPTH     RESD       GR     PHIN     PHID
# ...
  256.602   64.319   47.750    0.368    0.316
  256.902   64.234   37.192    0.359    0.317
  257.202   62.977   37.734    0.391    0.342
  257.502   61.705   38.294    0.403    0.320
  257.802   64.032   36.377    0.384    0.319
  258.102   63.952   35.086    0.383    0.345
  258.401   61.478   34.416    0.419    0.352
  258.701   60.260   38.676    0.409    0.345
  259.001   61.328   41.084    0.391    0.325
  259.301   63.622   39.777    0.389    0.327
  259.601   66.023   37.866    0.396    0.359
  259.901   65.954   37.199    0.404    0.360
  260.201   64.647   37.756    0.429    0.348
  260.501   63.333   40.149    0.414    0.332
  260.801   55.366   41.951    0.393    0.337
  261.101   42.339   47.443    0.383    0.340
  261.401   31.174   55.416    0.380    0.332
  261.701   24.300   64.008    0.398    0.313
  262.001   22.065   63.324    0.389    0.300
  262.301   22.459   66.963    0.407    0.265
  262.601   25.638   62.585    0.407    0.275
  262.901   30.989   52.641    0.391    0.296
  263.201   45.320   40.232    0.423    0.312
  263.501   55.828   37.685    0.454    0.327
  263.801   60.183   35.774    0.436    0.347
  264.101   60.103   34.484    0.392    0.353
  264.401   60.002   37.514    0.388    0.354
  264.701   58.817   36.839    0.386    0.331
  265.001   57.649   34.298    0.402    0.338
  265.301   58.681   34.853    0.418    0.370
  265.601   60.875   37.261    0.407    0.350
  265.901   62.007   37.803    0.375    0.336
  266.201   63.118   37.142    0.395    0.336
  266.501   61.854   34.610    0.403    0.344
  266.801   59.473   35.792    0.394    0.338
  267.101   58.263   38.189    0.392    0.331
  267.401   58.168   35.657    0.397    0.330
  267.701   59.257   33.754    0.407    0.331
  268.001   61.492   33.694    0.401    0.341
  268.301   68.855   35.483    0.386    0.345
  268.601   78.581   33.570    0.407    0.352
  268.901   84.704   35.361    0.398    0.350
  269.201   89.575   36.536    0.395    0.354
  269.501   89.501   27.825    0.394    0.352
  269.801   79.718   30.852    0.368    0.340
  270.101   71.024   37.590    0.376    0.339
  270.401   58.617   44.319    0.382    0.339
  270.701   54.243   51.670    0.390    0.299
  271.001   51.156   39.258    0.417    0.304
  271.301   51.119   40.430    0.425    0.337
  271.601   54.048   45.305    0.379    0.359
  271.901   61.701   40.312    0.442    0.365
  272.201   80.490   36.540    0.462    0.358
  272.501   97.281   35.851    0.404    0.326
  272.801  100.960   35.804    0.372    0.314
  273.101   93.406   40.679    0.353    0.310
  273.401   75.659   46.798    0.371    0.298
  273.701   43.467   50.435    0.396    0.312
  274.001   28.544   73.850    0.364    0.304
  274.301   16.397   94.791    0.309    0.251
  274.601   14.890   92.878    0.316    0.210
  274.901   14.871   66.256    0.329    0.224
  275.201   17.301   60.635    0.354    0.261
  275.501   24.357   56.869    0.377    0.280
  275.801   32.383   55.564    0.415    0.302
  276.101   36.965   57.984    0.437    0.329
  276.401   41.390   62.861    0.440    0.340
  276.701   46.348   59.093    0.436    0.357
  277.001   51.907   50.383    0.422    0.355
  277.301   57.044   42.916    0.405    0.327
  277.601  102.892   37.905    0.363    0.304
  277.901  104.753   40.321    0.347    0.305
  278.201   91.543   46.439    0.337    0.310
  278.501   81.553   50.083    0.335    0.297
  278.801   71.268   46.922    0.353    0.285
  279.101   64.687   42.545    0.371    0.290
  279.401   62.206   44.956    0.388    0.328
  279.701   62.138   48.601    0.420    0.339
  280.001   65.712   47.299    0.437    0.346
  280.301   70.856   47.238    0.409    0.340
  280.601   79.356   51.505    0.399    0.338
  280.901   92.294   48.970    0.413    0.317
  281.201   95.798   45.826    0.395    0.310
  281.501   88.648   62.433    0.394    0.347
  281.801   82.044   55.584    0.427    0.401
  282.101   78.890   35.762    0.454    0.388
  282.401   77.303   38.786    0.387    0.357
  282.701   80.197   38.109    0.402    0.353
  283.000   81.663   34.944    0.390    0.333
  283.300   89.716   36.748    0.358    0.318
  283.600   94.856   62.631    0.314    0.287
  283.900   92.954   87.277    0.323    0.287
  284.200   86.035   90.303    0.380    0.321
  284.500   79.632   84.678    0.408    0.326
  284.800   75.111   68.562    0.414    0.326
  285.100   76.473   56.767    0.423    0.337
  285.400   79.349   52.377    0.388    0.347
  285.700   82.333   54.784    0.391    0.346
  286.000   82.223   58.434    0.397    0.349
  286.300   71.884   57.137    0.410    0.352
  286.600   36.832   57.686    0.420    0.347
  286.900   21.571   80.486    0.389    0.307
  287.200   17.805   81.044    0.289    0.179
  287.500   15.559   68.013    0.336    0.183
  287.800   14.679   24.718    0.414    0.247
  288.100   13.328   25.270    0.445    0.303
  288.400   11.427   28.914    0.338    0.302
  288.700   10.181   33.793    0.341    0.293
  289.000    8.898   35.581    0.306    0.270
  289.300    7.774   36.146    0.303    0.257
  289.600    7.477   38.557    0.305    0.273
  289.900    7.326   43.425    0.318    0.292
  290.200    7.603   44.595    0.384    0.279
  290.500    9.189   43.307    0.377    0.248
  290.800   10.097   46.338    0.316    0.219
  291.100   11.523   57.398    0.278    0.169
  291.400   12.662   50.536    0.290    0.112
  291.700   15.303   25.152    0.308    0.041
  292.000   20.345   22.622    0.190    0.042
  292.300   23.673   24.403    0.194    0.035
  292.600   26.010   27.432    0.188    0.025
  292.900   27.503   29.854    0.178    0.000
  293.200   29.084   32.877    0.179    0.000
  293.500   30.188   35.286    0.176    0.002
  293.800   32.536   33.980    0.161    0.013
  294.100   35.747   33.310    0.155    0.022
  294.400   37.099   32.020    0.158    0.031
  294.700   39.230   30.720    0.160    0.050
  295.000   40.694   31.275    0.162    0.070
  295.300   40.657   37.995    0.169    0.038
  295.600   39.839   37.944    0.193    0.040
  295.900   38.307   26.773    0.183    0.058
  296.200   36.835   19.914    0.163    0.047
  296.500   32.806   24.797    0.150    0.024
  296.800   30.942   34.615    0.141    0.023
  297.100   30.324   61.113    0.222    0.027
  297.400   30.880   50.550    0.218    0.022
  297.700   32.036   30.729    0.142    0.024
  298.000   30.807   23.875    0.153    0.026
  298.300   26.921   25.659    0.214    0.024
  298.600   30.147   26.207    0.213    0.024
  298.900   38.589   26.152    0.156    0.022
  299.200   43.214   24.853    0.146    0.000
  299.500   39.234   24.179    0.136    0.005
  299.800   34.954   24.115    0.160    0.018
  300.100   33.603   24.061    0.192    0.006
