~VERSION INFORMATION
 VERS.                 2.0:   CWLS LOG ASCII STANDARD -VERSION 2.0
 WRAP.                  NO:   ONE LINE PER DEPTH STEP
~WELL INFORMATION BLOCK
#MNEM.UNIT           DATA                    DESCRIPTION OF MNEMONIC
#---------    -------------------            -------------------------------
# Generated from Intellog Unique Number	CN_91_93/WELL/1163
WELL.         10-36-091-09W4                 : Well_name    - WELL
LOC .         AA/10-36-091-09W4/0            : Location     - LOCATION
UWI .         AA/10-36-091-09W400            : Uwi          - UNIQUE WELL ID
ENTR.         JOETTE                         : Entered      - ENTERED BY
SRVC.         SCHLUMBERGER                   : Scn          - SERVICE COMPANY
DATE.         01/22/92                       : Date         - LOG DATE
STRT.F        50                             : top_depth    - START DEPTH
STOP.F        479.79                         : bot_depth    - STOP DEPTH
STEP.F        0.8202                         : increment    - STEP LENGTH
 NULL. -999.2500:NULL Value
~CURVE INFORMATION BLOCK
#MNEM UNIT       ERCB CURVE CODE    CURVE DESCRIPTION
#-----------   ------------------   ----------------------------------
DEPT.F        00 001 00 00         : DEPTH        - DEPTH
CALI.IN       00 280 01 00         : CAL          - CALIPER
GR  .API      00 310 00 00         : GR           - GAMMA RAY
NPHI.V/V      00 330 00 00         : PHIN         - NEUTRON POROSITY (SANDSTONE)
ILD .OHMM     00 120 00 00         : RESD         - DEEP RESISTIVITY (DIL)
~PARAMETER INFORMATION
#MNEM.UNIT           DATA             DESCRIPTION OF MNEMONIC
#---------         -----------     ------------------------------
GL  .M        370.637              : gl           - GROUND LEVEL ELEVATION
EREF.M        372.161              : kb           - ELEVATION OF DEPTH REFERENCE
DATM.M        372.161              : datum        - DATUM ELEVATION
TDD .M        148.133              : tdd          - TOTAL DEPTH DRILLER
RUN .         ONE                  : Run          - RUN NUMBER
ENG .         BILL                 : Engineer     - RECORDING ENGINEER
WIT .         JIM                  : Witness      - WITNESSED BY
MUD .         GEL                  : Mud_type     - MUD TYPE
MATR.         SANDSTONE            : Logunit      - NEUTRON MATRIX
TMAX.F        48                   : BHT          - MAXIMUM RECORDED TEMPERATURE
BHTD.F        486                  : BHTDEP       - MAXIMUM RECORDED TEMPERATURE
RMT .F        47                   : MDTP         - TEMPERATURE OF MUD
MUDD.LB/G     9.16666              : MWT          - MUD DENSITY
NEUT.         1                    : NEUTRON      - NEUTRON TYPE
RESI.         0                    : RESIST       - RESISTIVITY TYPE
RM  .OHMM     9.8                  : RM           - RESISTIVITY OF MUD
RMC .OHMM     9.8                  : RMC          - RESISTIVITY OF MUD CAKE
RMF .OHMM     9.8                  : RMF          - RESISTIVITY OF MUD FILTRATE
SUFT.F        39.2                 : SUFT         - SURFACE TEMPERATURE
~A  DEPTH      CAL       GR     PHIN     RESD
   50.000   10.953   33.101    0.419   66.681
   50.820   11.666   34.319    0.439   81.610
   51.640   11.507   42.467    0.404   86.308
   52.461   11.268   46.006    0.380   81.053
   53.281   11.108   41.077    0.366   74.071
   54.101   11.068   38.437    0.361   68.928
   54.921   11.186   33.525    0.377   65.325
   55.742   11.344   31.653    0.376   61.918
   56.562   11.581   30.966    0.376   61.413
   57.382   11.857   32.568    0.386   78.661
   58.202   11.975   34.954    0.389   75.922
   59.022   11.895   36.539    0.383   76.003
   59.843   11.656   38.909    0.330   70.746
   60.663   11.457   43.216    0.342   50.509
   61.483   11.336   40.977    0.354   39.159
   62.303   11.336   39.505    0.351   41.413
   63.123   11.374   39.203    0.325   60.276
   63.944   11.373   40.036    0.345   52.148
   64.764   11.293   42.022    0.363   42.706
   65.584   11.133   44.408    0.369   39.022
   66.404   10.894   45.242    0.376   31.097
   67.224   10.734   45.307    0.351   27.897
   68.045   10.575   45.756    0.351   23.913
   68.865   10.494   47.006    0.346   23.942
   69.685   10.572   47.807    0.340   23.534
   70.505   10.611   49.041    0.344   20.730
   71.326   10.690   46.017    0.351   17.769
   72.146   10.886   40.320    0.360   26.103
   72.966   10.965   37.696    0.374   36.302
   73.786   11.123   32.367    0.426   40.548
   74.606   11.360   28.591    0.498   35.075
   75.427   11.597   28.672    0.539   29.522
   76.247   11.676   32.562    0.540   34.836
   77.067   11.834   37.638    0.537   44.626
   77.887   11.674   34.630    0.528   41.156
   78.707   11.435   33.158    0.520   30.203
   79.528   10.838   36.681    0.532   25.889
   80.348   10.282   42.140    0.504   35.673
   81.168   10.201   44.911    0.458   39.489
   81.988   10.041   47.665    0.344   26.211
   82.808    9.922   50.803    0.319   18.892
   83.629    9.127   55.494    0.319   18.738
   84.449    8.808   61.338    0.333   15.916
   85.269    8.569   67.565    0.359   13.398
   86.089    8.409   75.329    0.377   12.131
   86.909    8.210   75.411    0.410   12.144
   87.730    8.130   73.171    0.410   13.689
   88.550    8.009   70.932    0.398   16.450
   89.370    7.889   69.444    0.386   16.771
   90.190    7.809   67.972    0.385   16.945
   91.010    7.728   66.101    0.353   20.929
   91.831    7.688   58.483    0.340   21.531
   92.651    7.687   54.691    0.305   31.629
   93.471    7.686   55.925    0.274   54.760
   94.291    7.764   60.599    0.357   38.399
   95.112    7.763   64.522    0.392   28.184
   95.932    7.723   61.130    0.404   19.055
   96.752    7.642   61.228    0.427   15.183
   97.572    7.482   61.293    0.477   14.389
   98.392    7.402   59.021    0.454   14.017
   99.213    7.322   57.181    0.453   14.552
  100.033    7.361   59.151    0.453   14.974
  100.853    7.598   63.842    0.439   14.585
  101.673    7.795   68.133    0.429   16.143
  102.493    8.032   71.688    0.417   13.220
  103.314    8.190   73.290    0.413   11.863
  104.134    8.387   73.722    0.431   11.768
  104.954    8.545   75.757    0.444   11.782
  105.774    8.822   76.942    0.434   11.372
  106.594    8.900   78.160    0.419   10.777
  107.415    9.058   74.768    0.405   10.122
  108.235    9.137   73.680    0.397   10.318
  109.055    9.215   72.593    0.401   12.742
  109.875    9.214   71.890    0.403   18.890
  110.696    9.213   71.588    0.405   13.992
  111.516    9.212   71.653    0.406   10.947
  112.336    9.211   72.102    0.405   10.860
  113.156    9.210   71.783    0.405    9.140
  113.976    9.209   71.848    0.427    7.623
  114.797    9.248   73.082    0.435    6.476
  115.617    9.287   71.594    0.415    6.025
  116.437    9.285   67.434    0.411    6.793
  117.257    9.284   64.058    0.415    9.025
  118.077    9.284   65.660    0.417    8.872
  118.898    9.243   68.014    0.416    6.816
  119.718    9.202   71.168    0.412    7.825
  120.538    9.161   73.922    0.407   10.301
  121.358    9.161   74.756    0.409    8.993
  122.178    9.159   74.453    0.434    5.448
  122.999    9.159   73.750    0.452    2.879
  123.819    9.157   72.663    0.463    3.017
  124.639    9.117   70.791    0.451    5.128
  125.459    9.116   69.704    0.432    6.569
  126.280    9.075   73.259    0.420    7.010
  127.100    9.035   75.612    0.409    7.346
  127.920    8.994   75.342    0.402    8.057
  128.740    8.953   74.991    0.392    7.567
  129.560    8.913   74.287    0.384    7.439
  130.381    8.911   72.816    0.374   10.345
  131.201    8.910   70.176    0.364   12.893
  132.021    8.910   68.320    0.356   17.930
  132.841    8.948   70.339    0.349   16.235
  133.661    8.987   70.788    0.379   10.203
  134.482    9.025   70.469    0.386   10.029
  135.302    9.025   69.766    0.391   11.306
  136.122    9.024   67.894    0.406   14.220
  136.942    9.023   64.502    0.426   15.741
  137.762    9.022   61.511    0.453    8.391
  138.583    9.020   60.807    0.500    2.215
  139.403    8.980   60.873    0.521    2.408
  140.223    8.979   60.938    0.511    2.789
  141.043    8.978   61.403    0.502    2.743
  141.864    8.977   61.436    0.499    2.671
  142.684    8.976   61.117    0.489    2.799
  143.504    8.975   60.798    0.476    3.126
  144.324    8.974   60.880    0.474    3.757
  145.144    8.973   60.945    0.474    5.037
  145.965    8.932   60.642    0.458    6.453
  146.785    8.932   59.555    0.445    8.043
  147.605    8.931   58.467    0.441    5.691
  148.425    8.930   57.012    0.429    5.153
  149.245    8.929   56.293    0.412    5.652
  150.066    8.927   57.511    0.381   10.336
  150.886    8.966   59.480    0.344   13.120
  151.706    8.965   63.403    0.340   10.941
  152.526    9.004   65.005    0.369   10.756
  153.346    9.082   67.007    0.384    7.611
  154.167    9.082   67.456    0.407    4.209
  154.987    9.160   66.753    0.434    4.331
  155.807    9.159   67.202    0.454    4.708
  156.627    9.197   68.420    0.474    4.714
  157.448    9.236   70.054    0.486    4.718
  158.268    9.235   70.119    0.491    5.080
  159.088    9.273   69.048    0.480    4.773
  159.908    9.273   68.313    0.473    4.321
  160.728    9.272   66.841    0.482    4.365
  161.549    9.271   65.754    0.488    4.744
  162.369    9.270   65.435    0.491    4.537
  163.189    9.269   66.653    0.487    4.501
  164.009    9.228   68.687    0.481    4.717
  164.829    9.227   69.104    0.464    4.897
  165.650    9.147   68.785    0.444    5.622
  166.470    9.067   68.082    0.424    6.223
  167.290    8.907   67.763    0.409    5.686
  168.110    8.826   69.749    0.396    5.056
  168.930    8.825   72.151    0.412    5.015
  169.751    8.864   72.601    0.427    4.753
  170.571    8.863   73.434    0.438    4.423
  171.391    8.862   72.347    0.429    4.677
  172.211    8.782   67.402    0.400    7.952
  173.031    8.741   63.242    0.374   11.788
  173.852    8.621   60.602    0.306   14.165
  174.672    8.541   57.594    0.289   17.495
  175.492    8.460   53.433    0.269   23.893
  176.312    8.380   48.889    0.257   29.235
  177.133    8.339   55.100    0.256   36.773
  177.953    8.338   59.807    0.264   27.747
  178.773    8.337   62.562    0.271   20.547
  179.593    8.336   68.773    0.324   14.017
  180.413    8.375   73.480    0.337   22.974
  181.234    8.414   63.525    0.342   17.650
  182.054    8.413   57.044    0.342   15.836
  182.874    8.491   46.721    0.325   15.145
  183.694    8.490   39.488    0.319   17.389
  184.514    8.568   37.632    0.319   21.671
  185.335    8.567   40.035    0.318   27.259
  186.155    8.566   41.220    0.321   21.330
  186.975    8.446   42.437    0.323   17.788
  187.795    8.366   42.519    0.307   16.108
  188.615    8.166   41.431    0.292   21.012
  189.436    8.126   39.976    0.282  174.915
  190.256    8.086   38.489    0.269  322.864
  191.076    8.124   37.401    0.276  421.164
  191.896    8.163   34.778    0.285  332.539
