~VERSION INFORMATION
 VERS.                 2.0:   CWLS LOG ASCII STANDARD -VERSION 2.0
 WRAP.                  NO:   ONE LINE PER DEPTH STEP
~WELL INFORMATION BLOCK
#MNEM.UNIT           DATA                    DESCRIPTION OF MNEMONIC
#---------    -------------------            -------------------------------
# Generated from Intellog Unique Number	CS_77_79/WELL/944
LOC .         AA/10-11-077-08W4/0            : Location     - LOCATION
UWI .         AA/10-11-077-08W4/0            : Uwi          - UNIQUE WELL ID
ENTR.         SP                             : Entered      - ENTERED BY
SRVC.         SCHLUMBERGER                   : Scn          - SERVICE COMPANY
STRT.M        140                            : top_depth    - START DEPTH
STOP.M        385                            : bot_depth    - STOP DEPTH
STEP.M        0.25                           : increment    - STEP LENGTH
 NULL. -999.2500:NULL Value
~CURVE INFORMATION BLOCK
#MNEM UNIT       ERCB CURVE CODE    CURVE DESCRIPTION
#-----------   ------------------   ----------------------------------
DEPT.M        00 001 00 00         : DEPTH        - DEPTH
ILD .OHMM     00 120 00 00         : RESD         - DEEP RESISTIVITY (DIL)
DPHI.V/V      00 890 00 00         : PHID         - DENSITY POROSITY (LIMESTONE)
NPHI.V/V      00 330 00 00         : PHIN         - NEUTRON POROSITY (LIMESTONE)
GR  .API      00 310 00 00         : GR           - GAMMA RAY
~PARAMETER INFORMATION
#MNEM.UNIT           DATA             DESCRIPTION OF MNEMONIC
#---------         -----------     ------------------------------
GL  .M        566.83               : gl           - GROUND LEVEL ELEVATION
EREF.M        570.4                : kb           - ELEVATION OF DEPTH REFERENCE
DATM.M        566.83               : datum        - DATUM ELEVATION
TDD .M        391                  : tdd          - TOTAL DEPTH DRILLER
RUN .         ONE                  : Run          - RUN NUMBER
ENG .         BILL                 : Engineer     - RECORDING ENGINEER
WIT .         JIM                  : Witness      - WITNESSED BY
MUD .         GEL                  : Mud_type     - MUD TYPE
MATR.         LIMESTONE            : Logunit      - NEUTRON MATRIX
TMAX.C        16                   : BHT          - MAXIMUM RECORDED TEMPERATURE
BHTD.M        391                  : BHTDEP       - MAXIMUM RECORDED TEMPERATURE
MATR.         1                    : LOGUNIT      - NEUTRON MATRIX
RMT .C        25                   : MDTP         - TEMPERATURE OF MUD
NEUT.         1                    : NEUTRON      - NEUTRON TYPE
RESI.         0                    : RESIST       - RESISTIVITY TYPE
RMC .OHMM     0.25                 : RMC          - RESISTIVITY OF MUD CAKE
RMF .OHMM     0.25                 : RMF          - RESISTIVITY OF MUD FILTRATE
SUFT.C        15                   : SUFT         - SURFACE TEMPERATURE
~A  DEPTH     RESD     PHID     PHIN       GR
# ...
  357.500   15.615    0.209    0.306   72.521
  357.750   16.220    0.218    0.322   70.661
  358.000   16.222    0.220    0.316   73.760
  358.250   15.329    0.224    0.318   67.562
  358.500   13.685    0.208    0.313   75.000
  358.750   12.689    0.165    0.317   91.116
  359.000   12.453    0.175    0.308   91.736
  359.250   12.454    0.182    0.320   91.116
  359.500   11.548    0.187    0.317   89.256
  359.750   11.550    0.192    0.325   85.537
  360.000   11.772    0.194    0.324   84.297
  360.250   12.700    0.205    0.331   81.198
  360.500   13.191    0.207    0.312   77.479
  360.750   13.963    0.204    0.296   79.339
  361.000   14.781    0.203    0.300   76.240
  361.250   15.945    0.203    0.295   71.281
  361.500   16.253    0.214    0.297   66.322
  361.750   15.950    0.218    0.301   68.802
  362.000   14.512    0.203    0.298   80.579
  362.250   13.455    0.187    0.297   83.678
  362.500   12.014    0.180    0.297   88.636
  362.750   11.569    0.173    0.309   84.917
  363.000   11.353    0.170    0.315   81.818
  363.250   11.142    0.176    0.310   81.198
  363.500   11.143    0.171    0.309   79.959
  363.750   11.145    0.173    0.315   78.099
  364.000   11.146    0.172    0.308   78.719
  364.250   11.361    0.175    0.315   81.198
  364.500   11.579    0.186    0.309   84.297
  364.750   12.492    0.206    0.318   78.719
  365.000   12.731    0.230    0.313   70.661
  365.250   12.977    0.238    0.308   75.000
  365.500   12.978    0.248    0.309   67.562
  365.750   12.980    0.257    0.310   58.884
  366.000   12.738    0.264    0.302   50.826
  366.250   12.268    0.272    0.315   53.306
  366.500   11.814    0.279    0.321   49.587
  366.750   11.376    0.277    0.309   48.347
  367.000   10.749    0.277    0.323   42.769
  367.250   10.351    0.279    0.329   43.388
  367.500    9.968    0.281    0.309   47.727
  367.750    9.419    0.283    0.298   50.207
  368.000    8.570    0.286    0.281   52.686
  368.250    7.946    0.286    0.263   47.727
  368.500    7.799    0.283    0.251   50.207
  368.750    7.948    0.243    0.242   66.322
  369.000    7.949    0.138    0.238  110.331
  369.250    7.802    0.138    0.228   97.934
  369.500    7.656    0.156    0.236   93.595
  369.750    7.657    0.168    0.254   91.116
  370.000    7.805    0.170    0.323   91.116
  370.250    7.660    0.167    0.304   93.595
  370.500    7.661    0.174    0.273   91.736
  370.750    7.661    0.181    0.264   88.016
  371.000    7.378    0.206    0.243   66.322
  371.250    7.105    0.217    0.236   53.306
  371.500    6.972    0.214    0.227   40.909
  371.750    6.974    0.210    0.251   40.289
  372.000    6.974    0.205    0.272   47.727
  372.250    6.845    0.202    0.293   57.645
  372.500    6.346    0.202    0.296   66.322
  372.750    5.997    0.211    0.293   68.182
  373.000    5.354    0.251    0.306   50.826
  373.250    5.059    0.264    0.298   63.223
  373.500    4.872    0.269    0.299   61.983
  373.750    4.692    0.271    0.305   53.926
  374.000    4.604    0.281    0.295   54.545
  374.250    4.434    0.288    0.342   47.727
  374.500    4.351    0.289    0.353   37.190
  374.750    4.270    0.291    0.347   34.711
  375.000    4.352    0.291    0.300   38.430
  375.250    4.436    0.288    0.298   45.868
  375.500    4.608    0.277    0.309   57.025
  375.750    4.786    0.259    0.298   76.240
  376.000    5.362    0.193    0.299  105.992
  376.250    5.785    0.163    0.317  112.810
  376.500    6.241    0.137    0.345  118.388
  376.750    6.482    0.139    0.352  126.446
  377.000    6.607    0.142    0.343  122.727
  377.250    6.484    0.147    0.349  116.529
  377.500    6.012    0.158    0.358  112.810
  377.750    5.470    0.167    0.349  112.190
  378.000    5.169    0.155    0.336  116.529
  378.250    5.169    0.144    0.320  112.810
  378.500    5.269    0.123    0.290  117.149
  378.750    5.578    0.096    0.270  117.149
  379.000    5.793    0.086    0.243  102.893
  379.250    6.491    0.074    0.209   90.496
  379.500    7.553    0.050    0.182   69.421
  379.750   11.030    0.015    0.146   40.909
  380.000   12.358    0.000    0.108   22.314
  380.250   16.416    0.000    0.084   21.694
  380.500   43.927    0.000    0.081   22.934
  380.750   51.114    0.005    0.081   26.033
  381.000   53.093    0.007    0.085   29.752
  381.250   51.129    0.005    0.091   39.050
  381.500   45.647    0.010    0.107   41.529
  381.750   40.754    0.014    0.128   41.529
  382.000   39.245    0.017    0.135   42.149
  382.250   38.513    0.022    0.134   30.992
  382.500   38.522    0.029    0.127   24.174
  382.750   39.263    0.032    0.122   20.454
  383.000   40.783    0.031    0.116   19.835
  383.250   42.361    0.029    0.114   22.934
  383.500   44.840    0.026    0.113   22.934
  383.750   46.574    0.022    0.111   21.074
  384.000   50.243    0.023    0.108   21.074
  384.250   56.295    0.029    0.102   24.174
  384.500   60.732    0.033    0.100   25.413
  384.750   63.081    0.036    0.102   26.653
  385.000   63.090    0.039    0.108   23.554
