~VERSION INFORMATION
 VERS.                 2.0:   CWLS LOG ASCII STANDARD -VERSION 2.0
 WRAP.                  NO:   ONE LINE PER DEPTH STEP
~WELL INFORMATION BLOCK
#MNEM.UNIT           DATA                    DESCRIPTION OF MNEMONIC
#---------    -------------------            -------------------------------
# Generated from Intellog Unique Number	CX_WELLS/WELL/3810
WELL.         HUDSON BAY                     : Well_name    - WELL
LOC .         AA/12-28-086-10W4/0            : Location     - LOCATION
UWI .         AA/12-28-086-10W400            : Uwi          - UNIQUE WELL ID
ENTR.         T                              : Entered      - ENTERED BY
SRVC.         SCHLUMBERGER                   : Scn          - SERVICE COMPANY
STRT.F        100                            : top_depth    - START DEPTH
STOP.F        620.013                        : bot_depth    - STOP DEPTH
STEP.F        0.82                           : increment    - STEP LENGTH
 NULL. -999.2500:NULL Value
~CURVE INFORMATION BLOCK
#MNEM UNIT       ERCB CURVE CODE    CURVE DESCRIPTION
#-----------   ------------------   ----------------------------------
DEPT.F        00 001 00 00         : DEPTH        - DEPTH
GR  .API      00 310 00 00         : GR           - GAMMA RAY
NPHI.V/V      00 330 00 00         : PHIN         - NEUTRON POROSITY (SANDSTONE)
ILD .OHMM     00 120 00 00         : RESD         - DEEP RESISTIVITY (DIL)
~PARAMETER INFORMATION
#MNEM.UNIT           DATA             DESCRIPTION OF MNEMONIC
#---------         -----------     ------------------------------
GL  .F        1474                 : gl           - GROUND LEVEL ELEVATION
EREF.F        1474                 : kb           - ELEVATION OF DEPTH REFERENCE
DATM.F        1474                 : datum        - DATUM ELEVATION
TDD .F        625                  : tdd          - TOTAL DEPTH DRILLER
RUN .         ONE                  : Run          - RUN NUMBER
ENG .         BILL                 : Engineer     - RECORDING ENGINEER
WIT .         JIM                  : Witness      - WITNESSED BY
MUD .         GEL                  : Mud_type     - MUD TYPE
MATR.         SANDSTONE            : Logunit      - NEUTRON MATRIX
TMAX.F        58                   : BHT          - MAXIMUM RECORDED TEMPERATURE
BHTD.F        625                  : BHTDEP       - MAXIMUM RECORDED TEMPERATURE
MATR.         1                    : LOGUNIT      - NEUTRON MATRIX
RMT .F        58                   : MDTP         - TEMPERATURE OF MUD
NEUT.         1                    : NEUTRON      - NEUTRON TYPE
RESI.         7                    : RESIST       - RESISTIVITY TYPE
RMC .OHMM     8.2                  : RMC          - RESISTIVITY OF MUD CAKE
RMF .OHMM     8.2                  : RMF          - RESISTIVITY OF MUD FILTRATE
SUFT.F        39.2                 : SUFT         - SURFACE TEMPERATURE
~A  DEPTH       GR     PHIN     RESD
  100.000   99.851    0.394    6.186
  100.820   99.492    0.382    6.924
  101.640   99.548    0.376    7.334
  102.461  100.736    0.373    7.375
  103.281   98.864    0.368    7.785
  104.101   94.715    0.360    8.865
  104.921   94.390    0.357    9.262
  105.741   96.711    0.352    9.316
  106.562   99.054    0.354    9.726
  107.382  102.160    0.358   10.806
  108.202  104.480    0.364   11.545
  109.022  102.619    0.362   11.599
  109.843   93.896    0.356   12.009
  110.663   89.736    0.351   12.405
  111.483   85.980    0.352   12.788
  112.303   86.013    0.354   12.869
  113.123   83.771    0.354   12.923
  113.944   81.540    0.353   12.964
  114.764   82.347    0.352   12.689
  115.584   85.060    0.353   12.046
  116.404   91.585    0.354   11.416
  117.224   95.835    0.355   10.457
  118.045   98.929    0.356    9.485
  118.865  102.404    0.360   10.579
  119.685  103.223    0.363   12.686
  120.505   94.489    0.367   15.833
  121.325   84.611    0.363   17.242
  122.146   70.158    0.353   17.981
  122.966   57.230    0.341   17.350
  123.786   48.126    0.335   17.760
  124.606   42.834    0.334   19.539
  125.427   40.210    0.334   18.553
  126.247   41.029    0.332   15.870
  127.067   41.443    0.327   13.529
  127.887   40.726    0.324   15.636
  128.707   37.721    0.322   14.677
  129.528   40.053    0.325   12.665
  130.348   44.291    0.331   11.351
  131.168   54.258    0.338   15.524
  131.988   52.397    0.345   20.724
  132.808   47.105    0.336   21.120
  133.629   43.337    0.326   21.872
  134.449   38.415    0.322   23.295
  135.269   33.123    0.315   21.296
  136.089   35.455    0.313   19.640
  136.909   41.610    0.305   16.970
  137.730   48.147    0.303   17.695
  138.550   53.158    0.306   21.527
  139.370   55.479    0.311   25.345
  140.190   54.761    0.320   26.781
  141.010   47.182    0.323   24.084
  141.831   39.210    0.312   17.637
  142.651   33.536    0.314   14.954
  143.471   44.648    0.326   14.324
  144.291   72.543    0.339   13.694
  145.112   77.555    0.348   13.406
  145.932   77.599    0.356   15.855
  146.752   76.500    0.360   22.082
  147.572   75.794    0.362   27.966
  148.392   74.684    0.353   31.811
  149.213   40.005    0.335   33.590
  150.033   36.249    0.316   34.657
  150.853   35.912    0.318   36.449
  151.673   35.957    0.319   37.160
  152.493   38.300    0.311   37.898
  153.314   39.870    0.304   37.282
  154.134   39.925    0.303   36.638
  154.954   39.567    0.304   35.351
  155.774   40.755    0.302   35.049
  156.594   41.203    0.300   35.103
  157.415   40.093    0.304   35.513
  158.235   38.613    0.312   35.225
  159.055   37.514    0.321   35.266
  159.875   36.808    0.320   35.005
  160.696   36.460    0.317   33.691
  161.516   35.742    0.312   33.403
  162.336   35.025    0.312   33.101
  163.156   36.235    0.310   32.484
  163.976   36.639    0.306   31.841
  164.797   37.065    0.303   30.526
  165.617   37.121    0.301   30.580
  166.437   36.773    0.301   30.635
  167.257   36.055    0.309   30.716
  168.077   36.134    0.314   31.126
  168.898   36.560    0.314   31.153
  169.718   36.974    0.314   31.549
  170.538   37.389    0.315   22.352
  171.358   37.826    0.315   15.905
  172.178   38.252    0.318   10.826
  172.999   38.667    0.322   10.894
  173.819   41.010    0.331   10.962
  174.639   50.204    0.351   11.345
  175.459  101.376    0.362   11.727
  176.280  100.288    0.359   11.453
  177.100   91.935    0.357   10.823
  177.920   88.167    0.353   10.193
  178.740   84.400    0.355    9.905
  179.560   83.693    0.363    9.275
  180.381   85.633    0.370    8.987
  181.201   94.087    0.378    8.370
  182.021   97.170    0.390    7.753
  182.841  104.469    0.397    7.794
  183.661  108.326    0.396    7.520
  184.482  110.658    0.396    7.560
  185.302  111.857    0.402    7.299
  186.122  111.140    0.411    7.011
  186.942  108.516    0.417    7.052
  187.762  105.500    0.410    6.422
  188.583  105.544    0.402    6.134
  189.403  107.125    0.405    5.859
  190.223  106.789    0.405    5.216
  191.043  101.115    0.399    4.941
  191.864   95.431    0.399    4.640
  192.684   90.901    0.397    4.365
  193.504   90.183    0.393    4.406
  194.324   91.371    0.390    4.473
  195.144   92.179    0.392    4.199
  195.965   96.809    0.393    4.253
  196.785   99.533    0.395    4.321
  197.605  100.722    0.395    4.348
  198.425  101.148    0.394    4.416
  199.245  102.336    0.398    4.456
  200.066  104.298    0.400    4.524
  200.886  106.260    0.402    4.592
  201.706  107.045    0.404    4.659
  202.526  105.183    0.399    4.344
  203.346  101.416    0.395    4.439
  204.167   99.174    0.404    4.466
  204.987   98.075    0.407    4.547
  205.807   96.976    0.398    4.588
  206.627   95.507    0.395    4.642
  207.448   94.789    0.396    4.683
  208.268   95.215    0.399    5.093
  209.088   94.497    0.399    5.530
  209.908   93.768    0.397    5.912
  210.728   90.775    0.402    5.939
  211.549   90.057    0.407    6.336
  212.369   91.997    0.409    9.141
  213.189   92.456    0.405   11.248
  214.009   90.572    0.389   17.132
  214.829   87.175    0.350   18.911
  215.650   80.358    0.329   15.530
  216.470   70.861    0.314   12.162
  217.290   59.088    0.307   13.243
  218.110   57.608    0.309   18.785
  218.930   55.747    0.318    7.535
  219.751   54.267    0.318    8.615
  220.571   53.168    0.316   10.407
  221.391   54.737    0.321    8.053
  222.211   58.976    0.338    4.343
  223.031   66.656    0.357    2.344
  223.852   65.557    0.343    3.083
  224.672   62.563    0.349    3.821
  225.492   64.884    0.368    4.218
  226.312   71.802    0.391    4.285
  227.133   78.327    0.386    5.380
  227.953   82.957    0.382    6.104
  228.773   82.621    0.375    7.897
  229.593   80.378    0.372    8.279
  230.413   75.467    0.364    8.333
  231.234   71.307    0.356    8.045
  232.054   66.778    0.356    8.100
  232.874   68.728    0.358    7.812
  233.694   68.773    0.359    9.261
  234.514   66.149    0.359   10.342
  235.335   62.763    0.359   10.725
  236.155   61.675    0.359   10.108
  236.975   62.090    0.360    9.136
  237.795   65.958    0.361    7.822
  238.615   69.445    0.361    9.258
  239.436   70.633    0.357   11.351
  240.256   71.833    0.342   16.907
  241.076   71.474    0.315   14.210
  241.896   65.801    0.237   10.501
  242.717   55.923    0.247    7.804
  243.537   49.498    0.304    7.516
  244.357   51.438    0.321    6.913
  245.177   56.068    0.328    7.296
  245.997   61.069    0.339    7.706
  246.818   67.986    0.358    7.747
  247.638   71.854    0.375    7.801
  248.458   74.567    0.379    8.566
  249.278   78.043    0.384    8.963
  250.098   80.375    0.374    9.359
  250.919   80.050    0.358    8.715
  251.739   77.796    0.347    7.072
  252.559   75.553    0.353    5.771
  253.379   74.836    0.363    5.456
  254.199   79.859    0.381    6.222
  255.020   81.809    0.386    7.644
  255.840   83.760    0.395    9.067
  256.660   85.319    0.398   11.201
  257.480   86.529    0.395   11.913
  258.301   85.800    0.391   10.954
  259.121   83.177    0.383   10.310
  259.941   79.028    0.367    8.654
  260.761   76.393    0.353    7.695
  261.581   73.781    0.344    7.407
  262.402   71.527    0.350    7.105
  263.222   72.345    0.373    7.200
  264.042   75.832    0.383    7.227
  264.862   79.296    0.399    7.295
  265.682  102.617    0.411    7.336
  266.503  138.148    0.416    7.075
  267.323  134.762    0.419    7.129
  268.143  127.553    0.410    7.169
  268.963  119.211    0.402    7.237
  269.783  109.714    0.403    7.620
  270.604  100.980    0.401    8.372
  271.424   91.875    0.407    9.453
  272.244   94.589    0.415    9.849
  273.064   93.108    0.419    9.917
  273.885   88.579    0.388    9.615
  274.705   85.204    0.374   10.025
  275.525   83.712    0.376   11.475
  276.345   84.138    0.377   12.542
  277.165   86.481    0.376   14.662
