~VERSION INFORMATION
 VERS.                 2.0:   CWLS LOG ASCII STANDARD -VERSION 2.0
 WRAP.                  NO:   ONE LINE PER DEPTH STEP
~WELL INFORMATION BLOCK
#MNEM.UNIT           DATA                    DESCRIPTION OF MNEMONIC
#---------    -------------------            -------------------------------
# Generated from Intellog Unique Number	CS_77_79/WELL/992
WELL.         PEX PCEJ LEISMER OV            : Well_name    - WELL
LOC .         AA/11-08-078-08W4/0            : Location     - LOCATION
UWI .         AA/11-08-078-08W4/0            : Uwi          - UNIQUE WELL ID
ENTR.         JHS                            : Entered      - ENTERED BY
SRVC.         SCHLUMBERGER                   : Scn          - SERVICE COMPANY
STRT.M        155                            : top_depth    - START DEPTH
STOP.M        375                            : bot_depth    - STOP DEPTH
STEP.M        0.25                           : increment    - STEP LENGTH
 NULL. -999.2500:NULL Value
~CURVE INFORMATION BLOCK
#MNEM UNIT       ERCB CURVE CODE    CURVE DESCRIPTION
#-----------   ------------------   ----------------------------------
DEPT.M        00 001 00 00         : DEPTH        - DEPTH
DPHI.V/V      00 890 00 00         : PHID         - DENSITY POROSITY (LIMESTONE)
NPHI.V/V      00 330 00 00         : PHIN         - NEUTRON POROSITY (LIMESTONE)
GR  .API      00 310 00 00         : GR           - GAMMA RAY
ILD .OHMM     00 120 00 00         : RESD         - DEEP RESISTIVITY (DIL)
RHOB.KG/M3    00 350 00 00         : DENS         - BULK DENSITY
~PARAMETER INFORMATION
#MNEM.UNIT           DATA             DESCRIPTION OF MNEMONIC
#---------         -----------     ------------------------------
GL  .M        587.96               : gl           - GROUND LEVEL ELEVATION
EREF.M        591.54               : kb           - ELEVATION OF DEPTH REFERENCE
DATM.M        591.54               : datum        - DATUM ELEVATION
TDD .M        377.6                : tdd          - TOTAL DEPTH DRILLER
RUN .         ONE                  : Run          - RUN NUMBER
ENG .         BILL                 : Engineer     - RECORDING ENGINEER
WIT .         JIM                  : Witness      - WITNESSED BY
MUD .         GEL                  : Mud_type     - MUD TYPE
MATR.         LIMESTONE            : Logunit      - NEUTRON MATRIX
TMAX.C        17                   : BHT          - MAXIMUM RECORDED TEMPERATURE
BHTD.M        377.6                : BHTDEP       - MAXIMUM RECORDED TEMPERATURE
MATR.         1                    : LOGUNIT      - NEUTRON MATRIX
RMT .C        25                   : MDTP         - TEMPERATURE OF MUD
NEUT.         1                    : NEUTRON      - NEUTRON TYPE
RESI.         0                    : RESIST       - RESISTIVITY TYPE
RMC .OHMM     0.25                 : RMC          - RESISTIVITY OF MUD CAKE
RMF .OHMM     0.25                 : RMF          - RESISTIVITY OF MUD FILTRATE
SUFT.C        15                   : SUFT         - SURFACE TEMPERATURE
~A  DEPTH     PHID     PHIN       GR     RESD     DENS
# ...
  191.500    0.312    0.423   59.188   16.785    0.000
  191.750    0.312    0.419   78.412   15.577    0.000
  192.000    0.315    0.438   79.043   14.729    0.000
  192.250    0.289    0.416   73.475   14.191    0.000
  192.500    0.261    0.400   87.123   13.930    0.000
  192.750    0.234    0.409  102.009   14.197    0.000
  193.000    0.205    0.411  107.602   14.468    0.000
  193.250    0.231    0.417  112.568   15.307    0.000
  193.500    0.280    0.433  113.200   15.894    0.000
  193.750    0.296    0.433  103.291   16.504    0.000
  194.000    0.291    0.456   97.725   17.137    0.000
  194.250    0.279    0.471   92.776   16.823    0.000
  194.500    0.269    0.442  113.241   15.323    0.000
  194.750    0.248    0.419  120.069   13.194    0.000
  195.000    0.223    0.426  136.816   10.155    0.000
  195.250    0.204    0.481  149.224    8.267    0.000
  195.500    0.198    0.505  154.815    6.605    0.000
  195.750    0.196    0.525  153.584    5.904    0.000
  196.000    0.163    0.511  145.537    5.796    0.000
  196.250    0.121    0.502  142.448    6.018    0.000
  196.500    0.083    0.471  139.358    6.735    0.000
  196.750    0.175    0.419  123.873    8.278    0.000
  197.000    0.254    0.430  143.718    9.263    0.000
  197.250    0.269    0.456  148.688   10.175    0.000
  197.500    0.280    0.445  138.161   11.386    0.000
  197.750    0.286    0.420  144.371   12.506    0.000
  198.000    0.291    0.417  145.620   13.996    0.000
  198.250    0.285    0.418  153.689   14.533    0.000
  198.500    0.260    0.427  132.625   13.238    0.000
  198.750    0.251    0.422  124.579   12.516    0.000
  199.000    0.255    0.423  122.109   12.060    0.000
  199.250    0.266    0.439  128.318   12.062    0.000
  199.500    0.270    0.445  137.006   12.293    0.000
  199.750    0.269    0.453  129.579   12.527    0.000
  200.000    0.279    0.437  124.012   13.254    0.000
  200.250    0.287    0.425  120.923   14.287    0.000
  200.500    0.291    0.408  115.354   14.835    0.000
  200.750    0.294    0.386  104.206   15.697    0.000
  201.000    0.297    0.377   93.061   15.699    0.000
  201.250    0.293    0.381   88.731   15.702    0.000
  201.500    0.272    0.393   87.502   15.706    0.000
  201.750    0.258    0.394  103.629   16.006    0.000
  202.000    0.266    0.401  107.359   16.620    0.000
  202.250    0.271    0.387  103.031   16.937    0.000
  202.500    0.270    0.371   91.884   17.262    0.000
  202.750    0.220    0.377   82.597   16.631    0.000
  203.000    0.201    0.358   87.567   15.148    0.000
  203.250    0.233    0.375   98.733   13.291    0.000
  203.500    0.223    0.397  106.182   12.105    0.000
  203.750    0.223    0.410  109.914   10.231    0.000
  204.000    0.226    0.429  126.039    9.494    0.000
  204.250    0.217    0.436  145.885    8.811    0.000
  204.500    0.215    0.463  140.316    8.026    0.000
  204.750    0.217    0.483  147.146    7.589    0.000
  205.000    0.227    0.494  143.440    7.311    0.000
  205.250    0.233    0.485  139.727    7.313    0.000
  205.500    0.233    0.482  135.400    7.737    0.000
  205.750    0.239    0.471  132.311    8.659    0.000
  206.000    0.258    0.467  121.784    9.690    0.000
  206.250    0.276    0.452  113.737   10.643    0.000
  206.500    0.285    0.459  119.945   11.473    0.000
  206.750    0.271    0.471  110.658   11.914    0.000
  207.000    0.243    0.509  115.628   11.265    0.000
  207.250    0.246    0.480  118.117    9.883    0.000
  207.500    0.249    0.492  128.666    9.003    0.000
  207.750    0.267    0.525  137.355    8.838    0.000
  208.000    0.290    0.503  133.647    8.839    0.000
  208.250    0.317    0.505  123.738    9.008    0.000
  208.500    0.269    0.492  118.172   10.272    0.000
  208.750    0.246    0.460  120.041   10.868    0.000
  209.000    0.225    0.456  128.110   11.937    0.000
  209.250    0.200    0.434  121.921   12.395    0.000
  209.500    0.209    0.410  112.633   12.397    0.000
  209.750    0.245    0.421  115.744   11.944    0.000
  210.000    0.263    0.441  112.655   11.725    0.000
  210.250    0.285    0.445  111.427   11.729    0.000
  210.500    0.285    0.410  117.634   11.953    0.000
  210.750    0.273    0.394  117.025   11.954    0.000
  211.000    0.276    0.401  110.218   12.648    0.000
  211.250    0.275    0.432  106.509   12.889    0.000
  211.500    0.274    0.432  118.916   12.653    0.000
  211.750    0.271    0.421  120.788   11.525    0.000
  212.000    0.271    0.432  124.519   10.696    0.000
  212.250    0.280    0.494  126.387   10.114    0.000
  212.500    0.291    0.524  136.935    9.386    0.000
  212.750    0.299    0.545  131.367    8.875    0.000
  213.000    0.370    0.497  120.839    8.551    0.000
  213.250    0.386    0.473  116.511    8.552    0.000
  213.500    0.365    0.463  107.844    9.219    0.000
  213.750    0.308    0.436   92.978   10.914    0.000
  214.000    0.296    0.407   71.294   13.924    0.000
  214.250    0.297    0.393   77.504   17.434    0.000
  214.500    0.299    0.397   74.415   21.831    0.000
  214.750    0.298    0.391   68.846   23.978    0.000
  215.000    0.298    0.387   69.479   25.368    0.000
  215.250    0.304    0.392   73.826   26.342    0.000
  215.500    0.304    0.395   75.078   26.347    0.000
  215.750    0.302    0.388   68.888   26.354    0.000
  216.000    0.298    0.386   68.899   25.872    0.000
  216.250    0.298    0.393   65.190   25.875    0.000
  216.500    0.300    0.393   76.358   25.401    0.000
  216.750    0.306    0.391   69.552   25.408    0.000
  217.000    0.309    0.413   73.281   25.411    0.000
  217.250    0.306    0.429   72.051   24.945    0.000
  217.500    0.305    0.416   64.623   24.490    0.000
  217.750    0.305    0.410   63.394   24.496    0.000
  218.000    0.306    0.420   69.603   24.498    0.000
  218.250    0.309    0.421   70.233   24.504    0.000
  218.500    0.315    0.421   72.103   24.509    0.000
  218.750    0.326    0.430   64.675   24.514    0.000
  219.000    0.331    0.432   66.547   24.982    0.000
  219.250    0.318    0.422   65.936   24.987    0.000
  219.500    0.307    0.406   60.368   24.994    0.000
  219.750    0.305    0.389   69.677   25.472    0.000
  220.000    0.310    0.380   68.448   25.476    0.000
  220.250    0.314    0.375   64.120   25.964    0.000
  220.500    0.316    0.373   67.229   25.970    0.000
  220.750    0.309    0.390   69.103   26.467    0.000
  221.000    0.307    0.397   69.732   26.973    0.000
  221.250    0.312    0.410   66.641   26.977    0.000
  221.500    0.313    0.393   66.032   27.493    0.000
  221.750    0.311    0.381   67.282   27.500    0.000
  222.000    0.306    0.383   62.953   27.505    0.000
  222.250    0.305    0.378   69.162   27.510    0.000
  222.500    0.311    0.382   74.752   27.006    0.000
  222.750    0.323    0.387   76.622   27.011    0.000
  223.000    0.327    0.387   75.394   26.517    0.000
  223.250    0.325    0.394   80.363   26.523    0.000
  223.500    0.317    0.404   76.654   26.037    0.000
  223.750    0.316    0.409   76.664   26.040    0.000
  224.000    0.319    0.405   75.434   25.564    0.000
  224.250    0.322    0.401   76.065   24.630    0.000
  224.500    0.325    0.400   82.276   24.179    0.000
  224.750    0.330    0.415   81.045   23.296    0.000
  225.000    0.329    0.397   75.477   23.298    0.000
  225.250    0.329    0.390   76.727   22.871    0.000
  225.500    0.334    0.397   77.977   22.878    0.000
  225.750    0.337    0.413   74.889   22.881    0.000
  226.000    0.339    0.423   74.279   23.320    0.000
  226.250    0.325    0.436   71.811   23.766    0.000
  226.500    0.322    0.422   66.863   23.768    0.000
  226.750    0.323    0.401   67.496   23.774    0.000
  227.000    0.323    0.409   69.984   23.339    0.000
  227.250    0.320    0.397   66.894   22.913    0.000
  227.500    0.321    0.411   66.285   22.491    0.000
  227.750    0.323    0.405   73.734   22.080    0.000
