~VERSION INFORMATION
 VERS.                 2.0:   CWLS LOG ASCII STANDARD -VERSION 2.0
 WRAP.                  NO:   ONE LINE PER DEPTH STEP
~WELL INFORMATION BLOCK
#MNEM.UNIT           DATA                    DESCRIPTION OF MNEMONIC
#---------    -------------------            -------------------------------
# Generated from Intellog Unique Number	CN_94_101/WELL/1075
WELL.         11-32-094-06W4                 : Well_name    - WELL
LOC .         AA/11-32-094-06W4/0            : Location     - LOCATION
UWI .         AA/11-32-094-06W400            : Uwi          - UNIQUE WELL ID
ENTR.         JOETTE                         : Entered      - ENTERED BY
SRVC.         SCHLUMBERGER                   : Scn          - SERVICE COMPANY
DATE.         04/10/92                       : Date         - LOG DATE
STRT.M        100                            : top_depth    - START DEPTH
STOP.M        310                            : bot_depth    - STOP DEPTH
STEP.M        0.25                           : increment    - STEP LENGTH
 NULL. -999.2500:NULL Value
~CURVE INFORMATION BLOCK
#MNEM UNIT       ERCB CURVE CODE    CURVE DESCRIPTION
#-----------   ------------------   ----------------------------------
DEPT.M        00 001 00 00         : DEPTH        - DEPTH
ILD .OHMM     00 120 00 00         : RESD         - DEEP RESISTIVITY (DIL)
DPHI.V/V      00 890 00 00         : PHID         - DENSITY POROSITY (SANDSTONE)
NPHI.V/V      00 330 00 00         : PHIN         - NEUTRON POROSITY (SANDSTONE)
GR  .API      00 310 00 00         : GR           - GAMMA RAY
CALI.MM       00 280 01 00         : CAL          - CALIPER
~PARAMETER INFORMATION
#MNEM.UNIT           DATA             DESCRIPTION OF MNEMONIC
#---------         -----------     ------------------------------
GL  .M        588.65               : gl           - GROUND LEVEL ELEVATION
EREF.M        591.35               : kb           - ELEVATION OF DEPTH REFERENCE
DATM.M        591.35               : datum        - DATUM ELEVATION
TDD .M        313                  : tdd          - TOTAL DEPTH DRILLER
RUN .         ONE                  : Run          - RUN NUMBER
ENG .         BILL                 : Engineer     - RECORDING ENGINEER
WIT .         JIM                  : Witness      - WITNESSED BY
MUD .         GEL                  : Mud_type     - MUD TYPE
MATR.         SANDSTONE            : Logunit      - NEUTRON MATRIX
TMAX.C        16                   : BHT          - MAXIMUM RECORDED TEMPERATURE
BHTD.M        313                  : BHTDEP       - MAXIMUM RECORDED TEMPERATURE
RMT .C        19                   : MDTP         - TEMPERATURE OF MUD
MUDD.KG/M     1050                 : MWT          - MUD DENSITY
NEUT.         1                    : NEUTRON      - NEUTRON TYPE
RESI.         0                    : RESIST       - RESISTIVITY TYPE
RM  .OHMM     8.17                 : RM           - RESISTIVITY OF MUD
RMC .OHMM     8.17                 : RMC          - RESISTIVITY OF MUD CAKE
RMF .OHMM     8.17                 : RMF          - RESISTIVITY OF MUD FILTRATE
SUFT.C        4                    : SUFT         - SURFACE TEMPERATURE
~A  DEPTH     RESD     PHID     PHIN       GR      CAL
  100.000   24.907    0.318    0.343   70.579  254.945
  100.250   23.568    0.313    0.334   69.412  255.020
  100.500   24.522    0.307    0.324   68.246  255.145
  100.750   27.531    0.302    0.313   67.079  255.195
  101.000   29.192    0.293    0.300   65.928  254.323
  101.250   27.132    0.288    0.278   64.746  254.373
  101.500   24.709    0.305    0.330   64.178  254.473
  101.750   22.113    0.340    0.362   62.428  253.551
  102.000   20.167    0.364    0.365   61.262  253.700
  102.250   19.809    0.368    0.368   60.694  254.797
  102.500   20.235    0.282    0.383   60.140  255.919
  102.750   21.466    0.258    0.387   62.653  255.994
  103.000   22.324    0.223    0.371   67.020  258.138
  103.250   23.217    0.199    0.369   67.678  259.285
  103.500   24.157    0.184    0.349   67.140  259.385
  103.750   24.677    0.175    0.320   64.732  260.506
  104.000   25.183    0.163    0.327   62.339  261.628
  104.250   25.749    0.170    0.355   62.399  262.775
  104.500   25.291    0.186    0.363   62.474  263.897
  104.750   24.865    0.207    0.369   63.761  263.997
  105.000   23.988    0.215    0.368   66.258  264.097
  105.250   22.720    0.205    0.373   70.012  264.172
  105.500   21.898    0.199    0.370   72.540  261.205
  105.750   21.136    0.197    0.354   72.585  256.220
  106.000   20.401    0.203    0.356   71.434  250.163
  106.250   20.057    0.204    0.365   69.654  247.197
  106.500   20.105    0.190    0.374   71.553  246.275
  106.750   20.124    0.194    0.375   72.212  246.425
  107.000   20.949    0.192    0.375   72.286  246.474
  107.250   21.787    0.182    0.379   71.748  246.599
  107.500   24.002    0.189    0.376   71.180  244.655
  107.750   26.418    0.201    0.369   69.385  244.730
  108.000   29.646    0.204    0.360   68.219  241.764
  108.250   34.566    0.213    0.355   65.228  238.823
  108.500   37.369    0.257    0.378   63.448  234.834
  108.750   39.642    0.303    0.391   61.653  231.843
  109.000   40.456    0.248    0.347   59.275  228.902
  109.250   40.514    0.206    0.284   57.480  225.936
  109.500   39.104    0.198    0.291   55.088  226.061
  109.750   37.708    0.169    0.302   51.483  226.161
  110.000   35.697    0.150    0.310   52.156  227.282
  110.250   33.177    0.135    0.301   54.056  229.426
  110.500   32.008    0.126    0.309   55.956  233.589
  110.750   30.865    0.178    0.328   57.855  239.846
  111.000   29.791    0.194    0.323   59.171  244.034
  111.250   29.289    0.165    0.313   59.814  247.175
  111.500   29.344    0.154    0.313   60.503  243.212
  111.750   29.400    0.158    0.314   59.336  240.246
  112.000   30.018    0.163    0.321   58.798  239.323
  112.250   30.061    0.169    0.330   58.828  240.470
  112.500   30.147    0.159    0.330   60.114  241.592
  112.750   30.765    0.156    0.322   61.415  241.667
  113.000   30.809    0.158    0.321   61.475  241.792
  113.250   30.290    0.152    0.320   61.550  241.867
  113.500   29.794    0.151    0.319   61.595  240.995
  113.750   28.730    0.152    0.309   62.283  240.047
  114.000   27.211    0.154    0.290   62.358  239.125
  114.250   26.239    0.145    0.299   63.001  239.200
  114.500   25.314    0.139    0.299   63.689  241.369
  114.750   25.399    0.151    0.292   64.362  242.516
  115.000   25.908    0.144    0.327   64.422  243.588
  115.250   27.471    0.140    0.338   65.081  243.688
  115.500   29.115    0.190    0.349   65.769  242.791
  115.750   32.091    0.202    0.347   65.200  238.802
  116.000   34.676    0.167    0.354   63.436  232.770
  116.250   36.769    0.158    0.354   61.043  229.779
  116.500   37.541    0.162    0.356   58.037  224.769
  116.750   37.613    0.199    0.323   55.016  220.781
  117.000   37.702    0.213    0.319   53.251  217.839
  117.250   36.356    0.209    0.326   52.682  214.873
  117.500   34.434    0.215    0.327   53.984  211.932
  117.750   33.821    0.227    0.327   55.270  209.963
  118.000   30.875    0.222    0.329   57.170  211.085
  118.250   29.758    0.222    0.342   59.099  215.298
  118.500   27.657    0.233    0.362   59.742  217.417
  118.750   26.657    0.245    0.383   61.044  220.582
  119.000   25.248    0.278    0.393   63.571  222.726
  119.250   24.358    0.339    0.384   64.215  224.920
  119.500   23.936    0.339    0.376   65.531  225.020
  119.750   24.450    0.280    0.351   66.174  225.070
  120.000   26.912    0.217    0.320   66.279  224.173
  120.250   31.363    0.214    0.323   65.082  224.248
  120.500   35.211    0.250    0.312   62.690  221.306
  120.750   36.637    0.289    0.328   60.940  217.293
  121.000   36.037    0.330    0.343   60.371  211.261
  121.250   33.493    0.293    0.325   59.818  205.254
  121.500   31.692    0.288    0.355   58.637  202.288
  121.750   30.017    0.274    0.381   56.872  205.454
  122.000   29.483    0.256    0.356   59.385  211.685
  122.250   28.457    0.204    0.307   57.605  214.851
  122.500   28.511    0.144    0.297   57.052  209.866
  122.750   28.017    0.120    0.283   58.951  206.875
  123.000   28.017    0.139    0.278   62.077  211.063
  123.250   30.361    0.141    0.276   62.750  213.232
  123.500   30.390    0.143    0.273   60.956  212.285
  123.750   30.462    0.145    0.272   58.578  209.318
  124.000   30.506    0.142    0.274   58.010  210.440
  124.250   30.593    0.142    0.283   58.698  213.631
  124.500   30.637    0.143    0.291   59.371  217.844
  124.750   30.709    0.147    0.310   59.431  218.941
  125.000   30.753    0.148    0.323   60.119  221.135
  125.250   30.797    0.154    0.327   60.777  221.210
  125.500   30.856    0.161    0.324   61.450  221.285
  125.750   30.350    0.154    0.323   62.138  220.412
  126.000   31.579    0.133    0.322   63.424  220.462
  126.250   34.123    0.136    0.324   64.726  217.521
  126.500   40.545    0.151    0.330   64.756  214.580
  126.750   44.626    0.173    0.334   64.816  210.567
  127.000   52.999    0.210    0.349   63.679  204.509
  127.250   64.145    0.234    0.376   62.483  198.477
  127.500   76.216    0.309    0.401   55.812  193.467
  127.750   87.202    0.282    0.407   50.338  189.479
  128.000   87.368    0.273    0.383   44.879  183.472
  128.250   87.492    0.267    0.349   37.596  179.458
  128.500   86.018    0.266    0.343   33.976  175.445
  128.750   84.568    0.282    0.354   34.036  173.551
  129.000   80.098    0.285    0.348   34.111  172.604
  129.250   78.711    0.257    0.335   33.528  171.682
  129.500   75.936    0.259    0.330   32.975  170.785
  129.750   74.656    0.270    0.340   33.065  170.860
  130.000   77.679    0.276    0.347   34.336  170.984
  130.250   87.253    0.261    0.353   34.994  171.059
  130.500   94.238    0.235    0.360   38.120  170.162
  130.750  101.830    0.206    0.359   42.487  170.262
  131.000  105.953    0.175    0.339   45.613  169.365
  131.250  102.266    0.136    0.211   49.966  168.418
  131.500   96.768    0.106    0.145   52.478  168.493
  131.750   80.221    0.102    0.123   51.312  169.639
  132.000   62.868    0.096    0.108   50.759  171.783
  132.250   54.177    0.158    0.099   53.271  174.949
  132.500   54.280    0.231    0.224   57.639  178.140
  132.750   54.383    0.240    0.347   61.378  181.281
  133.000   53.441    0.285    0.411   65.132  178.315
  133.250   49.645    0.327    0.428   67.032  172.308
  133.500   42.782    0.329    0.422   65.850  167.297
  133.750   38.980    0.334    0.415   65.297  165.328
  134.000   34.885    0.303    0.409   68.438  163.434
  134.250   34.297    0.293    0.409   69.724  163.484
  134.500   35.018    0.321    0.411   68.558  163.584
  134.750   37.857    0.328    0.406   66.180  163.684
  135.000   39.352    0.300    0.402   66.853  164.830
  135.250   43.334    0.291    0.411   71.190  165.927
  135.500   47.718    0.286    0.409   79.222  166.052
  135.750   51.563    0.315    0.404   82.348  166.152
  136.000   54.726    0.328    0.404   79.357  166.227
  136.250   53.829    0.333    0.418   82.483  166.352
