~VERSION INFORMATION
 VERS.                 2.0:   CWLS LOG ASCII STANDARD -VERSION 2.0
 WRAP.                  NO:   ONE LINE PER DEPTH STEP
~WELL INFORMATION BLOCK
#MNEM.UNIT           DATA                    DESCRIPTION OF MNEMONIC
#---------    -------------------            -------------------------------
# Generated from Intellog Unique Number	CN_91_93/WELL/3631
WELL.         10-18-093-06W4                 : Well_name    - WELL
LOC .         AA/10-18-093-06W4/0            : Location     - LOCATION
UWI .         AA/10-18-093-06W400            : Uwi          - UNIQUE WELL ID
ENTR.         JOETTE                         : Entered      - ENTERED BY
SRVC.         SCHLUMBERGER                   : Scn          - SERVICE COMPANY
DATE.         03/18/92                       : Date         - LOG DATE
STRT.M        65                             : top_depth    - START DEPTH
STOP.M        265                            : bot_depth    - STOP DEPTH
STEP.M        0.25                           : increment    - STEP LENGTH
 NULL. -999.2500:NULL Value
~CURVE INFORMATION BLOCK
#MNEM UNIT       ERCB CURVE CODE    CURVE DESCRIPTION
#-----------   ------------------   ----------------------------------
DEPT.M        00 001 00 00         : DEPTH        - DEPTH
ILD .OHMM     00 120 00 00         : RESD         - DEEP RESISTIVITY (DIL)
CALI.MM       00 280 01 00         : CAL          - CALIPER
GR  .API      00 310 00 00         : GR           - GAMMA RAY
NPHI.V/V      00 330 00 00         : PHIN         - NEUTRON POROSITY (SANDSTONE)
DPHI.V/V      00 890 00 00         : PHID         - DENSITY POROSITY (SANDSTONE)
~PARAMETER INFORMATION
#MNEM.UNIT           DATA             DESCRIPTION OF MNEMONIC
#---------         -----------     ------------------------------
GL  .M        547.76               : gl           - GROUND LEVEL ELEVATION
EREF.M        550.46               : kb           - ELEVATION OF DEPTH REFERENCE
DATM.M        550.46               : datum        - DATUM ELEVATION
TDD .M        266.5                : tdd          - TOTAL DEPTH DRILLER
RUN .         ONE                  : Run          - RUN NUMBER
ENG .         BILL                 : Engineer     - RECORDING ENGINEER
WIT .         JIM                  : Witness      - WITNESSED BY
MUD .         GEL                  : Mud_type     - MUD TYPE
MATR.         SANDSTONE            : Logunit      - NEUTRON MATRIX
TMAX.C        16                   : BHT          - MAXIMUM RECORDED TEMPERATURE
BHTD.M        266.5                : BHTDEP       - MAXIMUM RECORDED TEMPERATURE
RMT .C        37                   : MDTP         - TEMPERATURE OF MUD
MUDD.KG/M     9666.66              : MWT          - MUD DENSITY
NEUT.         1                    : NEUTRON      - NEUTRON TYPE
RESI.         0                    : RESIST       - RESISTIVITY TYPE
RM  .OHMM     12                   : RM           - RESISTIVITY OF MUD
RMC .OHMM     12                   : RMC          - RESISTIVITY OF MUD CAKE
RMF .OHMM     12                   : RMF          - RESISTIVITY OF MUD FILTRATE
SUFT.C        4                    : SUFT         - SURFACE TEMPERATURE
~A  DEPTH     RESD      CAL       GR     PHIN     PHID
# ...
  138.000   38.321  163.733   44.050    0.431    0.344
  138.250   38.337  163.758   43.453    0.446    0.348
  138.500   38.354  162.762   42.244    0.445    0.347
  138.750   36.965  162.792   41.646    0.429    0.347
  139.000   33.663  162.817   41.661    0.418    0.339
  139.250   29.529  162.841   42.899    0.435    0.342
  139.500   24.027  162.859   43.526    0.439    0.343
  139.750   21.884  162.889   45.988    0.437    0.343
  140.000   21.896  162.908   49.675    0.457    0.341
  140.250   21.912  162.932   50.305    0.454    0.331
  140.500   22.338  162.962   49.095    0.454    0.331
  140.750   25.019  162.987   49.722    0.458    0.337
  141.000   28.026  163.011   52.188    0.456    0.340
  141.250   30.806  163.041   53.419    0.451    0.346
  141.500   32.607  163.053   52.210    0.442    0.341
  141.750   35.184  163.078   46.717    0.416    0.343
  142.000   36.547  163.108   42.451    0.413    0.360
  142.250   36.568  163.132   41.850    0.429    0.351
  142.500   37.284  164.177   41.257    0.440    0.341
  142.750   36.610  164.201   40.655    0.446    0.339
  143.000   36.626  165.245   40.062    0.447    0.332
  143.250   35.970  165.263   40.073    0.444    0.326
  143.500   35.315  165.294   39.486    0.421    0.335
  143.750   34.036  166.338   40.109    0.416    0.349
  144.000   32.799  166.368   40.728    0.416    0.350
  144.250   31.607  166.392   42.579    0.427    0.343
  144.500   29.338  166.417   45.041    0.431    0.341
  144.750   28.268  166.441   44.444    0.430    0.339
  145.000   27.753  166.465   44.458    0.433    0.348
  145.250   27.773  166.490   47.536    0.462    0.347
  145.500   28.312  166.508   49.383    0.456    0.359
  145.750   29.972  167.552   50.622    0.465    0.356
  146.000   29.994  167.576   50.024    0.467    0.340
  146.250   27.319  168.621   46.983    0.454    0.335
  146.500   23.960  169.665   44.549    0.435    0.354
  146.750   17.092  169.701   44.560    0.423    0.350
  147.000    8.063  170.733   51.306    0.446    0.323
  147.250    5.972  170.770   58.665    0.471    0.310
  147.500    4.859  170.788   66.026    0.488    0.285
  147.750    4.344  170.806   71.545    0.490    0.260
  148.000    3.956  171.856   76.455    0.526    0.225
  148.250    3.603  172.895   83.201    0.561    0.246
  148.500    3.408  175.991   93.007    0.560    0.238
  148.750    3.409  177.023  100.365    0.569    0.258
  149.000    3.348  179.093   99.156    0.572    0.262
  149.250    3.478  179.111   96.723    0.556    0.253
  149.500    3.614  180.162  101.637    0.541    0.248
  149.750    3.754  180.192  105.939    0.523    0.244
  150.000    3.900  180.210  107.177    0.519    0.241
  150.250    4.052  180.228  107.195    0.530    0.247
  150.500    4.210  179.239  105.979    0.546    0.252
  150.750    4.457  177.223  101.713    0.550    0.261
  151.000    4.719  178.267   98.056    0.556    0.259
  151.250    4.994  182.371   95.619    0.568    0.250
  151.500    5.700  183.416   95.634    0.566    0.254
  151.750    5.921  181.400   95.036    0.563    0.257
  152.000    5.707  180.404   92.603    0.539    0.242
  152.250    5.604  182.469   85.890    0.513    0.234
  152.500    5.606  183.507   86.516    0.509    0.234
  152.750    5.825  184.557   90.203    0.504    0.242
  153.000    6.402  185.601   89.605    0.502    0.252
  153.250    7.306  185.626   91.452    0.499    0.243
  153.500    8.340  185.644   90.243    0.491    0.248
  153.750    8.188  185.680   85.973    0.493    0.258
  154.000    7.890  184.672   80.484    0.499    0.253
  154.250    7.323  181.649   78.047    0.491    0.257
  154.500    6.672  179.627   79.286    0.499    0.263
  154.750    6.428  177.606   82.364    0.498    0.271
  155.000    6.312  174.576   82.378    0.504    0.263
  155.250    6.683  174.594   81.784    0.527    0.244
  155.500    6.941  174.631   81.180    0.524    0.241
  155.750    7.776  174.643   82.422    0.521    0.239
  156.000    8.233  175.693   83.045    0.526    0.239
  156.250    8.236  175.718   84.287    0.538    0.240
  156.500    8.396  175.742   84.298    0.504    0.247
  156.750    8.402  175.760   83.088    0.489    0.237
  157.000    8.253  176.804   80.655    0.478    0.231
  157.250    8.101  176.835   79.450    0.476    0.234
  157.500    7.808  177.879   83.132    0.466    0.231
  157.750    7.247  177.897   86.210    0.450    0.226
  158.000    6.981  178.953   86.837    0.461    0.237
  158.250    5.898  178.972   87.463    0.472    0.246
  158.500    5.077  182.062   88.698    0.489    0.249
  158.750    4.803  183.100   91.160    0.534    0.254
  159.000    4.804  184.138   93.627    0.566    0.262
  159.250    4.807  186.214   91.805    0.578    0.267
  159.500    4.902  186.227   89.372    0.571    0.262
  159.750    5.092  186.251   87.551    0.556    0.251
  160.000    5.704  188.315   85.117    0.550    0.255
  160.250    6.389  185.280   81.457    0.566    0.264
  160.500    6.763  182.244   78.411    0.535    0.258
  160.750    6.519  178.195   77.206    0.504    0.255
  161.000    6.281  177.193   78.444    0.486    0.268
  161.250    5.829  176.209   80.903    0.496    0.264
  161.500    5.212  176.221   86.425    0.518    0.257
  161.750    5.116  175.226   90.112    0.516    0.267
  162.000    4.930  175.256   94.413    0.527    0.272
  162.250    4.934  174.261   95.040    0.505    0.264
  162.500    4.936  174.279   93.222    0.512    0.256
  162.750    5.032  174.303   91.394    0.523    0.257
  163.000    5.532  174.327   89.572    0.531    0.270
  163.250    6.195  174.352   87.751    0.536    0.285
  163.500    7.071  174.376   85.930    0.524    0.280
  163.750    7.487  174.406   82.885    0.507    0.279
  164.000    7.350  173.417   78.615    0.503    0.280
  164.250    6.571  171.401   76.182    0.503    0.280
  164.500    5.763  170.405   78.648    0.487    0.273
  164.750    4.189  170.424   79.275    0.482    0.265
  165.000    2.988  170.454   81.125    0.513    0.266
  165.250    2.826  174.564   84.808    0.563    0.280
  165.500    2.828  176.616   90.330    0.597    0.291
  165.750    2.993  177.660   90.957    0.606    0.288
  166.000    3.481  177.697   91.587    0.586    0.283
  166.250    4.125  177.715   91.598    0.566    0.277
  166.500    4.888  176.725   91.612    0.559    0.271
  166.750    5.794  174.698   92.242    0.554    0.253
  167.000    5.907  173.714   91.645    0.532    0.226
  167.250    6.022  172.706   89.212    0.508    0.245
  167.500    6.025  173.757   85.555    0.498    0.252
  167.750    6.380  174.801   83.730    0.497    0.252
  168.000    6.753  178.905   81.908    0.497    0.245
  168.250    7.423  180.975   82.535    0.493    0.240
  168.500    8.473  179.967   84.997    0.487    0.233
  168.750    9.487  176.938   86.239    0.480    0.227
  169.000   10.828  174.922   86.870    0.470    0.222
  169.250   11.041  173.927   86.269    0.455    0.218
  169.500   10.840  172.931   86.283    0.422    0.224
  169.750   10.062  171.941   86.294    0.417    0.235
  170.000    9.163  170.940   86.309    0.429    0.234
  170.250    8.038  170.958   83.879    0.446    0.227
  170.500    7.185  169.968   82.670    0.466    0.223
  170.750    6.544  169.999   84.516    0.483    0.215
  171.000    6.308  171.031   90.039    0.512    0.211
  171.250    6.430  173.101   94.337    0.520    0.229
  171.500    6.555  174.145   94.352    0.496    0.241
  171.750    7.205  175.183   92.530    0.487    0.238
  172.000    7.630  174.188   92.548    0.482    0.236
  172.250    7.778  173.192   94.403    0.499    0.233
  172.500    7.638  172.209   95.645    0.490    0.227
  172.750    7.501  172.227   96.876    0.465    0.227
  173.000    7.364  172.257   98.118    0.450    0.230
  173.250    7.367  172.269   96.297    0.485    0.241
  173.500    7.514  172.300   92.643    0.486    0.241
  173.750    7.804  169.264   90.203    0.475    0.239
  174.000    8.418  165.203   82.877    0.433    0.239
  174.250    8.424  164.213   79.825    0.411    0.240
