~VERSION INFORMATION
 VERS.                 2.0:   CWLS LOG ASCII STANDARD -VERSION 2.0
 WRAP.                  NO:   ONE LINE PER DEPTH STEP
~WELL INFORMATION BLOCK
#MNEM.UNIT           DATA                    DESCRIPTION OF MNEMONIC
#---------    -------------------            -------------------------------
# Generated from Intellog Unique Number	CN_91_93/WELL/3715
WELL.         10-12-093-07W4                 : Well_name    - WELL
LOC .         AA/10-12-093-07W4/0            : Location     - LOCATION
UWI .         AA/10-12-093-07W400            : Uwi          - UNIQUE WELL ID
ENTR.         JOETTE                         : Entered      - ENTERED BY
SRVC.         WESTERN ATLAS                  : Scn          - SERVICE COMPANY
DATE.         03/22/92                       : Date         - LOG DATE
STRT.F        50                             : top_depth    - START DEPTH
STOP.F        860.367                        : bot_depth    - STOP DEPTH
STEP.F        0.8202                         : increment    - STEP LENGTH
 NULL. -999.2500:NULL Value
~CURVE INFORMATION BLOCK
#MNEM UNIT       ERCB CURVE CODE    CURVE DESCRIPTION
#-----------   ------------------   ----------------------------------
DEPT.F        00 001 00 00         : DEPTH        - DEPTH
CALI.IN       00 280 01 00         : CAL          - CALIPER
GR  .API      00 310 00 00         : GR           - GAMMA RAY
NPHI.V/V      00 330 00 00         : PHIN         - NEUTRON POROSITY (SANDSTONE)
ILD .OHMM     00 120 00 00         : RESD         - DEEP RESISTIVITY (DIL)
~PARAMETER INFORMATION
#MNEM.UNIT           DATA             DESCRIPTION OF MNEMONIC
#---------         -----------     ------------------------------
GL  .M        520.111              : gl           - GROUND LEVEL ELEVATION
EREF.M        521.635              : kb           - ELEVATION OF DEPTH REFERENCE
DATM.M        521.635              : datum        - DATUM ELEVATION
TDD .M        267.31               : tdd          - TOTAL DEPTH DRILLER
RUN .         ONE                  : Run          - RUN NUMBER
ENG .         BILL                 : Engineer     - RECORDING ENGINEER
WIT .         JIM                  : Witness      - WITNESSED BY
MUD .         GEL                  : Mud_type     - MUD TYPE
MATR.         SANDSTONE            : Logunit      - NEUTRON MATRIX
TMAX.F        45                   : BHT          - MAXIMUM RECORDED TEMPERATURE
BHTD.F        877                  : BHTDEP       - MAXIMUM RECORDED TEMPERATURE
RMT .F        45                   : MDTP         - TEMPERATURE OF MUD
MUDD.LB/G     1.07                 : MWT          - MUD DENSITY
NEUT.         1                    : NEUTRON      - NEUTRON TYPE
RESI.         0                    : RESIST       - RESISTIVITY TYPE
RM  .OHMM     8.9                  : RM           - RESISTIVITY OF MUD
RMC .OHMM     8.9                  : RMC          - RESISTIVITY OF MUD CAKE
RMF .OHMM     8.9                  : RMF          - RESISTIVITY OF MUD FILTRATE
SUFT.F        39.2                 : SUFT         - SURFACE TEMPERATURE
~A  DEPTH      CAL       GR     PHIN     RESD
# ...
  620.866    6.614   95.605    0.384    6.611
  621.686    6.453   96.838    0.362    7.519
  622.507    6.209   94.407    0.328    8.244
  623.327    6.007   90.759    0.350    9.207
  624.147    6.455   90.167    0.382    9.553
  624.967    7.147   90.177    0.393    9.211
  625.787    7.311   87.749    0.390    8.719
  626.608    7.271   88.371    0.379    8.562
  627.428    6.947   90.214    0.369    8.884
  628.248    6.541   92.057    0.359    9.218
  629.068    6.379   90.239    0.350    9.566
  629.888    6.298   91.472    0.335    9.567
  630.709    6.258   90.880    0.335    9.569
  631.529    6.260   90.277    0.346    8.731
  632.349    6.301   90.289    0.354    8.114
  633.169    6.465   89.692    0.390    6.392
  633.990    6.466   86.653    0.465    4.511
  634.810    6.507   84.835    0.476    4.041
  635.630    6.427   84.854    0.475    3.620
  636.450    6.346   86.697    0.471    3.184
  637.270    6.225   88.540    0.466    2.959
  638.091    6.185   90.383    0.458    2.960
  638.911    6.186   91.012    0.444    3.071
  639.731    6.187   91.018    0.436    3.429
  640.551    6.228   91.031    0.418    3.691
  641.371    6.270   90.433    0.405    4.437
  642.192    6.352   92.276    0.392    4.955
  643.012    6.393   91.068    0.374    5.334
  643.832    6.517   88.640    0.367    5.433
  644.652    6.517   87.432    0.410    5.535
  645.472    6.559   89.278    0.407    5.536
  646.293    6.560   91.728    0.400    5.537
  647.113    6.560   89.910    0.384    5.852
  647.933    6.521   88.092    0.368    6.416
  648.753    6.522   88.718    0.367    6.907
  649.573    6.522   89.951    0.375    7.037
  650.394    6.523   91.794    0.411    6.910
  651.214    6.524   93.637    0.428    6.541
  652.034    6.525   91.819    0.438    6.306
  652.854    6.526   91.221    0.439    5.754
  653.675    6.527   93.064    0.437    5.446
  654.495    6.528   93.687    0.435    4.970
  655.315    6.569   93.089    0.429    4.704
  656.135    6.570   89.447    0.421    4.536
  656.955    6.571   88.849    0.413    4.454
  657.776    6.531   90.082    0.413    4.622
  658.596    6.532   90.705    0.428    4.795
  659.416    6.532   88.277    0.444    4.797
  660.236    6.533   90.120    0.440    4.540
  661.056    6.534   92.570    0.435    4.143
  661.877    6.536   96.243    0.425    4.068
  662.697    6.536   98.092    0.417    4.069
  663.517    6.537   96.884    0.407    4.070
  664.337    6.538   95.673    0.396    4.223
  665.157    6.538   91.415    0.386    4.546
  665.978    6.539   88.380    0.376    4.804
  666.798    6.500   87.169    0.369    5.365
  667.618    6.501   87.795    0.362    5.882
  668.438    6.501   89.031    0.357    6.569
  669.259    6.501   89.650    0.351    6.816
  670.079    6.219   90.279    0.347    7.337
  670.899    6.504   90.895    0.338    7.339
  671.719    6.464   90.908    0.332    7.477
  672.539    6.424   88.480    0.326    7.617
  673.360    6.344   86.052    0.322    7.759
  674.180    6.263   78.743    0.316    8.201
  675.000    6.183   66.555    0.312    8.828
  675.820    6.102   67.788    0.306    9.678
  676.640    6.022   55.595    0.298   12.751
  677.461    5.941   48.289    0.292   13.475
  678.281    5.902   47.691    0.283   17.113
  679.101    5.903   47.704    0.270   27.593
  679.921    5.944   47.716    0.253   44.492
  680.741    5.985   46.508    0.243   54.460
  681.562    6.027   44.087    0.239   78.647
  682.382    6.069   44.703    0.251  122.235
  683.202    6.069   46.549    0.268  136.515
  684.022    6.111   47.782    0.292  144.269
  684.843    6.112   48.405    0.294  158.176
  685.663    6.113   47.807    0.294  144.335
  686.483    6.114   42.328    0.293  136.618
  687.303    6.114   37.460    0.293  120.161
  688.123    6.115   41.743    0.293  103.764
  688.944    6.116   47.250    0.294   87.973
  689.764    6.117   52.140    0.294   77.380
  690.584    6.118   57.644    0.295   74.604
  691.404    6.119   62.541    0.297   74.619
  692.224    6.079   66.217    0.297   76.021
  693.045    6.080   68.667    0.297   74.653
  693.865    6.081   72.951    0.297   71.971
  694.685    6.081   77.234    0.297   62.150
  695.505    6.082   76.643    0.297   43.852
  696.325    6.124   75.429    0.297   37.178
  697.146    6.125   73.004    0.298   33.306
  697.966    6.166   71.793    0.300   29.295
  698.786    6.208   68.764    0.305   28.767
  699.606    6.249   67.550    0.308   28.250
  700.427    6.250   65.732    0.314   28.781
  701.247    6.332   67.575    0.319   29.319
  702.067    6.496   71.859    0.324   30.424
  702.887    6.578   76.142    0.333   30.431
  703.707    6.742   81.646    0.344   29.338
  704.528    6.865   89.593    0.352   27.770
  705.348    6.947   95.097    0.360   25.338
  706.168    6.988   96.940    0.367   17.554
  706.988    7.030   99.399    0.371   16.314
  707.808    6.990  100.015    0.371   14.614
  708.629    6.910  101.248    0.370   12.391
  709.449    6.870  103.091    0.368   11.515
  710.269    6.830   98.836    0.367   10.900
  711.089    6.831   96.414    0.365   10.318
  711.909    6.873   97.644    0.362   10.320
  712.730    6.914   98.263    0.358   10.135
  713.550    6.955   98.276    0.355    9.952
  714.370    6.997   98.288    0.349    9.954
  715.190    7.039   97.691    0.347   10.141
  716.010    7.039   96.486    0.342   10.331
  716.831    7.000   95.275    0.340   10.524
  717.651    6.960   93.466    0.335   10.921
  718.471    6.879   92.866    0.330   11.332
  719.291    6.840   92.265    0.327   11.544
  720.112    6.759   92.281    0.321   12.201
  720.932    6.719   93.513    0.320   12.429
  721.752    6.638   95.356    0.317   12.897
  722.572    6.558   96.586    0.316   13.139
  723.392    6.518   97.819    0.315   13.141
  724.213    6.478   96.001    0.314   13.145
  725.033    6.439   92.356    0.313   13.148
  725.853    6.439   88.710    0.313   13.148
  726.673    6.399   86.889    0.313   14.154
  727.493    6.360   87.512    0.314   13.899
  728.314    6.361   89.968    0.315   13.902
  729.134    6.361   89.981    0.317   13.906
  729.954    6.322   89.383    0.317   14.168
  730.774    6.322   89.395    0.318   14.169
  731.594    6.242   90.018    0.320   14.169
  732.415    6.242   90.031    0.320   14.439
  733.235    6.366   88.823    0.321   13.667
  734.055    6.367   86.401    0.321   13.671
  734.875    6.368   85.797    0.321   13.673
  735.696    6.368   85.810    0.320   13.930
  736.516    6.369   88.266    0.318   13.932
  737.336    6.369   90.719    0.316   14.192
  738.156    6.534   90.735    0.316   14.459
  738.976    6.535   90.131    0.316   14.462
  739.797    6.535   89.536    0.316   14.733
  740.617    6.536   88.945    0.316   15.010
  741.437    6.537   88.344    0.315   15.013
  742.257    6.538   87.136    0.315   15.294
  743.077    6.539   85.315    0.317   15.581
  743.898    6.499   86.548    0.318   15.873
  744.718    6.500   89.614    0.319   16.169
  745.538    6.501   91.454    0.319   16.779
  746.358    6.502   95.747    0.319   17.093
  747.178    6.503   96.363    0.318   15.886
  747.999    6.503   95.156    0.318   15.316
  748.819    6.504   93.948    0.317   14.766
  749.639    6.505   93.353    0.317   13.979
  750.459    6.506   91.535    0.317   13.981
  751.280    6.507   86.670    0.317   13.984
  752.100    6.507   87.286    0.318   13.987
  752.920    6.508   88.522    0.318   13.990
  753.740    6.510   90.365    0.318   14.253
  754.560    6.510   93.434    0.318   14.254
  755.381    6.511   94.051    0.318   14.791
  756.201    6.512   92.843    0.316   15.348
  757.021    6.513   90.421    0.312   15.635
  757.841    6.514   89.820    0.310   16.224
  758.661    6.474   89.220    0.309   16.527
  759.482    6.474   88.015    0.309   17.149
  760.302    6.475   86.807    0.310   17.796
  761.122    6.435   84.993    0.312   17.799
  761.942    6.436   84.395    0.318   18.132
  762.762    6.396   85.631    0.325   18.472
