~VERSION INFORMATION
 VERS.                 2.0:   CWLS LOG ASCII STANDARD -VERSION 2.0
 WRAP.                  NO:   ONE LINE PER DEPTH STEP
~WELL INFORMATION BLOCK
#MNEM.UNIT           DATA                    DESCRIPTION OF MNEMONIC
#---------    -------------------            -------------------------------
# Generated from Intellog Unique Number	CN_94_101/WELL/5060
WELL.         16-21-098-13W4                 : Well_name    - WELL
LOC .         AA/16-21-098-13W4/0            : Location     - LOCATION
UWI .         AA/16-21-098-13W400            : Uwi          - UNIQUE WELL ID
ENTR.         JOETTE                         : Entered      - ENTERED BY
SRVC.         SCHLUMBERGER                   : Scn          - SERVICE COMPANY
DATE.         08/28/92                       : Date         - LOG DATE
STRT.M        350                            : top_depth    - START DEPTH
STOP.M        560                            : bot_depth    - STOP DEPTH
STEP.M        0.25                           : increment    - STEP LENGTH
 NULL. -999.2500:NULL Value
~CURVE INFORMATION BLOCK
#MNEM UNIT       ERCB CURVE CODE    CURVE DESCRIPTION
#-----------   ------------------   ----------------------------------
DEPT.M        00 001 00 00         : DEPTH        - DEPTH
DPHI.V/V      00 890 00 00         : PHID         - DENSITY POROSITY (SANDSTONE)
NPHI.V/V      00 330 00 00         : PHIN         - NEUTRON POROSITY (SANDSTONE)
GR  .API      00 310 00 00         : GR           - GAMMA RAY
ILD .OHMM     00 120 00 00         : RESD         - DEEP RESISTIVITY (DIL)
~PARAMETER INFORMATION
#MNEM.UNIT           DATA             DESCRIPTION OF MNEMONIC
#---------         -----------     ------------------------------
GL  .M        790.35               : gl           - GROUND LEVEL ELEVATION
EREF.M        793.6                : kb           - ELEVATION OF DEPTH REFERENCE
DATM.M        793.6                : datum        - DATUM ELEVATION
TDD .M        494                  : tdd          - TOTAL DEPTH DRILLER
RUN .         ONE                  : Run          - RUN NUMBER
ENG .         BILL                 : Engineer     - RECORDING ENGINEER
WIT .         JIM                  : Witness      - WITNESSED BY
MUD .         GEL                  : Mud_type     - MUD TYPE
MATR.         SANDSTONE            : Logunit      - NEUTRON MATRIX
TMAX.C        21                   : BHT          - MAXIMUM RECORDED TEMPERATURE
BHTD.M        494                  : BHTDEP       - MAXIMUM RECORDED TEMPERATURE
RMT .C        16                   : MDTP         - TEMPERATURE OF MUD
MUDD.KG/M     1090                 : MWT          - MUD DENSITY
NEUT.         1                    : NEUTRON      - NEUTRON TYPE
RESI.         0                    : RESIST       - RESISTIVITY TYPE
RM  .OHMM     4.6                  : RM           - RESISTIVITY OF MUD
RMC .OHMM     4.3                  : RMC          - RESISTIVITY OF MUD CAKE
RMF .OHMM     4                    : RMF          - RESISTIVITY OF MUD FILTRATE
SUFT.C        4                    : SUFT         - SURFACE TEMPERATURE
~A  DEPTH     PHID     PHIN       GR     RESD
# ...
  393.500    0.289    0.550  128.299    3.541
  393.750    0.292    0.543  124.687    3.412
  394.000    0.297    0.538  123.496    3.413
  394.250    0.297    0.535  124.732    3.544
  394.500    0.288    0.535  124.755    4.044
  394.750    0.284    0.538  121.738    4.444
  395.000    0.281    0.541  119.340    4.792
  395.250    0.280    0.543  118.756    5.168
  395.500    0.280    0.544  118.172    5.170
  395.750    0.280    0.545  117.587    4.981
  396.000    0.282    0.537  120.036    4.451
  396.250    0.284    0.519  116.414    3.690
  396.500    0.278    0.491  109.763    3.360
  396.750    0.275    0.472   97.653    3.361
  397.000    0.283    0.469   81.902    3.907
  397.250    0.287    0.468   72.825    5.910
  397.500    0.293    0.450   74.668    8.449
  397.750    0.305    0.432   74.690   17.921
  398.000    0.311    0.420   69.859   36.613
  398.250    0.306    0.419   65.029  910.894
  398.500    0.294    0.425   61.417 1254.060
  398.750    0.284    0.435   61.440 1932.720
  399.000    0.287    0.442   63.288 2611.510
  399.250    0.292    0.450   63.911 2924.140
  399.500    0.298    0.445   63.928 2564.700
  399.750    0.303    0.438   62.737 2818.270
  400.000    0.310    0.431   60.333 2715.380
  400.250    0.315    0.422   59.749 2820.040
  400.500    0.309    0.422   63.411 2984.780
  400.750    0.299    0.427   68.287 3099.580
  401.000    0.291    0.433   76.201 3100.560
  401.250    0.289    0.444   80.476 2475.360
  401.500    0.287    0.456   81.706  652.084
  401.750    0.281    0.486   84.155  313.429
  402.000    0.272    0.497   85.385   53.587
  402.250    0.267    0.512   90.261   24.807
  402.500    0.265    0.518   99.383   17.693
  402.750    0.249    0.512  110.331   13.604
  403.000    0.243    0.509  112.179   11.709
  403.250    0.243    0.518  109.163   10.269
  403.500    0.245    0.522  109.191    9.007
  403.750    0.249    0.520  110.421    8.201
  404.000    0.256    0.521  112.870    7.611
  404.250    0.253    0.525  116.538    7.195
  404.500    0.257    0.523  117.173    6.931
  404.750    0.257    0.520  115.971    6.433
  405.000    0.252    0.514  114.173    6.433
  405.250    0.245    0.505  112.988    6.316
  405.500    0.241    0.500  113.612    6.318
  405.750    0.239    0.499  114.847    6.440
  406.000    0.232    0.500  117.302    6.565
  406.250    0.229    0.499  120.358    6.690
  406.500    0.230    0.502  122.200    6.949
  406.750    0.235    0.513  122.217    7.083
  407.000    0.246    0.524  122.240    7.086
  407.250    0.239    0.529  125.908    6.827
  407.500    0.243    0.539  124.717    6.576
  407.750    0.249    0.542  122.919    5.877
  408.000    0.247    0.543  124.756    5.352
  408.250    0.244    0.541  127.818    5.253
  408.500    0.254    0.535  127.840    5.255
  408.750    0.261    0.537  132.103    5.257
  409.000    0.259    0.544  136.378    5.161
  409.250    0.256    0.556  136.401    5.163
  409.500    0.260    0.566  135.811    4.974
  409.750    0.258    0.577  135.227    4.882
  410.000    0.253    0.584  133.429    4.446
  410.250    0.256    0.584  130.418    4.203
  410.500    0.264    0.577  128.627    3.828
  410.750    0.270    0.565  129.868    3.758
  411.000    0.273    0.557  131.093    3.553
  411.250    0.271    0.558  131.727    3.488
  411.500    0.268    0.561  131.149    3.489
  411.750    0.264    0.562  131.767    3.425
  412.000    0.261    0.562  134.221    3.426
  412.250    0.257    0.561  135.452    3.492
  412.500    0.253    0.556  133.654    3.560
  412.750    0.252    0.553  132.469    3.628
  413.000    0.248    0.550  134.912    3.698
  413.250    0.248    0.552  136.761    3.769
  413.500    0.249    0.552  136.783    3.771
  413.750    0.253    0.551  136.805    3.772
  414.000    0.261    0.549  138.041    3.703
  414.250    0.261    0.552  135.637    3.436
  414.500    0.265    0.556  133.233    3.310
  414.750    0.266    0.558  130.835    3.130
  415.000    0.262    0.561  129.633    3.072
  415.250    0.257    0.564  127.229    3.191
  415.500    0.259    0.565  124.824    3.377
  415.750    0.267    0.564  123.639    3.853
  416.000    0.278    0.562  123.050    4.155
  416.250    0.282    0.560  121.258    4.398
  416.500    0.284    0.560  118.854    4.399
  416.750    0.276    0.561  115.231    4.484
  417.000    0.269    0.563  117.079    4.320
  417.250    0.255    0.566  120.134    4.162
  417.500    0.229    0.566  122.584    3.935
  417.750    0.223    0.567  121.994    3.651
  418.000    0.225    0.568  121.421    3.388
  418.250    0.231    0.568  120.842    3.264
  418.500    0.239    0.570  120.859    3.086
  418.750    0.254    0.576  121.483    2.810
  419.000    0.261    0.579  122.718    2.657
  419.250    0.277    0.583  125.168    2.419
  419.500    0.289    0.583  128.223    2.288
  419.750    0.297    0.578  127.032    2.204
  420.000    0.300    0.577  124.022    2.084
  420.250    0.296    0.571  123.438    2.045
  420.500    0.292    0.565  122.853    2.046
  420.750    0.284    0.571  122.275    2.085
  421.000    0.235    0.575  121.084    2.250
  421.250    0.230    0.573  121.107    2.381
  421.500    0.239    0.568  122.348    2.567
  421.750    0.251    0.563  122.966    2.666
  422.000    0.250    0.560  124.207    2.769
  422.250    0.254    0.558  124.831    2.823
  422.500    0.270    0.560  127.286    2.771
  422.750    0.280    0.568  127.915    2.571
  423.000    0.274    0.575  126.724    2.477
  423.250    0.270    0.570  124.320    2.387
  423.500    0.271    0.563  126.769    2.387
  423.750    0.273    0.561  127.398    2.479
  424.000    0.277    0.558  123.775    2.624
  424.250    0.278    0.558  119.551    2.938
  424.500    0.279    0.559  115.939    3.109
  424.750    0.283    0.563  114.142    3.291
  425.000    0.293    0.565  115.378    3.354
  425.250    0.296    0.564  117.832    3.293
  425.500    0.296    0.560  119.669    3.233
  425.750    0.294    0.554  121.506    3.114
  426.000    0.288    0.548  122.742    3.115
  426.250    0.278    0.542  122.764    3.058
  426.500    0.257    0.532  118.546    3.489
  426.750    0.253    0.526  112.496    4.804
  427.000    0.250    0.520  107.666    5.481
  427.250    0.251    0.514  105.874    7.000
  427.500    0.254    0.505  107.115    8.450
  427.750    0.258    0.493  108.345    9.463
  428.000    0.263    0.496  109.576    9.645
  428.250    0.264    0.505  110.811    9.291
  428.500    0.264    0.512  110.834    8.622
  428.750    0.261    0.489  109.643    8.151
  429.000    0.260    0.483  107.851    7.150
  429.250    0.256    0.457  104.835    6.888
  429.500    0.256    0.452   98.190    6.890
  429.750    0.260    0.457   94.578    6.891
  430.000    0.272    0.459   94.590    7.293
  430.250    0.277    0.464   95.825    8.321
  430.500    0.278    0.465   96.460    9.318
  430.750    0.283    0.465   96.483   11.039
  431.000    0.288    0.464   95.893   11.905
  431.250    0.286    0.458   93.500   13.331
  431.500    0.267    0.441   92.298   14.376
  431.750    0.249    0.437   88.680   15.214
  432.000    0.249    0.435   86.276   15.218
  432.250    0.244    0.426   85.086   14.940
  432.500    0.242    0.430   89.972   17.369
  432.750    0.246    0.465   92.410   21.364
  433.000    0.257    0.501   96.073   13.613
  433.250    0.268    0.510  100.948   10.868
  433.500    0.275    0.535  108.857    9.713
  433.750    0.272    0.538  113.744    9.182
  434.000    0.266    0.545  113.755    8.682
  434.250    0.270    0.552  111.958    7.614
  434.500    0.269    0.550  110.161    5.965
  434.750    0.269    0.552  108.975    4.335
  435.000    0.276    0.556  109.604    3.802
  435.250    0.277    0.556  110.234    4.100
  435.500    0.278    0.552  110.863    4.422
  435.750    0.277    0.553  112.705    4.769
  436.000    0.271    0.553  114.542    4.953
  436.250    0.266    0.548  118.811    5.144
  436.500    0.256    0.547  120.047    5.145
  436.750    0.245    0.550  119.468    5.147
