~VERSION INFORMATION
 VERS.                 2.0:   CWLS LOG ASCII STANDARD -VERSION 2.0
 WRAP.                  NO:   ONE LINE PER DEPTH STEP
~WELL INFORMATION BLOCK
#MNEM.UNIT           DATA                    DESCRIPTION OF MNEMONIC
#---------    -------------------            -------------------------------
# Generated from Intellog Unique Number	CN_94_101/WELL/5040
WELL.         14-14-101-14W4                 : Well_name    - WELL
LOC .         AA/14-14-101-14W4/0            : Location     - LOCATION
UWI .         AA/14-14-101-14W400            : Uwi          - UNIQUE WELL ID
ENTR.         TIM                            : Entered      - ENTERED BY
SRVC.         SCHLUMBERGER                   : Scn          - SERVICE COMPANY
DATE.         08/17/92                       : Date         - LOG DATE
STRT.M        304.8                          : top_depth    - START DEPTH
STOP.M        502.8                          : bot_depth    - STOP DEPTH
STEP.M        0.25                           : increment    - STEP LENGTH
NULL. -999.2500:NULL Value
~CURVE INFORMATION BLOCK
#MNEM UNIT       ERCB CURVE CODE    CURVE DESCRIPTION
#-----------   ------------------   ----------------------------------
DEPT.M        00 001 00 00         : DEPTH        - DEPTH
GR  .API      00 310 00 00         : GR           - GAMMA RAY
ILD .OHMM     00 120 00 00         : RESD         - DEEP RESISTIVITY (DIL)
NPHI.V/V      00 330 00 00         : PHIN         - NEUTRON POROSITY (SANDSTONE)
~PARAMETER INFORMATION
#MNEM.UNIT           DATA             DESCRIPTION OF MNEMONIC
#---------         -----------     ------------------------------
GL  .M        726.643              : gl           - GROUND LEVEL ELEVATION
EREF.M        729.996              : kb           - ELEVATION OF DEPTH REFERENCE
DATM.M        729.996              : datum        - DATUM ELEVATION
TDD .M        507.187              : tdd          - TOTAL DEPTH DRILLER
RUN .         ONE                  : Run          - RUN NUMBER
ENG .         BILL                 : Engineer     - RECORDING ENGINEER
WIT .         JIM                  : Witness      - WITNESSED BY
MUD .         GEL                  : Mud_type     - MUD TYPE
MATR.         SANDSTONE            : Logunit      - NEUTRON MATRIX
TMAX.C        19.4444              : BHT          - MAXIMUM RECORDED TEMPERATURE
BHTD.M        507.187              : BHTDEP       - MAXIMUM RECORDED TEMPERATURE
RMT .C        12.2222              : MDTP         - TEMPERATURE OF MUD
MUDD.KG/M     0                    : MWT          - MUD DENSITY
NEUT.         1                    : NEUTRON      - NEUTRON TYPE
RESI.         0                    : RESIST       - RESISTIVITY TYPE
RM  .OHMM     9.5                  : RM           - RESISTIVITY OF MUD
RMC .OHMM     5                    : RMC          - RESISTIVITY OF MUD CAKE
RMF .OHMM     10                   : RMF          - RESISTIVITY OF MUD FILTRATE
SUFT.C        4                    : SUFT         - SURFACE TEMPERATURE
~A  DEPTH       GR     RESD     PHIN
  304.800  101.394    2.566    0.458
  305.050   99.452    2.616    0.459
  305.300   95.957    2.613    0.458
  305.550   94.782    2.609    0.458
  305.800   94.769    2.556    0.457
  306.050   94.748    2.552    0.460
  306.300   94.726    2.549    0.461
  306.550   94.327    2.597    0.456
  306.800   94.306    2.595    0.454
  307.050   93.903    2.592    0.448
  307.300   93.504    2.639    0.444
  307.550   92.324    2.689    0.438
  307.800   90.755    2.906    0.436
  308.050   89.974    3.139    0.436
  308.300   88.799    3.324    0.440
  308.550   87.620    3.387    0.441
  308.800   87.217    3.517    0.442
  309.050   87.200    3.583    0.443
  309.300   88.340    3.651    0.447
  309.550   90.638    3.647    0.450
  309.800  100.651    3.644    0.457
  310.050  102.173    3.498    0.468
  310.300  102.550    3.360    0.470
  310.550  102.533    3.164    0.467
  310.800  101.354    2.980    0.461
  311.050   99.793    2.751    0.457
  311.300   97.846    2.539    0.454
  311.550   94.741    2.391    0.452
  311.800   90.475    2.343    0.450
  312.050   88.142    2.250    0.443
  312.300   85.419    2.161    0.431
  312.550   83.858    2.075    0.416
  312.800   83.061    2.155    0.393
  313.050   82.662    2.422    0.387
  313.300   82.649    2.831    0.366
  313.550   82.237    3.375    0.340
  313.800   81.838    3.646    0.340
  314.050   81.435    3.786    0.338
  314.300   81.418    3.858    0.335
  314.550   81.401    3.930    0.334
  314.800   81.383    3.926    0.343
  315.050   81.366    3.922    0.364
  315.300   81.349    3.916    0.398
  315.550   81.718    3.761    0.445
  315.800   83.240    3.473    0.450
  316.050   85.152    3.143    0.457
  316.300   86.678    3.020    0.465
  316.550   87.433    2.733    0.468
  316.800   87.026    2.574    0.470
  317.050   86.618    2.425    0.470
  317.300   86.601    2.282    0.470
  317.550   87.741    2.236    0.470
  317.800   88.110    2.190    0.469
  318.050   87.707    2.231    0.467
  318.300   86.528    2.362    0.466
  318.550   85.747    2.408    0.465
  318.800   84.954    2.501    0.462
  319.050   86.480    2.649    0.459
  319.300   88.393    2.700    0.456
  319.550   89.533    2.860    0.455
  319.800   89.902    2.913    0.459
  320.050   88.727    2.909    0.468
  320.300   87.543    2.794    0.481
  320.550   87.144    2.580    0.494
  320.800   86.355    2.290    0.503
  321.050   85.176    2.158    0.523
  321.300   84.777    1.878    0.533
  321.550   84.365    1.768    0.535
  321.800   84.344    1.697    0.534
  322.050   84.335    1.663    0.532
  322.300   84.318    1.695    0.529
  322.550   84.301    1.726    0.529
  322.800   85.055    1.792    0.532
  323.050   86.187    1.826    0.534
  323.300   86.552    1.860    0.542
  323.550   86.543    1.932    0.547
  323.800   86.140    1.969    0.550
  324.050   85.351    2.005    0.553
  324.300   83.395    2.083    0.555
  324.550   81.839    2.122    0.559
  324.800   79.506    2.162    0.563
  325.050   78.713    2.202    0.559
  325.300   78.700    2.242    0.552
  325.550   80.218    2.240    0.549
  325.800   80.977    2.282    0.547
  326.050   82.113    2.324    0.542
  326.300   82.867    2.368    0.538
  326.550   81.697    2.365    0.528
  326.800   79.364    2.362    0.523
  327.050   76.255    2.313    0.522
  327.300   78.167    2.311    0.518
  327.550   81.623    2.262    0.518
  327.800   86.623    2.261    0.519
  328.050   90.465    2.213    0.520
  328.300   93.149    2.125    0.521
  328.550   93.904    2.123    0.524
  328.800   92.724    2.079    0.521
  329.050   90.001    2.118    0.518
  329.300   89.217    2.117    0.518
  329.550   88.042    2.242    0.517
  329.800   88.025    2.375    0.517
  330.050   88.003    2.468    0.517
  330.300   88.367    2.613    0.516
  330.550   88.350    2.716    0.512
  330.800   88.719    2.822    0.510
  331.050   89.083    2.931    0.501
  331.300   89.456    3.045    0.499
  331.550   89.829    3.042    0.501
  331.800   91.351    3.097    0.505
  332.050   92.865    3.094    0.510
  332.300   92.861    3.089    0.511
  332.550   93.229    3.027    0.515
  332.800   93.979    2.908    0.517
  333.050   93.966    2.737    0.521
  333.300   94.327    2.528    0.521
  333.550   94.301    2.333    0.521
  333.800   94.288    2.241    0.521
  334.050   94.279    2.153    0.521
  334.300   94.258    2.109    0.521
  334.550   93.469    2.024    0.520
  334.800   91.513    1.983    0.517
  335.050   90.733    1.981    0.511
  335.300   89.558    1.978    0.506
  335.550   88.764    1.976    0.505
  335.800   88.365    1.974    0.505
  336.050   87.572    2.010    0.506
  336.300   87.555    2.008    0.507
  336.550   87.147    2.086    0.513
  336.800   87.130    2.084    0.515
  337.050   86.731    2.207    0.515
  337.300   86.710    2.292    0.508
  337.550   86.688    2.336    0.504
  337.800   86.662    2.334    0.497
  338.050   86.654    2.377    0.492
  338.300   87.027    2.421    0.488
  338.550   87.395    2.514    0.487
  338.800   87.370    2.613    0.489
  339.050   87.357    2.662    0.492
  339.300   86.949    2.765    0.498
  339.550   86.936    2.817    0.503
  339.800   86.529    2.813    0.505
  340.050   85.740    2.809    0.503
  340.300   85.328    2.806    0.495
  340.550   84.933    2.803    0.485
  340.800   84.912    2.798    0.481
  341.050   85.281    2.796    0.481
  341.300   86.035    2.793    0.481
  341.550   86.794    2.790    0.482
  341.800   86.768    2.787    0.482
  342.050   86.755    2.783    0.482
  342.300   86.348    2.779    0.481
  342.550   86.331    2.723    0.477
  342.800   87.463    2.667    0.473
  343.050   87.840    2.611    0.471
  343.300   88.209    2.558    0.469
  343.550   89.345    2.456    0.463
  343.800   89.718    2.406    0.461
  344.050   91.240    2.450    0.458
  344.300   91.995    2.497    0.457
  344.550   92.363    2.646    0.466
  344.800   93.499    2.749    0.479
  345.050   94.254    2.744    0.491
  345.300   95.394    2.534    0.505
  345.550   96.535    2.294    0.513
  345.800   96.904    2.119    0.507
  346.050   97.272    2.035    0.501
  346.300   97.641    2.072    0.499
  346.550   97.238    2.070    0.499
  346.800   95.677    2.068    0.501
  347.050   93.726    2.065    0.505
  347.300   92.555    2.063    0.514
  347.550   92.148    2.061    0.515
  347.800   92.126    2.019    0.516
  348.050   92.113    2.016    0.515
  348.300   91.706    2.014    0.516
  348.550   91.307    1.972    0.518
  348.800   90.123    1.970    0.515
  349.050   89.334    1.930    0.514
  349.300   88.935    1.853    0.512
  349.550   88.146    1.744    0.511
  349.800   87.739    1.709    0.508
  350.050   87.722    1.706    0.507
  350.300   88.472    1.808    0.504
  350.550   89.231    1.953    0.501
  350.800   90.753    2.030    0.500
  351.050   91.512    2.151    0.504
  351.300   92.266    2.277    0.505
  351.550   93.013    2.275    0.498
  351.800   93.385    2.318    0.494
  352.050   94.131    2.314    0.491
  352.300   94.123    2.311    0.497
  352.550   94.492    2.264    0.508
  352.800   94.852    2.263    0.519
  353.050   94.839    2.215    0.525
  353.300   94.817    2.170    0.524
  353.550   94.418    2.125    0.525
  353.800   94.007    2.081    0.525
  354.050   93.994    2.038    0.526
  354.300   93.972    1.996    0.526
  354.550   94.349    1.955    0.527
  354.800   95.095    1.953    0.525
  355.050   95.468    1.951    0.524
  355.300   96.219    1.949    0.522
  355.550   96.587    1.946    0.521
  355.800   96.956    1.983    0.520
  356.050   96.939    1.980    0.518
  356.300   96.921    2.017    0.516
  356.550   96.900    2.014    0.516
  356.800   97.654    2.012    0.515
  357.050   99.185    2.010    0.514
  357.300  101.869    2.048    0.514
  357.550  104.554    2.046    0.514
  357.800  106.076    2.042    0.514
  358.050  106.830    2.040    0.514
  358.300  107.971    2.078    0.514
  358.550  107.949    2.076    0.514
  358.800  106.384    2.074    0.514
