~Version : LASO    vs 4.00 
VERS.                2.00:   CWLS Log ASCII Standard -VERSION 2.0
WRAP.                  NO:
~Well Information Block
#MNEM.UNIT       Data                        Description of Mnemonic
#----.----      -------------------------- : -----------------------------
STRT.M             1.0000:
STOP.M           202.5000:
STEP.M             0.1000:
NULL.           -999.2500:
COMP.  MOBIL OIL CANADA                    :COMPANY
WELL.  MOBIL 90 CLARKE CREEK 16-31         :WELL
FLD.   CLARKE CREEK                        :FIELD
LOC.   16-31-089-07W4                      :LOCATION
CTRY.  CANADA                              :COUNTRY
PROV.  ALBERTA                             :PROVINCE
SRVC.  BRITISH PLASTERBOARD                :SERVICE COMPANY
DATE.  22-JAN-90                           :LOG DATE
UWI.   AA/16-31-089-07W400                 :UNIQUE WELL ID
~Parameter Information Block
#MNEM.UNIT       Data                        Description of Mnemonic
#----.----      -------------------------- : -----------------------------
RUN .                   1                 : Run Number
GL  .M           453.6000                 : Ground Level Elevation
DREF.                  GD                 : Depth Reference
EREF.M           453.6000                 : Elevation of Depth Reference
TDL .M           204.5000                 : Total Depth Logger
TDD .M           204.5000                 : Total Depth Driller
~Curve Information Block
#MNEM.UNIT        API CODE    Curve Description
#---------    ------------    -------------------------------------------
DEPT.M                    :   DEPTH
CALI.mm                   :   CALI
DPHI.V/V                  :   DPHI
DT  .US/M     60 520  0  1:   2 SONIC INTERVAL TRANSIT TIME (COMPENSATED)
GR  .API                  :   GR
ILD .Ohmm                 :   ILD
NPHI.V/V                  :   NPHI
RHOB.K/M3     45 350  1  1:   3 BULK DENSITY
~A  Depth           CALI        DPHI          DT          GR         ILD        NPHI        RHOB
1.0000         -999.2500   -999.2500   -999.2500   -999.2500   -999.2500   -999.2500   1860.4000
1.1000          164.9328      0.4577   -999.2500     85.2834   -999.2500   -999.2500   1846.1000
1.2000          164.9222      0.5040   -999.2500     86.6154   -999.2500   -999.2500   1867.2000
1.3000          164.9456      0.5222   -999.2500     89.9189   -999.2500   -999.2500   1815.0000
1.4000          164.5969      0.5249   -999.2500     92.8524   -999.2500   -999.2500   1772.8000
1.5000          164.6088      0.5240   -999.2500     96.3162   -999.2500   -999.2500   1828.5000
1.6000          164.2946      0.5299   -999.2500     99.8144   -999.2500   -999.2500   1803.8000
1.7000          164.2870      0.5359   -999.2500    100.3708   -999.2500   -999.2500   1769.1000
1.8000          164.3000      0.5377   -999.2500     98.1887   -999.2500   -999.2500   1775.0000
1.9000          164.3321      0.5304   -999.2500     97.0584   -999.2500   -999.2500   1743.9000
2.0000          164.3645      0.5213   -999.2500     97.5439   -999.2500   -999.2500   1888.5000
2.1000          164.1189      0.4959   -999.2500     99.1611   -999.2500   -999.2500   1818.0000
2.2000          164.0501      0.4781   -999.2500    100.2140   -999.2500   -999.2500   1812.1000
2.3000          164.0586      0.4799   -999.2500    100.1813   -999.2500   -999.2500   1845.9000
2.4000          164.0902      0.4864   -999.2500     96.3941   -999.2500   -999.2500   1792.6000
2.5000          163.7713      0.5014   -999.2500     90.9043   -999.2500   -999.2500   1767.1000
2.6000          163.7599      0.5135   -999.2500     90.1913   -999.2500   -999.2500   1742.2000
2.7000          163.7852      0.5164   -999.2500     93.0604   -999.2500   -999.2500   1722.4000
2.8000          163.8162      0.4997   -999.2500     95.9850   -999.2500   -999.2500   1966.9000
2.9000          163.8482      0.4674   -999.2500    100.5391   -999.2500   -999.2500   1965.5000
3.0000          163.8806      0.4398   -999.2500    103.6298   -999.2500   -999.2500   1963.3000
3.1000          163.9130      0.4180   -999.2500    105.0933   -999.2500   -999.2500   2051.0000
3.2000          163.9454      0.4085   -999.2500    104.8632   -999.2500   -999.2500   2074.2000
3.3000          163.9779      0.4056   -999.2500    103.2194   -999.2500   -999.2500   1855.0000
3.4000          164.0103      0.3896   -999.2500    104.4763   -999.2500   -999.2500   1966.1000
3.5000          164.0427      0.3326   -999.2500    105.9491   -999.2500   -999.2500   2081.5000
3.6000          164.0751      0.2812   -999.2500    108.6554   -999.2500   -999.2500   2184.1001
3.7000          164.1075      0.2886   -999.2500    110.6016   -999.2500   -999.2500   2212.8000
3.8000          163.8410      0.2955   -999.2500    113.4007   -999.2500   -999.2500   2157.1001
3.9000          163.7815      0.3045   -999.2500    114.7175   -999.2500   -999.2500   2140.3999
4.0000          163.4663      0.2970   -999.2500    116.4370   -999.2500   -999.2500   2179.8999
4.1000          163.4433      0.2811   -999.2500    116.7453   -999.2500   -999.2500   2205.2000
4.2000          163.1572      0.2714   -999.2500    109.9219   -999.2500   -999.2500   2218.0000
4.3000          163.0994      0.2672   -999.2500    106.3860   -999.2500   -999.2500   2191.3999
4.4000          163.1237      0.2626   -999.2500    106.6225   -999.2500   -999.2500   2180.0000
4.5000          162.8825      0.2590   -999.2500    107.6911   -999.2500   -999.2500   2265.0000
4.6000          162.8115      0.2600   -999.2500    108.5604   -999.2500   -999.2500   2151.8000
4.7000          162.8173      0.2796   -999.2500     88.5143   -999.2500   -999.2500   2162.6001
4.8000          162.8482      0.3034   -999.2500     73.9563   -999.2500   -999.2500   2072.0000
4.9000          162.8805      0.3207   -999.2500     60.7597   -999.2500   -999.2500   2052.7000
5.0000          162.5855      0.3389   -999.2500     56.1144   -999.2500   -999.2500   2095.6001
5.1000          162.5432      0.3765   -999.2500     40.4887   -999.2500   -999.2500   2008.8000
5.2000          162.5738      0.5192   -999.2500     38.8073   -999.2500   -999.2500   1804.8000
5.3000          162.6061      0.5016   -999.2500     36.6322   -999.2500   -999.2500   1785.8000
5.4000          162.6385      0.4390   -999.2500     37.2869   -999.2500   -999.2500   1866.4000
5.5000          162.6709      0.3958   -999.2500     38.6405   -999.2500   -999.2500   1958.7000
5.6000          162.3160      0.3736   -999.2500     42.0485   -999.2500   -999.2500   2040.7000
5.7000          162.3332      0.3587   -999.2500     42.9151   -999.2500   -999.2500   2022.5000
5.8000          162.3646      0.3585   -999.2500     43.0505   -999.2500   -999.2500   1999.7000
5.9000          162.3966      0.3824   -999.2500     43.7438   -999.2500   -999.2500   1964.1000
6.0000          162.4290      0.4261   -999.2500     44.3669   -999.2500   -999.2500   1922.5000
6.1000          162.4614      0.4593   -999.2500     44.4464   -999.2500   -999.2500   1810.0000
6.2000          162.4938      0.4703   -999.2500     42.9488   -999.2500   -999.2500   1858.7000
6.3000          162.5262      0.4042   -999.2500     41.3028   -999.2500   -999.2500   1881.2000
6.4000          162.5587      0.3505   -999.2500     39.1950   -999.2500   -999.2500   1943.2000
6.5000          162.5911      0.3136   -999.2500     36.9558   -999.2500   -999.2500   2006.5000
6.6000          162.6235      0.3082   -999.2500     35.7747   -999.2500   -999.2500   2075.8000
6.7000          163.0131      0.3255   -999.2500     33.1520   -999.2500   -999.2500   2058.8000
6.8000          163.0850      0.3402   -999.2500     32.2947   -999.2500   -999.2500   1949.0000
6.9000          163.1223      0.3563   -999.2500     33.5545   -999.2500   -999.2500   1913.2000
7.0000          163.1567      0.2927   -999.2500     35.2108   -999.2500   -999.2500   2021.2000
7.1000          163.1896      0.2671   -999.2500     36.2906   -999.2500   -999.2500   1985.9000
7.2000          163.2221      0.2484   -999.2500     38.4758   -999.2500   -999.2500   1994.7000
7.3000          163.2545      0.2345   -999.2500     40.3172   -999.2500   -999.2500   2007.2000
7.4000          163.2869      0.1492   -999.2500     42.5388   -999.2500   -999.2500   2126.7000
7.5000          163.3193      0.1243   -999.2500     43.7870   -999.2500   -999.2500   2236.7000
7.6000          163.3518      0.0947   -999.2500     43.9486   -999.2500   -999.2500   2277.8000
7.7000          163.3842      0.0752   -999.2500     44.0125   -999.2500   -999.2500   2235.6001
7.8000          163.4166      0.0633   -999.2500     44.0645   -999.2500   -999.2500   2298.2000
7.9000          163.0500      0.0626   -999.2500     43.5471   -999.2500   -999.2500   2261.5000
8.0000          163.0777      0.0741   -999.2500     44.6371   -999.2500   -999.2500   2128.3000
8.1000          162.8191      0.0896   -999.2500     45.3096   -999.2500      0.0689   2195.6001
8.2000          162.7556      0.0954   -999.2500     45.4496   -999.2500      0.0809   2255.2000
8.3000          162.7740      0.0919   -999.2500     45.5192   -999.2500      0.2359   2257.5000
8.4000          162.8031      0.0807   -999.2500     45.5684   -999.2500      0.3268   2289.0000
8.5000          162.8355      0.0608   -999.2500     46.1484   -999.2500      0.3411   2259.5000
8.6000          162.8679      0.0439   -999.2500     47.2732   -999.2500      0.3407   2270.3000
8.7000          162.9003      0.0256   -999.2500     48.9446   -999.2500      0.3337   2283.8000
8.8000          162.9327      0.0125   -999.2500     50.2330   -999.2500      0.3284   2335.7000
8.9000          162.9651      0.0060   -999.2500     50.6265   -999.2500      0.3481   2303.1001
9.0000          162.9976      0.0044   -999.2500     49.8443   -999.2500      0.3615   2277.8000
9.1000          162.7459      0.0048   -999.2500     49.1054   -999.2500      0.3835   2287.6001
9.2000          162.3470      0.0210   -999.2500     47.1788   -999.2500      0.3968   2265.3999
