~VERSION INFORMATION
 VERS.                 2.0:   CWLS LOG ASCII STANDARD -VERSION 2.0
 WRAP.                  NO:   ONE LINE PER DEPTH STEP
~WELL INFORMATION BLOCK
#MNEM.UNIT           DATA                    DESCRIPTION OF MNEMONIC
#---------    -------------------            -------------------------------
# Generated from Intellog Unique Number	CN_94_101/WELL/2668
WELL.         10-08-094-14W4                 : Well_name    - WELL
LOC .         AA/10-08-094-14W4/0            : Location     - LOCATION
UWI .         AA/10-08-094-14W400            : Uwi          - UNIQUE WELL ID
ENTR.         JOETTE                         : Entered      - ENTERED BY
SRVC.         SCHLUMBERGER                   : Scn          - SERVICE COMPANY
DATE.         06/18/92                       : Date         - LOG DATE
STRT.M        50                             : top_depth    - START DEPTH
STOP.M        160                            : bot_depth    - STOP DEPTH
STEP.M        0.25                           : increment    - STEP LENGTH
 NULL. -999.2500:NULL Value
~CURVE INFORMATION BLOCK
#MNEM UNIT       ERCB CURVE CODE    CURVE DESCRIPTION
#-----------   ------------------   ----------------------------------
DEPT.M        00 001 00 00         : DEPTH        - DEPTH
CALI.MM       00 280 01 00         : CAL          - CALIPER
GR  .API      00 310 00 00         : GR           - GAMMA RAY
NPHI.V/V      00 330 00 00         : PHIN         - NEUTRON POROSITY (SANDSTONE)
DPHI.V/V      00 890 00 00         : PHID         - DENSITY POROSITY (SANDSTONE)
ILD .OHMM     00 120 00 00         : RESD         - DEEP RESISTIVITY (DIL)
~PARAMETER INFORMATION
#MNEM.UNIT           DATA             DESCRIPTION OF MNEMONIC
#---------         -----------     ------------------------------
GL  .M        428.8                : gl           - GROUND LEVEL ELEVATION
EREF.M        434.05               : kb           - ELEVATION OF DEPTH REFERENCE
DATM.M        434.05               : datum        - DATUM ELEVATION
TDD .M        201.5                : tdd          - TOTAL DEPTH DRILLER
RUN .         ONE                  : Run          - RUN NUMBER
ENG .         BILL                 : Engineer     - RECORDING ENGINEER
WIT .         JIM                  : Witness      - WITNESSED BY
MUD .         GEL                  : Mud_type     - MUD TYPE
MATR.         SANDSTONE            : Logunit      - NEUTRON MATRIX
TMAX.C        19                   : BHT          - MAXIMUM RECORDED TEMPERATURE
BHTD.M        201.5                : BHTDEP       - MAXIMUM RECORDED TEMPERATURE
RMT .C        19                   : MDTP         - TEMPERATURE OF MUD
MUDD.KG/M     1120                 : MWT          - MUD DENSITY
NEUT.         1                    : NEUTRON      - NEUTRON TYPE
RESI.         0                    : RESIST       - RESISTIVITY TYPE
RM  .OHMM     3.15                 : RM           - RESISTIVITY OF MUD
RMC .OHMM     3.15                 : RMC          - RESISTIVITY OF MUD CAKE
RMF .OHMM     3.15                 : RMF          - RESISTIVITY OF MUD FILTRATE
SUFT.C        4                    : SUFT         - SURFACE TEMPERATURE
~A  DEPTH      CAL       GR     PHIN     PHID     RESD
# ...
  123.000  258.381   58.598    0.428    0.253    7.442
  123.250  263.556   62.234    0.422    0.307    6.550
  123.500  265.611   66.487    0.543    0.311    5.355
  123.750  272.735   70.739    0.556    0.315    3.994
  124.000  281.807   71.442    0.575    0.329    2.926
  124.250  290.879   70.932    0.581    0.344    2.824
  124.500  257.253   72.804    0.577    0.352    2.778
  124.750  265.369   75.866    0.584    0.333    2.836
  125.000  272.456   78.332    0.581    0.333    3.115
  125.250  275.576   78.418    0.529    0.293    3.615
  125.500  268.773   73.763    0.514    0.285    4.603
  125.750  257.967   70.255    0.496    0.248    6.548
  126.000  245.211   67.981    0.481    0.258    6.806
  126.250  237.381   67.429    0.464    0.233    7.484
  126.500  228.595   65.728    0.461    0.232    7.920
  126.750  222.784   64.050    0.463    0.201    8.701
  127.000  215.982   64.135    0.469    0.251    9.922
  127.250  211.164   65.433    0.464    0.246   10.120
  127.500  205.318   66.071    0.453    0.222    9.254
  127.750  196.532   67.985    0.457    0.213    8.451
  128.000  193.769   68.688    0.469    0.220    7.721
  128.250  199.829   69.347    0.468    0.247    8.171
  128.500  224.847   68.838    0.461    0.272   12.285
  128.750  226.903   68.306    0.454    0.284   12.531
  129.000  224.069   67.201    0.438    0.298   12.787
  129.250  200.436   64.353    0.416    0.281   12.576
  129.500  194.554   62.610    0.418    0.285   11.074
  129.750  175.846   59.698    0.440    0.277    9.573
  130.000  169.008   57.403    0.443    0.250    8.586
  130.250  162.206   61.677    0.448    0.212    9.260
  130.500  159.408   60.550    0.438    0.207   10.756
  130.750  159.586   44.563    0.424    0.234   12.499
  131.000  159.657   36.889    0.403    0.246   12.510
  131.250  161.820   36.974    0.373    0.230   11.429
  131.500  162.919   50.178    0.394    0.256   10.064
  131.750  167.066   61.000    0.425    0.258    9.022
  132.000  170.185   63.467    0.465    0.265    8.243
  132.250  178.301   65.934    0.480    0.267    7.264
  132.500  185.353   69.591    0.480    0.245    7.008
  132.750  215.296   71.484    0.488    0.299    6.405
  133.000  218.487   72.186    0.506    0.300    6.182
  133.250  211.649   73.420    0.500    0.289    5.971
  133.500  204.811   72.910    0.490    0.298    5.560
  133.750  211.898   68.850    0.496    0.378    5.265
  134.000  227.951   69.531    0.519    0.418    4.810
  134.250  240.035   70.786    0.530    0.399    4.647
  134.500  243.155   72.679    0.540    0.354    4.744
  134.750  241.313   72.169    0.556    0.328    4.837
  135.000  232.491   68.661    0.567    0.321    5.216
  135.250  210.770   62.199    0.559    0.349    6.171
  135.500  190.114   55.141    0.492    0.351    8.776
  135.750  184.268   43.299    0.486    0.327   13.691
  136.000  164.532   38.623    0.472    0.303   23.410
  136.250  160.706   33.925    0.412    0.285   31.513
  136.500  154.860   27.483    0.398    0.284   35.295
  136.750  154.011   27.590    0.387    0.279   34.682
  137.000  157.165   28.845    0.381    0.293   34.110
  137.250  162.340   30.100    0.391    0.300   32.333
  137.500  165.388   30.802    0.386    0.308   30.691
  137.750  171.519   29.124    0.380    0.296   30.733
  138.000  173.611   28.571    0.413    0.287   30.199
  138.250  175.809   26.892    0.387    0.284   28.639
  138.500  175.916   26.361    0.373    0.250   27.134
  138.750  177.051   27.042    0.399    0.241   24.812
  139.000  179.178   29.530    0.407    0.265   23.936
  139.250  184.317   30.785    0.404    0.270   23.132
  139.500  190.413   32.083    0.404    0.275   23.164
  139.750  196.508   32.169    0.411    0.278   23.195
  140.000  200.584   30.468    0.420    0.284   24.570
  140.250  204.767   29.342    0.418    0.291   24.570
  140.500  206.894   28.875    0.411    0.292   27.556
  140.750  207.001   28.918    0.407    0.282   28.107
  141.000  208.171   29.620    0.411    0.275   28.171
  141.250  208.314   30.918    0.417    0.278   27.694
  141.500  207.429   31.577    0.424    0.282   26.752
  141.750  207.429   31.663    0.422    0.287   25.830
  142.000  205.837   32.344    0.418    0.288   24.929
  142.250  201.904   32.451    0.419    0.285   23.209
  142.500  199.071   33.153    0.426    0.277   22.399
  142.750  196.237   34.387    0.420    0.278   21.223
  143.000  192.482   36.301    0.410    0.275   19.759
  143.250  190.605   37.556    0.420    0.252   19.442
  143.500  187.736   40.044    0.431    0.254   19.460
  143.750  183.874   41.299    0.423    0.273   19.522
  144.000  178.064   44.978    0.381    0.266   20.301
  144.250  171.297   49.209    0.318    0.218   20.697
  144.500  164.495   52.866    0.321    0.176   21.130
  144.750  160.598   52.356    0.345    0.152   21.543
  145.000  152.803   54.845    0.365    0.281   22.413
  145.250  148.977   59.119    0.443    0.286   22.443
  145.500  155.073   57.419    0.443    0.298   22.083
  145.750  157.200   53.932    0.420    0.252   21.719
  146.000  156.386   53.380    0.408    0.224   21.739
  146.250  155.501   53.466    0.402    0.217   21.788
  146.500  153.660   56.549    0.425    0.208   21.818
  146.750  155.787   55.466    0.424    0.201   21.858
  147.000  156.921   53.787    0.412    0.190   22.315
  147.250  153.096   53.830    0.414    0.184   22.771
  147.500  151.254   53.341    0.420    0.292   23.680
  147.750  154.409   54.022    0.417    0.250   23.712
  148.000  158.520   53.513    0.412    0.242   24.186
  148.250  163.624   51.791    0.408    0.268   24.692
  148.500  167.771   50.665    0.403    0.252   25.220
  148.750  171.918   47.200    0.402    0.266   25.243
  149.000  173.973   45.500    0.415    0.290   25.289
  149.250  179.112   45.011    0.429    0.294   24.872
  149.500  184.252   45.054    0.437    0.303   24.462
  149.750  187.371   46.373    0.434    0.291   22.764
  150.000  191.446   47.628    0.431    0.297   20.427
  150.250  197.542   49.521    0.430    0.293   19.354
  150.500  202.646   51.392    0.435    0.284   19.043
  150.750  205.800   53.243    0.428    0.271   19.803
  151.000  206.935   55.709    0.424    0.258   20.575
  151.250  204.137   54.009    0.436    0.285   21.775
  151.500  202.260   49.332    0.456    0.294   23.953
  151.750  201.411   45.825    0.456    0.306   25.350
  152.000  203.538   41.743    0.446    0.308   26.338
  152.250  200.740   40.681    0.439    0.300   26.864
  152.500  197.834   41.915    0.444    0.286   27.936
  152.750  192.096   45.020    0.438    0.296   27.987
  153.000  187.278   46.891    0.427    0.304   27.538
  153.250  184.408   48.167    0.425    0.292   26.092
  153.500  180.618   48.827    0.426    0.287   23.392
  153.750  178.705   47.722    0.432    0.292   18.103
  154.000  170.911   46.617    0.435    0.290   17.160
  154.250  163.080   44.917    0.429    0.302   16.577
  154.500  157.270   43.238    0.418    0.295   16.296
  154.750  152.488   43.345    0.417    0.285   14.349
  155.000  148.662   43.388    0.414    0.284   11.105
  155.250  146.856   44.069    0.412    0.295    8.913
  155.500  145.935   43.007    0.402    0.288    7.160
  155.750  145.157   41.264    0.383    0.287    6.663
  156.000  145.264   39.542    0.386    0.297    6.085
  156.250  145.371   36.672    0.389    0.290    5.262
  156.500  146.578   39.735    0.393    0.275    5.272
  156.750  146.649   39.225    0.399    0.244    5.477
  157.000  147.855   36.313    0.395    0.192    5.907
  157.250  148.954   35.803    0.324    0.140    6.490
  157.500  151.081   38.908    0.287    0.079    8.266
  157.750  153.208   40.163    0.188   -0.019   13.373
  158.000  153.315   42.630    0.183    0.010   24.639
  158.250  155.442   42.715    0.185   -0.008   26.561
  158.500  156.577   41.015    0.187   -0.009   31.454
  158.750  157.784   42.334    0.191   -0.004   31.483
  159.000  157.891   42.993    0.193   -0.002   31.540
  159.250  158.105   43.653    0.198   -0.002   30.453
