~VERSION INFORMATION
 VERS.                 2.0:   CWLS LOG ASCII STANDARD -VERSION 2.0
 WRAP.                  NO:   ONE LINE PER DEPTH STEP
~WELL INFORMATION BLOCK
#MNEM.UNIT           DATA                    DESCRIPTION OF MNEMONIC
#---------    -------------------            -------------------------------
# Generated from Intellog Unique Number	CS_77_79/WELL/3300
WELL.         10-11-078-08W4                 : Well_name    - WELL
LOC .         AA/10-11-078-08W4/0            : Location     - LOCATION
UWI .         AA/10-11-078-08W4/0            : Uwi          - UNIQUE WELL ID
ENTR.         JOETTE                         : Entered      - ENTERED BY
SRVC.         WESTERN ATLAS                  : Scn          - SERVICE COMPANY
DATE.         08/26/92                       : Date         - LOG DATE
STRT.M        140                            : top_depth    - START DEPTH
STOP.M        370                            : bot_depth    - STOP DEPTH
STEP.M        0.25                           : increment    - STEP LENGTH
 NULL. -999.2500:NULL Value
~CURVE INFORMATION BLOCK
#MNEM UNIT       ERCB CURVE CODE    CURVE DESCRIPTION
#-----------   ------------------   ----------------------------------
DEPT.M        00 001 00 00         : DEPTH        - DEPTH
GR  .API      00 310 00 00         : GR           - GAMMA RAY
NPHI.V/V      00 330 00 00         : PHIN         - NEUTRON POROSITY (SANDSTONE)
DPHI.V/V      00 890 00 00         : PHID         - DENSITY POROSITY (SANDSTONE)
ILD .OHMM     00 120 00 00         : RESD         - DEEP RESISTIVITY (DIL)
~PARAMETER INFORMATION
#MNEM.UNIT           DATA             DESCRIPTION OF MNEMONIC
#---------         -----------     ------------------------------
GL  .M        563.4                : gl           - GROUND LEVEL ELEVATION
EREF.M        566.9                : kb           - ELEVATION OF DEPTH REFERENCE
DATM.M        566.9                : datum        - DATUM ELEVATION
TDD .M        378                  : tdd          - TOTAL DEPTH DRILLER
RUN .         ONE                  : Run          - RUN NUMBER
ENG .         BILL                 : Engineer     - RECORDING ENGINEER
WIT .         JIM                  : Witness      - WITNESSED BY
MUD .         GEL                  : Mud_type     - MUD TYPE
MATR.         SANDSTONE            : Logunit      - NEUTRON MATRIX
TMAX.C        16                   : BHT          - MAXIMUM RECORDED TEMPERATURE
BHTD.M        378                  : BHTDEP       - MAXIMUM RECORDED TEMPERATURE
MATR.         1                    : LOGUNIT      - NEUTRON MATRIX
RMT .C        15                   : MDTP         - TEMPERATURE OF MUD
NEUT.         1                    : NEUTRON      - NEUTRON TYPE
RESI.         0                    : RESIST       - RESISTIVITY TYPE
RMC .OHMM     3.8                  : RMC          - RESISTIVITY OF MUD CAKE
RMF .OHMM     3.8                  : RMF          - RESISTIVITY OF MUD FILTRATE
SUFT.C        15                   : SUFT         - SURFACE TEMPERATURE
~A  DEPTH       GR     PHIN     PHID     RESD
# ...
  183.500   94.412    0.414    0.185    5.144
  183.750  102.654    0.423    0.181    5.337
  184.000  103.853    0.400    0.180    5.637
  184.250  105.652    0.368    0.192    6.177
  184.500  106.259    0.353    0.206    6.892
  184.750   88.680    0.339    0.219    7.552
  185.000   87.532    0.326    0.215    7.834
  185.250   84.037    0.336    0.215    7.556
  185.500   80.542    0.353    0.222    6.774
  185.750   82.915    0.350    0.212    6.416
  186.000   91.156    0.338    0.217    6.535
  186.250  100.571    0.347    0.247    7.031
  186.500  101.191    0.389    0.255    7.427
  186.750   97.689    0.394    0.256    8.138
  187.000   92.440    0.400    0.235    8.597
  187.250   89.538    0.400    0.227    9.083
  187.500   86.624    0.372    0.229    9.421
  187.750   87.236    0.351    0.227    9.598
  188.000   93.130    0.356    0.234    8.764
  188.250   90.222    0.362    0.231    8.451
  188.500   84.393    0.338    0.203    8.004
  188.750   87.933    0.343    0.179    8.153
  189.000   90.886    0.382    0.176    8.304
  189.250   83.871    0.370    0.250    8.614
  189.500   83.897    0.358    0.234    9.101
  189.750   84.516    0.351    0.241    9.270
  190.000   79.254    0.352    0.250    9.272
  190.250   79.286    0.343    0.254    8.622
  190.500   90.461    0.349    0.254    7.873
  190.750   94.595    0.354    0.227    7.593
  191.000   96.388    0.347    0.216    7.457
  191.250  101.102    0.351    0.203    7.458
  191.500  103.481    0.386    0.200    7.460
  191.750   94.698    0.377    0.192    7.599
  192.000   92.390    0.387    0.192    7.740
  192.250   93.589    0.397    0.202    7.068
  192.500   92.442    0.410    0.197    6.337
  192.750   93.054    0.416    0.206    5.579
  193.000   94.254    0.407    0.355    5.283
  193.250   94.860    0.420    0.491    5.581
  193.500   91.365    0.439    0.519    6.343
  193.750   69.092    0.460    0.469    6.949
  194.000   38.010    0.513    0.422    8.042
  194.250   53.300    0.338    0.348    9.307
  194.500   58.613    0.344    0.272   12.925
  194.750   55.699    0.342    0.229   14.161
  195.000   57.485    0.341    0.249   15.802
  195.250   56.924    0.342    0.244   16.694
  195.500   55.196    0.352    0.249   17.319
  195.750   64.024    0.350    0.258   17.641
  196.000   59.942    0.328    0.267   17.970
  196.250   61.142    0.323    0.272   18.303
  196.500   60.581    0.324    0.279   18.308
  196.750   55.325    0.332    0.289   18.648
  197.000   60.052    0.340    0.293   18.998
  197.250   58.904    0.337    0.285   19.350
  197.500   57.756    0.331    0.284   19.712
  197.750   58.956    0.335    0.286   19.715
  198.000   63.670    0.345    0.286   20.083
  198.250   65.463    0.358    0.286   20.087
  198.500   58.447    0.371    0.287   20.090
  198.750   54.958    0.366    0.298   20.096
  199.000   54.990    0.344    0.311   20.101
  199.250   56.770    0.339    0.308   20.104
  199.500   60.311    0.335    0.301   20.479
  199.750   64.444    0.337    0.291   20.485
  200.000   63.296    0.331    0.284   20.487
  200.250   60.975    0.321    0.283   20.870
  200.500   57.486    0.327    0.287   21.259
  200.750   56.332    0.374    0.296   21.263
  201.000   66.340    0.350    0.308   21.662
  201.250   61.672    0.343    0.303   21.664
  201.500   57.003    0.335    0.303   22.068
  201.750   55.862    0.342    0.287   22.071
  202.000   58.815    0.346    0.281   22.076
  202.250   54.147    0.336    0.286   22.083
  202.500   49.478    0.342    0.284   21.687
  202.750   55.372    0.325    0.283   20.540
  203.000   69.488    0.330    0.281   20.170
  203.250   73.035    0.326    0.288   19.103
  203.500   68.953    0.337    0.291   18.091
  203.750   64.291    0.343    0.294   17.766
  204.000   60.202    0.337    0.295   17.135
  204.250   60.235    0.350    0.293   17.139
  204.500   61.428    0.350    0.292   17.142
  204.750   58.519    0.354    0.292   17.145
  205.000   55.031    0.354    0.291   17.151
  205.250   52.703    0.353    0.291   17.153
  205.500   54.489    0.345    0.293   17.156
  205.750   56.276    0.346    0.292   17.161
  206.000   53.967    0.351    0.291   17.166
  206.250   51.053    0.356    0.290   17.168
  206.500   49.318    0.352    0.308   17.173
  206.750   54.632    0.333    0.308   17.178
  207.000   52.310    0.338    0.303   17.497
  207.250   52.916    0.340    0.304   17.499
  207.500   57.056    0.328    0.309   17.504
  207.750   50.621    0.335    0.309   17.507
  208.000   47.126    0.351    0.305   17.194
  208.250   53.607    0.354    0.300   16.887
  208.500   50.705    0.359    0.299   16.587
  208.750   47.216    0.363    0.297   16.591
  209.000   50.176    0.355    0.288   16.596
  209.250   53.130    0.343    0.283   16.599
  209.500   54.329    0.349    0.283   16.603
  209.750   53.181    0.353    0.288   16.605
  210.000   53.207    0.343    0.295   16.309
  210.250   49.132    0.373    0.296   16.313
  210.500   50.325    0.372    0.295   16.316
  210.750   57.399    0.363    0.288   16.320
  211.000   55.078    0.368    0.281   16.325
  211.250   50.422    0.377    0.277   16.328
  211.500   50.441    0.380    0.281   16.331
  211.750   54.575    0.381    0.285   16.635
  212.000   59.289    0.385    0.293   16.640
  212.250   57.554    0.387    0.298   16.643
  212.500   51.718    0.379    0.302   16.647
  212.750   51.151    0.368    0.302   16.650
  213.000   52.944    0.345    0.303   16.653
  213.250   50.616    0.350    0.299   16.657
  213.500   45.954    0.361    0.296   16.660
  213.750   47.153    0.364    0.292   16.665
  214.000   47.772    0.362    0.293   16.669
  214.250   51.900    0.362    0.297   16.673
  214.500   55.446    0.353    0.298   16.675
  214.750   54.305    0.342    0.298   16.378
  215.000   51.984    0.350    0.296   16.086
  215.250   49.656    0.354    0.296   15.799
  215.500   50.855    0.346    0.299   15.236
  215.750   56.182    0.356    0.301   14.694
  216.000   56.195    0.379    0.302   14.432
  216.250   54.460    0.384    0.298   14.174
  216.500   58.007    0.357    0.290   14.177
  216.750   66.248    0.348    0.290   14.180
  217.000   62.173    0.347    0.294   14.983
  217.250   53.390    0.347    0.291   15.541
  217.500   51.655    0.349    0.288   16.121
  217.750   60.483    0.347    0.280   17.344
  218.000   65.210    0.300    0.271   19.004
  218.250   57.608    0.249    0.245   20.822
  218.500   54.112    0.222    0.222   23.662
  218.750   42.402    0.204    0.075   25.928
  219.000   42.434    0.159    0.005   26.409
  219.250   48.322    0.152    0.037   25.470
  219.500   53.636    0.182    0.065   22.835
  219.750   56.589    0.319    0.117   14.219
  220.000   62.483    0.362    0.189   12.982
  220.250   64.282    0.349    0.236   11.640
  220.500   68.996    0.346    0.281   11.432
  220.750   74.310    0.358    0.277   11.025
  221.000   67.288    0.354    0.277    9.885
  221.250   63.206    0.366    0.284    7.521
  221.500   74.968    0.383    0.293    5.225
  221.750   82.629    0.392    0.283    4.199
  222.000   87.942    0.404    0.272    3.437
  222.250   91.483    0.392    0.269    3.196
  222.500   93.856    0.407    0.260    3.139
  222.750   92.121    0.433    0.254    3.027
  223.000   93.914    0.426    0.246    2.815
  223.250   95.700    0.426    0.277    2.815
  223.500   92.786    0.426    0.300    2.479
  223.750   88.124    0.427    0.311    2.571
  224.000   91.677    0.422    0.317    2.619
  224.250   95.224    0.428    0.312    2.620
  224.500   95.836    0.439    0.305    2.620
  224.750   94.695    0.450    0.282    2.669
  225.000   95.295    0.441    0.278    2.622
  225.250   94.734    0.431    0.273    2.483
  225.500   92.412    0.439    0.267    2.394
  225.750   88.924    0.455    0.281    2.576
  226.000   86.009    0.464    0.283    2.874
  226.250   89.562    0.434    0.284    3.326
  226.500   94.283    0.423    0.250    4.066
  226.750   93.728    0.422    0.219    4.620
