~VERSION INFORMATION
 VERS.                 2.0:   CWLS LOG ASCII STANDARD -VERSION 2.0
 WRAP.                  NO:   ONE LINE PER DEPTH STEP
~WELL INFORMATION BLOCK
#MNEM.UNIT           DATA                    DESCRIPTION OF MNEMONIC
#---------    -------------------            -------------------------------
# Generated from Intellog Unique Number	CC_80_83/WELL/2373
NULL.         -999.25                        : NULL_VALUE
WELL.         PEX PCEJ HOUSE OV              : Well_name    - WELL
LOC .         10-26-081-14W4                 : Location     - LOCATION          
UWI .         AA/10-26-081-14W400            : Uwi          - UNIQUE WELL ID    
ENTR.         DW                             : Entered      - ENTERED BY        
SRVC.         SCHLUMBERGER                   : Scn          - SERVICE COMPANY   
DATE.         20 DEC 81                      : Date         - LOG DATE
STRT.M        200                            : top_depth    - START DEPTH       
STOP.M        379.996                        : bot_depth    - STOP DEPTH        
STEP.M        0.3                            : increment    - STEP LENGTH       
~CURVE INFORMATION BLOCK
#MNEM UNIT       ERCB CURVE CODE    CURVE DESCRIPTION
#-----------   ------------------   ----------------------------------
DEPT.M        00 001 00 00         : DEPTH        - DEPTH                       
DPHI.V/V      00 890 00 00         : PHID         - DENSITY POROSITY (LIMESTONE)
NPHI.V/V      00 330 00 00         : PHIN         - NEUTRON POROSITY (LIMESTONE)
GR  .API      00 310 00 00         : GR           - GAMMA RAY                   
ILD .OHMM     00 120 00 00         : RESD         - DEEP RESISTIVITY (DIL)      
~PARAMETER INFORMATION       
#MNEM.UNIT           DATA             DESCRIPTION OF MNEMONIC
#---------         -----------     ------------------------------
GL  .M        592.5                : gl           - GROUND LEVEL ELEVATION      
EREF.M        596.2                : kb           - ELEVATION OF DEPTH REFERENCE
DATM.M        596.2                : datum        - DATUM ELEVATION             
TDD .M        388                  : tdd          - TOTAL DEPTH DRILLER         
RUN .         ONE                  : Run          - RUN NUMBER                  
ENG .         BILL                 : Engineer     - RECORDING ENGINEER          
WIT .         JIM                  : Witness      - WITNESSED BY                
MUD .         GEL                  : Mud_type     - MUD TYPE                    
MATR.         LIMESTONE            : Logunit      - NEUTRON MATRIX              
TMAX.C        22.2                 : BHT          - MAXIMUM RECORDED TEMPERATURE
BHTD.M        387                  : BHTDEP       - MAXIMUM RECORDED TEMPERATURE
MATR.         1                    : LOGUNIT      - NEUTRON MATRIX              
RMT .C        25                   : MDTP         - TEMPERATURE OF MUD          
NEUT.         1                    : NEUTRON      - NEUTRON TYPE                
RESI.         0                    : RESIST       - RESISTIVITY TYPE            
RMC .OHMM     0.25                 : RMC          - RESISTIVITY OF MUD CAKE     
RMF .OHMM     0.25                 : RMF          - RESISTIVITY OF MUD FILTRATE 
SUFT.C        15                   : SUFT         - SURFACE TEMPERATURE         
~A  DEPTH     PHID     PHIN       GR     RESD
# ...
  304.399    0.222    0.421   92.914    8.257
  304.699    0.244    0.422   87.338    7.802
  304.999    0.223    0.476   89.202    7.657
  305.299    0.206    0.452   91.068    7.960
  305.599    0.228    0.436   91.074    8.272
  305.899    0.264    0.458   87.978    8.765
  306.199    0.264    0.451   86.743    9.467
  306.499    0.265    0.458   87.369    9.838
  306.798    0.228    0.446   90.474   10.034
  307.098    0.219    0.418   95.440   10.037
  307.398    0.235    0.416   92.965    9.667
  307.698    0.245    0.427   89.869    9.487
  307.998    0.248    0.434   89.875    9.314
  308.298    0.222    0.436   86.779    9.498
  308.598    0.212    0.429   88.023    9.872
  308.898    0.220    0.427   84.309    9.876
  309.198    0.251    0.432   83.693   10.071
  309.498    0.258    0.439   87.418    9.884
  309.798    0.239    0.449   84.324    9.162
  310.098    0.250    0.455   88.671    8.994
  310.398    0.269    0.478   87.436    9.347
  310.698    0.254    0.496   82.479   10.288
  310.998    0.067    0.271   76.903   10.491
  311.298    0.141    0.280   73.188   10.103
  311.598    0.235    0.370   80.634    9.189
  311.898    0.269    0.447   82.499    8.680
  312.198    0.241    0.447   80.643    8.358
  312.498    0.231    0.444   82.510    8.050
  312.798    0.243    0.452   86.236    7.752
  313.098    0.265    0.444   87.479    7.464
  313.398    0.276    0.443   87.484    7.053
  313.698    0.287    0.444   79.428    6.922
  313.998    0.272    0.449   80.674    6.666
  314.298    0.249    0.452   88.742    6.670
  314.598    0.251    0.452   89.365    6.672
  314.898    0.276    0.429   81.929    6.425
  315.198    0.239    0.428   85.657    5.843
  315.498    0.234    0.490   90.001    5.213
  315.798    0.272    0.539   91.247    4.147
  316.098    0.281    0.551   90.010    3.700
  316.398    0.282    0.580   96.216    3.632
  316.698    0.266    0.577  100.561    3.775
  316.998    0.249    0.499  101.187    4.934
  317.298    0.249    0.453   86.931    6.829
  317.598    0.295    0.441   83.835    7.962
  317.898    0.286    0.463   86.320    8.434
  318.198    0.170    0.474   83.225    8.601
  318.498    0.181    0.479   80.130    8.126
  318.798    0.217    0.445   83.855    7.824
  319.098    0.215    0.446   87.583    7.682
  319.398    0.272    0.499   88.206    7.684
  319.698    0.286    0.458   91.312    7.836
  319.998    0.219    0.435   85.116    7.991
  320.298    0.237    0.439   85.122    7.844
  320.598    0.258    0.477   91.328    7.698
  320.898    0.267    0.490   95.053    7.416
  321.198    0.239    0.466   92.578    7.419
  321.498    0.248    0.448   87.002    7.421
  321.798    0.231    0.445   88.868    7.424
  322.098    0.232    0.474   89.494    8.018
  322.398    0.248    0.475   88.257    8.332
  322.698    0.250    0.470   88.262    9.172
  322.998    0.231    0.462   93.228    9.354
  323.298    0.283    0.421   98.194    9.180
  323.598    0.242    0.435  101.921    8.675
  323.898    0.236    0.465  101.303    8.194
  324.198    0.288    0.481   96.968    7.891
  324.498    0.286    0.495   94.494    5.706
  324.798    0.236    0.451   93.879    4.370
  325.098    0.225    0.437   91.404    2.984
  325.398    0.287    0.472   83.347    2.242
  325.698    0.330    0.599   74.671    2.286
  325.998    0.327    0.604   65.376    2.716
  326.298    0.314    0.515   63.521    3.484
  326.598    0.282    0.476   67.246    4.467
  326.898    0.250    0.462   74.072    6.547
  327.198    0.254    0.444   74.697    8.081
  327.498    0.266    0.442   70.981    8.084
  327.798    0.223    0.436   76.567    7.493
  328.098    0.207    0.427   83.393    5.962
  328.398    0.272    0.492   91.459    4.566
  328.698    0.277    0.488   96.424    3.564
  328.998    0.257    0.465   93.949    3.499
  329.298    0.243    0.480   87.133    3.636
  329.598    0.206    0.506   82.179    4.238
  329.898    0.203    0.486   80.325    5.755
  330.198    0.277    0.453   79.708    5.438
  330.498    0.273    0.458   80.954    4.581
  330.798    0.272    0.447   85.298    4.087
  331.098    0.258    0.445   95.224    3.788
  331.397    0.237    0.456  106.390    3.648
  331.697    0.222    0.504  103.295    3.513
  331.997    0.238    0.519   89.659    3.582
  332.297    0.152    0.504   91.525    4.020
  332.597    0.149    0.485  101.450    4.099
  332.897    0.224    0.507  106.416    4.179
  333.197    0.222    0.519  110.764    3.801
  333.497    0.244    0.531  112.627    3.803
  333.797    0.221    0.543  113.871    3.877
  334.097    0.208    0.550   95.275    4.351
  334.397    0.247    0.487   71.098    4.881
  334.697    0.263    0.433   68.623    6.755
  334.997    0.223    0.333   72.348    8.500
  335.297    0.186    0.422   89.715    9.004
  335.597    0.209    0.441   87.860    8.673
  335.897    0.250    0.430   86.625    8.843
  336.197    0.269    0.448   89.111    9.191
  336.497    0.270    0.437   86.635   10.512
  336.797    0.264    0.435   78.579   11.134
  337.097    0.222    0.431   72.384   12.256
  337.397    0.216    0.392   73.010   12.739
  337.697    0.222    0.405   78.595   12.504
  337.997    0.203    0.408   82.320   11.155
  338.297    0.208    0.391   82.945   10.145
  338.597    0.188    0.375   79.850    9.769
  338.897    0.224    0.388   76.136    9.774
  339.197    0.268    0.459   50.097   10.555
  339.497    0.243    0.426   55.683   11.397
  339.797    0.225    0.337   84.210   13.801
  340.097    0.220    0.360   95.376   14.624
  340.397    0.232    0.366  102.202   14.913
  340.697    0.215    0.370  107.167   15.798
  340.997    0.204    0.382  112.753   18.769
  341.297    0.229    0.421  105.938   22.295
  341.597    0.265    0.423   81.760   30.276
  341.897    0.271    0.398   66.265   52.696
  342.197    0.232    0.361   66.270   55.831
  342.497    0.250    0.390   76.196   44.420
  342.797    0.276    0.383   89.842   30.921
  343.097    0.230    0.376   95.427   26.552
  343.397    0.209    0.385   95.432   24.145
  343.697    0.212    0.372   89.237   24.157
  343.997    0.214    0.335   73.741   25.595
  344.297    0.220    0.343   66.925   27.636
  344.597    0.218    0.350   63.211   33.470
  344.897    0.225    0.342   62.596   36.141
  345.197    0.255    0.355   66.941   37.567
  345.497    0.281    0.389   77.487   36.876
  345.797    0.253    0.397   84.933   32.895
  346.097    0.207    0.368   86.797   30.493
  346.397    0.193    0.401   68.821   27.729
  346.697    0.226    0.391   60.766   25.702
  346.997    0.234    0.357   63.251   24.283
  347.297    0.211    0.307   79.997   23.834
  347.597    0.203    0.332   82.482   23.846
  347.897    0.206    0.338   78.147   24.318
  348.197    0.224    0.328   83.113   25.273
  348.497    0.238    0.369   75.677   25.287
  348.797    0.289    0.367   42.199   28.915
  349.097    0.313    0.318   40.344   37.081
  349.397    0.274    0.335   53.990   46.651
  349.697    0.282    0.379   68.256   51.345
  349.997    0.271    0.415   73.223   52.359
  350.297    0.245    0.359   58.967   46.722
  350.597    0.239    0.358   56.492   39.363
  350.897    0.237    0.361   59.597   33.798
  351.197    0.219    0.356   73.242   27.936
  351.497    0.219    0.349   80.688   24.926
  351.797    0.216    0.353   77.594   24.005
  352.097    0.213    0.387   83.800   24.477
  352.397    0.219    0.423   75.743   30.794
  352.697    0.246    0.410   50.325   42.625
  352.997    0.267    0.405   42.891   51.617
  353.297    0.281    0.400   46.617   55.734
  353.597    0.281    0.351   52.822   50.689
  353.897    0.247    0.366   58.407   44.369
  354.197    0.249    0.390   49.111   43.550
  354.497    0.268    0.409   46.636   41.938
  354.797    0.285    0.395   52.221   39.621
  355.097    0.283    0.369   70.208   36.722
  355.397    0.267    0.374   81.995   32.144
  355.697    0.230    0.368   86.340   26.069
  355.996    0.217    0.369   85.727   23.705
  356.296    0.247    0.388   86.350   22.830
