~VERSION INFORMATION
 VERS.                 2.0:   CWLS LOG ASCII STANDARD -VERSION 2.0
 WRAP.                  NO:   ONE LINE PER DEPTH STEP
~WELL INFORMATION BLOCK
#MNEM.UNIT           DATA                    DESCRIPTION OF MNEMONIC
#---------    -------------------            -------------------------------
# Generated from Intellog Unique Number	CX_WELLS/WELL/3411
WELL.         SAN CHEESHAM                   : Well_name    - WELL
LOC .         AA/14-18-085-06W4/0            : Location     - LOCATION
UWI .         AA/14-18-085-06W400            : Uwi          - UNIQUE WELL ID
ENTR.         T                              : Entered      - ENTERED BY
SRVC.         SCHLUMBERGER                   : Scn          - SERVICE COMPANY
STRT.M        100                            : top_depth    - START DEPTH
STOP.M        290                            : bot_depth    - STOP DEPTH
STEP.M        0.25                           : increment    - STEP LENGTH
 NULL. -999.2500:NULL Value
~CURVE INFORMATION BLOCK
#MNEM UNIT       ERCB CURVE CODE    CURVE DESCRIPTION
#-----------   ------------------   ----------------------------------
DEPT.M        00 001 00 00         : DEPTH        - DEPTH
GR  .API      00 310 00 00         : GR           - GAMMA RAY
NPHI.V/V      00 330 00 00         : PHIN         - NEUTRON POROSITY (SANDSTONE)
DPHI.V/V      00 890 00 00         : PHID         - DENSITY POROSITY (SANDSTONE)
ILD .OHMM     00 120 00 00         : RESD         - DEEP RESISTIVITY (OTHER)
~PARAMETER INFORMATION
#MNEM.UNIT           DATA             DESCRIPTION OF MNEMONIC
#---------         -----------     ------------------------------
GL  .M        472.2                : gl           - GROUND LEVEL ELEVATION
EREF.M        472.2                : kb           - ELEVATION OF DEPTH REFERENCE
DATM.M        472.2                : datum        - DATUM ELEVATION
TDD .M        292                  : tdd          - TOTAL DEPTH DRILLER
RUN .         ONE                  : Run          - RUN NUMBER
ENG .         BILL                 : Engineer     - RECORDING ENGINEER
WIT .         JIM                  : Witness      - WITNESSED BY
MUD .         GEL                  : Mud_type     - MUD TYPE
MATR.         SANDSTONE            : Logunit      - NEUTRON MATRIX
TMAX.C        20                   : BHT          - MAXIMUM RECORDED TEMPERATURE
BHTD.M        292                  : BHTDEP       - MAXIMUM RECORDED TEMPERATURE
MATR.         1                    : LOGUNIT      - NEUTRON MATRIX
RMT .C        15.6                 : MDTP         - TEMPERATURE OF MUD
NEUT.         1                    : NEUTRON      - NEUTRON TYPE
RESI.         5                    : RESIST       - RESISTIVITY TYPE
RMC .OHMM     4.5                  : RMC          - RESISTIVITY OF MUD CAKE
RMF .OHMM     3.9                  : RMF          - RESISTIVITY OF MUD FILTRATE
SUFT.C        4                    : SUFT         - SURFACE TEMPERATURE
~A  DEPTH       GR     PHIN     PHID     RESD
# ...
  187.000   88.762    0.367    0.255    4.969
  187.250   88.228    0.365    0.258    4.888
  187.500   88.901    0.364    0.254    4.816
  187.750   91.436    0.363    0.258    4.662
  188.000   93.971    0.366    0.265    4.512
  188.250   94.665    0.365    0.275    4.370
  188.500   89.832    0.362    0.284    4.383
  188.750   81.910    0.359    0.292    4.392
  189.000   80.147    0.361    0.285    4.486
  189.250   95.596    0.362    0.278    4.579
  189.500  103.697    0.359    0.269    4.670
  189.750  106.826    0.351    0.259    4.852
  190.000  112.451    0.341    0.269    5.135
  190.250  116.194    0.335    0.272    5.335
  190.500  119.363    0.333    0.280    5.542
  190.750  118.235    0.339    0.281    5.762
  191.000  114.630    0.342    0.279    5.982
  191.250  112.214    0.342    0.274    6.102
  191.500  105.559    0.339    0.270    6.233
  191.750  100.707    0.339    0.269    6.250
  192.000   97.102    0.339    0.266    6.158
  192.250   96.567    0.341    0.272    5.960
  192.500   94.211    0.346    0.277    5.668
  192.750   91.200    0.346    0.285    5.482
  193.000   85.734    0.343    0.293    5.303
  193.250   76.604    0.342    0.292    5.046
  193.500   73.039    0.344    0.292    4.972
  193.750   73.078    0.346    0.295    4.898
  194.000   73.158    0.347    0.297    4.912
  194.250   73.851    0.348    0.299    4.922
  194.500   75.158    0.351    0.306    4.943
  194.750   74.010    0.356    0.316    4.950
  195.000   70.405    0.367    0.327    5.146
  195.250   68.028    0.377    0.314    5.157
  195.500   68.722    0.377    0.306    5.362
  195.750   69.435    0.364    0.297    5.570
  196.000   67.652    0.357    0.298    5.590
  196.250   65.890    0.357    0.299    5.602
  196.500   67.831    0.362    0.299    5.617
  196.750   66.682    0.370    0.299    5.633
  197.000   63.058    0.378    0.299    5.746
  197.250   57.611    0.382    0.302    5.969
  197.500   55.829    0.373    0.305    6.425
  197.750   59.632    0.361    0.308    7.423
  198.000   63.415    0.356    0.305   10.064
  198.250   65.296    0.353    0.299   10.840
  198.500   67.832    0.350    0.297   10.492
  198.750   69.753    0.349    0.300    9.977
  199.000   69.832    0.356    0.304   10.184
  199.250   66.842    0.376    0.302   10.969
  199.500   58.939    0.391    0.308   11.584
  199.750   51.651    0.389    0.310   12.249
  200.000   52.958    0.385    0.314   11.444
  200.250   54.899    0.382    0.332   10.505
  200.500   56.800    0.381    0.332    9.635
  200.750   59.336    0.385    0.305    8.537
  201.000   61.891    0.388    0.301    7.698
  201.250   65.040    0.383    0.292    7.192
  201.500   70.665    0.377    0.287    7.472
  201.750   73.814    0.373    0.280    8.338
  202.000   73.874    0.375    0.296    9.298
  202.250   64.743    0.381    0.314   10.180
  202.500   62.981    0.388    0.321   11.153
  202.750   63.080    0.382    0.316   11.595
  203.000   63.793    0.378    0.311   10.651
  203.250   63.872    0.376    0.302    9.944
  203.500   63.298    0.377    0.302    9.121
  203.750   61.575    0.376    0.305    8.366
  204.000   61.020    0.380    0.307    7.282
  204.250   60.466    0.413    0.303    6.452
  204.500   59.337    0.425    0.307    6.028
  204.750   58.169    0.426    0.308    5.830
  205.000   57.000    0.422    0.306    5.258
  205.250   54.029    0.415    0.311    5.462
  205.500   52.267    0.401    0.313    6.091
  205.750   51.712    0.389    0.315    7.694
  206.000   51.178    0.387    0.318    7.993
  206.250   49.435    0.390    0.325    8.465
  206.500   48.286    0.391    0.328    8.788
  206.750   47.732    0.391    0.332    9.124
  207.000   46.583    0.390    0.345   10.003
  207.250   45.434    0.394    0.342   10.759
  207.500   44.286    0.397    0.336   11.581
  207.750   44.979    0.400    0.324   12.687
  208.000   47.514    0.403    0.320   14.411
  208.250   50.703    0.406    0.323   16.368
  208.500   50.763    0.409    0.325   17.920
  208.750   52.684    0.410    0.323   20.340
  209.000   55.219    0.401    0.318   20.054
  209.250   59.596    0.369    0.311   18.420
  209.500   64.607    0.363    0.301   17.185
  209.750   64.707    0.368    0.296   16.044
  210.000   62.350    0.375    0.306   13.243
  210.250   60.547    0.381    0.326   11.527
  210.500   58.151    0.386    0.334   10.027
  210.750   51.477    0.388    0.332    8.575
  211.000   48.486    0.389    0.328    7.463
  211.250   47.337    0.390    0.328    6.608
  211.500   46.209    0.388    0.329    5.752
  211.750   45.060    0.389    0.332    4.829
  212.000   43.297    0.391    0.338    4.129
  212.250   42.149    0.392    0.334    3.232
  212.500   41.594    0.398    0.324    2.812
  212.750   39.831    0.406    0.327    2.362
  213.000   38.069    0.411    0.339    2.019
  213.250   37.534    0.407    0.346    1.954
  213.500   38.841    0.395    0.343    1.994
  213.750   40.763    0.397    0.344    2.109
  214.000   41.476    0.402    0.346    2.394
  214.250   40.961    0.409    0.348    2.721
  214.500   41.001    0.415    0.354    2.981
  214.750   40.486    0.416    0.356    3.322
  215.000   40.565    0.409    0.355    3.840
  215.250   40.644    0.405    0.348    4.204
  215.500   39.516    0.402    0.346    4.692
  215.750   38.941    0.405    0.343    4.792
  216.000   39.021    0.435    0.339    4.806
  216.250   43.437    0.440    0.343    4.813
  216.500   45.973    0.454    0.349    4.661
  216.750   47.874    0.464    0.352    4.509
  217.000   46.745    0.472    0.360    4.215
  217.250   45.577    0.481    0.363    3.936
  217.500   43.814    0.449    0.357    3.743
  217.750   40.843    0.435    0.348    3.820
  218.000   39.655    0.419    0.352    4.043
  218.250   37.912    0.404    0.358    4.200
  218.500   37.992    0.386    0.353    4.138
  218.750   38.071    0.389    0.347    4.221
  219.000   36.922    0.391    0.346    4.546
  219.250   35.774    0.394    0.351    4.893
  219.500   35.853    0.398    0.356    5.080
  219.750   37.180    0.407    0.374    5.566
  220.000   40.329    0.484    0.368    6.206
  220.250   41.617    0.501    0.370    7.434
  220.500   42.310    0.475    0.379    9.057
  220.750   43.003    0.465    0.390   10.840
  221.000   44.330    0.454    0.387   11.472
  221.250   45.024    0.461    0.381   10.352
  221.500   46.311    0.485    0.390    9.658
  221.750   47.638    0.493    0.402    8.265
  222.000   48.332    0.497    0.415    7.711
  222.250   49.025    0.502    0.415    6.832
  222.500   50.332    0.506    0.406    6.161
  222.750   52.293    0.501    0.398    5.552
  223.000   52.333    0.483    0.393    5.099
  223.250   50.570    0.470    0.390    5.205
  223.500   49.441    0.466    0.390    5.309
  223.750   48.907    0.459    0.417    5.324
  224.000   48.372    0.478    0.437    5.245
  224.250   47.817    0.507    0.455    4.907
  224.500   46.055    0.470    0.401    4.743
  224.750   46.748    0.448    0.376    4.673
  225.000   49.283    0.444    0.372    5.030
  225.250   50.591    0.440    0.364    5.713
  225.500   51.284    0.435    0.362    6.371
  225.750   48.907    0.437    0.364    7.232
  226.000   46.550    0.442    0.353    7.928
  226.250   46.016    0.435    0.373    7.407
  226.500   46.709    0.432    0.367    7.160
  226.750   47.383    0.429    0.353    7.059
  227.000   49.304    0.429    0.348    6.713
  227.250   52.453    0.434    0.341    6.493
  227.500   60.534    0.447    0.333    6.070
  227.750   64.317    0.470    0.320    5.976
  228.000   62.554    0.479    0.317    5.888
  228.250   60.158    0.476    0.330    6.235
  228.500   59.623    0.450    0.340    6.473
  228.750   61.564    0.444    0.347    6.841
  229.000   64.100    0.433    0.332    7.500
  229.250   66.615    0.423    0.318    8.357
  229.500   72.874    0.429    0.309    9.002
  229.750   76.637    0.451    0.293    8.112
  230.000   78.538    0.471    0.283    6.815
  230.250   76.776    0.479    0.280    5.928
