~VERSION INFORMATION
 VERS.                 2.0:   CWLS LOG ASCII STANDARD -VERSION 2.0
 WRAP.                  NO:   ONE LINE PER DEPTH STEP
~WELL INFORMATION BLOCK
#MNEM.UNIT           DATA                    DESCRIPTION OF MNEMONIC
#---------    -------------------            -------------------------------
# Generated from Intellog Unique Number	CW_79_81/WELL/2481
WELL.         GAD JOLI FOU OV                : Well_name    - WELL
LOC .         AA/11-08-081-19W4/0            : Location     - LOCATION
UWI .         AA/11-08-081-19W400            : Uwi          - UNIQUE WELL ID
ENTR.         MAX                            : Entered      - ENTERED BY
SRVC.         SCHLUMBERGER                   : Scn          - SERVICE COMPANY
STRT.M        175                            : top_depth    - START DEPTH
STOP.M        370                            : bot_depth    - STOP DEPTH
STEP.M        0.25                           : increment    - STEP LENGTH
 NULL. -999.2500:NULL Value
~CURVE INFORMATION BLOCK
#MNEM UNIT       ERCB CURVE CODE    CURVE DESCRIPTION
#-----------   ------------------   ----------------------------------
DEPT.M        00 001 00 00         : DEPTH        - DEPTH
ILD .OHMM     00 120 00 00         : RESD         - DEEP RESISTIVITY (DIL)
NPHI.V/V      00 330 00 00         : PHIN         - NEUTRON POROSITY (SANDSTONE)
DPHI.V/V      00 890 00 00         : PHID         - DENSITY POROSITY (SANDSTONE)
GR  .API      00 310 00 00         : GR           - GAMMA RAY
CALI.MM       00 280 01 00         : CAL          - CALIPER
~PARAMETER INFORMATION
#MNEM.UNIT           DATA             DESCRIPTION OF MNEMONIC
#---------         -----------     ------------------------------
GL  .M        580.5                : gl           - GROUND LEVEL ELEVATION
EREF.M        584                  : kb           - ELEVATION OF DEPTH REFERENCE
DATM.M        580.5                : datum        - DATUM ELEVATION
TDD .M        374                  : tdd          - TOTAL DEPTH DRILLER
RUN .         ONE                  : Run          - RUN NUMBER
ENG .         BILL                 : Engineer     - RECORDING ENGINEER
WIT .         JIM                  : Witness      - WITNESSED BY
MUD .         GEL                  : Mud_type     - MUD TYPE
MATR.         SANDSTONE            : Logunit      - NEUTRON MATRIX
TMAX.C        25.5                 : BHT          - MAXIMUM RECORDED TEMPERATURE
BHTD.M        374                  : BHTDEP       - MAXIMUM RECORDED TEMPERATURE
MATR.         1                    : LOGUNIT      - NEUTRON MATRIX
RMT .C        18.8                 : MDTP         - TEMPERATURE OF MUD
NEUT.         1                    : NEUTRON      - NEUTRON TYPE
RESI.         0                    : RESIST       - RESISTIVITY TYPE
RMC .OHMM     3.74                 : RMC          - RESISTIVITY OF MUD CAKE
RMF .OHMM     3.212                : RMF          - RESISTIVITY OF MUD FILTRATE
SUFT.C        -20                  : SUFT         - SURFACE TEMPERATURE
~A  DEPTH     RESD     PHIN     PHID       GR      CAL
# ...
  284.500    8.272    0.495    0.252   70.856  257.608
  284.750    8.775    0.484    0.263   70.134  257.205
  285.000    8.812    0.479    0.261   67.971  256.801
  285.250    8.684    0.496    0.255   65.086  256.597
  285.500    8.698    0.516    0.243   62.081  256.794
  285.750    9.289    0.457    0.191   58.486  258.091
  286.000    9.963    0.312    0.109   53.729  260.590
  286.250   10.113    0.348    0.134   54.928  260.587
  286.500   10.095    0.396    0.203   57.028  260.283
  286.750    9.872    0.445    0.267   59.068  259.079
  287.000    9.250    0.481    0.299   60.387  257.474
  287.250    8.057    0.485    0.300   61.075  257.237
  287.500    8.058    0.484    0.304   63.326  258.067
  287.750    8.060    0.499    0.304   65.725  259.265
  288.000    8.060    0.494    0.301   67.225  259.862
  288.250    8.091    0.480    0.297   67.703  259.859
  288.500    8.107    0.463    0.292   67.461  259.455
  288.750    7.927    0.449    0.288   67.319  259.050
  289.000    7.629    0.438    0.283   67.817  259.047
  289.250    7.407    0.465    0.280   68.536  258.644
  289.500    7.231    0.488    0.276   68.534  258.540
  289.750    7.020    0.498    0.272   68.892  258.937
  290.000    6.779    0.497    0.270   70.031  259.734
  290.250    6.573    0.499    0.276   71.410  260.531
  290.500    6.523    0.494    0.277   69.906  260.528
  290.750    6.621    0.475    0.269   68.223  258.923
  291.000    6.982    0.458    0.255   65.819  258.219
  291.250    7.252    0.446    0.248   66.057  258.416
  291.500    7.307    0.443    0.253   68.937  259.013
  291.750    7.362    0.452    0.266   70.997  258.759
  292.000    7.363    0.447    0.269   70.495  257.505
  292.250    7.256    0.442    0.257   71.213  257.501
  292.500    7.110    0.442    0.245   72.292  257.798
  292.750    7.007    0.446    0.238   72.530  258.195
  293.000    6.956    0.451    0.234   71.928  258.793
  293.250    6.948    0.447    0.225   71.935  260.490
  293.500    7.167    0.441    0.214   73.184  262.989
  293.750    7.437    0.437    0.204   72.702  262.985
  294.000    7.509    0.438    0.217   72.400  263.282
  294.250    7.342    0.454    0.232   73.239  263.679
  294.500    7.038    0.475    0.242   74.978  264.176
  294.750    6.742    0.479    0.248   76.477  264.973
  295.000    6.539    0.476    0.248   77.976  264.969
  295.250    6.539    0.483    0.247   80.857  264.166
  295.500    6.723    0.483    0.250   83.558  263.362
  295.750    6.977    0.478    0.255   84.636  262.758
  296.000    7.268    0.470    0.261   82.293  262.454
  296.250    7.762    0.458    0.262   74.163  262.367
  296.500    8.325    0.458    0.253   73.159  261.947
  296.750    9.223    0.473    0.227   75.559  261.543
  297.000   10.279    0.438    0.149   73.456  259.338
  297.250   11.605    0.353    0.106   65.767  257.532
  297.500   13.079    0.289    0.149   57.597  256.928
  297.750   13.745    0.395    0.295   61.589  256.925
  298.000   12.637    0.403    0.282   68.343  256.921
  298.250   11.466    0.433    0.268   72.184  256.517
  298.500   10.959    0.460    0.264   71.522  256.714
  298.750   11.000    0.475    0.249   68.757  256.911
  299.000   11.418    0.479    0.218   66.173  256.508
  299.250   11.870    0.473    0.178   65.980  255.069
  299.500   11.964    0.417    0.138   66.229  255.899
  299.750   11.528    0.370    0.169   68.869  258.698
  300.000   10.965    0.399    0.225   70.538  256.227
  300.250   10.520    0.431    0.261   72.401  254.507
  300.500   10.270    0.442    0.267   73.946  255.197
  300.750   10.175    0.449    0.265   72.194  255.172
  301.000   10.094    0.444    0.256   68.218  253.096
  301.250   10.091    0.456    0.248   67.737  253.489
  301.500   10.088    0.464    0.239   68.151  254.178
  301.750   10.047    0.461    0.230   69.458  254.966
  302.000    9.970    0.447    0.222   70.407  255.854
  302.250    9.878    0.428    0.210   68.596  257.121
  302.500    9.800    0.424    0.206   69.088  257.528
  302.750    9.725    0.432    0.222   69.799  257.919
  303.000    9.385    0.431    0.228   70.690  258.013
  303.250    9.079    0.426    0.233   72.594  257.013
  303.500    8.895    0.425    0.236   74.378  255.021
  303.750    8.708    0.442    0.233   72.993  252.531
  304.000    8.443    0.456    0.222   73.237  250.041
  304.250    8.503    0.459    0.227   71.804  250.431
  304.500    8.563    0.458    0.229   70.370  251.419
  304.750    8.592    0.458    0.229   69.293  253.202
  305.000    8.509    0.457    0.228   69.051  255.579
  305.250    8.175    0.452    0.227   70.487  258.037
  305.500    8.049    0.444    0.223   71.725  258.445
  305.750    7.754    0.442    0.223   72.198  258.440
  306.000    7.388    0.462    0.226   71.777  258.434
  306.250    6.988    0.472    0.228   71.296  259.023
  306.500    6.677    0.454    0.227   71.352  260.307
  306.750    6.656    0.418    0.225   73.047  261.807
  307.000    6.808    0.435    0.229   76.767  261.388
  307.250    7.009    0.449    0.240   80.100  260.586
  307.500    7.215    0.452    0.256   80.574  260.382
  307.750    7.401    0.448    0.266   78.425  258.985
  308.000    7.577    0.439    0.266   74.727  256.894
  308.250    7.859    0.423    0.261   70.889  256.804
  308.500    8.164    0.438    0.269   68.401  256.383
  308.750    8.840    0.466    0.294   65.537  256.773
  309.000    9.679    0.469    0.316   63.210  257.165
  309.250   10.315    0.453    0.331   61.299  256.762
  309.500   10.803    0.431    0.335   59.270  255.564
  309.750   12.793    0.421    0.321   55.124  254.614
  310.000   19.308    0.393    0.287   49.906  255.848
  310.250   23.577    0.284    0.198   44.420  257.034
  310.500   27.318    0.216    0.085   40.721  257.624
  310.750   28.291    0.181    0.028   40.479  258.214
  311.000   26.305    0.173    0.041   43.574  259.003
  311.250   22.361    0.196    0.068   48.694  259.955
  311.500   17.739    0.238    0.094   51.670  260.777
  311.750   15.272    0.277    0.126   55.242  260.372
  312.000   13.163    0.309    0.159   59.172  259.671
  312.250   11.407    0.337    0.181   62.743  258.672
  312.500   10.134    0.366    0.203   64.527  257.673
  312.750    9.443    0.409    0.265   62.327  257.103
  313.000    9.226    0.433    0.292   62.075  256.269
  313.250    9.155    0.420    0.295   62.549  255.866
  313.500    8.935    0.421    0.296   63.201  255.760
  313.750    8.706    0.437    0.296   62.840  255.754
  314.000    8.466    0.458    0.298   61.763  255.748
  314.250    8.062    0.477    0.300   62.206  255.741
  314.500    7.877    0.494    0.296   64.436  255.735
  314.750    7.477    0.502    0.280   67.531  255.729
  315.000    7.219    0.485    0.267   67.766  255.722
  315.250    7.061    0.460    0.264   67.286  255.517
  315.500    7.020    0.446    0.270   67.402  255.015
  315.750    7.290    0.471    0.275   68.192  254.213
  316.000    7.933    0.486    0.289   66.202  254.207
  316.250    8.226    0.471    0.294   64.291  254.201
  316.500    8.854    0.475    0.293   62.559  254.195
  316.750    9.633    0.477    0.284   61.125  254.388
  317.000   10.373    0.464    0.272   60.288  254.878
  317.250   10.953    0.429    0.258   60.422  255.747
  317.500   11.118    0.421    0.234   59.921  256.155
  317.750   10.952    0.387    0.196   59.203  256.149
  318.000   10.432    0.372    0.189   62.596  255.845
  318.250    9.606    0.388    0.212   68.671  255.243
  318.500    8.875    0.418    0.246   73.971  254.541
  318.750    8.688    0.411    0.263   72.616  254.385
  319.000    8.424    0.411    0.258   70.625  255.621
  319.250    8.360    0.444    0.244   70.859  256.409
  319.500    8.296    0.469    0.239   71.630  256.899
  319.750    8.233    0.487    0.237   72.700  257.092
  320.000    8.185    0.496    0.237   73.769  256.987
  320.250    8.206    0.486    0.235   74.480  256.416
  320.500    8.330    0.457    0.233   74.476  255.583
  320.750    8.637    0.446    0.220   72.804  255.179
