~VERSION INFORMATION
 VERS.                 2.0:   CWLS LOG ASCII STANDARD -VERSION 2.0
 WRAP.                  NO:   ONE LINE PER DEPTH STEP
~WELL INFORMATION BLOCK
#MNEM.UNIT           DATA                    DESCRIPTION OF MNEMONIC
#---------    -------------------            -------------------------------
# Generated from Intellog Unique Number	CC_88_90/WELL/2305
WELL.         11-24-090-09W4                 : Well_name    - WELL
LOC .         AA/11-24-090-09W4/0            : Location     - LOCATION
UWI .         AA/11-24-090-09W400            : Uwi          - UNIQUE WELL ID
ENTR.         DW                             : Entered      - ENTERED BY
SRVC.         SCHLUMBERGER                   : Scn          - SERVICE COMPANY
STRT.M        9.144                          : top_depth    - START DEPTH
STOP.M        166.894                        : bot_depth    - STOP DEPTH
STEP.M        0.25                           : increment    - STEP LENGTH
 NULL. -999.2500:NULL Value
~CURVE INFORMATION BLOCK
#MNEM UNIT       ERCB CURVE CODE    CURVE DESCRIPTION
#-----------   ------------------   ----------------------------------
DEPT.M        00 001 00 00         : DEPTH        - DEPTH
GR  .API      00 310 00 00         : GR           - GAMMA RAY
DPHI.V/V      00 890 00 00         : PHID         - DENSITY POROSITY (SANDSTONE)
SNP.V/V       00 330 00 00          : SNP          - SIDEWALL NEUTRON POROSITY (SANDSTONE)
ILD .OHMM     00 120 00 00         : RESD         - DEEP RESISTIVITY (DIL)
~PARAMETER INFORMATION
#MNEM.UNIT           DATA             DESCRIPTION OF MNEMONIC
#---------         -----------     ------------------------------
GL  .M        403.311              : gl           - GROUND LEVEL ELEVATION
EREF.M        404.531              : kb           - ELEVATION OF DEPTH REFERENCE
DATM.M        404.531              : datum        - DATUM ELEVATION
TDD .M        170.078              : tdd          - TOTAL DEPTH DRILLER
RUN .         ONE                  : Run          - RUN NUMBER
ENG .         BILL                 : Engineer     - RECORDING ENGINEER
WIT .         JIM                  : Witness      - WITNESSED BY
MUD .         GEL                  : Mud_type     - MUD TYPE
MATR.         SANDSTONE            : Logunit      - NEUTRON MATRIX
TMAX.C        25                   : BHT          - MAXIMUM RECORDED TEMPERATURE
BHTD.M        170.078              : BHTDEP       - MAXIMUM RECORDED TEMPERATURE
MATR.         1                    : LOGUNIT      - NEUTRON MATRIX
RMT .C        25                   : MDTP         - TEMPERATURE OF MUD
NEUT.         0                    : NEUTRON      - NEUTRON TYPE
RESI.         0                    : RESIST       - RESISTIVITY TYPE
RMC .OHMM     0.25                 : RMC          - RESISTIVITY OF MUD CAKE
RMF .OHMM     0.25                 : RMF          - RESISTIVITY OF MUD FILTRATE
SUFT.C        15                   : SUFT         - SURFACE TEMPERATURE
~A  DEPTH       GR     PHID     SNP     RESD
# ...
   52.644   74.173    0.285    0.396   28.432
   52.894   76.379    0.298    0.370   19.148
   53.144   81.481    0.292    0.385   10.309
   53.394   79.285    0.280    0.405   12.578
   53.644   74.547    0.288    0.398   21.154
   53.894   83.032    0.282    0.390   15.052
   54.144   88.550    0.274    0.378    8.288
   54.394   97.090    0.279    0.370    4.389
   54.644  105.186    0.280    0.389    1.985
   54.894  103.087    0.264    0.433    2.049
   55.144  100.150    0.257    0.466    2.723
   55.394   97.896    0.296    0.490    2.728
   55.644  101.104    0.296    0.472    2.611
   55.894  100.487    0.289    0.459    2.896
   56.144   95.704    0.304    0.476    3.471
   56.394   96.195    0.292    0.465    4.262
   56.644   94.554    0.278    0.420    5.688
   56.894   97.088    0.272    0.421    7.542
   57.144   97.864    0.279    0.428    8.564
   57.394   96.244    0.271    0.414    8.900
   57.644   94.378    0.244    0.411    9.072
   57.894   89.191    0.238    0.423    8.628
   58.144   88.552    0.251    0.409    8.198
   58.394   91.806    0.252    0.387    7.265
   58.644   91.495    0.265    0.394    8.115
   58.894   90.709    0.276    0.406   10.880
   59.144   96.007    0.263    0.394   12.773
   59.394   98.119    0.281    0.403   12.510
   59.644   94.347    0.270    0.397    7.858
   59.894   99.361    0.246    0.380    5.072
   60.144  103.256    0.245    0.379    5.827
   60.394   94.926    0.253    0.394    7.245
   60.644   88.598    0.245    0.409    8.391
   60.894   88.742    0.242    0.418    8.337
   61.144   93.078    0.227    0.409    8.190
   61.394   95.461    0.221    0.387    8.367
   61.644   92.039    0.232    0.381    8.649
   61.894   86.072    0.238    0.394    8.903
   62.144   83.794    0.241    0.388    9.041
   62.394   83.031    0.228    0.391    9.239
   62.644   88.250    0.221    0.380   10.555
   62.894   94.197    0.226    0.373   10.301
   63.144   94.675    0.234    0.391    8.039
   63.394   95.175    0.241    0.406    7.106
   63.644  101.195    0.244    0.398    5.860
   63.894  103.505    0.247    0.377    4.459
   64.144   97.169    0.246    0.371    7.676
   64.394   87.534    0.240    0.386   13.130
   64.644   83.578    0.231    0.404   13.626
   64.894   86.526    0.234    0.413    9.493
   65.144   86.081    0.260    0.402    6.911
   65.394   85.315    0.262    0.370    8.280
   65.644   85.593    0.248    0.348   10.548
   65.894   85.520    0.232    0.355   12.923
   66.144   85.928    0.215    0.370   14.344
   66.394   87.219    0.243    0.372    8.113
   66.644   88.460    0.263    0.385    6.851
   66.894   88.452    0.255    0.381   11.162
   67.144   82.965    0.241    0.371   41.356
   67.394   71.433    0.219    0.380   69.152
   67.644   64.439    0.154    0.350   30.950
   67.894   72.636    0.086    0.257   20.812
   68.144   79.752    0.119    0.265   23.275
   68.394   79.616    0.236    0.358   20.611
   68.644   77.983    0.328    0.407   16.222
   68.894   77.799    0.337    0.398   14.219
   69.144   76.603    0.315    0.421   23.096
   69.394   73.686    0.302    0.412   27.064
   69.644   69.847    0.300    0.397   22.997
   69.894   67.785    0.279    0.385   22.073
   70.144   68.832    0.247    0.368   22.978
   70.394   72.576    0.251    0.373   13.333
   70.644   80.952    0.281    0.379    7.890
   70.894   88.448    0.271    0.382    7.254
   71.144   91.784    0.246    0.396    7.009
   71.394   93.050    0.240    0.406    5.811
   71.644   95.203    0.244    0.391    5.350
   71.894   97.584    0.258    0.379    6.874
   72.144   98.155    0.265    0.408    8.405
   72.394   94.814    0.273    0.412    9.203
   72.644   87.966    0.266    0.390    9.170
   72.894   83.600    0.242    0.379    8.467
   73.144   86.817    0.239    0.382    7.993
   73.394   90.328    0.240    0.415    8.559
   73.644   89.450    0.218    0.450    8.124
   73.894   86.746    0.235    0.433    7.011
   74.144   80.579    0.279    0.389    7.716
   74.394   70.482    0.284    0.385   10.398
   74.644   67.810    0.279    0.405   10.582
   74.894   77.530    0.276    0.392    5.585
   75.144   87.500    0.219    0.340    4.212
   75.394   93.077    0.143    0.318    5.686
   75.644   96.821    0.113    0.361    4.692
   75.894   98.955    0.139    0.402    2.656
   76.144   99.467    0.203    0.392    2.253
   76.394   98.649    0.221    0.402    2.277
   76.644   99.194    0.230    0.434    2.042
   76.894  101.220    0.255    0.432    1.795
   77.144  103.216    0.269    0.408    1.676
   77.394  104.926    0.266    0.431    1.548
   77.644  103.758    0.266    0.430    1.530
   77.894  100.728    0.257    0.416    1.612
   78.144   93.941    0.256    0.427    2.371
   78.394   89.852    0.269    0.454    3.437
   78.644   94.122    0.271    0.463    3.846
   78.894   93.121    0.258    0.452    4.169
   79.144   93.616    0.250    0.429    4.284
   79.394   95.263    0.240    0.419    4.335
   79.644   95.747    0.234    0.415    4.772
   79.894   96.170    0.236    0.396    5.875
   80.144   96.529    0.234    0.375    6.843
   80.394   95.105    0.238    0.369    5.837
   80.644  100.036    0.240    0.381    5.007
   80.894  104.372    0.243    0.385    4.768
   81.144  104.832    0.243    0.366    5.099
   81.394  107.393    0.232    0.350    6.272
   81.644  107.501    0.224    0.368    7.079
   81.894  100.948    0.221    0.378    7.590
   82.144   93.019    0.223    0.353    4.925
   82.394   86.866    0.218    0.332    9.218
   82.644   80.768    0.209    0.340   -0.750
   82.894   73.416    0.213    0.339    8.607
   83.144   65.121    0.218    0.325  216.837
   83.394   55.427    0.214    0.295  324.130
   83.644   52.687    0.102    0.268  189.795
   83.894   60.336   -0.017    0.200   26.373
   84.144   70.914    0.009    0.103   11.577
   84.394   78.652    0.053    0.129    7.907
   84.644   88.468    0.104    0.192    4.409
   84.894   95.845    0.129    0.267    4.392
   85.144   90.290    0.168    0.319    4.931
   85.394   80.796    0.241    0.347    5.227
   85.644   84.573    0.277    0.382    5.739
   85.894   87.280    0.261    0.369    5.795
   86.144   93.504    0.244    0.348    5.503
   86.394   96.258    0.249    0.356    5.140
   86.644   99.284    0.248    0.370    5.077
   86.894  104.572    0.226    0.359    5.480
   87.144   97.895    0.218    0.354    5.847
   87.394  100.843    0.227    0.390    5.535
   87.644  105.660    0.238    0.400    5.437
   87.894  104.028    0.238    0.399    5.871
   88.144   99.302    0.230    0.398    7.450
   88.394   97.466    0.223    0.373    9.488
   88.644   99.847    0.207    0.388    8.005
   88.894  100.617    0.213    0.386    5.649
   89.144  102.691    0.224    0.379    5.840
   89.394  101.415    0.228    0.382    6.656
   89.644   96.510    0.229    0.376    5.407
   89.894   99.291    0.215    0.355    4.020
   90.144   98.484    0.199    0.359    3.662
   90.394  101.858    0.202    0.397    4.414
   90.644  105.596    0.220    0.412    5.521
   90.894  104.710    0.237    0.401    6.315
   91.144  102.056    0.246    0.409    6.115
   91.394   96.007    0.240    0.397    4.662
   91.644   92.272    0.217    0.383    5.393
   91.894   93.434    0.213    0.381    7.022
   92.144   98.252    0.222    0.381    6.008
   92.394  103.764    0.226    0.377    3.118
   92.644  104.523    0.238    0.385    2.270
   92.894   95.964    0.250    0.416    1.834
   93.144   96.570    0.257    0.441    2.496
   93.394  100.429    0.267    0.450    4.100
   93.644  101.711    0.278    0.454    5.323
   93.894  105.091    0.279    0.443    5.846
   94.144  104.529    0.262    0.393    6.820
   94.394  101.581    0.236    0.367    7.733
   94.644   97.210    0.216    0.365    7.559
   94.894   89.772    0.205    0.358    7.656
   95.144   81.048    0.207    0.346   10.340
   95.394   79.042    0.223    0.344   13.428
   95.644   88.082    0.217    0.341   10.170
   95.894   94.132    0.210    0.335    7.097
