~VERSION INFORMATION
 VERS.                 2.0:   CWLS LOG ASCII STANDARD -VERSION 2.0
 WRAP.                  NO:   ONE LINE PER DEPTH STEP
~WELL INFORMATION BLOCK
#MNEM.UNIT           DATA                    DESCRIPTION OF MNEMONIC
#---------    -------------------            -------------------------------
# Generated from Intellog Unique Number	CW_79_81/WELL/2485
WELL.         GAO JOLI FOU OV                : Well_name    - WELL
LOC .         AA/11-14-081-20W4/0            : Location     - LOCATION
UWI .         AA/11-14-081-20W4/0            : Uwi          - UNIQUE WELL ID
ENTR.         MAX                            : Entered      - ENTERED BY
SRVC.         SCHLUMBERGER                   : Scn          - SERVICE COMPANY
STRT.M        175                            : top_depth    - START DEPTH
STOP.M        374.75                         : bot_depth    - STOP DEPTH
STEP.M        0.25                           : increment    - STEP LENGTH
 NULL. -999.2500:NULL Value
~CURVE INFORMATION BLOCK
#MNEM UNIT       ERCB CURVE CODE    CURVE DESCRIPTION
#-----------   ------------------   ----------------------------------
DEPT.M        00 001 00 00         : DEPTH        - DEPTH
ILD .OHMM     00 120 00 00         : RESD         - DEEP RESISTIVITY (DIL)
NPHI.V/V      00 330 00 00         : PHIN         - NEUTRON POROSITY (SANDSTONE)
DPHI.V/V      00 890 00 00         : PHID         - DENSITY POROSITY (SANDSTONE)
GR  .API      00 310 00 00         : GR           - GAMMA RAY
CALI.MM       00 280 01 00         : CAL          - CALIPER
~PARAMETER INFORMATION
#MNEM.UNIT           DATA             DESCRIPTION OF MNEMONIC
#---------         -----------     ------------------------------
GL  .M        580.1                : gl           - GROUND LEVEL ELEVATION
EREF.M        583.6                : kb           - ELEVATION OF DEPTH REFERENCE
DATM.M        580.1                : datum        - DATUM ELEVATION
TDD .M        381                  : tdd          - TOTAL DEPTH DRILLER
RUN .         ONE                  : Run          - RUN NUMBER
ENG .         BILL                 : Engineer     - RECORDING ENGINEER
WIT .         JIM                  : Witness      - WITNESSED BY
MUD .         GEL                  : Mud_type     - MUD TYPE
MATR.         SANDSTONE            : Logunit      - NEUTRON MATRIX
TMAX.C        22.2                 : BHT          - MAXIMUM RECORDED TEMPERATURE
BHTD.M        381                  : BHTDEP       - MAXIMUM RECORDED TEMPERATURE
MATR.         1                    : LOGUNIT      - NEUTRON MATRIX
RMT .C        13.3                 : MDTP         - TEMPERATURE OF MUD
NEUT.         1                    : NEUTRON      - NEUTRON TYPE
RESI.         0                    : RESIST       - RESISTIVITY TYPE
RMC .OHMM     3.98                 : RMC          - RESISTIVITY OF MUD CAKE
RMF .OHMM     2.14                 : RMF          - RESISTIVITY OF MUD FILTRATE
SUFT.C        -20                  : SUFT         - SURFACE TEMPERATURE
~A  DEPTH     RESD     PHIN     PHID       GR      CAL
  175.000    3.922    0.475    0.268   78.432  263.202
  175.250    3.891    0.468    0.271   77.938  263.210
  175.500    3.884    0.482    0.275   76.586  265.315
  175.750    3.883    0.505    0.287   75.153  269.116
  176.000    3.875    0.528    0.306   74.200  274.612
  176.250    3.839    0.544    0.332   73.967  283.702
  176.500    3.808    0.522    0.343   73.973  291.195
  176.750    3.723    0.510    0.330   75.415  283.222
  177.000    3.640    0.514    0.319   77.038  278.242
  177.250    3.478    0.522    0.311   78.240  276.653
  177.500    3.265    0.532    0.312   79.322  278.257
  177.750    3.066    0.554    0.327   81.883  282.426
  178.000    2.904    0.570    0.338   83.885  283.266
  178.250    2.776    0.576    0.346   84.847  278.887
  178.500    2.608    0.589    0.347   84.913  277.498
  178.750    2.467    0.598    0.339   83.960  277.306
  179.000    2.364    0.599    0.329   82.528  277.214
  179.250    2.270    0.600    0.335   81.766  276.826
  179.500    2.235    0.601    0.344   81.522  276.835
  179.750    2.251    0.594    0.339   79.851  275.647
  180.000    2.280    0.592    0.331   77.641  273.262
  180.250    2.339    0.582    0.268   75.012  271.274
  180.500    2.423    0.563    0.187   73.222  270.983
  180.750    2.499    0.554    0.229   75.512  273.721
  181.000    2.518    0.582    0.302   79.759  275.393
  181.250    2.517    0.594    0.294   80.483  275.403
  181.500    2.517    0.597    0.289   81.027  274.812
  181.750    2.535    0.589    0.298   81.630  273.423
  182.000    2.567    0.576    0.319   82.234  270.638
  182.250    2.582    0.572    0.332   82.480  265.377
  182.500    2.561    0.573    0.322   82.486  264.970
  182.750    2.580    0.563    0.314   79.617  260.987
  183.000    2.598    0.559    0.314   79.442  260.596
  183.250    2.646    0.555    0.317   81.244  262.801
  183.500    2.716    0.552    0.317   83.464  265.404
  183.750    2.768    0.549    0.299   83.561  264.849
  184.000    2.833    0.523    0.279   82.818  264.026
  184.250    2.832    0.509    0.277   82.344  264.434
  184.500    2.815    0.511    0.290   82.768  265.741
  184.750    2.762    0.530    0.309   83.731  266.947
  185.000    2.686    0.550    0.326   84.694  267.354
  185.250    2.622    0.539    0.330   84.890  266.317
  185.500    2.601    0.532    0.329   84.647  265.079
  185.750    2.659    0.536    0.325   83.453  265.087
  186.000    2.733    0.518    0.311   83.339  264.796
  186.250    2.805    0.511    0.293   84.183  264.206
  186.500    2.857    0.524    0.278   85.564  263.617
  186.750    2.882    0.539    0.272   86.769  263.628
  187.000    2.904    0.547    0.271   86.775  263.636
  187.250    2.903    0.533    0.269   86.060  264.043
  187.500    2.918    0.522    0.268   84.988  264.451
  187.750    2.929    0.521    0.265   83.796  264.660
  188.000    2.986    0.529    0.261   82.364  264.469
  188.250    3.323    0.538    0.256   78.918  263.433
  188.500    3.796    0.508    0.247   72.437  262.193
  188.750    4.392    0.454    0.196   59.750  260.207
  189.000    6.384    0.440    0.241   50.656  258.820
  189.250   11.081    0.452    0.297   47.308  257.830
  189.500   20.308    0.467    0.327   48.391  256.840
  189.750   30.266    0.453    0.347   49.415  255.173
  190.000   43.715    0.449    0.351   50.917  254.766
  190.250   45.018    0.453    0.348   51.880  254.775
  190.500   44.089    0.457    0.349   51.586  255.382
  190.750   42.955    0.460    0.352   50.154  256.987
  191.000   42.548    0.464    0.355   48.304  258.991
  191.250   42.918    0.473    0.357   47.402  259.966
  191.500   43.243    0.478    0.361   47.658  260.806
  191.750   44.531    0.454    0.358   49.099  261.213
  192.000   46.115    0.438    0.351   49.464  261.322
  192.250   48.196    0.438    0.348   49.828  261.331
  192.500   51.034    0.453    0.350   50.790  261.240
  192.750   55.578    0.466    0.352   52.473  260.768
  193.000   58.677    0.476    0.351   52.479  260.360
  193.250   56.089    0.445    0.356   52.006  260.369
  193.500   52.101    0.440    0.358   51.353  260.379
  193.750   48.562    0.442    0.356   50.998  260.388
  194.000   44.828    0.440    0.350   51.362  260.296
  194.250   38.267    0.430    0.345   52.955  259.991
  194.500   33.850    0.424    0.342   53.710  260.415
  194.750   30.686    0.434    0.339   52.996  260.824
  195.000   28.983    0.442    0.335   52.462  260.933
  195.250   27.604    0.446    0.326   52.228  260.941
  195.500   26.405    0.447    0.321   52.473  260.950
  195.750   25.614    0.448    0.339   53.287  260.959
  196.000   24.637    0.436    0.339   52.545  260.969
  196.250   24.086    0.431    0.331   51.831  260.978
  196.500   23.681    0.445    0.331   53.094  260.388
  196.750   23.414    0.466    0.336   54.536  259.798
  197.000   23.321    0.484    0.342   54.900  259.407
  197.250   23.596    0.495    0.347   53.121  259.018
  197.500   24.146    0.491    0.351   51.380  259.028
  197.750   24.866    0.473    0.358   49.949  260.233
  198.000   25.610    0.455    0.365   49.234  259.644
  198.250   26.473    0.442    0.365   49.479  258.056
  198.500   27.271    0.437    0.358   50.203  256.567
  198.750   27.510    0.446    0.356   50.409  256.579
  199.000   27.716    0.455    0.364   51.413  256.589
  199.250   27.709    0.461    0.369   50.460  257.395
  199.500   27.703    0.460    0.367   49.867  257.903
  199.750   27.593    0.455    0.364   50.111  258.110
  200.000   27.330    0.449    0.362   50.955  258.118
  200.250   26.877    0.442    0.364   51.440  258.129
  200.500   26.662    0.436    0.364   51.445  258.140
  200.750   26.262    0.433    0.364   51.212  258.147
  201.000   25.722    0.451    0.359   51.336  258.456
  201.250   24.574    0.472    0.349   51.460  258.664
  201.500   22.752    0.480    0.337   51.705  258.672
  201.750   19.442    0.466    0.332   52.819  258.765
  202.000   15.382    0.465    0.328   53.573  259.191
  202.250   12.040    0.474    0.321   55.015  259.200
  202.500   10.724    0.474    0.318   55.739  258.908
  202.750   10.457    0.465    0.325   55.863  258.119
  203.000   11.051    0.450    0.337   54.910  256.932
  203.250   13.091    0.432    0.347   51.754  255.579
  203.500   15.074    0.434    0.353   51.511  254.755
  203.750   15.410    0.449    0.356   53.192  253.168
  204.000   15.407    0.463    0.354   54.694  249.185
  204.250   14.828    0.475    0.345   55.058  246.998
  204.500   13.895    0.479    0.335   54.285  248.804
  204.750   12.971    0.464    0.342   53.883  255.299
  205.000   12.381    0.459    0.347   56.632  257.802
  205.250   11.571    0.472    0.331   60.947  257.412
  205.500    8.399    0.475    0.302   67.059  257.920
  205.750    6.333    0.464    0.272   75.925  258.528
  206.000    5.283    0.447    0.242   85.569  258.835
  206.250    4.827    0.440    0.201   91.633  258.929
  206.500    4.789    0.455    0.199   94.383  259.354
  206.750    5.005    0.474    0.200   92.951  260.560
  207.000    5.118    0.487    0.198   92.417  261.765
  207.250    5.155    0.476    0.198   93.021  262.573
  207.500    5.191    0.448    0.200   93.984  262.982
  207.750    5.427    0.437    0.195   93.112  263.474
  208.000    5.867    0.443    0.193   91.123  263.898
  208.250    6.453    0.439    0.205   89.690  264.306
  208.500    7.140    0.441    0.221   87.360  263.516
  208.750    7.949    0.429    0.227   85.090  263.924
  209.000    8.692    0.408    0.219   85.395  266.128
  209.250    8.793    0.408    0.203   92.396  269.016
  209.500    8.656    0.408    0.193   92.652  269.442
  209.750    8.274    0.413    0.195   94.094  269.449
  210.000    8.045    0.422    0.203   96.075  269.458
  210.250    7.895    0.431    0.206   95.841  269.666
  210.500    7.762    0.437    0.201   94.230  269.974
  210.750    7.565    0.442    0.190   96.071  269.902
  211.000    7.447    0.449    0.210   98.074  269.495
  211.250    7.281    0.444    0.202   95.683  269.104
