~VERSION INFORMATION
 VERS.                 2.0:   CWLS LOG ASCII STANDARD -VERSION 2.0
 WRAP.                  NO:   ONE LINE PER DEPTH STEP
~WELL INFORMATION BLOCK
#MNEM.UNIT           DATA                    DESCRIPTION OF MNEMONIC
#---------    -------------------            -------------------------------
# Generated from Intellog Unique Number	CX_WELLS/WELL/1076
WELL.         10-08-088-15W4                 : Well_name    - WELL
LOC .         AA/10-08-088-15W4/0            : Location     - LOCATION
UWI .         AA/10-08-088-15W400            : Uwi          - UNIQUE WELL ID
ENTR.         T                              : Entered      - ENTERED BY
SRVC.         SCHLUMBERGER                   : Scn          - SERVICE COMPANY
STRT.M        75                             : top_depth    - START DEPTH
STOP.M        275                            : bot_depth    - STOP DEPTH
STEP.M        0.25                           : increment    - STEP LENGTH
 NULL. -999.2500:NULL Value
~CURVE INFORMATION BLOCK
#MNEM UNIT       ERCB CURVE CODE    CURVE DESCRIPTION
#-----------   ------------------   ----------------------------------
DEPT.M        00 001 00 00         : DEPTH        - DEPTH
GR  .API      00 310 00 00         : GR           - GAMMA RAY
NPHI.V/V      00 330 00 00         : PHIN         - NEUTRON POROSITY (SANDSTONE)
DPHI.V/V      00 890 00 00         : PHID         - DENSITY POROSITY (SANDSTONE)
ILD .OHMM     00 120 00 00         : RESD         - DEEP RESISTIVITY (DIL)
~PARAMETER INFORMATION
#MNEM.UNIT           DATA             DESCRIPTION OF MNEMONIC
#---------         -----------     ------------------------------
GL  .M        535.9                : gl           - GROUND LEVEL ELEVATION
EREF.M        535.9                : kb           - ELEVATION OF DEPTH REFERENCE
DATM.M        535.9                : datum        - DATUM ELEVATION
TDD .M        283                  : tdd          - TOTAL DEPTH DRILLER
RUN .         ONE                  : Run          - RUN NUMBER
ENG .         BILL                 : Engineer     - RECORDING ENGINEER
WIT .         JIM                  : Witness      - WITNESSED BY
MUD .         GEL                  : Mud_type     - MUD TYPE
MATR.         SANDSTONE            : Logunit      - NEUTRON MATRIX
TMAX.C        8                    : BHT          - MAXIMUM RECORDED TEMPERATURE
BHTD.M        1.28367e+06          : BHTDEP       - MAXIMUM RECORDED TEMPERATURE
MATR.         1                    : LOGUNIT      - NEUTRON MATRIX
RMT .C        9                    : MDTP         - TEMPERATURE OF MUD
NEUT.         1                    : NEUTRON      - NEUTRON TYPE
RESI.         0                    : RESIST       - RESISTIVITY TYPE
RMC .OHMM     8.86                 : RMC          - RESISTIVITY OF MUD CAKE
RMF .OHMM     7.09                 : RMF          - RESISTIVITY OF MUD FILTRATE
SUFT.C        4                    : SUFT         - SURFACE TEMPERATURE
~A  DEPTH       GR     PHIN     PHID     RESD
   75.000   68.744    0.469    0.353   68.721
   75.250   68.782    0.465    0.355   70.095
   75.500   68.222    0.462    0.355   71.522
   75.750   67.084    0.448    0.350   71.602
   76.000   66.524    0.435    0.350   73.087
   76.250   67.757    0.429    0.354   74.548
   76.500   68.393    0.426    0.355   74.659
   76.750   67.833    0.426    0.351   76.122
   77.000   66.667    0.429    0.342   76.235
   77.250   66.107    0.432    0.338   77.788
   77.500   66.154    0.439    0.318   79.342
   77.750   66.192    0.452    0.294   79.460
   78.000   64.438    0.458    0.274   79.549
   78.250   62.085    0.443    0.240   79.667
   78.500   60.928    0.411    0.222   79.844
   78.750   62.170    0.411    0.288   79.933
   79.000   62.796    0.421    0.324   80.052
   79.250   64.646    0.434    0.343   80.171
   79.500   65.272    0.441    0.343   80.320
   79.750   65.898    0.439    0.316   80.409
   80.000   67.141    0.439    0.309   82.047
   80.250   67.767    0.440    0.295   83.687
   80.500   69.019    0.446    0.284   83.811
   80.750   69.048    0.459    0.312   83.966
   81.000   68.488    0.460    0.333   82.505
   81.250   68.535    0.449    0.336   79.657
   81.500   69.171    0.430    0.333   76.936
   81.750   71.609    0.433    0.331   74.281
   82.000   72.823    0.446    0.327   71.717
   82.250   76.456    0.459    0.323   67.986
   82.500   78.287    0.466    0.316   63.280
   82.750   78.922    0.474    0.312   56.783
   83.000   78.960    0.470    0.308   49.121
   83.250   76.010    0.463    0.291   43.262
   83.500   72.453    0.440    0.256   34.782
   83.750   80.867    0.412    0.216   29.008
   84.000   92.260    0.394    0.267   25.093
   84.250   95.893    0.407    0.298   22.109
   84.500   92.933    0.423    0.293   20.586
   84.750   89.395    0.438    0.292   22.601
   85.000   91.823    0.443    0.296   23.461
   85.250   94.859    0.453    0.299   26.717
   85.500   96.082    0.462    0.297   27.271
   85.750   98.520    0.456    0.282   26.797
   86.000   99.744    0.438    0.272   25.412
   86.250  101.584    0.430    0.265   24.090
   86.500  102.210    0.428    0.264   23.679
   86.750  103.443    0.429    0.271   21.649
   87.000  105.891    0.430    0.280   20.901
   87.250  106.526    0.436    0.284   19.821
   87.500  104.781    0.446    0.276   19.476
   87.750  101.812    0.457    0.268   18.470
   88.000   95.276    0.458    0.258   17.832
   88.250   83.352    0.466    0.249   16.598
   88.500   69.645    0.480    0.278   16.617
   88.750   62.521    0.490    0.307   17.912
   89.000   61.962    0.465    0.321   18.944
   89.250   60.804    0.425    0.317   20.051
   89.500   60.833    0.423    0.302   21.606
   89.750   62.673    0.417    0.292   22.868
   90.000   63.309    0.404    0.286   24.642
   90.250   64.542    0.397    0.284   26.081
   90.500   65.196    0.399    0.291   27.073
   90.750   65.813    0.401    0.306   29.216
   91.000   65.860    0.406    0.322   29.778
   91.250   65.898    0.414    0.329   30.934
   91.500   64.751    0.427    0.314   32.124
   91.750   64.172    0.421    0.309   33.396
   92.000   63.622    0.416    0.308   34.038
   92.250   64.248    0.420    0.314   34.718
   92.500   66.088    0.430    0.323   36.093
   92.750   66.733    0.442    0.330   36.800
   93.000   66.771    0.446    0.336   36.869
   93.250   66.809    0.438    0.343   37.620
   93.500   67.435    0.424    0.340   37.662
   93.750   68.080    0.428    0.331   37.718
   94.000   68.109    0.430    0.338   37.788
   94.250   66.373    0.430    0.345   37.816
   94.500   66.392    0.432    0.350   36.510
   94.750   65.841    0.435    0.350   35.901
   95.000   66.477    0.438    0.344   36.619
   95.250   65.917    0.432    0.338   36.022
   95.500   61.781    0.415    0.340   34.791
   95.750   62.407    0.414    0.345   34.817
   96.000   63.641    0.427    0.350   36.864
   96.250   64.276    0.436    0.348   38.989
   96.500   64.314    0.446    0.352   40.517
   96.750   64.362    0.447    0.354   42.868
   97.000   64.390    0.441    0.349   44.516
   97.250   65.035    0.437    0.348   47.134
   97.500   65.073    0.432    0.347   48.946
   97.750   66.306    0.425    0.345   51.785
   98.000   71.153    0.421    0.344   54.810
   98.250   71.770    0.424    0.344   54.871
   98.500   73.601    0.432    0.344   55.989
   98.750   74.834    0.439    0.345   55.055
   99.000   77.253    0.451    0.346   53.154
   99.250   81.493    0.461    0.348   51.301
   99.500   83.314    0.471    0.340   47.750
   99.750   82.157    0.501    0.336   45.266
  100.000   81.000    0.511    0.345   42.132
  100.250   80.440    0.562    0.347   35.786
  100.500   78.685    0.581    0.348   35.840
  100.750   75.138    0.494    0.362   40.799
  101.000   73.980    0.461    0.369   45.620
  101.250   74.625    0.449    0.363   50.085
  101.500   76.466    0.444    0.355   52.971
  101.750   77.680    0.440    0.349   55.048
  102.000   79.510    0.445    0.340   56.127
  102.250   80.744    0.453    0.346   56.211
  102.500   79.605    0.467    0.349   57.355
  102.750   77.253    0.489    0.347   57.419
  103.000   74.891    0.487    0.346   57.505
  103.250   72.538    0.473    0.348   57.611
  103.500   71.381    0.462    0.353   54.634
  103.750   72.614    0.457    0.353   53.703
  104.000   74.464    0.458    0.349   55.830
  104.250   75.090    0.460    0.346   56.903
  104.500   76.314    0.461    0.346   60.227
  104.750   78.761    0.465    0.345   62.589
  105.000   79.975    0.466    0.345   64.970
  105.250   79.444    0.468    0.346   67.493
  105.500   78.865    0.467    0.343   71.409
  105.750   78.306    0.470    0.337   71.541
  106.000   77.756    0.467    0.339   70.348
  106.250   78.401    0.457    0.345   69.175
  106.500   78.420    0.456    0.348   68.021
  106.750   78.458    0.452    0.354   66.886
  107.000   76.703    0.450    0.359   67.035
  107.250   74.948    0.459    0.355   68.325
  107.500   74.986    0.467    0.346   68.426
  107.750   75.024    0.469    0.339   68.528
  108.000   74.464    0.467    0.334   69.923
  108.250   73.307    0.462    0.330   70.027
  108.500   73.364    0.463    0.330   71.453
  108.750   73.411    0.474    0.336   71.559
  109.000   74.037    0.484    0.340   72.989
  109.250   74.075    0.469    0.349   73.098
  109.500   74.711    0.450    0.355   73.206
  109.750   74.749    0.451    0.354   73.315
  110.000   74.189    0.458    0.351   73.451
  110.250   74.236    0.465    0.350   73.533
  110.500   74.255    0.467    0.352   73.642
  110.750   74.891    0.463    0.355   73.779
  111.000   75.526    0.459    0.356   72.495
  111.250   75.574    0.460    0.354   71.312
  111.500   75.621    0.460    0.353   70.123
  111.750   75.659    0.458    0.351   68.953
  112.000   75.697    0.451    0.350   67.803
  112.250   75.735    0.444    0.348   66.697
  112.500   75.773    0.437    0.348   65.584
  112.750   78.201    0.437    0.349   63.344
  113.000   81.228    0.444    0.349   61.113
  113.250   82.461    0.453    0.353   54.878
  113.500   83.096    0.466    0.343   52.965
  113.750   81.939    0.462    0.328   52.062
  114.000   79.008    0.456    0.339   50.284
  114.250   78.429    0.447    0.345   49.427
  114.500   78.467    0.440    0.342   50.433
  114.750   78.505    0.442    0.341   50.508
  115.000   78.543    0.445    0.343   50.583
  115.250   78.581    0.448    0.343   50.658
  115.500   78.619    0.451    0.344   49.795
  115.750   78.657    0.459    0.343   47.239
  116.000   78.695    0.465    0.340   44.782
  116.250   79.928    0.476    0.340   42.452
  116.500   82.963    0.482    0.339   40.971
  116.750   86.587    0.485    0.337   36.792
  117.000   87.830    0.459    0.335   34.852
  117.250   89.063    0.451    0.334   31.273
  117.500   89.689    0.455    0.334   27.564
  117.750   89.727    0.462    0.330   25.172
  118.000   92.753    0.469    0.309   21.783
  118.250   98.179    0.467    0.259   18.837
