~VERSION INFORMATION
 VERS.                 2.0:   CWLS LOG ASCII STANDARD -VERSION 2.0
 WRAP.                  NO:   ONE LINE PER DEPTH STEP
~WELL INFORMATION BLOCK
#MNEM.UNIT           DATA                    DESCRIPTION OF MNEMONIC
#---------    -------------------            -------------------------------
# Generated from Intellog Unique Number	CW_79_81/WELL/2479
WELL.         GULF HOOLE OV                  : Well_name    - WELL
LOC .         AA/11-01-080-23W4/0            : Location     - LOCATION
UWI .         AA/11-01-080-23W4/0            : Uwi          - UNIQUE WELL ID
ENTR.         MAX                            : Entered      - ENTERED BY
SRVC.         SCHLUMBERGER                   : Scn          - SERVICE COMPANY
STRT.M        215                            : top_depth    - START DEPTH
STOP.M        485                            : bot_depth    - STOP DEPTH
STEP.M        0.25                           : increment    - STEP LENGTH
 NULL. -999.2500:NULL Value
~CURVE INFORMATION BLOCK
#MNEM UNIT       ERCB CURVE CODE    CURVE DESCRIPTION
#-----------   ------------------   ----------------------------------
DEPT.M        00 001 00 00         : DEPTH        - DEPTH
ILD .OHMM     00 120 00 00         : RESD         - DEEP RESISTIVITY (DIL)
NPHI.V/V      00 330 00 00         : PHIN         - NEUTRON POROSITY (SANDSTONE)
DPHI.V/V      00 890 00 00         : PHID         - DENSITY POROSITY (SANDSTONE)
GR  .API      00 310 00 00         : GR           - GAMMA RAY
CALI.MM       00 280 01 00         : CAL          - CALIPER
~PARAMETER INFORMATION
#MNEM.UNIT           DATA             DESCRIPTION OF MNEMONIC
#---------         -----------     ------------------------------
GL  .M        583.2                : gl           - GROUND LEVEL ELEVATION
EREF.M        586.7                : kb           - ELEVATION OF DEPTH REFERENCE
DATM.M        583.2                : datum        - DATUM ELEVATION
TDD .M        490                  : tdd          - TOTAL DEPTH DRILLER
RUN .         ONE                  : Run          - RUN NUMBER
ENG .         BILL                 : Engineer     - RECORDING ENGINEER
WIT .         JIM                  : Witness      - WITNESSED BY
MUD .         GEL                  : Mud_type     - MUD TYPE
MATR.         SANDSTONE            : Logunit      - NEUTRON MATRIX
TMAX.C        29                   : BHT          - MAXIMUM RECORDED TEMPERATURE
BHTD.M        490                  : BHTDEP       - MAXIMUM RECORDED TEMPERATURE
MATR.         1                    : LOGUNIT      - NEUTRON MATRIX
RMT .C        17                   : MDTP         - TEMPERATURE OF MUD
NEUT.         1                    : NEUTRON      - NEUTRON TYPE
RESI.         0                    : RESIST       - RESISTIVITY TYPE
RMC .OHMM     8.12                 : RMC          - RESISTIVITY OF MUD CAKE
RMF .OHMM     7.56                 : RMF          - RESISTIVITY OF MUD FILTRATE
SUFT.C        15                   : SUFT         - SURFACE TEMPERATURE
~A  DEPTH     RESD     PHIN     PHID       GR      CAL
# ...
  397.500   19.191    0.417    0.158   88.291  253.141
  397.750   18.668    0.419    0.183   93.004  253.093
  398.000   18.117    0.408    0.185   90.299  252.712
  398.250   17.601    0.388    0.156   83.427  251.962
  398.500   17.290    0.381    0.148   78.690  251.497
  398.750   17.108    0.388    0.164   77.282  251.132
  399.000   16.960    0.405    0.193   78.908  250.772
  399.250   16.697    0.416    0.206   81.639  250.503
  399.500   16.578    0.423    0.192   80.916  250.952
  399.750   17.200    0.408    0.193   77.370  250.983
  400.000   18.719    0.364    0.162   73.466  250.123
  400.250   23.402    0.296    0.100   66.115  248.965
  400.500   35.048    0.222    0.034   55.794  248.205
  400.750   53.941    0.172    0.016   46.596  248.892
  401.000   65.019    0.175    0.018   46.865  250.173
  401.250   66.006    0.179    0.024   47.359  250.994
  401.500   64.108    0.181    0.038   48.035  251.525
  401.750   59.038    0.182    0.050   48.292  251.954
  402.000   49.342    0.192    0.057   48.251  252.379
  402.250   35.283    0.238    0.068   49.248  252.983
  402.500   31.058    0.297    0.111   51.745  253.844
  402.750   25.772    0.352    0.158   59.373  254.675
  403.000   22.721    0.376    0.182   63.795  255.800
  403.250   20.688    0.381    0.194   65.837  257.220
  403.500   19.290    0.379    0.198   66.747  258.837
  403.750   18.273    0.387    0.199   68.793  260.877
  404.000   17.337    0.395    0.191   71.787  262.977
  404.250   16.595    0.395    0.194   72.759  264.596
  404.500   15.975    0.391    0.205   73.374  265.916
  404.750   15.407    0.395    0.210   74.584  267.338
  405.000   14.917    0.405    0.207   76.448  268.760
  405.250   14.511    0.409    0.200   78.089  269.836
  405.500   14.083    0.387    0.192   77.861  271.114
  405.750   13.783    0.384    0.184   78.593  271.941
  406.000   13.639    0.392    0.178   80.934  272.766
  406.250   13.495    0.402    0.168   82.025  273.393
  406.500   13.280    0.409    0.155   81.686  273.726
  406.750   12.959    0.413    0.155   82.918  273.688
  407.000   12.770    0.412    0.165   85.421  273.308
  407.250   12.775    0.419    0.174   87.341  273.346
  407.500   12.780    0.420    0.178   89.799  273.376
  407.750   12.879    0.419    0.181   92.434  273.409
  408.000   13.123    0.418    0.181   94.237  273.347
  408.250   13.562    0.418    0.173   93.055  272.910
  408.500   13.776    0.418    0.167   90.595  272.529
  408.750   13.482    0.415    0.176   88.477  272.168
  409.000   13.121    0.411    0.182   87.251  271.806
  409.250   12.936    0.408    0.183   85.966  271.443
  409.500   12.915    0.408    0.175   84.382  271.178
  409.750   12.833    0.402    0.144   83.073  271.222
  410.000   12.838    0.396    0.131   83.593  271.251
  410.250   13.224    0.384    0.162   88.128  270.893
  410.500   13.844    0.378    0.176   91.241  270.238
  410.750   14.681    0.377    0.183   92.689  269.282
  411.000   15.472    0.380    0.188   92.471  268.025
  411.250   15.349    0.382    0.196   90.489  266.396
  411.500   14.237    0.379    0.196   88.772  266.019
  411.750   13.728    0.379    0.185   89.269  265.261
  412.000   13.239    0.394    0.183   91.371  265.098
  412.250   12.816    0.406    0.183   93.413  265.527
  412.500   12.591    0.408    0.183   94.621  266.154
  412.750   12.955    0.406    0.179   94.478  265.703
  413.000   13.888    0.385    0.174   91.277  263.259
  413.250   15.264    0.360    0.160   86.541  260.517
  413.500   15.572    0.364    0.161   87.513  259.262
  413.750   15.350    0.376    0.171   90.744  259.101
  414.000   15.134    0.389    0.184   94.865  259.435
  414.250   15.523    0.406    0.190  100.499  259.394
  414.500   17.032    0.409    0.190  100.023  259.013
  414.750   18.854    0.387    0.195   93.861  258.259
  415.000   20.885    0.379    0.193   90.374  257.205
  415.250   23.151    0.361    0.176   87.184  256.445
  415.500   25.551    0.327    0.144   82.510  256.079
  415.750   27.732    0.286    0.106   73.775  255.718
  416.000   27.742    0.297    0.094   66.864  255.754
  416.250   26.360    0.340    0.130   69.498  255.789
  416.500   24.488    0.367    0.172   74.987  255.826
  416.750   22.515    0.383    0.200   78.931  255.860
  417.000   20.762    0.387    0.205   80.319  255.893
  417.250   19.307    0.383    0.188   81.879  255.772
  417.500   18.597    0.392    0.176   83.635  254.975
  417.750   19.295    0.393    0.180   86.031  254.218
  418.000   20.454    0.397    0.185   89.320  253.460
  418.250   23.052    0.393    0.198   85.418  252.702
  418.500   28.657    0.378    0.215   73.848  251.845
  418.750   43.456    0.353    0.235   60.507  250.449
  419.000   58.552    0.359    0.252   54.337  249.244
  419.250   68.580    0.368    0.266   49.600  248.093
  419.500   89.877    0.366    0.283   44.509  247.234
  419.750  121.223    0.359    0.293   39.893  246.476
  420.000  150.732    0.353    0.296   36.288  245.818
  420.250  164.822    0.353    0.296   33.688  245.458
  420.500  171.326    0.353    0.299   32.471  245.497
  420.750  175.198    0.357    0.304   32.014  245.136
  421.000  179.163    0.359    0.308   31.562  244.777
  421.250  181.239    0.359    0.309   31.344  244.427
  421.500  180.651    0.355    0.309   31.361  244.074
  421.750  175.606    0.349    0.312   31.486  243.526
  422.000  164.116    0.348    0.317   32.001  242.733
  422.250  141.445    0.348    0.315   32.973  242.375
  422.500  101.453    0.347    0.310   34.123  242.311
  422.750   82.415    0.347    0.306   35.571  242.544
  423.000   73.927    0.347    0.301   37.137  242.874
  423.250   62.318    0.348    0.291   38.600  242.910
  423.500   54.859    0.355    0.284   39.856  242.950
  423.750   48.367    0.363    0.289   41.543  242.981
  424.000   41.940    0.366    0.286   42.870  243.612
  424.250   37.705    0.371    0.283   44.198  244.835
  424.500   35.206    0.375    0.281   45.823  246.354
  424.750   33.081    0.367    0.283   48.583  247.670
  425.000   32.347    0.367    0.287   51.579  248.115
  425.250   31.195    0.390    0.290   54.691  248.543
  425.500   30.084    0.393    0.291   57.446  248.676
  425.750   29.015    0.383    0.281   60.200  248.910
  426.000   28.145    0.373    0.262   62.657  249.443
  426.250   27.580    0.379    0.244   63.624  250.524
  426.500   26.764    0.368    0.211   62.406  251.795
  426.750   25.242    0.336    0.182   64.326  253.015
  427.000   23.543    0.319    0.165   71.242  253.940
  427.250   20.609    0.334    0.168   81.606  254.769
  427.500   17.315    0.367    0.183   90.245  255.499
  427.750   14.417    0.376    0.187   87.179  256.017
  428.000   12.786    0.367    0.184   81.257  256.469
  428.250   12.514    0.368    0.189   77.711  256.104
  428.500   12.588    0.391    0.200   76.305  255.150
  428.750   13.990    0.409    0.220   72.877  254.192
  429.000   17.816    0.412    0.248   66.537  253.430
  429.250   26.827    0.401    0.277   59.716  252.683
  429.500   34.453    0.378    0.286   59.985  252.719
  429.750   33.223    0.368    0.276   63.095  253.542
  430.000   25.227    0.355    0.256   74.230  254.966
  430.250   20.615    0.337    0.225   85.546  256.584
  430.500   18.788    0.320    0.191   91.928  258.000
  430.750   17.919    0.326    0.170   88.920  258.257
  431.000   18.203    0.326    0.172   78.539  255.408
  431.250   19.581    0.361    0.212   68.097  254.254
  431.500   25.263    0.365    0.248   56.586  254.877
  431.750   36.956    0.354    0.279   47.808  256.892
  432.000   55.976    0.342    0.298   42.954  259.212
  432.250   71.757    0.342    0.292   40.601  260.476
  432.500   77.522    0.356    0.282   40.601  262.554
  432.750   76.430    0.368    0.280   40.637  266.948
  433.000   72.455    0.374    0.289   42.982  270.747
  433.250   65.236    0.375    0.298   46.928  271.175
  433.500   57.208    0.372    0.297   51.107  267.143
  433.750   50.198    0.370    0.279   54.102  257.774
