~VERSION INFORMATION
 VERS.                 2.0:   CWLS LOG ASCII STANDARD -VERSION 2.0
 WRAP.                  NO:   ONE LINE PER DEPTH STEP
~WELL INFORMATION BLOCK
#MNEM.UNIT           DATA                    DESCRIPTION OF MNEMONIC
#---------    -------------------            -------------------------------
# Generated from Intellog Unique Number	CN_94_101/WELL/5045
WELL.         15-08-098-10W4                 : Well_name    - WELL
LOC .         AA/15-08-098-10W4/0            : Location     - LOCATION
UWI .         AA/15-08-098-10W400            : Uwi          - UNIQUE WELL ID
ENTR.         TIM                            : Entered      - ENTERED BY
SRVC.         SCHLUMBERGER                   : Scn          - SERVICE COMPANY
DATE.         08/11/92                       : Date         - LOG DATE
STRT.M        0                              : top_depth    - START DEPTH
STOP.M        65                             : bot_depth    - STOP DEPTH
STEP.M        0.25                           : increment    - STEP LENGTH
 NULL. -999.2500:NULL Value
~CURVE INFORMATION BLOCK
#MNEM UNIT       ERCB CURVE CODE    CURVE DESCRIPTION
#-----------   ------------------   ----------------------------------
DEPT.M        00 001 00 00         : DEPTH        - DEPTH
GR  .API      00 310 00 00         : GR           - GAMMA RAY
ILD .OHMM     00 120 00 00         : RESD         - DEEP RESISTIVITY (DIL)
NPHI.V/V      00 330 00 00         : PHIN         - NEUTRON POROSITY (SANDSTONE)
DPHI.V/V      00 890 00 00         : PHID         - DENSITY POROSITY (SANDSTONE)
~PARAMETER INFORMATION
#MNEM.UNIT           DATA             DESCRIPTION OF MNEMONIC
#---------         -----------     ------------------------------
GL  .M        253.92               : gl           - GROUND LEVEL ELEVATION
EREF.M        253.92               : kb           - ELEVATION OF DEPTH REFERENCE
DATM.M        253.92               : datum        - DATUM ELEVATION
TDD .M        68.8                 : tdd          - TOTAL DEPTH DRILLER
RUN .         ONE                  : Run          - RUN NUMBER
ENG .         BILL                 : Engineer     - RECORDING ENGINEER
WIT .         JIM                  : Witness      - WITNESSED BY
MUD .         GEL                  : Mud_type     - MUD TYPE
MATR.         SANDSTONE            : Logunit      - NEUTRON MATRIX
TMAX.C        10                   : BHT          - MAXIMUM RECORDED TEMPERATURE
BHTD.M        68.8                 : BHTDEP       - MAXIMUM RECORDED TEMPERATURE
RMT .C        10                   : MDTP         - TEMPERATURE OF MUD
MUDD.KG/M     1090                 : MWT          - MUD DENSITY
NEUT.         1                    : NEUTRON      - NEUTRON TYPE
RESI.         0                    : RESIST       - RESISTIVITY TYPE
RM  .OHMM     13.1                 : RM           - RESISTIVITY OF MUD
RMC .OHMM     13.1                 : RMC          - RESISTIVITY OF MUD CAKE
RMF .OHMM     13.1                 : RMF          - RESISTIVITY OF MUD FILTRATE
SUFT.C        4                    : SUFT         - SURFACE TEMPERATURE
~A  DEPTH       GR     RESD     PHIN     PHID
# ...
   43.500   40.404  232.876    0.367    0.245
   43.750   42.771  211.213    0.376    0.243
   44.000   43.977  183.696    0.401    0.257
   44.250   44.022  164.294    0.427    0.287
   44.500   44.067  144.902    0.417    0.362
   44.750   42.950  149.043    0.404    0.350
   45.000   40.102  166.725    0.402    0.348
   45.250   37.824  217.498    0.404    0.345
   45.500   37.300  246.713    0.409    0.350
   45.750   37.914  246.767    0.416    0.326
   46.000   40.850  214.630    0.406    0.315
   46.250   43.798  184.067    0.405    0.322
   46.500   46.746  157.873    0.406    0.339
   46.750   42.726  171.715    0.401    0.344
   47.000   41.040  194.780    0.397    0.343
   47.250   41.654  214.864    0.392    0.353
   47.500   41.118  227.271    0.389    0.340
   47.750   38.271  230.521    0.396    0.337
   48.000   38.326  227.370    0.402    0.343
   48.250   38.929  221.161    0.404    0.339
   48.500   43.630  212.101    0.408    0.321
   48.750   46.578  197.835    0.411    0.276
   49.000   46.623  192.412    0.413    0.333
   49.250   44.345  195.163    0.374    0.340
   49.500   42.648  197.954    0.375    0.320
   49.750   43.284  153.947    0.382    0.317
   50.000   49.705  126.609    0.390    0.304
   50.250   55.567  110.115    0.398    0.293
   50.500   51.536   97.117    0.398    0.309
   50.750   43.451   99.898    0.395    0.322
   51.000   39.431  147.793    0.392    0.322
   51.250   38.895  218.662    0.389    0.325
   51.500   40.693  241.182    0.389    0.329
   51.750   43.049  269.781    0.390    0.326
   52.000   49.492  262.414    0.395    0.320
   52.250   56.505  218.841    0.408    0.312
   52.500   62.356  145.932    0.416    0.280
   52.750   62.992  126.920    0.404    0.294
   53.000   56.058  145.996    0.390    0.318
   53.250   38.672  219.032    0.401    0.334
   53.500   36.985  241.616    0.407    0.349
   53.750   39.933  238.301    0.410    0.329
   54.000   40.559  219.175    0.398    0.333
   54.250   40.603  196.026    0.380    0.277
   54.500   47.035  136.317    0.345    0.209
   54.750   48.252  128.932    0.350    0.227
   55.000   47.716  134.483    0.357    0.261
   55.250   45.438  150.438    0.368    0.293
   55.500   41.988  199.014    0.373    0.296
   55.750   37.387  248.969    0.372    0.292
   56.000   38.023  259.675    0.365    0.288
   56.250   36.326  245.606    0.360    0.295
   56.500   35.209  213.609    0.353    0.291
   56.750   36.404  154.907    0.361    0.293
   57.000   40.514  107.722    0.373    0.297
   57.250   52.763   71.834    0.386    0.134
   57.500   66.744   45.296    0.397    0.132
   57.750   98.736   14.806    0.412    0.131
   58.000  120.276   16.104    0.423    0.149
   58.250  119.740   19.052    0.433    0.186
   58.500  116.892   19.596    0.451    0.201
   58.750  120.410   19.600    0.449    0.201
   59.000  121.035   19.063    0.445    0.196
   59.250  119.918   18.030    0.450    0.192
   59.500  121.705   17.294    0.449    0.183
   59.750  125.825   16.820    0.443    0.169
   60.000  122.967   16.360    0.425    0.167
   60.250  117.194   13.084    0.434    0.168
   60.500  118.991   10.761    0.437    0.166
   60.750  128.907   10.614    0.442    0.164
   61.000  139.404   14.040    0.450    0.163
   61.250  146.438   13.467    0.448    0.161
   61.500  146.483   11.550    0.446    0.150
   61.750  145.947   11.393    0.444    0.144
   62.000  144.842   11.718    0.443    0.143
   62.250  143.703   12.052    0.443    0.144
   62.500  139.113   12.398    0.439    0.144
   62.750  132.759   12.574    0.434    0.144
   63.000  125.825   13.117    0.433    0.135
   63.250  118.332   13.490    0.429    0.110
   63.500  117.215   13.877    0.425    0.080
   63.750  118.410   14.075    0.425    0.057
   64.000  120.219   14.277    0.424    0.042
   64.250  120.241   14.280    0.424    0.055
   64.500  120.286   14.484    0.424    0.076
   64.750  120.342   15.320    0.419    0.077
   65.000  119.225   16.205    0.396    0.048
