~VERSION INFORMATION
 VERS.                 2.0:   CWLS LOG ASCII STANDARD -VERSION 2.0
 WRAP.                  NO:   ONE LINE PER DEPTH STEP
~WELL INFORMATION BLOCK
#MNEM.UNIT           DATA                    DESCRIPTION OF MNEMONIC
#---------    -------------------            -------------------------------
# Generated from Intellog Unique Number	CN_94_101/WELL/5031
WELL.         12-16-098-11W4                 : Well_name    - WELL
LOC .         AA/12-16-098-11W4/0            : Location     - LOCATION
UWI .         AA/12-16-098-11W400            : Uwi          - UNIQUE WELL ID
ENTR.         TIM                            : Entered      - ENTERED BY
SRVC.         SCHLUMBERGER                   : Scn          - SERVICE COMPANY
DATE.         08/13/92                       : Date         - LOG DATE
STRT.M        0                              : top_depth    - START DEPTH
STOP.M        80                             : bot_depth    - STOP DEPTH
STEP.M        0.25                           : increment    - STEP LENGTH
 NULL. -999.2500:NULL Value
~CURVE INFORMATION BLOCK
#MNEM UNIT       ERCB CURVE CODE    CURVE DESCRIPTION
#-----------   ------------------   ----------------------------------
DEPT.M        00 001 00 00         : DEPTH        - DEPTH
GR  .API      00 310 00 00         : GR           - GAMMA RAY
ILD .OHMM     00 120 00 00         : RESD         - DEEP RESISTIVITY (DIL)
NPHI.V/V      00 330 00 00         : PHIN         - NEUTRON POROSITY (SANDSTONE)
DPHI.V/V      00 890 00 00         : PHID         - DENSITY POROSITY (SANDSTONE)
~PARAMETER INFORMATION
#MNEM.UNIT           DATA             DESCRIPTION OF MNEMONIC
#---------         -----------     ------------------------------
GL  .M        314.29               : gl           - GROUND LEVEL ELEVATION
EREF.M        314.29               : kb           - ELEVATION OF DEPTH REFERENCE
DATM.M        314.29               : datum        - DATUM ELEVATION
TDD .M        84.4                 : tdd          - TOTAL DEPTH DRILLER
RUN .         ONE                  : Run          - RUN NUMBER
ENG .         BILL                 : Engineer     - RECORDING ENGINEER
WIT .         JIM                  : Witness      - WITNESSED BY
MUD .         GEL                  : Mud_type     - MUD TYPE
MATR.         SANDSTONE            : Logunit      - NEUTRON MATRIX
TMAX.C        10                   : BHT          - MAXIMUM RECORDED TEMPERATURE
BHTD.M        85                   : BHTDEP       - MAXIMUM RECORDED TEMPERATURE
RMT .C        8                    : MDTP         - TEMPERATURE OF MUD
MUDD.KG/M     1050                 : MWT          - MUD DENSITY
NEUT.         1                    : NEUTRON      - NEUTRON TYPE
RESI.         0                    : RESIST       - RESISTIVITY TYPE
RM  .OHMM     16.4                 : RM           - RESISTIVITY OF MUD
RMC .OHMM     16.4                 : RMC          - RESISTIVITY OF MUD CAKE
RMF .OHMM     16.4                 : RMF          - RESISTIVITY OF MUD FILTRATE
SUFT.C        4                    : SUFT         - SURFACE TEMPERATURE
~A  DEPTH       GR     RESD     PHIN     PHID
# ...
   43.500   69.281   75.753    0.449    0.348
   43.750   69.297   64.653    0.440    0.372
   44.000   68.715   57.620    0.427    0.382
   44.250   68.736   48.473    0.415    0.391
   44.500   71.772   37.398    0.406    0.390
   44.750   75.400   33.812    0.401    0.387
   45.000   79.032   29.277    0.395    0.379
   45.250   86.884   28.866    0.394    0.345
   45.500   89.318   30.155    0.401    0.290
   45.750   82.712   30.599    0.413    0.279
   46.000  101.394   30.172    0.434    0.297
   46.250  100.813   30.176    0.446    0.307
   46.500   91.804   31.519    0.448    0.244
   46.750   71.964   33.401    0.453    0.263
   47.000   70.174   37.498    0.457    0.289
   47.250   65.981   52.275    0.449    0.328
   47.500   65.404   68.782    0.439    0.346
   47.750   69.037   76.113    0.439    0.371
   48.000   70.859   67.834    0.440    0.372
   48.250   74.491   60.455    0.447    0.368
   48.500   75.716   53.879    0.434    0.354
   48.750   72.732   50.143    0.413    0.341
   49.000   77.564   44.048    0.416    0.337
   49.250   82.411   41.589    0.428    0.331
   49.500   79.411   39.841    0.408    0.326
   49.750   72.810   39.281    0.390    0.331
   50.000   66.209   42.229    0.398    0.337
   50.250   62.623   66.067    0.410    0.347
   50.500   60.832   79.726    0.423    0.362
   50.750   62.659   80.913    0.427    0.361
   51.000   65.690   79.770    0.415    0.356
   51.250   70.527   76.422    0.417    0.359
   51.500   73.557   73.195    0.420    0.372
   51.750   68.160   68.119    0.427    0.379
   52.000   61.559   64.321    0.412    0.388
   52.250   62.182   64.338    0.417    0.381
   52.500   61.606   70.171    0.402    0.353
   52.750   58.009  103.627    0.389    0.358
   53.000   48.398  113.037    0.393    0.365
   53.250   64.678   97.869    0.403    0.370
   53.500   66.505   61.693    0.404    0.385
   53.750   55.093   60.826    0.408    0.357
   54.000   56.919   87.271    0.419    0.373
   54.250   59.343  113.193    0.448    0.369
   54.500   57.563  118.241    0.423    0.362
   54.750   54.574  113.255    0.411    0.379
   55.000   55.197  102.402    0.392    0.392
   55.250   70.262   79.001    0.372    0.387
   55.500   84.129   55.893    0.395    0.383
   55.750   88.965   45.685    0.438    0.370
   56.000   88.991   40.130    0.459    0.360
   56.250   87.803   32.798    0.466    0.347
   56.500   72.774   31.874    0.430    0.347
   56.750   64.367   37.367    0.404    0.338
   57.000   54.755   65.615    0.407    0.339
   57.250   56.582  105.662    0.415    0.362
   57.500   66.235   91.490    0.422    0.374
   57.750   59.634   92.845    0.427    0.375
   58.000   53.634  133.220    0.430    0.366
   58.250   48.839  133.257    0.417    0.378
   58.500   48.263  113.730    0.441    0.388
   58.750   50.687  112.132    0.451    0.385
   59.000   54.325  149.685    0.457    0.389
   59.250   44.106  175.481    0.408    0.385
   59.500   41.724  180.681    0.384    0.370
   59.750   47.163  158.710    0.390    0.347
   60.000   45.378   97.199    0.400    0.344
   60.250   39.384  101.527    0.402    0.349
   60.500   40.007  131.673    0.399    0.359
   60.750   40.027  186.214    0.394    0.389
   61.000   43.058  263.347    0.403    0.366
   61.250   51.502  394.584    0.412    0.360
   61.500   52.731  412.181    0.402    0.366
   61.750   56.961  400.593    0.394    0.375
   62.000   59.390  394.936    0.399    0.387
   62.250   54.594  378.335    0.404    0.394
   62.500   46.789  378.387    0.405    0.384
   62.750   40.193  384.045    0.399    0.383
   63.000   39.010  384.124    0.392    0.388
   63.250   39.031  384.203    0.398    0.399
   63.500   39.057  378.829    0.410    0.400
   63.750   38.465  362.905    0.404    0.402
   64.000   34.879  352.631    0.385    0.410
   64.250   35.502  323.474    0.385    0.410
   64.500   43.946  260.593    0.401    0.417
   64.750   50.588  171.535    0.414    0.409
   65.000   59.644  109.701    0.409    0.386
   65.250   64.481   88.376    0.415    0.346
   65.500   68.113   88.400    0.415    0.352
   65.750   60.910   85.909    0.400    0.360
   66.000   53.105  106.698    0.400    0.360
   66.250   51.922  171.830    0.417    0.364
   66.500   65.186  155.375    0.432    0.365
   66.750   70.023  130.699    0.439    0.368
   67.000   75.462   87.283    0.448    0.368
   67.250   77.891   63.560    0.457    0.374
   67.500   57.444   59.153    0.453    0.351
   67.750   43.017   92.546    0.429    0.358
   68.000   36.415  134.730    0.455    0.410
   68.250   35.839  125.369    0.469    0.403
   68.500   37.059   76.780    0.488    0.398
   68.750   40.095   68.428    0.503    0.406
   69.000   38.906   60.989    0.499    0.417
   69.250   35.922   71.495    0.464    0.426
   69.500   36.545  113.481    0.408    0.432
   69.750   37.163  147.176    0.430    0.423
   70.000   39.591  182.816    0.417    0.412
   70.250   39.623  175.120    0.405    0.415
   70.500   39.031  182.917    0.395    0.419
   70.750   37.848  202.413    0.394    0.420
   71.000   35.461  227.243    0.389    0.409
   71.250   36.083  251.446    0.386    0.398
   71.500   32.492  294.778    0.390    0.391
   71.750   30.717  326.220    0.393    0.383
   72.000   31.330  317.006    0.395    0.384
   72.250   33.764  290.815    0.398    0.396
   72.500   37.401  262.949    0.402    0.406
   72.750   39.223  241.208    0.406    0.415
   73.000   36.836  224.465    0.431    0.416
   73.250   36.260  194.358    0.418    0.422
   73.500   34.474  173.217    0.399    0.443
   73.750   33.893  170.794    0.398    0.407
   74.000   34.516  180.979    0.396    0.392
   74.250   33.333  221.569    0.389    0.387
   74.500   30.945  228.134    0.387    0.386
   74.750   30.364  215.384    0.385    0.385
   75.000   30.385  206.331    0.383    0.382
   75.250   30.401  218.650    0.380    0.381
   75.500   31.023  215.562    0.380    0.385
   75.750   32.850  209.488    0.377    0.375
   76.000   34.075  192.167    0.374    0.365
   76.250   34.096  164.009    0.357    0.304
   76.500   35.922  132.126    0.334    0.022
   76.750   40.759   74.207    0.331    0.009
   77.000   51.019   53.264    0.333    0.003
   77.250   66.090   17.288    0.338    0.011
   77.500   68.518   15.188    0.339    0.026
   77.750   71.549   23.761    0.340    0.041
   78.000   72.774   32.648    0.340    0.037
   78.250   74.606   31.730    0.340    0.020
   78.500   77.034   29.527    0.342    0.017
   78.750   78.861   28.698    0.345    0.022
   79.000   80.688   28.705    0.348    0.019
   79.250   81.918   28.300    0.350    0.016
   79.500   82.530   27.108    0.348    0.014
   79.750   84.367   25.967    0.345    0.018
   80.000   85.592   25.602    0.346    0.019
