~VERSION INFORMATION
 VERS.                 2.0:   CWLS LOG ASCII STANDARD -VERSION 2.0
 WRAP.                  NO:   ONE LINE PER DEPTH STEP
~WELL INFORMATION BLOCK
#MNEM.UNIT           DATA                    DESCRIPTION OF MNEMONIC
#---------    -------------------            -------------------------------
# Generated from Intellog Unique Number	CC_80_83/WELL/2386
NULL.         -999.25                        : NULL_VALUE
WELL.         PEX PECJU HOUSE                : Well_name    - WELL              
LOC .         10-29-081-14W4                 : Location     - LOCATION          
UWI .         AA/10-29-081-14W400            : Uwi          - UNIQUE WELL ID    
ENTR.         RJA                            : Entered      - ENTERED BY        
SRVC.         SCHLUMBERGER                   : Scn          - SERVICE COMPANY   
DATE.         09 JAN 82                      : Date         - LOG DATE
STRT.M        116                            : top_depth    - START DEPTH       
STOP.M        376.996                        : bot_depth    - STOP DEPTH        
STEP.M        0.3                            : increment    - STEP LENGTH       
~CURVE INFORMATION BLOCK
#MNEM UNIT       ERCB CURVE CODE    CURVE DESCRIPTION
#-----------   ------------------   ----------------------------------
DEPT.M        00 001 00 00         : DEPTH        - DEPTH                       
NPHI.V/V      00 330 00 00         : PHIN         - NEUTRON POROSITY (LIMESTONE)
DPHI.V/V      00 890 00 00         : PHID         - DENSITY POROSITY (LIMESTONE)
GR  .API      00 310 00 00         : GR           - GAMMA RAY                   
ILD .OHMM     00 120 00 00         : RESD         - DEEP RESISTIVITY (DIL)      
~PARAMETER INFORMATION       
#MNEM.UNIT           DATA             DESCRIPTION OF MNEMONIC
#---------         -----------     ------------------------------
GL  .M        585                  : gl           - GROUND LEVEL ELEVATION      
EREF.M        588.6                : kb           - ELEVATION OF DEPTH REFERENCE
DATM.M        588.6                : datum        - DATUM ELEVATION             
TDD .M        385                  : tdd          - TOTAL DEPTH DRILLER         
RUN .         ONE                  : Run          - RUN NUMBER                  
ENG .         BILL                 : Engineer     - RECORDING ENGINEER          
WIT .         JIM                  : Witness      - WITNESSED BY                
MUD .         GEL                  : Mud_type     - MUD TYPE                    
MATR.         LIMESTONE            : Logunit      - NEUTRON MATRIX              
TMAX.C        15                   : BHT          - MAXIMUM RECORDED TEMPERATURE
BHTD.M        385                  : BHTDEP       - MAXIMUM RECORDED TEMPERATURE
MATR.         1                    : LOGUNIT      - NEUTRON MATRIX              
RMT .C        25                   : MDTP         - TEMPERATURE OF MUD          
NEUT.         1                    : NEUTRON      - NEUTRON TYPE                
RESI.         0                    : RESIST       - RESISTIVITY TYPE            
RMC .OHMM     0.25                 : RMC          - RESISTIVITY OF MUD CAKE     
RMF .OHMM     0.25                 : RMF          - RESISTIVITY OF MUD FILTRATE 
SUFT.C        4                    : SUFT         - SURFACE TEMPERATURE         
~A  DEPTH     PHIN     PHID       GR     RESD
# ...
  324.799    0.488    0.246   84.734    3.028
  325.099    0.500    0.261   89.065    2.859
  325.399    0.486    0.221   93.395    2.860
  325.699    0.506    0.230   97.106    3.090
  325.999    0.507    0.254   94.614    3.274
  326.299    0.472    0.176   90.888    3.470
  326.599    0.468    0.183  104.513    3.340
  326.899    0.497    0.224  109.462    3.278
  327.199    0.506    0.246  110.694    3.610
  327.499    0.500    0.253  105.105    4.375
  327.798    0.507    0.227  100.136    5.301
  328.098    0.503    0.209  101.365    6.806
  328.398    0.499    0.252   82.764    8.908
  328.698    0.448    0.258   62.920    9.808
  328.998    0.407    0.257   61.051    8.416
  329.298    0.397    0.235   80.874    8.420
  329.598    0.438    0.206   86.444    8.752
  329.898    0.452    0.214   82.715    8.754
  330.198    0.467    0.221   77.125    8.268
  330.498    0.475    0.253   71.538    6.826
  330.798    0.433    0.263   67.190    5.024
  331.098    0.367    0.217   65.320    4.310
  331.398    0.365    0.215   78.326    4.312
  331.698    0.509    0.225   89.475    5.127
  331.998    0.502    0.242   93.803    6.709
  332.298    0.423    0.210   88.217    8.613
  332.598    0.382    0.180   79.529    8.293
  332.898    0.380    0.200   80.138    7.393
  333.198    0.403    0.205   87.566    8.790
  333.498    0.412    0.182   93.137   12.662
  333.798    0.395    0.179   88.167   15.945
  334.098    0.377    0.231   80.717   21.274
  334.398    0.401    0.270   82.572   22.980
  334.698    0.432    0.288   94.956   23.884
  334.998    0.436    0.245  106.724   25.802
  335.298    0.421    0.241  107.334   26.821
  335.598    0.401    0.248   94.310   27.351
  335.898    0.388    0.262   76.326   26.331
  336.198    0.381    0.266   70.737   22.594
  336.498    0.372    0.226   83.122   20.929
  336.798    0.360    0.205   87.450   18.308
  337.098    0.357    0.199   88.683   17.623
  337.398    0.330    0.199   85.574   17.629
  337.698    0.336    0.196   89.284   20.172
  337.998    0.331    0.180   91.753   21.789
  338.298    0.319    0.184   70.669   25.905
  338.598    0.316    0.176   55.785   30.216
  338.898    0.330    0.179   54.532   32.017
  339.198    0.367    0.218   53.282   27.475
  339.498    0.339    0.242   52.034   25.450
  339.798    0.336    0.250   55.746   21.837
  340.098    0.346    0.240   68.754   19.100
  340.398    0.371    0.213   82.998   20.242
  340.698    0.385    0.203   79.887   22.289
  340.998    0.342    0.215   75.542   23.618
  341.298    0.340    0.227   62.514   24.081
  341.598    0.351    0.220   61.888   21.471
  341.898    0.330    0.223   84.808   20.276
  342.198    0.343    0.196   91.619   16.744
  342.498    0.383    0.174   89.749   14.645
  342.798    0.351    0.147   81.684   13.309
  343.098    0.350    0.156  107.702   12.330
  343.398    0.437    0.175  110.795   13.577
  343.698    0.477    0.150  106.446   17.430
  343.998    0.422    0.177   77.305   27.109
  344.298    0.348    0.272   62.418   59.564
  344.598    0.318    0.288   53.114   94.434
  344.898    0.309    0.292   61.160  121.230
  345.198    0.327    0.292   62.391  121.282
  345.498    0.378    0.286   54.942  114.537
  345.798    0.383    0.279   54.310  108.166
  346.098    0.379    0.279   55.540  100.211
  346.398    0.371    0.284   56.154   92.842
  346.698    0.417    0.297   52.427   82.778
  346.998    0.424    0.314   40.639   67.051
  347.298    0.398    0.291   36.911   52.267
  347.598    0.406    0.276   40.619   34.281
  347.898    0.394    0.276   50.527   21.637
  348.198    0.326    0.247   76.551   14.192
  348.498    0.325    0.169  110.012   11.277
  348.798    0.349    0.156  120.540   10.249
  349.098    0.400    0.164  117.431   11.071
  349.398    0.415    0.195  111.843   13.943
  349.698    0.399    0.233   93.855   16.898
  349.998    0.392    0.248   90.126   20.092
  350.298    0.415    0.256   89.499   19.342
  350.598    0.409    0.211  100.024   17.919
  350.898    0.352    0.149  106.216   19.731
  351.198    0.338    0.166  108.687   23.461
  351.498    0.372    0.233   93.800   27.364
  351.798    0.418    0.264   78.915   29.556
  352.098    0.397    0.170   82.623   29.567
  352.397    0.372    0.165   91.290   28.465
  352.697    0.382    0.236   95.003   27.933
  352.997    0.387    0.267   93.133   23.969
  353.297    0.378    0.282   90.644   20.173
  353.597    0.423    0.277   97.452   17.309
  353.897    0.326    0.247  106.739   14.853
  354.197    0.316    0.141  104.868   13.759
  354.497    0.314    0.135  102.383   13.503
  354.797    0.346    0.150   97.414   16.367
  355.097    0.399    0.182   88.728   20.613
  355.397    0.363    0.155   62.065   22.693
  355.697    0.282    0.084   59.574   28.038
  355.997    0.297    0.171   63.285   25.976
  356.297    0.338    0.242   63.896   20.641
  356.597    0.314    0.234   70.704   17.372
  356.897    0.316    0.203   86.811   14.074
  357.197    0.328    0.175   94.238   12.790
  357.497    0.350    0.168  104.766   11.188
  357.797    0.362    0.183  106.616   10.769
  358.097    0.358    0.156  106.606   10.171
  358.397    0.367    0.153  108.454   10.778
  358.697    0.370    0.191  101.009   12.097
  358.997    0.353    0.197   79.926   14.382
  359.297    0.328    0.173   83.013   15.837
  359.597    0.342    0.160   88.584   14.673
  359.897    0.372    0.172   92.912   13.856
  360.197    0.373    0.189   98.481   12.354
  360.497    0.317    0.153  106.529   11.228
  360.797    0.324    0.152  105.281   10.809
  361.097    0.359    0.173   96.593   11.454
  361.397    0.328    0.183   91.004   12.374
  361.697    0.319    0.168  100.290   12.617
  361.997    0.333    0.161  103.998   12.867
  362.297    0.358    0.162  103.993   13.375
  362.597    0.370    0.143   92.207   14.728
  362.897    0.354    0.105   73.601   15.308
  363.197    0.327    0.065   82.888   16.222
  363.497    0.328    0.118   84.116   16.230
  363.797    0.340    0.174   84.109   16.234
  364.097    0.358    0.184   82.240   15.628
  364.397    0.365    0.172   82.852   16.884
  364.697    0.329    0.153   77.883   17.892
  364.997    0.313    0.179   71.052   17.895
  365.297    0.322    0.211   64.849   16.578
  365.597    0.349    0.222   61.119   13.956
  365.897    0.323    0.131  101.397   12.929
  366.197    0.322    0.065  107.584   11.977
  366.497    0.348    0.074   98.900   12.693
  366.797    0.407    0.158   61.701   14.523
  367.097    0.405    0.274   53.013   17.602
  367.397    0.394    0.296   51.145   21.745
  367.697    0.384    0.279   53.615   28.458
  367.997    0.380    0.250   62.283   30.738
  368.297    0.381    0.247   74.047   19.777
  368.597    0.382    0.197   88.295   14.836
  368.897    0.414    0.024   97.582   10.711
  369.197    0.391    0.000   99.432    9.368
  369.497    0.359    0.089  105.622    9.018
  369.797    0.362    0.122  117.389    9.376
  370.097    0.371    0.135  120.478    9.560
  370.397    0.370    0.161  123.565   10.131
  370.697    0.357    0.145  125.416   10.736
  370.997    0.359    0.138  127.266   11.158
  371.297    0.380    0.146  124.157   11.824
  371.597    0.390    0.154  119.191   13.019
  371.897    0.343    0.161  118.561   14.062
  372.197    0.375    0.179   42.932   15.786
  372.497    0.456    0.103   19.370   21.058
  372.797    0.113    0.000   17.500   35.365
  373.097    0.084    0.000   19.972   62.912
  373.397    0.112    0.000   21.822   80.772
  373.697    0.138    0.005   20.571  101.716
  373.997    0.157    0.034   16.224  118.647
  374.297    0.174    0.040   16.831  128.162
  374.597    0.183    0.046   13.102  135.805
  374.897    0.188    0.083   10.616  141.160
  375.197    0.177    0.036   13.085  152.488
  375.497    0.161    0.012   16.174  164.717
  375.797    0.156    0.000   17.406  184.881
  376.097    0.182    0.026   14.917  203.586
  376.397    0.197    0.075   14.905  215.730
  376.697    0.210    0.090   17.997  228.597
