~VERSION INFORMATION
 VERS.                 2.0:   CWLS LOG ASCII STANDARD -VERSION 2.0
 WRAP.                  NO:   ONE LINE PER DEPTH STEP
~WELL INFORMATION BLOCK
#MNEM.UNIT           DATA                    DESCRIPTION OF MNEMONIC
#---------    -------------------            -------------------------------
# Generated from Intellog Unique Number	CN_94_101/WELL/5009
WELL.         10-30-097-07W4                 : Well_name    - WELL
LOC .         AA/10-30-097-07W4/0            : Location     - LOCATION
UWI .         AA/10-30-097-07W400            : Uwi          - UNIQUE WELL ID
ENTR.         T                              : Entered      - ENTERED BY
SRVC.         SCHLUMBERGER                   : Scn          - SERVICE COMPANY
DATE.         08/11/92                       : Date         - LOG DATE
STRT.M        0                              : top_depth    - START DEPTH
STOP.M        110                            : bot_depth    - STOP DEPTH
STEP.M        0.25                           : increment    - STEP LENGTH
 NULL. -999.2500:NULL Value
~CURVE INFORMATION BLOCK
#MNEM UNIT       ERCB CURVE CODE    CURVE DESCRIPTION
#-----------   ------------------   ----------------------------------
DEPT.M        00 001 00 00         : DEPTH        - DEPTH
DPHI.V/V      00 890 00 00         : PHID         - DENSITY POROSITY (SANDSTONE)
NPHI.V/V      00 330 00 00         : PHIN         - NEUTRON POROSITY (SANDSTONE)
ILD .OHMM     00 120 00 00         : RESD         - DEEP RESISTIVITY (DIL)
GR  .API      00 310 00 00         : GR           - GAMMA RAY
~PARAMETER INFORMATION
#MNEM.UNIT           DATA             DESCRIPTION OF MNEMONIC
#---------         -----------     ------------------------------
GL  .M        299.6                : gl           - GROUND LEVEL ELEVATION
EREF.M        299.6                : kb           - ELEVATION OF DEPTH REFERENCE
DATM.M        299.6                : datum        - DATUM ELEVATION
TDD .M        115.2                : tdd          - TOTAL DEPTH DRILLER
RUN .         ONE                  : Run          - RUN NUMBER
ENG .         BILL                 : Engineer     - RECORDING ENGINEER
WIT .         JIM                  : Witness      - WITNESSED BY
MUD .         GEL                  : Mud_type     - MUD TYPE
MATR.         SANDSTONE            : Logunit      - NEUTRON MATRIX
TMAX.C        14.2                 : BHT          - MAXIMUM RECORDED TEMPERATURE
BHTD.M        115                  : BHTDEP       - MAXIMUM RECORDED TEMPERATURE
RMT .C        14.5                 : MDTP         - TEMPERATURE OF MUD
MUDD.KG/M     1022                 : MWT          - MUD DENSITY
NEUT.         1                    : NEUTRON      - NEUTRON TYPE
RESI.         0                    : RESIST       - RESISTIVITY TYPE
RM  .OHMM     14.6                 : RM           - RESISTIVITY OF MUD
RMC .OHMM     7.81                 : RMC          - RESISTIVITY OF MUD CAKE
RMF .OHMM     11.3                 : RMF          - RESISTIVITY OF MUD FILTRATE
SUFT.C        4                    : SUFT         - SURFACE TEMPERATURE
~A  DEPTH     PHID     PHIN     RESD       GR
# ...
   87.000    0.312    0.532  374.158  144.458
   87.250    0.332    0.534  461.944  153.157
   87.500    0.331    0.528  554.438  149.957
   87.750    0.276    0.515  629.070  142.999
   88.000    0.251    0.513  713.337  116.608
   88.250    0.267    0.505  732.936  101.490
   88.500    0.297    0.493  742.296   99.542
   88.750    0.310    0.472  741.868  104.467
   89.000    0.328    0.455  740.802  102.536
   89.250    0.344    0.440  739.524  106.852
   89.500    0.351    0.463  749.398  104.887
   89.750    0.354    0.463  759.186  104.836
   90.000    0.354    0.453  768.881  102.871
   90.250    0.354    0.458  768.218  100.923
   90.500    0.356    0.467  767.334  105.256
   90.750    0.356    0.475  766.672  106.405
   91.000    0.350    0.478  744.240  105.745
   91.250    0.348    0.467  722.465  104.423
   91.500    0.345    0.464  711.920  104.354
   91.750    0.345    0.463  691.290  101.763
   92.000    0.345    0.460  680.808  105.470
   92.250    0.345    0.457  661.079  109.768
   92.500    0.347    0.456  651.055  112.222
   92.750    0.347    0.455  640.815  119.669
   93.000    0.348    0.460  640.262  120.853
   93.250    0.348    0.465  639.341  113.268
   93.500    0.345    0.469  638.789  107.545
   93.750    0.342    0.477  637.687  123.778
   94.000    0.341    0.481  628.199  125.605
   94.250    0.344    0.475  627.476  111.741
   94.500    0.349    0.461  609.118  106.661
   94.750    0.350    0.463  600.054  100.938
   95.000    0.348    0.465  591.126   99.617
   95.250    0.338    0.464  565.618  113.971
   95.500    0.338    0.452  557.202  115.764
   95.750    0.337    0.432  556.721  109.449
   96.000    0.332    0.440  540.277  104.962
   96.250    0.326    0.446  539.811  107.416
   96.500    0.321    0.449  531.779  106.703
   96.750    0.321    0.446  523.716  111.680
   97.000    0.318    0.421  508.539  110.967
   97.250    0.312    0.418  493.660  108.393
   97.500    0.303    0.420  472.630  113.961
   97.750    0.303    0.425  427.511  111.997
   98.000    0.303    0.430  386.921  110.049
   98.250    0.303    0.433  295.492  115.025
   98.500    0.302    0.421  126.374  127.483
   98.750    0.297    0.421  108.060  141.210
   99.000    0.291    0.426  111.029  161.183
   99.250    0.284    0.429  162.452  163.637
   99.500    0.241    0.427  221.416  156.035
   99.750    0.223    0.421  429.742  149.704
  100.000    0.196    0.413  646.609  144.624
  100.250    0.085    0.407  894.101  138.258
  100.500   -0.007    0.404 1168.060  134.449
  100.750   -0.010    0.390 1462.630  128.726
  101.000   -0.011    0.351 1683.120  123.020
  101.250   -0.011    0.342 1804.240  118.550
  101.500   -0.014    0.332 1880.190  124.762
  101.750   -0.017    0.331 1851.680  125.946
  102.000   -0.018    0.328 1771.270  123.981
  102.250   -0.018    0.329 1745.410  123.286
  102.500   -0.017    0.329 1718.450  121.982
  102.750   -0.017    0.329 1692.880  121.269
  103.000   -0.015    0.329 1666.260  121.844
  103.250   -0.015    0.329 1641.940  124.281
  103.500   -0.014    0.329 1617.040  126.091
  103.750   -0.014    0.328 1615.180  126.648
  104.000   -0.014    0.328 1612.860  126.562
  104.250   -0.014    0.328 1587.940  127.120
  104.500   -0.014    0.328 1541.930  127.678
  104.750   -0.013    0.328 1519.420  128.252
  105.000   -0.013    0.330 1496.380  130.063
  105.250   -0.013    0.330 1494.660  131.873
  105.500   -0.013    0.330 1451.350  132.430
  105.750   -0.013    0.330 1312.800  133.614
  106.000   -0.012    0.330 1171.150  135.425
  106.250   -0.010    0.329  933.130  137.844
  106.500   -0.010    0.327  702.432  142.194
  106.750   -0.009    0.327  592.212  138.976
  107.000   -0.009    0.328  506.389  133.880
  107.250   -0.009    0.329  439.166  133.811
  107.500   -0.010    0.332  370.042  136.248
  107.750   -0.011    0.333  334.812  144.982
  108.000   -0.011    0.333  320.641  151.785
  108.250   -0.009    0.337  298.258  149.211
  108.500   -0.009    0.343  289.698  147.890
  108.750   -0.008    0.350  277.436  147.838
  109.000   -0.008    0.356  323.710  148.396
  109.250   -0.008    0.361  754.734  148.954
  109.500   -0.008    0.366  797.924  145.110
  109.750   -0.007    0.370  774.802  139.387
  110.000   -0.009    0.371  711.012  136.830
