~VERSION INFORMATION
 VERS.                 2.0:   CWLS LOG ASCII STANDARD -VERSION 2.0
 WRAP.                  NO:   ONE LINE PER DEPTH STEP
~WELL INFORMATION BLOCK
#MNEM.UNIT           DATA                    DESCRIPTION OF MNEMONIC
#---------    -------------------            -------------------------------
# Generated from Intellog Unique Number	CN_91_93/WELL/2890
WELL.         10-29-092-16W4                 : Well_name    - WELL
LOC .         AA/10-29-092-16W4/0            : Location     - LOCATION
UWI .         AA/10-29-092-16W400            : Uwi          - UNIQUE WELL ID
ENTR.         JOETTE                         : Entered      - ENTERED BY
SRVC.         SCHLUMBERGER                   : Scn          - SERVICE COMPANY
DATE.         03/31/92                       : Date         - LOG DATE
STRT.F        220                            : top_depth    - START DEPTH
STOP.F        780.203                        : bot_depth    - STOP DEPTH
STEP.F        0.82                           : increment    - STEP LENGTH
 NULL. -999.2500:NULL Value
~CURVE INFORMATION BLOCK
#MNEM UNIT       ERCB CURVE CODE    CURVE DESCRIPTION
#-----------   ------------------   ----------------------------------
DEPT.F        00 001 00 00         : DEPTH        - DEPTH
CALI.IN       00 280 01 00         : CAL          - CALIPER
GR  .API      00 310 00 00         : GR           - GAMMA RAY
NPHI.V/V      00 330 00 00         : PHIN         - NEUTRON POROSITY (SANDSTONE)
DPHI.V/V      00 890 00 00         : PHID         - DENSITY POROSITY (SANDSTONE)
ILD .OHMM     00 120 00 00         : RESD         - DEEP RESISTIVITY (DIL)
~PARAMETER INFORMATION
#MNEM.UNIT           DATA             DESCRIPTION OF MNEMONIC
#---------         -----------     ------------------------------
GL  .M        490.21               : gl           - GROUND LEVEL ELEVATION
EREF.M        493.319              : kb           - ELEVATION OF DEPTH REFERENCE
DATM.M        493.319              : datum        - DATUM ELEVATION
TDD .M        246.888              : tdd          - TOTAL DEPTH DRILLER
RUN .         ONE                  : Run          - RUN NUMBER
ENG .         BILL                 : Engineer     - RECORDING ENGINEER
WIT .         JIM                  : Witness      - WITNESSED BY
MUD .         GEL                  : Mud_type     - MUD TYPE
MATR.         SANDSTONE            : Logunit      - NEUTRON MATRIX
TMAX.F        82                   : BHT          - MAXIMUM RECORDED TEMPERATURE
BHTD.F        810                  : BHTDEP       - MAXIMUM RECORDED TEMPERATURE
RMT .F        60                   : MDTP         - TEMPERATURE OF MUD
MUDD.LB/G     8.6                  : MWT          - MUD DENSITY
NEUT.         1                    : NEUTRON      - NEUTRON TYPE
RESI.         0                    : RESIST       - RESISTIVITY TYPE
RM  .OHMM     0.81                 : RM           - RESISTIVITY OF MUD
RMC .OHMM     0.81                 : RMC          - RESISTIVITY OF MUD CAKE
RMF .OHMM     0.81                 : RMF          - RESISTIVITY OF MUD FILTRATE
SUFT.F        39.2                 : SUFT         - SURFACE TEMPERATURE
~A  DEPTH      CAL       GR     PHIN     PHID     RESD
# ...
  339.751    6.117   99.431    0.560    0.286    7.445
  340.571    6.119   96.363    0.570    0.275    9.496
  341.391    6.120   90.216    0.557    0.246   10.626
  342.211    6.122   86.536    0.517    0.185   10.626
  343.031    6.164   86.558    0.474    0.181   11.669
  343.852    6.248   87.196    0.467    0.225   17.615
  344.672    6.250   85.367    0.478    0.226   29.754
  345.492    6.292   76.752    0.476    0.154   58.375
  346.312    6.294   66.288    0.453    0.013  220.528
  347.133    6.295   60.141    0.431   -0.021   75.870
  347.953    6.338   55.850    0.425   -0.001   57.297
  348.773    6.340   58.333    0.418    0.022   49.330
  349.593    6.341   60.822    0.426    0.065   42.470
  350.413    6.342   63.928    0.440    0.113   31.479
  351.234    6.344   66.416    0.464    0.165   22.474
  352.054    6.345   73.840    0.471    0.184   17.620
  352.874    6.346   79.413    0.482    0.203   13.060
  353.694    6.348   86.837    0.490    0.262   14.076
  354.514    6.350   86.257    0.501    0.267   13.559
  355.335    6.392   83.806    0.512    0.273   11.674
  356.155    6.394   81.355    0.526    0.273   11.037
  356.975    6.395   81.993    0.518    0.278   12.820
  357.795    6.396   83.865    0.512    0.281   17.297
  358.615    6.398   81.419    0.497    0.282   24.686
  359.436    6.359   77.745    0.473    0.287   30.904
  360.256    6.359   74.060    0.423    0.263   27.622
  361.076    6.361   71.614    0.392    0.201   22.907
  361.896    6.363   74.108    0.403    0.144   18.644
  362.717    6.364   79.059    0.413    0.252   14.346
  363.537    6.365   87.099    0.430    0.283    8.985
  364.357    6.408   94.523    0.469    0.287    9.328
  365.177    6.409  101.340    0.493    0.289    5.420
  365.997    6.410  101.362    0.489    0.301    3.524
  366.818    6.413   99.533    0.484    0.305    5.627
  367.638    6.414   98.321    0.488    0.258    4.755
  368.458    6.416   99.576    0.503    0.230    3.332
  369.278    6.417  105.760    0.514    0.234    3.395
  370.098    6.377  111.339    0.516    0.274    3.459
  370.919    6.378  111.360    0.514    0.330    3.459
  371.739    6.380  113.227    0.511    0.350    3.459
  372.559    6.381  113.254    0.512    0.358    3.525
  373.379    6.383  115.120    0.517    0.371    3.729
  374.199    6.384  113.291    0.518    0.358    4.756
  375.020    6.386  112.084    0.516    0.342    6.298
  375.840    6.387  114.579    0.512    0.280    6.788
  376.660    6.388  112.133    0.510    0.286    6.788
  377.480    6.390  109.681    0.510    0.294    6.662
  378.301    6.391  105.385    0.511    0.269    5.955
  379.121    6.393  101.705    0.516    0.261    5.736
  379.941    6.395  101.732    0.521    0.256    5.224
  380.761    6.396  105.460    0.522    0.254    5.127
  381.581    6.398  106.088    0.519    0.264    5.323
  382.402    6.440  106.109    0.529    0.252    6.068
  383.222    6.442  104.280    0.543    0.249    7.597
  384.042    6.443   99.367    0.556    0.263    8.342
  384.862    6.485   89.519    0.504    0.274    9.334
  385.682    6.528   81.527    0.486    0.258   10.060
  386.503    6.611   78.459    0.489    0.240    9.162
  387.323    6.695   79.714    0.487    0.277    4.583
  388.143    6.697   87.137    0.489    0.294    4.021
  388.963    6.699   92.093    0.499    0.316    5.225
  389.783    6.658   91.503    0.508    0.332    6.665
  390.604    6.578   87.824    0.499    0.349    8.663
  391.424    6.538   82.288    0.488    0.344   10.446
  392.244    6.458   77.380    0.494    0.283    9.513
  393.064    6.459   76.168    0.500    0.238    8.663
  393.885    6.460   81.130    0.502    0.238    6.920
  394.705    6.462   86.081    0.501    0.265    5.739
  395.525    6.464   93.504    0.504    0.275    5.227
  396.345    6.465   99.694    0.510    0.269    5.035
  397.165    6.466   99.716    0.518    0.266    5.426
  397.986    6.467   97.892    0.522    0.264    5.633
  398.806    6.469   99.764    0.520    0.262    5.848
  399.626    6.471  100.402    0.535    0.256    5.740
  400.446    6.472   99.195    0.534    0.272    5.529
  401.266    6.473   98.594    0.532    0.310    4.942
  402.087    6.475   98.004    0.556    0.341    4.851
  402.907    6.476   95.553    0.595    0.369    5.327
  403.727    6.478   94.341    0.655    0.456    5.530
  404.547    6.479   99.914    0.639    0.485    5.635
  405.367    6.481  103.020    0.586    0.373    5.428
  406.188    6.482  103.658    0.546    0.334    5.131
  407.008    6.443  102.446    0.558    0.260    5.742
  407.828    6.444   99.383    0.568    0.271    8.042
  408.648    6.445   98.793    0.565    0.277   10.068
  409.469    6.488   98.198    0.548    0.269   10.259
  410.289    6.530   98.836    0.530    0.270    7.747
  411.109    6.574  100.708    0.497    0.275    5.851
  411.929    6.574  103.197    0.488    0.276    4.502
  412.749    6.659  108.148    0.505    0.262    4.419
  413.570    6.660  111.881    0.527    0.264    4.852
  414.390    6.702  109.435    0.542    0.276    5.230
  415.210    6.745  109.451    0.549    0.288    5.038
  416.030    6.747  111.940    0.553    0.246    4.419
  416.850    6.748  113.812    0.559    0.187    4.178
  417.671    6.749  115.067    0.565    0.201    4.178
  418.491    6.751  121.879    0.569    0.229    4.178
  419.311    6.752  123.134    0.573    0.253    4.178
  420.131    6.713  126.851    0.574    0.278    4.178
  420.951    6.714  129.340    0.571    0.258    4.179
  421.772    6.674  125.044    0.558    0.244    4.179
  422.592    6.675  119.514    0.546    0.269    4.179
  423.412    6.636  115.839    0.538    0.290    4.589
  424.232    6.596  112.777    0.527    0.307    4.589
  425.052    6.556  112.798    0.514    0.267    4.102
  425.873    6.435  114.670    0.520    0.263    4.179
  426.693    6.395  114.692    0.528    0.268    4.764
  427.513    6.314  107.311    0.519    0.258    6.428
  428.333    6.315   98.080    0.508    0.254    5.854
  429.154    6.235   98.101    0.509    0.257    6.429
  429.974    6.196  107.375    0.520    0.255    8.200
  430.794    6.197  109.864    0.530    0.255   10.076
  431.614    6.157  108.035    0.521    0.232   10.076
  432.434    6.159  107.440    0.505    0.230   10.267
  433.255    6.161  111.162    0.493    0.232   11.065
  434.075    6.162  113.651    0.471    0.234   11.926
  434.895    6.163  113.056    0.458    0.237   13.344
  435.715    6.164  108.143    0.455    0.243   13.596
  436.535    6.166  101.996    0.471    0.245   14.116
  437.356    6.167   98.316    0.482    0.248   15.501
  438.176    6.168   97.721    0.474    0.226   16.706
  438.996    6.170   97.125    0.458    0.184   14.932
  439.816    6.172   94.685    0.455    0.172   10.079
  440.636    6.173   93.467    0.454    0.158    9.892
  441.457    6.175   94.111    0.449    0.136   10.270
  442.277    6.176   94.749    0.451    0.239   10.270
  443.097    6.178  100.322    0.460    0.207   10.080
  443.917    6.179  106.512    0.474    0.201    9.710
  444.738    6.181  110.240    0.489    0.208    9.710
  445.558    6.182  107.789    0.483    0.196    9.710
  446.378    6.183  107.193    0.474    0.183   10.081
  447.198    6.185  108.454    0.478    0.180   10.272
  448.018    6.186  108.475    0.489    0.188   10.664
  448.839    6.187  109.113    0.486    0.200   11.280
  449.659    6.189  112.214    0.479    0.234   11.494
  450.479    6.190  113.474    0.490    0.246   11.932
  451.299    6.192  108.561    0.483    0.241   12.158
  452.119    6.194  105.498    0.469    0.231   12.159
  452.940    6.195  102.441    0.452    0.215   11.712
  453.760    6.196  100.612    0.435    0.222   13.862
  454.580    6.198  100.011    0.437    0.241   15.510
  455.400    6.200   99.416    0.447    0.238   12.624
  456.220    6.201   97.592    0.439    0.213   11.713
  457.041    6.202   95.151    0.428    0.187   12.390
  457.861    6.204   93.929    0.436    0.243   11.935
  458.681    6.205   93.333    0.454    0.266   10.869
