~VERSION INFORMATION
 VERS.                 2.0:   CWLS LOG ASCII STANDARD -VERSION 2.0
 WRAP.                  NO:   ONE LINE PER DEPTH STEP
~WELL INFORMATION BLOCK
#MNEM.UNIT           DATA                    DESCRIPTION OF MNEMONIC
#---------    -------------------            -------------------------------
# Generated from Intellog Unique Number	CW_79_81/WELL/2481
WELL.         GAD JOLI FOU OV                : Well_name    - WELL
LOC .         AA/11-08-081-19W4/0            : Location     - LOCATION
UWI .         AA/11-08-081-19W400            : Uwi          - UNIQUE WELL ID
ENTR.         MAX                            : Entered      - ENTERED BY
SRVC.         SCHLUMBERGER                   : Scn          - SERVICE COMPANY
STRT.M        175                            : top_depth    - START DEPTH
STOP.M        370                            : bot_depth    - STOP DEPTH
STEP.M        0.25                           : increment    - STEP LENGTH
 NULL. -999.2500:NULL Value
~CURVE INFORMATION BLOCK
#MNEM UNIT       ERCB CURVE CODE    CURVE DESCRIPTION
#-----------   ------------------   ----------------------------------
DEPT.M        00 001 00 00         : DEPTH        - DEPTH
ILD .OHMM     00 120 00 00         : RESD         - DEEP RESISTIVITY (DIL)
NPHI.V/V      00 330 00 00         : PHIN         - NEUTRON POROSITY (SANDSTONE)
DPHI.V/V      00 890 00 00         : PHID         - DENSITY POROSITY (SANDSTONE)
GR  .API      00 310 00 00         : GR           - GAMMA RAY
CALI.MM       00 280 01 00         : CAL          - CALIPER
~PARAMETER INFORMATION
#MNEM.UNIT           DATA             DESCRIPTION OF MNEMONIC
#---------         -----------     ------------------------------
GL  .M        580.5                : gl           - GROUND LEVEL ELEVATION
EREF.M        584                  : kb           - ELEVATION OF DEPTH REFERENCE
DATM.M        580.5                : datum        - DATUM ELEVATION
TDD .M        374                  : tdd          - TOTAL DEPTH DRILLER
RUN .         ONE                  : Run          - RUN NUMBER
ENG .         BILL                 : Engineer     - RECORDING ENGINEER
WIT .         JIM                  : Witness      - WITNESSED BY
MUD .         GEL                  : Mud_type     - MUD TYPE
MATR.         SANDSTONE            : Logunit      - NEUTRON MATRIX
TMAX.C        25.5                 : BHT          - MAXIMUM RECORDED TEMPERATURE
BHTD.M        374                  : BHTDEP       - MAXIMUM RECORDED TEMPERATURE
MATR.         1                    : LOGUNIT      - NEUTRON MATRIX
RMT .C        18.8                 : MDTP         - TEMPERATURE OF MUD
NEUT.         1                    : NEUTRON      - NEUTRON TYPE
RESI.         0                    : RESIST       - RESISTIVITY TYPE
RMC .OHMM     3.74                 : RMC          - RESISTIVITY OF MUD CAKE
RMF .OHMM     3.212                : RMF          - RESISTIVITY OF MUD FILTRATE
SUFT.C        -20                  : SUFT         - SURFACE TEMPERATURE
~A  DEPTH     RESD     PHIN     PHID       GR      CAL
# ...
  248.000   18.194    0.482    0.358   41.433  261.016
  248.250   18.332    0.479    0.360   42.731  260.528
  248.500   18.334    0.458    0.358   43.230  260.108
  248.750   18.337    0.446    0.354   43.709  259.704
  249.000   18.441    0.436    0.350   43.106  259.300
  249.250   18.580    0.443    0.347   42.143  258.896
  249.500   18.686    0.464    0.348   41.901  258.493
  249.750   18.689    0.474    0.353   44.121  257.755
  250.000   18.692    0.451    0.352   45.620  256.083
  250.250   18.694    0.438    0.338   42.015  254.078
  250.500   18.593    0.446    0.330   40.932  255.076
  250.750   18.458    0.471    0.331   41.170  257.475
  251.000   18.358    0.499    0.336   42.129  259.573
  251.250   18.361    0.499    0.333   43.758  259.569
  251.500   18.363    0.483    0.330   43.506  259.566
  251.750   18.230    0.471    0.332   41.822  261.564
  252.000   18.199    0.470    0.337   40.319  262.962
  252.250   18.201    0.472    0.344   39.236  265.761
  252.500   18.169    0.473    0.350   38.573  270.462
  252.750   18.010    0.475    0.354   37.890  276.981
  253.000   17.874    0.481    0.347   36.887  281.565
  253.250   17.876    0.485    0.346   37.365  275.957
  253.500   17.779    0.486    0.348   38.564  273.951
  253.750   17.650    0.487    0.347   39.403  273.347
  254.000   17.555    0.485    0.342   39.702  271.443
  254.250   17.558    0.470    0.335   40.380  263.198
  254.500   17.560    0.446    0.335   41.379  254.019
  254.750   17.562    0.454    0.341   44.019  252.815
  255.000   17.467    0.453    0.341   48.281  254.012
  255.250   17.406    0.448    0.338   50.441  255.410
  255.500   17.409    0.446    0.332   50.018  256.107
  255.750   17.383    0.458    0.323   49.976  256.504
  256.000   17.252    0.476    0.323   50.975  256.501
  256.250   17.254    0.489    0.321   54.336  258.099
  256.500   17.352    0.501    0.325   57.697  261.799
  256.750   17.547    0.506    0.326   60.218  266.600
  257.000   18.279    0.495    0.321   61.477  271.000
  257.250   21.779    0.428    0.290   61.124  272.915
  257.500   28.729    0.331    0.225   59.370  272.495
  257.750   34.664    0.239    0.180   56.246  268.488
  258.000   41.101    0.192    0.069   53.121  265.081
  258.250   47.594    0.169    0.003   48.554  261.875
  258.500   52.757    0.162    0.009   42.487  259.469
  258.750   54.525    0.191    0.041   36.739  259.382
  259.000   57.575    0.239    0.061   39.240  258.962
  259.250   52.634    0.275    0.092   44.282  256.956
  259.500   34.465    0.360    0.179   46.082  254.651
  259.750   23.180    0.437    0.275   46.560  253.046
  260.000   17.746    0.480    0.340   46.798  252.442
  260.250   15.758    0.494    0.347   46.986  252.438
  260.500   15.050    0.485    0.360   46.734  252.435
  260.750   14.611    0.476    0.348   46.492  253.232
  261.000   14.346    0.473    0.343   46.249  253.729
  261.250   14.189    0.477    0.342   45.767  254.527
  261.500   14.113    0.483    0.342   44.864  255.825
  261.750   14.115    0.479    0.331   43.621  257.422
  262.000   14.118    0.477    0.324   44.620  257.419
  262.250   14.223    0.482    0.327   46.779  257.015
  262.500   14.490    0.487    0.330   47.858  256.311
  262.750   15.139    0.486    0.329   48.697  255.907
  263.000   15.960    0.476    0.323   49.776  255.904
  263.250   16.081    0.452    0.317   51.716  255.900
  263.500   16.083    0.445    0.315   54.216  255.897
  263.750   16.204    0.451    0.317   54.454  255.893
  264.000   16.327    0.449    0.320   53.251  255.890
  264.250   16.451    0.444    0.320   51.447  256.087
  264.500   16.575    0.448    0.315   49.824  256.584
  264.750   16.701    0.479    0.313   49.451  257.214
  265.000   16.703    0.490    0.314   51.201  256.377
  265.250   16.705    0.475    0.310   54.801  255.973
  265.500   16.337    0.462    0.315   54.259  255.269
  265.750   15.922    0.449    0.317   51.855  254.265
  266.000   15.633    0.439    0.314   50.592  252.760
  266.250   15.544    0.447    0.314   54.243  250.437
  266.500   15.667    0.458    0.315   54.491  250.850
  266.750   15.669    0.473    0.310   52.087  255.651
  267.000   15.324    0.463    0.311   53.106  257.750
  267.250   14.879    0.452    0.317   54.786  258.547
  267.500   14.502    0.454    0.324   55.684  258.744
  267.750   14.247    0.478    0.325   55.682  258.256
  268.000   14.031    0.495    0.323   55.680  257.836
  268.250   13.621    0.505    0.320   55.918  257.432
  268.500   13.225    0.511    0.315   56.517  257.029
  268.750   12.986    0.506    0.313   56.395  256.425
  269.000   13.080    0.492    0.316   55.432  255.721
  269.250   13.761    0.478    0.323   54.418  255.317
  269.500   13.657    0.482    0.322   54.166  255.313
  269.750   13.458    0.466    0.321   53.683  255.310
  270.000   13.410    0.455    0.328   53.742  255.307
  270.250   13.412    0.455    0.332   54.220  255.303
  270.500   13.438    0.461    0.329   54.939  255.300
  270.750   13.561    0.452    0.325   55.907  255.296
  271.000   13.668    0.438    0.322   57.156  255.292
  271.250   13.771    0.433    0.325   59.556  255.289
  271.500   13.799    0.440    0.326   59.614  255.286
  271.750   13.749    0.455    0.326   58.291  255.483
  272.000   13.675    0.470    0.323   56.728  255.880
  272.250   13.698    0.475    0.313   56.195  256.276
  272.500   13.806    0.456    0.303   55.943  256.272
  272.750   14.013    0.453    0.314   55.941  255.869
  273.000   13.217    0.460    0.320   56.840  255.465
  273.250   12.754    0.468    0.318   58.520  255.262
  273.500   12.755    0.474    0.310   60.739  255.358
  273.750   12.399    0.478    0.299   63.539  255.838
  274.000   12.025    0.477    0.286   65.539  256.252
  274.250   11.330    0.474    0.272   67.219  255.848
  274.500   10.374    0.458    0.268   68.178  255.444
  274.750    9.272    0.446    0.271   68.056  255.241
  275.000    8.269    0.452    0.276   67.993  255.437
  275.250    7.539    0.484    0.279   70.383  256.317
  275.500    7.368    0.509    0.269   69.130  256.731
  275.750    7.424    0.502    0.274   66.485  257.529
  276.000    7.521    0.490    0.281   65.282  258.026
  276.250    7.606    0.477    0.280   65.401  258.423
  276.500    7.706    0.465    0.271   66.240  258.720
  276.750    7.976    0.454    0.264   66.567  258.716
  277.000    8.164    0.453    0.262   65.815  258.713
  277.250    8.348    0.449    0.268   66.773  257.909
  277.500    8.489    0.449    0.264   68.633  256.805
  277.750    8.554    0.455    0.258   69.592  254.599
  278.000    8.507    0.466    0.256   70.190  251.493
  278.250    8.230    0.471    0.258   72.460  248.936
  278.500    7.801    0.478    0.257   68.204  250.184
  278.750    7.461    0.471    0.254   70.605  249.781
  279.000    7.136    0.461    0.248   74.987  255.683
  279.250    6.905    0.452    0.241   79.069  262.085
  279.500    6.755    0.447    0.236   80.868  265.986
  279.750    6.597    0.453    0.231   77.953  267.099
  280.000    6.548    0.472    0.226   74.197  266.679
  280.250    6.549    0.474    0.223   71.073  264.674
  280.500    6.622    0.466    0.230   68.488  262.669
  280.750    6.795    0.456    0.240   66.324  261.264
  281.000    7.028    0.451    0.249   64.701  260.559
  281.250    7.198    0.457    0.253   63.977  259.905
  281.500    7.255    0.470    0.247   63.976  258.650
  281.750    7.256    0.465    0.243   65.655  257.847
  282.000    7.460    0.451    0.252   67.875  258.243
  282.250    7.825    0.437    0.258   68.233  258.640
  282.500    8.203    0.432    0.254   66.550  258.637
  282.750    8.265    0.446    0.242   64.966  258.633
  283.000    8.266    0.448    0.229   65.465  258.629
  283.250    8.206    0.467    0.214   66.904  258.627
  283.500    8.101    0.462    0.205   70.325  258.623
  283.750    8.013    0.452    0.205   73.686  258.419
  284.000    7.955    0.454    0.219   76.086  258.116
  284.250    7.957    0.479    0.253   76.615  258.028
