~VERSION INFORMATION
 VERS.                 2.0:   CWLS LOG ASCII STANDARD -VERSION 2.0
 WRAP.                  NO:   ONE LINE PER DEPTH STEP
~WELL INFORMATION BLOCK
#MNEM.UNIT           DATA                    DESCRIPTION OF MNEMONIC
#---------    -------------------            -------------------------------
# Generated from Intellog Unique Number	CN_94_101/WELL/4999
WELL.         10-01-098-08W4                 : Well_name    - WELL
LOC .         AA/10-01-098-08W4/0            : Location     - LOCATION
UWI .         AA/10-01-098-08W400            : Uwi          - UNIQUE WELL ID
ENTR.         TIM                            : Entered      - ENTERED BY
SRVC.         SCHLUMBERGER                   : Scn          - SERVICE COMPANY
DATE.         08/11/92                       : Date         - LOG DATE
STRT.M        0                              : top_depth    - START DEPTH
STOP.M        65                             : bot_depth    - STOP DEPTH
STEP.M        0.25                           : increment    - STEP LENGTH
 NULL. -999.2500:NULL Value
~CURVE INFORMATION BLOCK
#MNEM UNIT       ERCB CURVE CODE    CURVE DESCRIPTION
#-----------   ------------------   ----------------------------------
DEPT.M        00 001 00 00         : DEPTH        - DEPTH
GR  .API      00 310 00 00         : GR           - GAMMA RAY
ILD .OHMM     00 120 00 00         : RESD         - DEEP RESISTIVITY (DIL)
NPHI.V/V      00 330 00 00         : PHIN         - NEUTRON POROSITY (SANDSTONE)
DPHI.V/V      00 890 00 00         : PHID         - DENSITY POROSITY (SANDSTONE)
~PARAMETER INFORMATION
#MNEM.UNIT           DATA             DESCRIPTION OF MNEMONIC
#---------         -----------     ------------------------------
GL  .M        290.6                : gl           - GROUND LEVEL ELEVATION
EREF.M        290.6                : kb           - ELEVATION OF DEPTH REFERENCE
DATM.M        290.6                : datum        - DATUM ELEVATION
TDD .M        71                   : tdd          - TOTAL DEPTH DRILLER
RUN .         ONE                  : Run          - RUN NUMBER
ENG .         BILL                 : Engineer     - RECORDING ENGINEER
WIT .         JIM                  : Witness      - WITNESSED BY
MUD .         GEL                  : Mud_type     - MUD TYPE
MATR.         SANDSTONE            : Logunit      - NEUTRON MATRIX
TMAX.C        10                   : BHT          - MAXIMUM RECORDED TEMPERATURE
BHTD.M        71                   : BHTDEP       - MAXIMUM RECORDED TEMPERATURE
RMT .C        10                   : MDTP         - TEMPERATURE OF MUD
MUDD.KG/M     1090                 : MWT          - MUD DENSITY
NEUT.         1                    : NEUTRON      - NEUTRON TYPE
RESI.         0                    : RESIST       - RESISTIVITY TYPE
RM  .OHMM     13.1                 : RM           - RESISTIVITY OF MUD
RMC .OHMM     13.1                 : RMC          - RESISTIVITY OF MUD CAKE
RMF .OHMM     13.1                 : RMF          - RESISTIVITY OF MUD FILTRATE
SUFT.C        4                    : SUFT         - SURFACE TEMPERATURE
~A  DEPTH       GR     RESD     PHIN     PHID
    0.000   18.747    0.000    0.628    0.027
    0.250   18.127    0.000    0.628    0.028
    0.500   16.884    0.000    0.628    0.030
    0.750   16.263    0.000    0.629    0.033
    1.000   16.268    0.000    0.632    0.036
    1.250   17.522    0.000    0.635    0.039
    1.500   18.776    0.000    0.637    0.040
    1.750   21.280    0.000    0.639    0.040
    2.000   21.911    0.000    0.639    0.039
    2.250   21.291    0.000    0.639    0.039
    2.500   19.422    0.000    0.639    0.039
    2.750   16.928    0.000    0.638    0.038
    3.000   15.682    0.000    0.638    0.038
    3.250   15.063    0.000    0.638    0.035
    3.500   16.318    0.000    0.638    0.034
    3.750   18.195    0.000    0.638    0.034
    4.000   23.825    0.000    0.640    0.036
    4.250   24.455    0.000    0.641    0.039
    4.500   21.962    0.000    0.642    0.045
    4.750   21.339    0.000    0.643    0.056
    5.000   18.846    0.000    0.645    0.338
    5.250   17.600    0.000    0.648    0.365
    5.500   16.358    0.000    0.653    0.374
    5.750   16.360    0.000    0.658    0.386
    6.000   16.366    0.000    0.666    0.400
    6.250   19.494    0.000    0.670    0.416
    6.500   24.499    0.000    0.669    0.422
    6.750   28.877    0.000    0.637    0.422
    7.000   38.879    0.000    0.622    0.424
    7.250   47.007    0.000    0.597    0.438
    7.500   51.385    0.000    0.589    0.463
    7.750   52.015    0.000    0.581    0.475
    8.000   51.397    0.000    0.573    0.478
    8.250   50.777    0.000    0.573    0.477
    8.500   48.906    0.000    0.582    0.477
    8.750   45.163    0.000    0.602    0.477
    9.000   43.294    0.000    0.621    0.474
    9.250   43.297    0.000    0.622    0.465
    9.500   45.178    9.702    0.608    0.455
    9.750   46.432    9.702    0.606    0.432
   10.000   43.939    9.234    0.595    0.426
   10.250   42.692    9.234    0.546    0.430
   10.500   40.823    9.234    0.542    0.435
   10.750   40.828    9.702    0.555    0.439
   11.000   41.457    9.702    0.574    0.440
   11.250   41.462   10.194    0.550    0.443
   11.500   40.219   10.194    0.543    0.451
   11.750   39.598   10.710    0.545    0.458
   12.000   38.353   11.253    0.554    0.453
   12.250   38.358   11.253    0.565    0.443
   12.500   38.363   10.710    0.553    0.434
   12.750   38.368    9.702    0.542    0.429
   13.000   38.373    9.702    0.550    0.441
   13.250   39.629    9.234    0.572    0.454
   13.500   40.258    9.234    0.559    0.468
   13.750   42.137    9.234    0.544    0.479
   14.000   46.515    9.234    0.552    0.475
   14.250   51.519    9.234    0.565    0.468
   14.500   51.524    8.788    0.580    0.464
   14.750   50.904    8.364    0.579    0.467
   15.000   51.535    8.364    0.556    0.452
   15.250   47.790    8.364    0.556    0.426
   15.500   28.425   10.194    0.557    0.386
   15.750   20.307   10.710    0.539    0.382
   16.000   20.312   15.906    0.544    0.376
   16.250   20.942   23.623    0.550    0.369
   16.500   18.448   33.391    0.509    0.365
   16.750   15.953   38.729    0.498    0.368
   17.000   14.710   38.729    0.503    0.375
   17.250   15.965   38.729    0.509    0.380
   17.500   17.844   40.692    0.503    0.377
   17.750   19.723   42.755    0.498    0.373
   18.000   19.105   44.921    0.500    0.369
   18.250   17.234   47.198    0.507    0.365
   18.500   15.364   49.590    0.511    0.360
   18.750   14.745   49.590    0.520    0.350
   19.000   13.500   60.434    0.536    0.357
   19.250   12.880   60.434    0.573    0.363
   19.500   12.260   66.715    0.593    0.376
   19.750   12.265   73.648    0.596    0.382
   20.000   11.645   77.381    0.575    0.390
   20.250   11.651   81.303    0.573    0.384
   20.500   11.656   89.753    0.584    0.349
   20.750   12.285   89.753    0.580    0.346
   21.000   12.290   85.423    0.574    0.362
   21.250   11.670   81.303    0.577    0.377
   21.500   11.050   77.381    0.581    0.388
   21.750   10.430   73.648    0.585    0.396
   22.000   10.435   73.648    0.591    0.395
   22.250    9.817   70.096    0.593    0.386
   22.500    9.197   63.497    0.589    0.368
   22.750    9.202   63.497    0.580    0.356
   23.000    9.831   60.434    0.571    0.362
   23.250   10.460   57.519    0.560    0.367
   23.500   12.339   57.519    0.544    0.373
   23.750   14.219   49.590    0.555    0.374
   24.000   16.723   47.198    0.566    0.366
   24.250   19.852   52.103    0.571    0.368
   24.500   22.358   57.519    0.567    0.336
   24.750   19.862   66.715    0.565    0.341
   25.000   17.368   70.096    0.555    0.355
   25.250   16.748   70.096    0.544    0.367
   25.500   16.128   73.648    0.531    0.366
   25.750   17.383   73.648    0.512    0.363
   26.000   18.637   73.648    0.504    0.353
   26.250   14.894   73.648    0.506    0.321
   26.500   14.274   73.648    0.509    0.276
   26.750   13.655   70.096    0.514    0.262
   27.000   13.659   70.096    0.517    0.254
   27.250   13.040   70.096    0.519    0.256
   27.500   11.795   66.715    0.519    0.249
   27.750   11.175   66.715    0.517    0.302
   28.000   11.804   66.715    0.513    0.329
   28.250   12.433   70.096    0.492    0.316
   28.500   13.063   70.096    0.491    0.283
   28.750   11.821   63.497    0.491    0.256
   29.000   11.823   60.434    0.495    0.261
   29.250   11.204   60.434    0.496    0.261
   29.500   11.210   57.519    0.493    0.255
   29.750   13.714   57.519    0.487    0.241
   30.000   15.593   54.744    0.487    0.234
   30.250   16.848   49.590    0.487    0.219
   30.500   13.728   49.590    0.486    0.223
   30.750   11.233   49.590    0.464    0.226
   31.000    9.364   49.590    0.461    0.231
   31.250    9.995   47.198    0.456    0.229
   31.500   11.874   44.921    0.454    0.228
   31.750   14.377   44.921    0.452    0.228
   32.000   19.382   44.921    0.453    0.218
   32.250   27.508   40.692    0.452    0.219
   32.500   48.757   27.399    0.451    0.215
   32.750   65.008   24.820    0.452    0.224
   33.000   57.515   23.623    0.455    0.239
   33.250   73.142   21.399    0.459    0.266
   33.500   62.525   20.366    0.464    0.296
   33.750   41.284   20.366    0.467    0.360
   34.000   27.543   21.399    0.475    0.411
   34.250   43.793   22.483    0.510    0.479
   34.500   88.787   23.623    0.536    0.472
   34.750  102.538   21.399    0.572    0.419
   35.000  115.040   11.253    0.663    0.317
   35.250  101.923   10.194    0.700    0.170
   35.500  104.427   10.194    0.707    0.184
   35.750  127.551   10.194    0.757    0.210
   36.000  123.807   10.194    0.807    0.234
   36.250  123.812   10.194    0.849    0.250
   36.500  131.939   10.710    0.876    0.257
   36.750  117.573   10.710    0.936    0.253
   37.000  107.581   10.710    0.948    0.247
   37.250  106.338   11.253    0.934    0.237
   37.500  105.718   11.253    0.897    0.233
   37.750  105.722   12.422    0.870    0.235
   38.000  106.351   13.052    0.639    0.236
   38.250  106.982   13.713    0.647    0.231
   38.500  105.113   15.139    0.657    0.222
   38.750  100.743   15.906    0.650    0.221
   39.000   92.625   19.384    0.642    0.220
   39.250   90.131   24.820    0.636    0.212
   39.500   84.512   33.391    0.629    0.202
   39.750   70.146  229.614    0.625    0.194
   40.000   47.033  377.958    0.622    0.191
   40.250   70.156  305.169    0.623    0.200
   40.500   70.161  337.408    0.624    0.211
   40.750   60.794  400.651    0.629    0.230
   41.000   45.803  462.429    0.630    0.248
   41.250   35.186  504.026    0.617    0.255
   41.500   27.068  504.217    0.617    0.268
   41.750   20.201  497.203    0.636    0.284
   42.000   18.330  483.375    0.638    0.308
   42.250   16.461  456.731    0.633    0.315
   42.500   16.466  443.987    0.613    0.329
   42.750   19.595  425.553    0.606    0.335
   43.000   18.975  407.885    0.595    0.314
   43.250   17.105  402.173    0.583    0.310
