~VERSION INFORMATION
 VERS.                 2.0:   CWLS LOG ASCII STANDARD -VERSION 2.0
 WRAP.                  NO:   ONE LINE PER DEPTH STEP
~WELL INFORMATION BLOCK
#MNEM.UNIT           DATA                    DESCRIPTION OF MNEMONIC
#---------    -------------------            -------------------------------
# Generated from Intellog Unique Number	CN_91_93/WELL/2882
WELL.         10-11-092-17W4                 : Well_name    - WELL
LOC .         AA/10-11-092-17W4/0            : Location     - LOCATION
UWI .         AA/10-11-092-17W400            : Uwi          - UNIQUE WELL ID
ENTR.         JOETTE                         : Entered      - ENTERED BY
SRVC.         SCHLUMBERGER                   : Scn          - SERVICE COMPANY
DATE.         03/31/92                       : Date         - LOG DATE
STRT.M        30                             : top_depth    - START DEPTH
STOP.M        260                            : bot_depth    - STOP DEPTH
STEP.M        0.25                           : increment    - STEP LENGTH
 NULL. -999.2500:NULL Value
~CURVE INFORMATION BLOCK
#MNEM UNIT       ERCB CURVE CODE    CURVE DESCRIPTION
#-----------   ------------------   ----------------------------------
DEPT.M        00 001 00 00         : DEPTH        - DEPTH
CALI.MM       00 280 01 00         : CAL          - CALIPER
GR  .API      00 310 00 00         : GR           - GAMMA RAY
NPHI.V/V      00 330 00 00         : PHIN         - NEUTRON POROSITY (SANDSTONE)
DPHI.V/V      00 890 00 00         : PHID         - DENSITY POROSITY (SANDSTONE)
ILD .OHMM     00 120 00 00         : RESD         - DEEP RESISTIVITY (DIL)
~PARAMETER INFORMATION
#MNEM.UNIT           DATA             DESCRIPTION OF MNEMONIC
#---------         -----------     ------------------------------
GL  .M        502.2                : gl           - GROUND LEVEL ELEVATION
EREF.M        505.87               : kb           - ELEVATION OF DEPTH REFERENCE
DATM.M        505.87               : datum        - DATUM ELEVATION
TDD .M        263.3                : tdd          - TOTAL DEPTH DRILLER
RUN .         ONE                  : Run          - RUN NUMBER
ENG .         BILL                 : Engineer     - RECORDING ENGINEER
WIT .         JIM                  : Witness      - WITNESSED BY
MUD .         GEL                  : Mud_type     - MUD TYPE
MATR.         SANDSTONE            : Logunit      - NEUTRON MATRIX
TMAX.C        22                   : BHT          - MAXIMUM RECORDED TEMPERATURE
BHTD.M        263.3                : BHTDEP       - MAXIMUM RECORDED TEMPERATURE
RMT .C        22                   : MDTP         - TEMPERATURE OF MUD
MUDD.KG/M     1100                 : MWT          - MUD DENSITY
NEUT.         1                    : NEUTRON      - NEUTRON TYPE
RESI.         0                    : RESIST       - RESISTIVITY TYPE
RM  .OHMM     11.7                 : RM           - RESISTIVITY OF MUD
RMC .OHMM     11.7                 : RMC          - RESISTIVITY OF MUD CAKE
RMF .OHMM     11.7                 : RMF          - RESISTIVITY OF MUD FILTRATE
SUFT.C        4                    : SUFT         - SURFACE TEMPERATURE
~A  DEPTH      CAL       GR     PHIN     PHID     RESD
# ...
  139.500  218.503   81.578    0.444    0.179   15.989
  139.750  219.401   81.560    0.455    0.185   13.035
  140.000  219.371   81.524    0.468    0.196   12.098
  140.250  218.354   80.303    0.482    0.211   12.316
  140.500  215.330   79.100    0.488    0.214   12.310
  140.750  207.368   77.277    0.476    0.193   11.216
  141.000  202.384   76.666    0.420    0.162   12.525
  141.250  204.285   75.454    0.379    0.142   13.234
  141.500  208.206   74.807    0.394    0.153   12.283
  141.750  212.112   74.789    0.427    0.220   12.275
  142.000  217.979   75.355    0.438    0.221   14.764
  142.250  218.937   76.504    0.431    0.222   14.486
  142.500  216.902   77.079    0.425    0.227   12.030
  142.750  213.878   77.636    0.417    0.238    9.279
  143.000  212.846   79.387    0.428    0.241    7.155
  143.250  211.813   81.722    0.456    0.238    6.167
  143.500  210.780   84.658    0.498    0.241    5.028
  143.750  210.705   85.224    0.595    0.238    4.414
  144.000  210.676   84.595    0.594    0.236    3.734
  144.250  214.582   82.781    0.587    0.225    3.946
  144.500  216.483   82.162    0.558    0.211    4.326
  144.750  213.489   80.958    0.530    0.191    5.500
  145.000  206.515   80.330    0.499    0.174    6.992
  145.250  209.433   81.479    0.418    0.148    9.057
  145.500  213.339   82.036    0.451    0.219   12.171
  145.750  214.252   82.610    0.462    0.228   12.390
  146.000  215.210   82.575    0.471    0.218   11.936
  146.250  222.080   80.769    0.464    0.194   11.076
  146.500  224.968   79.557    0.460    0.186   10.471
  146.750  224.938   77.151    0.480    0.195   10.467
  147.000  223.906   76.522    0.450    0.186   11.477
  147.250  220.868   76.504    0.414    0.159   14.863
  147.500  215.899   78.839    0.387    0.097   17.549
  147.750  196.083   80.572    0.358    0.211   19.966
  148.000  191.099   80.554    0.413    0.209   21.888
  148.250  190.036   79.916    0.430    0.203   21.877
  148.500  189.992   79.297    0.419    0.193   22.271
  148.750  189.947   78.686    0.397    0.183   21.848
  149.000  189.902   76.863    0.389    0.181   21.440
  149.250  187.836   76.252    0.387    0.184   21.426
  149.500  186.804   75.040    0.393    0.191   22.216
  149.750  184.783   73.810    0.395    0.191   22.623
  150.000  183.750   73.199    0.392    0.184   23.038
  150.250  181.730   72.580    0.383    0.176   23.891
  150.500  179.724   71.951    0.380    0.171   24.780
  150.750  176.701   71.323    0.383    0.173   25.222
  151.000  175.638   71.305    0.390    0.176   24.747
  151.250  173.618   71.852    0.396    0.190   24.739
  151.500  173.588   71.834    0.408    0.205   24.265
  151.750  172.555   71.206    0.406    0.225   24.256
  152.000  172.495   70.002    0.397    0.238   25.155
  152.250  172.451   66.401    0.387    0.225   27.580
  152.500  172.406   65.198    0.372    0.199   31.967
  152.750  173.304   65.162    0.322    0.162   38.449
  153.000  173.259   65.728    0.294    0.105   47.990
  153.250  173.229   65.099    0.271    0.052   62.147
  153.500  173.184   63.285    0.259    0.044   69.401
  153.750  173.124   62.082    0.334    0.155   68.106
  154.000  174.037   58.481    0.364    0.189   63.202
  154.250  173.992   58.454    0.389    0.209   57.586
  154.500  173.947   58.436    0.376    0.199   52.442
  154.750  174.890   57.808    0.356    0.132   52.425
  155.000  175.833   56.586    0.340    0.081   55.400
  155.250  175.788   55.365    0.296    0.041   64.201
  155.500  176.716   55.940    0.258    0.037   73.047
  155.750  176.686   58.266    0.267    0.071   70.357
  156.000  177.629   59.433    0.300    0.088   65.291
  156.250  177.539   61.768    0.306    0.114   61.733
  156.500  178.482   62.342    0.336    0.140   59.460
  156.750  178.437   63.483    0.364    0.163   51.232
  157.000  178.392   63.456    0.381    0.249   44.990
  157.250  178.347   62.845    0.397    0.243   36.676
  157.500  178.347   61.615    0.388    0.233   32.202
  157.750  179.245   60.412    0.364    0.218   31.011
  158.000  179.200   59.181    0.339    0.159   32.159
  158.250  181.101   59.163    0.344    0.148   33.985
  158.500  182.044   60.906    0.349    0.158   37.952
  158.750  183.001   61.462    0.340    0.152   42.389
  159.000  186.863   61.444    0.288    0.042   47.337
  159.250  188.808   61.408    0.251   -0.007   49.107
  159.500  188.764   60.789    0.252   -0.007   51.876
  159.750  189.691   62.531    0.284    0.003   51.850
  160.000  189.661   63.698    0.299    0.010   47.219
  160.250  188.614   68.404    0.324    0.025   45.495
  160.500  188.554   71.331    0.346    0.058   42.227
  160.750  189.512   73.675    0.373    0.110   34.424
  161.000  194.391   71.870    0.391    0.169   29.126
  161.250  198.297   69.463    0.391    0.138   27.029
  161.500  200.228   68.260    0.379    0.121   32.499
  161.750  202.143   69.391    0.353    0.106   31.312
  162.000  204.044   70.568    0.323    0.084   25.999
  162.250  203.999   73.504    0.334    0.124   23.692
  162.500  204.942   78.802    0.390    0.167   18.612
  162.750  204.897   79.943    0.446    0.174   15.459
  163.000  204.867   79.332    0.441    0.189   13.078
  163.250  204.792   78.111    0.434    0.147   12.827
  163.500  204.747   78.686    0.416    0.162   13.304
  163.750  205.690   81.020    0.411    0.172   14.057
  164.000  207.591   82.179    0.412    0.164   14.582
  164.250  208.534   83.921    0.443    0.171   16.287
  164.500  208.489   83.903    0.451    0.180   17.203
  164.750  208.459   82.672    0.456    0.196   17.195
  165.000  207.396   82.053    0.451    0.184   16.871
  165.250  205.391   81.424    0.447    0.178   15.656
  165.500  202.353   80.814    0.440    0.188   14.803
  165.750  202.323   79.592    0.443    0.181   14.258
  166.000  202.278   77.186    0.453    0.150   13.728
  166.250  200.257   76.575    0.452    0.158   13.723
  166.500  191.307   76.539    0.444    0.158   15.044
  166.750  189.272   74.725    0.418    0.132   16.495
  167.000  190.215   73.522    0.409    0.104   16.184
  167.250  198.072   73.486    0.398    0.083   14.210
  167.500  203.939   79.978    0.437    0.049   12.945
  167.750  204.897   90.620    0.469    0.180   11.793
  168.000  211.766   90.000    0.485    0.180   11.358
  168.250  213.667   85.223    0.492    0.200   10.942
  168.500  209.686   81.622    0.500    0.186   10.153
  168.750  195.797   81.011    0.447    0.172   10.532
  169.000  199.703   82.762    0.436    0.128   11.546
  169.250  212.500   88.060    0.449    0.177   11.546
  169.500  223.291   88.024    0.456    0.172   11.115
  169.750  223.261   86.821    0.420    0.184   10.704
  170.000  221.225   85.007    0.392    0.205   10.499
  170.250  214.266   84.388    0.380    0.217   10.495
  170.500  209.267   84.953    0.369    0.203   11.507
  170.750  213.173   89.066    0.391    0.192   12.853
  171.000  211.138   91.392    0.404    0.166   13.829
  171.250  209.132   90.781    0.432    0.194   14.083
  171.500  206.094   87.198    0.443    0.176   14.336
  171.750  208.040   83.615    0.438    0.138   14.872
  172.000  210.943   77.653    0.411    0.118   17.235
  172.250  209.895   79.394    0.389    0.098   18.210
  172.500  208.878   82.340    0.367    0.075   17.217
  172.750  202.891   88.823    0.373    0.122   14.837
  173.000  209.761   92.945    0.448    0.153   13.269
  173.250  217.618   92.317    0.448    0.168   12.089
  173.500  217.573   89.910    0.440    0.185   11.011
  173.750  215.538   92.846    0.430    0.175   10.606
  174.000  221.419   95.792    0.432    0.161   10.408
  174.250  223.350   95.756    0.438    0.171    9.659
  174.500  215.373   91.571    0.448    0.182    9.132
  174.750  212.380   90.359    0.467    0.178    8.321
  175.000  212.320   92.703    0.478    0.191    7.580
  175.250  212.275   95.037    0.473    0.192    7.167
  175.500  210.239   93.834    0.467    0.171    6.902
  175.750  209.192   86.093    0.459    0.183    7.294
