~VERSION INFORMATION
 VERS.                 2.0:   CWLS LOG ASCII STANDARD -VERSION 2.0
 WRAP.                  NO:   ONE LINE PER DEPTH STEP
~WELL INFORMATION BLOCK
#MNEM.UNIT           DATA                    DESCRIPTION OF MNEMONIC
#---------    -------------------            -------------------------------
# Generated from Intellog Unique Number	CX_WELLS/WELL/3178
WELL.         ARCO ACI MCMURRAY              : Well_name    - WELL
LOC .         AA/10-26-083-11W4/0            : Location     - LOCATION
UWI .         AA/10-26-083-11W4/0            : Uwi          - UNIQUE WELL ID
ENTR.         TIM                            : Entered      - ENTERED BY
SRVC.         SCHLUMBERGER                   : Scn          - SERVICE COMPANY
STRT.F        750                            : top_depth    - START DEPTH
STOP.F        1479.99                        : bot_depth    - STOP DEPTH
STEP.F        0.82                           : increment    - STEP LENGTH
 NULL. -999.2500:NULL Value
~CURVE INFORMATION BLOCK
#MNEM UNIT       ERCB CURVE CODE    CURVE DESCRIPTION
#-----------   ------------------   ----------------------------------
DEPT.F        00 001 00 00         : DEPTH        - DEPTH
GR  .API      00 310 00 00         : GR           - GAMMA RAY
DPHI.V/V      00 890 00 00         : PHID         - DENSITY POROSITY (SANDSTONE)
ILD .OHMM     00 120 00 00         : RESD         - DEEP RESISTIVITY (DIL)
~PARAMETER INFORMATION
#MNEM.UNIT           DATA             DESCRIPTION OF MNEMONIC
#---------         -----------     ------------------------------
GL  .F        2254                 : gl           - GROUND LEVEL ELEVATION
EREF.F        2264                 : kb           - ELEVATION OF DEPTH REFERENCE
DATM.F        2264                 : datum        - DATUM ELEVATION
TDD .F        1485                 : tdd          - TOTAL DEPTH DRILLER
RUN .         ONE                  : Run          - RUN NUMBER
ENG .         BILL                 : Engineer     - RECORDING ENGINEER
WIT .         JIM                  : Witness      - WITNESSED BY
MUD .         GEL                  : Mud_type     - MUD TYPE
MATR.         SANDSTONE            : Logunit      - NEUTRON MATRIX
TMAX.F        71                   : BHT          - MAXIMUM RECORDED TEMPERATURE
BHTD.F        1486                 : BHTDEP       - MAXIMUM RECORDED TEMPERATURE
MATR.         1                    : LOGUNIT      - NEUTRON MATRIX
RMT .F        77                   : MDTP         - TEMPERATURE OF MUD
NEUT.         1                    : NEUTRON      - NEUTRON TYPE
RESI.         3.8                  : RESIST       - RESISTIVITY TYPE
RMC .OHMM     3.8                  : RMC          - RESISTIVITY OF MUD CAKE
RMF .OHMM     3.8                  : RMF          - RESISTIVITY OF MUD FILTRATE
SUFT.F        32                   : SUFT         - SURFACE TEMPERATURE
~A  DEPTH       GR     PHID     RESD
# ...
 1283.960  136.157    0.270    3.892
 1284.780  134.482    0.263    3.697
 1285.600  132.200    0.252    3.634
 1286.420  129.918    0.238    3.850
 1287.240  126.459    0.237    3.996
 1288.060  121.805    0.240    4.307
 1288.880  115.403    0.245    4.907
 1289.700  111.373    0.246    5.288
 1290.520  107.914    0.248    5.696
 1291.340  105.026    0.258    6.605
 1292.160  106.863    0.264    7.382
 1292.980  109.290    0.270    8.402
 1293.800  108.221    0.272    9.743
 1294.620  108.275    0.272   10.505
 1295.440  108.383    0.272   10.337
 1296.260  107.831    0.269    9.988
 1297.080  107.903    0.268    9.477
 1297.900  110.329    0.264    9.320
 1298.720  115.734    0.259    9.510
 1299.540  118.731    0.254    9.715
 1300.360  123.529    0.251    9.918
 1301.180  126.544    0.247    9.928
 1302.000  130.147    0.246    9.949
 1302.820  132.003    0.246    9.979
 1303.640  132.075    0.245    9.814
 1304.460  130.418    0.246    9.844
 1305.280  129.295    0.244    9.859
 1306.100  128.779    0.238   10.056
 1306.920  130.010    0.234   10.261
 1307.740  136.574    0.227   10.282
 1308.560  142.531    0.208   10.314
 1309.380  151.449    0.194   10.514
 1310.200  150.362    0.177   10.164
 1311.020  138.057    0.173    9.470
 1311.840  125.752    0.220    8.359
 1312.660  115.819    0.233    7.647
 1313.480  108.241    0.239    7.252
 1314.300  102.998    0.235    7.820
 1315.120   97.791    0.232    8.582
 1315.940   94.314    0.230   10.316
 1316.770   93.816    0.232   12.399
 1317.590   93.888    0.237   14.371
 1318.410   92.783    0.242   15.780
 1319.230   96.386    0.245   15.812
 1320.050  100.008    0.249   15.845
 1320.870  100.080    0.250   15.310
 1321.690   96.032    0.253   15.349
 1322.510   84.904    0.261   15.662
 1323.330   73.795    0.275   15.702
 1324.150   71.513    0.300   16.023
 1324.970   66.894    0.304   16.056
 1325.790   63.435    0.305   16.991
 1326.610   59.958    0.310   17.648
 1327.430   55.322    0.312   19.734
 1328.250   58.337    0.317   22.472
 1329.070   64.883    0.321   24.649
 1329.890   77.921    0.315   30.188
 1330.710   85.662    0.311   33.739
 1331.530   87.500    0.315   33.198
 1332.350   84.059    0.321   30.947
 1333.170   84.719    0.324   29.348
 1333.990   83.008    0.324   26.864
 1334.810   77.801    0.323   29.483
 1335.630   79.050    0.323   36.752
 1336.450   79.729    0.320   58.096
 1337.270   79.195    0.318   63.727
 1338.090   78.696    0.314   68.677
 1338.910   76.414    0.309   67.680
 1339.730   75.291    0.298   64.183
 1340.550   77.718    0.265   58.692
 1341.370   87.224    0.250   50.845
 1342.190   97.338    0.238   35.408
 1343.010  103.277    0.228   30.674
 1343.830  111.018    0.230   26.081
 1344.650  116.387    0.232   21.394
 1345.470  120.615    0.233   18.533
 1346.290  121.258    0.231   16.056
 1347.110  121.918    0.228   14.425
 1347.930  122.579    0.224   12.972
 1348.750  124.435    0.224   12.522
 1349.570  128.645    0.225   12.099
 1350.390  129.305    0.225   11.690
 1351.210  129.359    0.226   11.503
 1352.030  129.431    0.222   11.114
 1352.850  134.230    0.202   11.137
 1353.670  136.068    0.126   10.964
 1354.490  127.900    0.088   10.981
 1355.310  116.790    0.082   11.217
 1356.140  103.308    0.110   11.446
 1356.960   92.805    0.146   12.113
 1357.780   95.802    0.246   12.581
 1358.600  107.074    0.254   14.597
 1359.420  111.854    0.251   16.012
 1360.240  121.949    0.250   17.895
 1361.060  129.672    0.256   18.261
 1361.880  140.945    0.266   17.014
 1362.700  129.835    0.273   15.860
 1363.520  118.118    0.282   15.324
 1364.340  100.517    0.293   14.807
 1365.160   87.659    0.287   14.570
 1365.980   91.244    0.280   14.875
 1366.800   95.472    0.270   15.187
 1367.620   97.292    0.269   15.482
 1368.440  100.895    0.271   15.798
 1369.260  103.928    0.278   16.735
 1370.080  102.235    0.284   17.391
 1370.900   94.656    0.290   18.072
 1371.720   87.077    0.287   18.771
 1372.540   83.618    0.277   20.239
 1373.360   87.810    0.265   21.429
 1374.180   92.002    0.267   21.462
 1375.000   97.389    0.272   21.528
 1375.820   99.226    0.275   21.550
 1376.640  100.476    0.278   21.204
 1377.460  101.743    0.279   20.140
 1378.280  103.599    0.279   19.807
 1379.100  106.025    0.277   19.857
 1379.920  103.743    0.281   20.263
 1380.740  102.049    0.282   21.433
 1381.560  103.335    0.282   23.110
 1382.380  104.548    0.283   24.015
 1383.200  104.620    0.293   24.956
 1384.020   94.669    0.305   26.410
 1384.840   90.051    0.313   29.546
 1385.660   90.123    0.319   33.022
 1386.480   90.195    0.321   36.222
 1387.300   90.874    0.323   41.983
 1388.120   91.517    0.324   49.579
 1388.940   92.177    0.326   52.494
 1389.760   92.838    0.330   48.002
 1390.580   93.517    0.331   40.119
 1391.400   94.177    0.326   33.514
 1392.220   94.267    0.311   28.495
 1393.040   94.910    0.294   24.240
 1393.860   97.355    0.240   20.610
 1394.690  100.369    0.221   17.855
 1395.510  105.150    0.217   16.057
 1396.330  108.753    0.223   15.792
 1397.150  107.684    0.226   15.539
 1397.970  108.345    0.232   15.857
 1398.790  108.417    0.236   16.189
 1399.610  109.684    0.238   16.520
 1400.430  110.363    0.239   16.545
 1401.250  110.399    0.239   17.193
 1402.070  109.330    0.239   17.563
 1402.890  108.796    0.240   17.290
 1403.710  108.261    0.245   17.308
 1404.530  108.351    0.246   17.343
 1405.350  108.424    0.248   17.706
 1406.170  106.748    0.250   18.078
 1406.990  106.196    0.254   18.096
 1407.810  104.520    0.257   18.485
 1408.630  103.451    0.261   18.513
 1409.450  102.917    0.263   19.248
 1410.270  102.419    0.264   20.012
 1411.090  102.473    0.264   20.411
 1411.910  103.151    0.265   21.211
 1412.730  103.187    0.267   21.644
 1413.550  103.296    0.275   21.711
 1414.370  101.620    0.287   21.733
 1415.190  100.479    0.294   22.177
 1416.010   98.215    0.298   23.046
 1416.830   91.796    0.303   25.318
 1417.650   84.199    0.308   27.271
 1418.470   88.409    0.310   28.860
 1419.290   92.601    0.304   28.919
 1420.110   94.438    0.304   31.786
 1420.930   92.174    0.304   33.604
 1421.750   88.127    0.305   36.898
 1422.570   82.884    0.307   39.028
 1423.390   77.071    0.308   43.663
 1424.210   73.023    0.312   47.055
 1425.030   72.507    0.314   46.324
 1425.850   72.579    0.314   45.535
 1426.670   71.492    0.316   45.628
 1427.490   69.246    0.323   45.722
 1428.310   65.769    0.333   45.838
 1429.130   62.310    0.335   44.336
 1429.950   60.046    0.336   43.603
 1430.770   58.905    0.338   42.926
 1431.590   58.389    0.338   42.217
 1432.410   58.497    0.338   42.303
 1433.230   57.356    0.344   41.604
 1434.060   55.074    0.351   40.958
 1434.880   53.987    0.355   41.041
 1435.700   54.059    0.357   43.432
 1436.520   51.813    0.355   47.666
 1437.340   51.261    0.354   58.376
 1438.160   50.156    0.352   70.168
 1438.980   50.264    0.350   89.119
 1439.800   50.300    0.350   99.602
 1440.620   50.373    0.349  105.404
 1441.440   50.445    0.349  109.534
 1442.260   49.946    0.347  120.333
 1443.080   50.036    0.346  127.278
 1443.900   51.286    0.348  142.395
 1444.720   53.141    0.349  153.457
 1445.540   53.784    0.349  165.379
 1446.360   54.463    0.349  165.716
 1447.180   55.123    0.347  160.121
 1448.000   55.766    0.346  151.925
 1448.820   57.622    0.346  144.148
 1449.640   60.637    0.349  139.352
 1450.460   65.417    0.354  136.979
 1451.280   69.627    0.346  137.258
 1452.100   69.147    0.333  137.749
 1452.920   68.594    0.325  137.960
 1453.740   67.489    0.322  138.312
 1454.560   66.384    0.322  135.957
 1455.380   65.279    0.324  131.433
 1456.200   64.174    0.330  126.931
 1457.020   63.676    0.332  122.645
 1457.840   64.943    0.333  118.564
 1458.660   66.192    0.336  116.664
 1459.480   68.637    0.338  112.724
 1460.300   70.457    0.340  107.009
 1461.120   72.294    0.343  105.294
