~VERSION INFORMATION
 VERS.                 2.0:   CWLS LOG ASCII STANDARD -VERSION 2.0
 WRAP.                  NO:   ONE LINE PER DEPTH STEP
~WELL INFORMATION BLOCK
#MNEM.UNIT           DATA                    DESCRIPTION OF MNEMONIC
#---------    -------------------            -------------------------------
# Generated from Intellog Unique Number	CW_82_90/WELL/694
WELL.         10-09-083-19W4                 : Well_name    - WELL
LOC .         AA/10-09-083-19W4/0            : Location     - LOCATION
UWI .         AA/10-09-083-19W400            : Uwi          - UNIQUE WELL ID
ENTR.         JAYE                           : Entered      - ENTERED BY
SRVC.         WESTERN ATLAS                  : Scn          - SERVICE COMPANY
DATE.         30 FEB 81                      : Date         - LOG DATE
STRT.M        192                            : top_depth    - START DEPTH
STOP.M        365                            : bot_depth    - STOP DEPTH
STEP.M        0.25                           : increment    - STEP LENGTH
 NULL. -999.2500:NULL Value
~CURVE INFORMATION BLOCK
#MNEM UNIT       ERCB CURVE CODE    CURVE DESCRIPTION
#-----------   ------------------   ----------------------------------
DEPT.M        00 001 00 00         : DEPTH        - DEPTH
CALI.MM       00 280 01 00         : CAL          - CALIPER
GR  .API      00 310 00 00         : GR           - GAMMA RAY
NPHI.V/V      00 330 00 00         : PHIN         - NEUTRON POROSITY (SANDSTONE)
DPHI.V/V      00 890 00 00         : PHID         - DENSITY POROSITY (SANDSTONE)
ILD .OHMM     00 120 00 00         : RESD         - DEEP RESISTIVITY (DIL)
~PARAMETER INFORMATION
#MNEM.UNIT           DATA             DESCRIPTION OF MNEMONIC
#---------         -----------     ------------------------------
GL  .M        577.5                : gl           - GROUND LEVEL ELEVATION
EREF.M        580.32               : kb           - ELEVATION OF DEPTH REFERENCE
DATM.M        577.5                : datum        - DATUM ELEVATION
TDD .M        371                  : tdd          - TOTAL DEPTH DRILLER
RUN .         ONE                  : Run          - RUN NUMBER
ENG .         STEVENS & GAMBER     : Engineer     - RECORDING ENGINEER
WIT .         HAYES & CLARKE       : Witness      - WITNESSED BY
MUD .         GEL CHEM             : Mud_type     - MUD TYPE
MATR.         SANDSTONE            : Logunit      - NEUTRON MATRIX
TMAX.C        17                   : BHT          - MAXIMUM RECORDED TEMPERATURE
BHTD.M        371                  : BHTDEP       - MAXIMUM RECORDED TEMPERATURE
RMT .C        11                   : MDTP         - TEMPERATURE OF MUD
MUDD.KG/M     1100                 : MWT          - MUD DENSITY
NEUT.         1                    : NEUTRON      - NEUTRON TYPE
RESI.         0                    : RESIST       - RESISTIVITY TYPE
RM  .OHMM     3.8                  : RM           - RESISTIVITY OF MUD
RMC .OHMM     0                    : RMC          - RESISTIVITY OF MUD CAKE
RMF .OHMM     3.6                  : RMF          - RESISTIVITY OF MUD FILTRATE
SUFT.C        0                    : SUFT         - SURFACE TEMPERATURE
~A  DEPTH      CAL       GR     PHIN     PHID     RESD
# ...
  338.000  229.378   46.991    0.323    0.153   43.720
  338.250  229.623   48.201    0.328    0.094   30.040
  338.500  230.380   52.398    0.336    0.044   24.450
  338.750  230.942   61.270    0.343    0.053   20.353
  339.000  231.312   68.332    0.344    0.072   18.235
  339.250  231.655   70.839    0.337    0.085   17.482
  339.500  232.011   63.691    0.329    0.079   19.337
  339.750  232.553   57.733    0.316    0.051   22.044
  340.000  232.712   49.090    0.309    0.015   27.041
  340.250  232.854   45.611    0.317    0.020   30.886
  340.500  233.206   44.891    0.323    0.012   35.408
  340.750  232.491   42.105    0.319    0.024   38.871
  341.000  230.714   39.378    0.314    0.044   41.487
  341.250  229.591   37.657    0.311    0.029   45.715
  341.500  229.517   36.118    0.305    0.025   49.626
  341.750  230.499   37.070    0.296    0.013   53.663
  342.000  231.585   38.402    0.281   -0.000   57.057
  342.250  230.787   38.172    0.273   -0.001   59.881
  342.500  228.579   32.270    0.263   -0.001   63.188
  342.750  228.307   27.863    0.255   -0.002   62.783
  343.000  228.759   25.205    0.261    0.004   60.198
  343.250  230.387   28.652    0.307    0.104   39.682
  343.500  232.222   35.896    0.381    0.173   32.973
  343.750  233.528   41.654    0.402    0.247   28.663
  344.000  232.601   44.292    0.395    0.221   26.666
  344.250  231.047   46.118    0.390    0.212   24.434
  344.500  230.554   53.800    0.391    0.203   22.603
  344.750  231.331   60.242    0.400    0.180   20.908
  345.000  232.740   59.511    0.414    0.134   19.595
  345.250  233.918   55.357    0.416    0.219   18.822
  345.500  233.749   52.632    0.417    0.190   18.114
  345.750  233.572   53.586    0.413    0.170   17.663
  346.000  233.387   57.535    0.399    0.148   17.851
  346.250  233.007   57.306    0.351    0.133   19.931
  346.500  232.408   40.934    0.316    0.106   24.867
  346.750  231.489   32.601    0.258    0.100   28.889
  347.000  230.981   31.060    0.226    0.095   40.736
  347.250  230.597   29.837    0.208    0.095   71.456
  347.500  233.701   27.738    0.216    0.103   79.340
  347.750  238.297   26.321    0.233    0.170   97.505
  348.000  237.376   24.846    0.309    0.170  110.322
  348.250  234.331   24.056    0.320    0.173  122.029
  348.500  232.770   24.510    0.316    0.178  131.972
  348.750  231.323   24.900    0.305    0.176  127.964
  349.000  229.774   25.232    0.277    0.165   90.270
  349.250  228.740   25.755    0.274    0.104   72.504
  349.500  228.565   31.631    0.279    0.061   61.857
  349.750  229.023   38.939    0.292    0.040   54.179
  350.000  229.152   45.629    0.349    0.058   45.270
  350.250  229.400   54.688    0.361    0.064   42.035
  350.500  229.549   61.868    0.361    0.077   38.595
  350.750  230.217   65.880    0.356    0.123   34.706
  351.000  230.463   65.652    0.356    0.140   31.445
  351.250  231.235   65.234    0.358    0.154   29.035
  351.500  231.582   63.819    0.358    0.164   26.608
  351.750  231.826   63.217    0.353    0.154   23.969
  352.000  232.065   63.923    0.347    0.138   22.258
  352.250  232.003   64.992    0.339    0.118   20.940
  352.500  232.022   64.771    0.343    0.110   20.267
  352.750  232.174   65.223    0.355    0.103   19.874
  353.000  232.199   67.674    0.362    0.111   19.746
  353.250  232.138   70.996    0.364    0.146   20.642
  353.500  232.052   73.386    0.359    0.161   22.366
  353.750  231.989   73.590    0.355    0.164   25.112
  354.000  231.920   66.255    0.349    0.171   27.990
  354.250  231.727   60.542    0.345    0.174   31.139
  354.500  231.773   57.884    0.344    0.166   34.769
  354.750  231.690   55.407    0.346    0.156   39.263
  355.000  231.626   55.050    0.347    0.136   43.594
  355.250  231.757   55.199    0.347    0.144   46.788
  355.500  231.685   55.080    0.347    0.155   45.965
  355.750  231.829   55.231    0.353    0.168   44.657
  356.000  231.858   54.882    0.352    0.179   42.010
  356.250  230.903   59.131    0.348    0.186   39.158
  356.500  230.656   61.520    0.344    0.183   36.907
  356.750  229.936   62.731    0.341    0.176   35.379
  357.000  230.089   61.690    0.341    0.168   34.502
  357.250  229.806   56.780    0.343    0.147   33.832
  357.500  229.719   54.690    0.347    0.135   34.120
  357.750  230.280   50.907    0.349    0.142   35.014
  358.000  230.628   47.493    0.350    0.156   37.581
  358.250  231.097   43.527    0.353    0.178   41.489
  358.500  231.663   42.049    0.359    0.187   45.121
  358.750  232.643   45.991    0.364    0.194   46.376
  359.000  233.093   49.572    0.366    0.199   46.342
  359.250  232.921   54.003    0.368    0.215   44.757
  359.500  232.211   52.285    0.369    0.213   43.978
  359.750  231.400   49.067    0.370    0.202   42.887
  360.000  231.008   48.027    0.370    0.192   41.268
  360.250  230.941   49.479    0.365    0.179   39.939
  360.500  230.967   51.808    0.358    0.163   40.128
  360.750  231.091   55.619    0.354    0.162   40.331
  361.000  231.341   55.390    0.352    0.167   41.456
  361.250  231.593   52.296    0.348    0.174   43.911
  361.500  231.627   48.582    0.344    0.203   44.966
  361.750  231.550   43.804    0.347    0.204   44.590
  362.000  231.487   41.641    0.364    0.201   44.391
  362.250  231.527   46.394    0.379    0.190   43.779
  362.500  231.662   48.279    0.389    0.184   43.496
  362.750  231.377   50.918    0.394    0.195   44.120
  363.000  231.303   61.538    0.394    0.248   45.180
  363.250  231.119   87.044    0.390    0.261   46.263
  363.500  230.625   98.406    0.393    0.237   48.005
  363.750  230.663   97.549    0.398    0.224   50.276
  364.000  230.371   83.240    0.411    0.210   52.756
  364.250  230.200   68.986    0.422    0.174   56.522
  364.500  230.121   64.268    0.420    0.171   60.322
  364.750  230.265   62.357    0.419    0.180   64.489
  365.000  230.396   60.755    0.405    0.195   66.301
