~VERSION INFORMATION
 VERS.                 2.0:   CWLS LOG ASCII STANDARD -VERSION 2.0
 WRAP.                  NO:   ONE LINE PER DEPTH STEP
~WELL INFORMATION BLOCK
#MNEM.UNIT           DATA                    DESCRIPTION OF MNEMONIC
#---------    -------------------            -------------------------------
# Generated from Intellog Unique Number	CX_WELLS/WELL/3178
WELL.         ARCO ACI MCMURRAY              : Well_name    - WELL
LOC .         AA/10-26-083-11W4/0            : Location     - LOCATION
UWI .         AA/10-26-083-11W4/0            : Uwi          - UNIQUE WELL ID
ENTR.         TIM                            : Entered      - ENTERED BY
SRVC.         SCHLUMBERGER                   : Scn          - SERVICE COMPANY
STRT.F        750                            : top_depth    - START DEPTH
STOP.F        1479.99                        : bot_depth    - STOP DEPTH
STEP.F        0.82                           : increment    - STEP LENGTH
 NULL. -999.2500:NULL Value
~CURVE INFORMATION BLOCK
#MNEM UNIT       ERCB CURVE CODE    CURVE DESCRIPTION
#-----------   ------------------   ----------------------------------
DEPT.F        00 001 00 00         : DEPTH        - DEPTH
GR  .API      00 310 00 00         : GR           - GAMMA RAY
DPHI.V/V      00 890 00 00         : PHID         - DENSITY POROSITY (SANDSTONE)
ILD .OHMM     00 120 00 00         : RESD         - DEEP RESISTIVITY (DIL)
~PARAMETER INFORMATION
#MNEM.UNIT           DATA             DESCRIPTION OF MNEMONIC
#---------         -----------     ------------------------------
GL  .F        2254                 : gl           - GROUND LEVEL ELEVATION
EREF.F        2264                 : kb           - ELEVATION OF DEPTH REFERENCE
DATM.F        2264                 : datum        - DATUM ELEVATION
TDD .F        1485                 : tdd          - TOTAL DEPTH DRILLER
RUN .         ONE                  : Run          - RUN NUMBER
ENG .         BILL                 : Engineer     - RECORDING ENGINEER
WIT .         JIM                  : Witness      - WITNESSED BY
MUD .         GEL                  : Mud_type     - MUD TYPE
MATR.         SANDSTONE            : Logunit      - NEUTRON MATRIX
TMAX.F        71                   : BHT          - MAXIMUM RECORDED TEMPERATURE
BHTD.F        1486                 : BHTDEP       - MAXIMUM RECORDED TEMPERATURE
MATR.         1                    : LOGUNIT      - NEUTRON MATRIX
RMT .F        77                   : MDTP         - TEMPERATURE OF MUD
NEUT.         1                    : NEUTRON      - NEUTRON TYPE
RESI.         3.8                  : RESIST       - RESISTIVITY TYPE
RMC .OHMM     3.8                  : RMC          - RESISTIVITY OF MUD CAKE
RMF .OHMM     3.8                  : RMF          - RESISTIVITY OF MUD FILTRATE
SUFT.F        32                   : SUFT         - SURFACE TEMPERATURE
~A  DEPTH       GR     PHID     RESD
  750.000  117.832    0.268    7.017
  750.820  115.550    0.270   10.123
  751.640  110.914    0.282   11.110
  752.461  105.083    0.304   13.606
  753.281   83.968    0.316   15.778
  754.101   62.853    0.323   17.634
  754.921   64.084    0.326   19.003
  755.741   69.453    0.323   19.412
  756.562   83.097    0.320   19.431
  757.382   88.484    0.318   19.120
  758.202   93.247    0.315   18.823
  759.022   97.439    0.310   18.522
  759.843  102.826    0.303   18.234
  760.663  105.270    0.305   18.271
  761.483  106.519    0.307   18.309
  762.303  106.609    0.308   18.337
  763.123  105.504    0.307   18.374
  763.944   99.085    0.303   18.430
  764.764   93.842    0.301   18.459
  765.584   87.458    0.301   18.836
  766.404   84.570    0.302   19.231
  767.224   82.876    0.304   19.280
  768.045   88.263    0.298   19.664
  768.865   91.278    0.355   19.694
  769.685   75.460    0.355   20.117
  770.505   69.040    0.358   20.539
  771.325   81.507    0.369   20.570
  772.146   85.093    0.370   21.001
  772.966   89.891    0.364   21.023
  773.786   87.021    0.361   21.452
  774.606   81.226    0.349   22.304
  775.427   87.754    0.340   22.760
  776.247   91.981    0.342   22.806
  777.067   93.801    0.347   22.036
  777.887   96.227    0.344   19.441
  778.707  101.614    0.336   16.842
  779.528  109.337    0.315   11.950
  780.348  124.729    0.309   11.540
  781.168  127.744    0.305   11.162
  781.988  110.160    0.300   11.384
  782.808  101.386    0.297   12.717
  783.629   98.534    0.294   15.575
  784.449   99.213    0.292   17.726
  785.269   99.267    0.293   19.113
  786.089   95.219    0.294   19.494
  786.909   81.737    0.295   20.278
  787.730   73.570    0.298   20.682
  788.550   68.345    0.300   19.994
  789.370   84.326    0.304   19.663
  790.190   92.637    0.291   17.684
  791.010  100.985    0.291   17.069
  791.831  104.588    0.291   15.625
  792.651  108.780    0.281   14.558
  793.471  113.560    0.269   13.563
  794.291  118.947    0.254   12.409
  795.112  120.785    0.251   11.768
  795.932  122.034    0.255   11.171
  796.752  123.872    0.256   11.194
  797.572  123.374    0.253   11.645
  798.392  120.503    0.253   12.088
  799.213  115.885    0.254   13.028
  800.033  111.801    0.255   14.567
  800.853  104.223    0.260   16.297
  801.673   98.410    0.281   17.238
  802.493   94.380    0.295   17.923
  803.314   93.275    0.303   18.270
  804.134   93.936    0.312   18.308
  804.954   94.008    0.318   18.033
  805.774   92.903    0.329   17.433
  806.594   91.210    0.330   17.136
  807.415   94.831    0.319   16.557
  808.235   98.416    0.307   15.434
  809.055  102.626    0.304   14.905
  809.875  105.659    0.302   13.658
  810.696  109.262    0.298   13.425
  811.516  112.277    0.293   12.972
  812.336  115.292    0.288   12.534
  813.156  116.541    0.286   12.560
  813.976  115.436    0.281   12.585
  814.797  110.800    0.279   12.849
  815.617  111.515    0.278   13.352
  816.437  113.923    0.277   13.625
  817.257  117.526    0.280   14.159
  818.077  117.010    0.290   14.714
  818.898  117.082    0.307   15.290
  819.718  117.743    0.319   15.889
  820.538  116.049    0.321   16.512
  821.358  114.356    0.312   16.849
  822.178  115.016    0.302   16.901
  822.999  118.031    0.291   16.330
  823.819  125.772    0.275   15.215
  824.639  130.571    0.264   14.176
  825.459  135.351    0.254   12.736
  826.280  134.264    0.265   11.872
  827.100  130.199    0.272   11.460
  827.920  123.797    0.260   10.677
  828.740  125.046    0.250   10.130
  829.560  133.964    0.237    8.937
  830.381  145.807    0.227    8.029
  831.201  140.582    0.208    7.083
  832.021  136.535    0.186    6.367
  832.841  135.430    0.164    6.041
  833.661  140.228    0.184    5.629
  834.482  143.832    0.202    5.436
  835.302  143.315    0.221    5.065
  836.122  139.856    0.229    4.723
  836.942  136.986    0.240    4.643
  837.762  141.214    0.255    4.569
  838.583  144.210    0.279    4.414
  839.403  147.243    0.303    4.674
  840.223  152.024    0.330    6.266
  841.043  140.307    0.343   12.094
  841.864  116.231    0.350   15.360
  842.684  116.304    0.345   17.167
  843.504  118.159    0.328   18.510
  844.324  119.409    0.320   19.608
  845.144  118.910    0.310   19.628
  845.965  118.412    0.296   19.334
  846.785  117.877    0.292   19.005
  847.605  118.520    0.298   19.043
  848.425  119.787    0.306   19.082
  849.245  121.036    0.313   19.121
  850.066  118.754    0.314   18.494
  850.886  116.472    0.307   17.539
  851.706  115.956    0.297   15.473
  852.526  120.755    0.269   12.919
  853.346  132.597    0.260   10.597
  854.167  139.161    0.247    9.185
  854.987  147.473    0.256    9.373
  855.807  154.055    0.276   10.475
  856.627  149.989    0.283   12.364
  857.448  141.822    0.294   14.869
  858.268  133.637    0.298   16.327
  859.088  133.727    0.298   16.975
  859.908  132.051    0.310   16.992
  860.728  127.397    0.322   16.729
  861.549  122.155    0.320   16.156
  862.369  115.164    0.313   14.788
  863.189  104.054    0.302   14.031
  864.009  102.950    0.286   12.844
  864.829  107.748    0.273   12.410
  865.650  111.351    0.261   12.205
  866.470  114.973    0.266   12.010
  867.290  116.810    0.272   12.261
  868.110  115.099    0.270   12.506
  868.930  111.640    0.264   12.761
  869.751  108.181    0.296   14.019
  870.571   94.717    0.323   14.844
  871.391   90.669    0.336   15.132
  872.211   87.817    0.340   16.021
  873.031   95.522    0.338   15.480
  873.852   98.591    0.328   13.915
  874.672   98.038    0.321   13.189
  875.492   98.128    0.312   12.744
  876.312   98.771    0.302   12.783
  877.133  103.587    0.296   12.809
  877.953  107.191    0.285   12.376
  878.773  110.187    0.275   11.965
  879.593  115.592    0.270   11.555
  880.413  118.001    0.263   10.958
  881.234  123.388    0.258   10.035
  882.054  128.186    0.249    9.517
  882.874  131.183    0.244    9.030
  883.694  140.689    0.232    8.568
  884.514  144.293    0.229    8.129
  885.335  149.091    0.233    7.854
  886.155  153.872    0.235    7.452
  886.975  153.944    0.236    7.333
  887.795  151.091    0.241    7.355
  888.615  148.809    0.244    7.363
  889.436  147.098    0.250    7.378
  890.256  143.086    0.252    7.816
  891.076  140.768    0.260    8.275
  891.896  137.898    0.274    8.595
  892.717  136.829    0.314    9.101
  893.537  132.175    0.322    9.452
  894.357  123.989    0.321    9.641
  895.177  116.999    0.271    9.853
  895.997  114.717    0.247    9.863
  896.818  117.732    0.240    9.883
  897.638  120.212    0.267   10.090
  898.458  119.071    0.273   10.111
  899.278  117.966    0.285   10.317
  900.098  119.234    0.299   10.338
  900.919  118.717    0.304   10.550
  901.739  115.847    0.306   10.765
  902.559  112.958    0.310   11.187
  903.379  108.340    0.316   11.631
  904.199  104.275    0.323   13.481
  905.020   99.638    0.331   15.625
  905.840   94.414    0.340   17.793
  906.660   90.973    0.350   19.527
  907.480   88.120    0.368   20.292
  908.301   86.391    0.366   20.728
  909.121   82.950    0.361   20.749
  909.941   79.473    0.361   20.792
  910.761   75.425    0.363   20.845
  911.581   74.320    0.365   20.887
  912.402   74.410    0.368   20.941
  913.222   74.501    0.371   21.005
  914.042   74.591    0.373   21.037
  914.862   74.627    0.374   21.058
  915.682   74.110    0.374   21.101
  916.503   73.594    0.373   21.155
  917.323   72.489    0.373   21.588
  918.143   73.150    0.373   21.643
  918.963   75.612    0.371   21.687
  919.783   75.096    0.371   22.130
  920.604   74.579    0.370   22.164
  921.424   74.063    0.370   22.221
  922.244   73.528    0.368   22.277
  923.064   73.012    0.366   22.334
  923.885   75.475    0.361   22.357
  924.705   77.294    0.348   22.414
  925.525   80.933    0.321   22.448
  926.345   83.948    0.296   22.931
  927.165   82.255    0.280   22.966
