~VERSION INFORMATION
 VERS.                 2.0:   CWLS LOG ASCII STANDARD -VERSION 2.0
 WRAP.                  NO:   ONE LINE PER DEPTH STEP
~WELL INFORMATION BLOCK
#MNEM.UNIT           DATA                    DESCRIPTION OF MNEMONIC
#---------    -------------------            -------------------------------
# Generated from Intellog Unique Number	CC_88_90/WELL/3158
WELL.         TEXACO CANADA INC.             : Well_name    - WELL
LOC .         AA/14-17-088-09W4/0            : Location     - LOCATION
UWI .         AA/14-17-088-09W400            : Uwi          - UNIQUE WELL ID
ENTR.         JOETTE                         : Entered      - ENTERED BY
SRVC.         COMPUTALOG                     : Scn          - SERVICE COMPANY
DATE.         03/04/92                       : Date         - LOG DATE
STRT.M        75                             : top_depth    - START DEPTH
STOP.M        176                            : bot_depth    - STOP DEPTH
STEP.M        0.25                           : increment    - STEP LENGTH
 NULL. -999.2500:NULL Value
~CURVE INFORMATION BLOCK
#MNEM UNIT       ERCB CURVE CODE    CURVE DESCRIPTION
#-----------   ------------------   ----------------------------------
DEPT.M        00 001 00 00         : DEPTH        - DEPTH
GR  .API      00 310 00 00         : GR           - GAMMA RAY
CALI.MM       00 280 01 00         : CAL          - CALIPER
NPHI.V/V      00 330 00 00         : PHIN         - NEUTRON POROSITY (SANDSTONE)
DPHI.V/V      00 890 00 00         : PHID         - DENSITY POROSITY (SANDSTONE)
ILD .OHMM     00 120 00 00         : RESD         - DEEP RESISTIVITY (DIL)
~PARAMETER INFORMATION
#MNEM.UNIT           DATA             DESCRIPTION OF MNEMONIC
#---------         -----------     ------------------------------
GL  .M        375.8                : gl           - GROUND LEVEL ELEVATION
EREF.M        379.8                : kb           - ELEVATION OF DEPTH REFERENCE
DATM.M        379.8                : datum        - DATUM ELEVATION
TDD .M        185.3                : tdd          - TOTAL DEPTH DRILLER
RUN .         ONE                  : Run          - RUN NUMBER
ENG .         BILL                 : Engineer     - RECORDING ENGINEER
WIT .         JIM                  : Witness      - WITNESSED BY
MUD .         GEL                  : Mud_type     - MUD TYPE
MATR.         SANDSTONE            : Logunit      - NEUTRON MATRIX
TMAX.C        19                   : BHT          - MAXIMUM RECORDED TEMPERATURE
BHTD.M        185.3                : BHTDEP       - MAXIMUM RECORDED TEMPERATURE
RMT .C        20                   : MDTP         - TEMPERATURE OF MUD
MUDD.KG/M     9166.66              : MWT          - MUD DENSITY
NEUT.         1                    : NEUTRON      - NEUTRON TYPE
RESI.         0                    : RESIST       - RESISTIVITY TYPE
RM  .OHMM     5.68                 : RM           - RESISTIVITY OF MUD
RMC .OHMM     5.68                 : RMC          - RESISTIVITY OF MUD CAKE
RMF .OHMM     5.68                 : RMF          - RESISTIVITY OF MUD FILTRATE
SUFT.C        4                    : SUFT         - SURFACE TEMPERATURE
~A  DEPTH       GR      CAL     PHIN     PHID     RESD
# ...
  148.000   25.505  164.665    0.345    0.234    6.368
  148.250   21.820  164.723    0.336    0.235    5.922
  148.500   31.042  165.875    0.332    0.233    5.712
  148.750   48.867  167.085    0.313    0.224    5.515
  149.000   44.568  167.172    0.307    0.218    5.630
  149.250   42.728  166.251    0.312    0.214    5.634
  149.500   45.190  165.359    0.328    0.217    5.647
  149.750   47.651  165.446    0.339    0.224    5.647
  150.000   71.622  165.591    0.343    0.235    7.213
  150.250   87.604  165.677    0.359    0.239    7.213
  150.500   92.523  165.822    0.355    0.230    5.677
  150.750   94.370  166.974    0.333    0.226    6.855
  151.000   77.780  167.090    0.336    0.222    6.734
  151.250   71.638  168.214    0.367    0.222    6.747
  151.500   86.391  169.366    0.373    0.227    6.635
  151.750   96.841  174.722    0.380    0.238    6.399
  152.000   96.230  175.875    0.338    0.234    5.846
  152.250   95.618  173.917    0.322    0.232    5.636
  152.500   82.716  174.033    0.319    0.229    5.539
  152.750   72.272  175.156    0.321    0.234    5.348
  153.000   64.285  177.403    0.350    0.235    5.253
  153.250   64.903  175.417    0.343    0.234    5.261
  153.500   82.728  171.386    0.331    0.238    5.271
  153.750   82.117  164.246    0.333    0.241    5.277
  154.000   75.360  161.309    0.338    0.239    5.286
  154.250   75.363  161.367    0.341    0.243    5.294
  154.500   77.210  161.483    0.340    0.252    5.304
  154.750   71.068  161.599    0.331    0.262    5.310
  155.000   69.227  163.788    0.326    0.265    5.322
  155.250   66.772  167.042    0.343    0.264    5.328
  155.500   63.702  168.165    0.357    0.259    5.441
  155.750   46.498  170.383    0.374    0.253    5.549
  156.000   45.886  174.645    0.393    0.234    5.771
  156.250   55.722  177.871    0.413    0.231    5.886
  156.500   73.548  172.774    0.416    0.224    5.897
  156.750   83.999  164.626    0.399    0.215    5.688
  157.000   79.700  160.567    0.400    0.220    5.488
  157.250   66.797  159.704    0.403    0.229    5.294
  157.500   48.978  159.762    0.421    0.234    5.206
  157.750   71.105  159.877    0.437    0.234    5.312
  158.000   95.691  158.986    0.444    0.228    5.522
  158.250  123.964  158.065    0.451    0.202    6.184
  158.500  115.978  154.034    0.396    0.179    6.673
  158.750  115.981  154.179    0.333    0.143    7.200
  159.000  124.588  157.346    0.318    0.143    7.625
  159.250  120.904  161.637    0.340    0.166    7.637
  159.500   92.637  159.709    0.418    0.278    6.968
  159.750   76.047  157.693    0.529    0.320    6.480
  160.000   47.780  163.021    0.523    0.384    6.490
  160.250   63.762  185.942    0.518    0.402    6.747
  160.500  106.785  221.330    0.515    0.382    6.760
  160.750  104.330  321.045    0.517    0.348    6.518
  161.000  106.176  272.412    0.518    0.311    5.624
  161.250   93.888  251.767    0.513    0.294    5.330
  161.500   61.934  169.935    0.507    0.296    5.336
  161.750   44.115  283.125    0.511    0.289    5.654
  162.000   65.014  301.928    0.520    0.260    5.877
  162.250   74.235  309.300    0.495    0.235    6.107
  162.500   83.457  324.993    0.419    0.223    6.592
  162.750  113.573  310.568    0.409    0.237    6.853
  163.000   96.984  270.228    0.429    0.255    6.861
  163.250   55.196  222.632    0.457    0.289    6.874
  163.500   39.221  197.869    0.486    0.308    6.755
  163.750   52.744  199.022    0.489    0.316    6.640
  164.000   66.882  215.723    0.492    0.320    6.412
  164.250   77.948  210.656    0.453    0.298    6.419
  164.500   87.169  187.966    0.445    0.301    6.799
  164.750   83.485  176.651    0.476    0.309    7.339
  165.000   75.499  201.673    0.514    0.310    7.347
  165.250   73.044  192.460    0.536    0.284    6.830
  165.500   77.349  189.466    0.543    0.250    5.789
  165.750   74.894  236.257    0.507    0.266    5.581
  166.000   76.126  250.943    0.478    0.286    5.590
  166.250   67.525  257.249    0.451    0.283    6.260
  166.500   63.841  263.584    0.430    0.307    7.280
  166.750   65.688  272.021    0.433    0.330    7.710
  167.000   59.545  282.503    0.437    0.325    7.722
  167.250   54.632  297.131    0.435    0.318    7.594
  167.500   60.781  313.861    0.423    0.278    7.192
  167.750   63.242  324.342    0.423    0.222    6.814
  168.000   58.944  333.816    0.425    0.201    6.570
  168.250   62.020  328.720    0.421    0.204    6.340
  168.500   70.627  321.580    0.416    0.228    5.898
  168.750   73.703  315.476    0.500    0.263    5.584
  169.000   74.935  235.717    0.506    0.328    5.193
  169.250   74.324  231.686    0.492    0.344    5.193
  169.500   71.869  228.721    0.489    0.349    4.745
  169.750   63.883  228.837    0.475    0.348    4.661
  170.000   63.885  224.777    0.474    0.302    4.584
  170.250   66.347  213.491    0.482    0.289    4.593
  170.500   67.579  213.606    0.503    0.290    4.598
  170.750   76.187  262.470    0.454    0.296    4.691
  171.000   71.887  337.307    0.438    0.293    5.254
  171.250   69.432  308.369    0.437    0.233    6.110
  171.500   66.362  260.773    0.457    0.194    6.595
  171.750   66.980  254.641    0.461    0.217    6.481
  172.000   68.213  240.244    0.431    0.234    6.251
  172.250   65.757  217.555    0.413    0.240    5.923
  172.500   67.605  208.341    0.393    0.243    5.715
  172.750   76.212  177.331    0.412    0.228    5.616
  173.000   74.371  198.236    0.416    0.180    6.059
  173.250   70.072  199.330    0.419    0.150    9.318
  173.500   72.534  182.861    0.422    0.173    8.825
  173.750   71.308  172.639    0.420    0.200    7.904
  174.000   67.623  167.543    0.371    0.205    6.694
  174.250   65.168  168.725    0.328    0.222    6.108
  174.500   74.390  173.994    0.380    0.239    5.678
  174.750   71.935  180.329    0.395    0.245    5.479
  175.000   59.032  183.613    0.411    0.254    5.386
  175.250   39.369  189.919    0.452    0.247    5.396
  175.500   20.320  198.356    0.503    0.246    5.612
  175.750   21.553  201.553    0.535    0.241    5.618
  176.000   25.243  197.522    0.536    0.240    5.840
