~VERSION INFORMATION
 VERS.                 2.0:   CWLS LOG ASCII STANDARD -VERSION 2.0
 WRAP.                  NO:   ONE LINE PER DEPTH STEP
~WELL INFORMATION BLOCK
#MNEM.UNIT           DATA                    DESCRIPTION OF MNEMONIC
#---------    -------------------            -------------------------------
# Generated from Intellog Unique Number	CN_94_101/WELL/2676
WELL.         14-23-094-14W4                 : Well_name    - WELL
LOC .         AA/14-23-094-14W4/0            : Location     - LOCATION
UWI .         AA/14-23-094-14W400            : Uwi          - UNIQUE WELL ID
ENTR.         JOETTE                         : Entered      - ENTERED BY
SRVC.         SCHLUMBERGER                   : Scn          - SERVICE COMPANY
DATE.         06/19/92                       : Date         - LOG DATE
STRT.M        50                             : top_depth    - START DEPTH
STOP.M        150                            : bot_depth    - STOP DEPTH
STEP.M        0.25                           : increment    - STEP LENGTH
 NULL. -999.2500:NULL Value
~CURVE INFORMATION BLOCK
#MNEM UNIT       ERCB CURVE CODE    CURVE DESCRIPTION
#-----------   ------------------   ----------------------------------
DEPT.M        00 001 00 00         : DEPTH        - DEPTH
CALI.MM       00 280 01 00         : CAL          - CALIPER
GR  .API      00 310 00 00         : GR           - GAMMA RAY
NPHI.V/V      00 330 00 00         : PHIN         - NEUTRON POROSITY (SANDSTONE)
DPHI.V/V      00 890 00 00         : PHID         - DENSITY POROSITY (SANDSTONE)
ILD .OHMM     00 120 00 00         : RESD         - DEEP RESISTIVITY (DIL)
~PARAMETER INFORMATION
#MNEM.UNIT           DATA             DESCRIPTION OF MNEMONIC
#---------         -----------     ------------------------------
GL  .M        409.7                : gl           - GROUND LEVEL ELEVATION
EREF.M        411.4                : kb           - ELEVATION OF DEPTH REFERENCE
DATM.M        411.4                : datum        - DATUM ELEVATION
TDD .M        164                  : tdd          - TOTAL DEPTH DRILLER
RUN .         ONE                  : Run          - RUN NUMBER
ENG .         BILL                 : Engineer     - RECORDING ENGINEER
WIT .         JIM                  : Witness      - WITNESSED BY
MUD .         GEL                  : Mud_type     - MUD TYPE
MATR.         SANDSTONE            : Logunit      - NEUTRON MATRIX
TMAX.C        18                   : BHT          - MAXIMUM RECORDED TEMPERATURE
BHTD.M        164                  : BHTDEP       - MAXIMUM RECORDED TEMPERATURE
RMT .C        19                   : MDTP         - TEMPERATURE OF MUD
MUDD.KG/M     1060                 : MWT          - MUD DENSITY
NEUT.         1                    : NEUTRON      - NEUTRON TYPE
RESI.         0                    : RESIST       - RESISTIVITY TYPE
RM  .OHMM     3.74                 : RM           - RESISTIVITY OF MUD
RMC .OHMM     3.74                 : RMC          - RESISTIVITY OF MUD CAKE
RMF .OHMM     3.74                 : RMF          - RESISTIVITY OF MUD FILTRATE
SUFT.C        4                    : SUFT         - SURFACE TEMPERATURE
~A  DEPTH      CAL       GR     PHIN     PHID     RESD
# ...
   86.500  242.823   92.932    0.495    0.228    5.449
   86.750  243.112   93.106    0.509    0.224    5.178
   87.000  243.329   93.279    0.503    0.237    4.922
   87.250  243.618   92.855    0.508    0.239    4.678
   87.500  242.911   91.236    0.529    0.236    4.291
   87.750  241.280   90.171    0.543    0.246    3.865
   88.000  237.586   89.833    0.551    0.251    3.423
   88.250  234.959   89.920    0.543    0.250    3.313
   88.500  233.112   91.886    0.526    0.246    3.328
   88.750  233.401   95.047    0.506    0.244    3.614
   89.000  234.758   94.666    0.508    0.239    3.836
   89.250  235.971   92.406    0.504    0.234    4.395
   89.500  239.248   91.428    0.498    0.229    4.672
   89.750  243.665   92.155    0.506    0.227    4.706
   90.000  240.894   93.524    0.516    0.248    4.640
   90.250  232.220   93.697    0.514    0.260    4.667
   90.500  232.509   92.078    0.502    0.256    4.878
   90.750  237.849   91.056    0.491    0.240    5.083
   91.000  239.986   90.632    0.495    0.241    5.411
   91.250  235.295   90.849    0.503    0.229    5.551
   91.500  233.593   92.815    0.490    0.214    5.576
   91.750  233.882   95.378    0.480    0.198    5.713
   92.000  230.259   96.747    0.465    0.148    6.309
   92.250  225.497   94.530    0.451    0.131    7.087
   92.500  218.742   92.270    0.432    0.093    7.961
   92.750  208.149   87.066    0.374    0.207    8.462
   93.000  206.302   87.239    0.412    0.201    8.216
   93.250  207.659   89.803    0.443    0.208    7.666
   93.500  213.995   93.050    0.460    0.218    6.895
   93.750  220.187   93.224    0.470    0.225    6.325
   94.000  225.528   95.190    0.481    0.229    5.803
   94.250  214.790   97.156    0.483    0.239    5.323
   94.500  207.040   97.927    0.482    0.227    5.168
   94.750  212.453   97.502    0.491    0.232    5.184
   95.000  216.653   96.481    0.485    0.218    5.620
   95.250  220.998   96.013    0.451    0.201    6.207
   95.500  214.243   94.394    0.452    0.197    6.244
   95.750  217.520   89.831    0.467    0.194    6.157
   96.000  224.852   86.973    0.470    0.187    5.761
   96.250  227.133   84.713    0.465    0.170    5.577
   96.500  222.443   80.063    0.467    0.137    5.610
   96.750  213.697   74.859    0.480    0.060    6.660
   97.000  202.959   73.837    0.476    0.141    6.833
   97.250  213.279   78.791    0.393    0.196    6.376
   97.500  222.603   83.190    0.399    0.232    5.134
   97.750  229.935   83.364    0.447    0.231    4.059
   98.000  233.212   84.135    0.487    0.245    3.330
   98.250  232.505   88.490    0.514    0.256    2.895
   98.500  223.759   92.933    0.521    0.246    3.017
   98.750  223.052   92.552    0.507    0.245    3.399
   99.000  226.473   91.444    0.508    0.240    3.680
   99.250  227.686   86.881    0.520    0.243    3.701
   99.500  230.039   85.772    0.534    0.231    3.797
   99.750  232.392   85.348    0.523    0.235    3.879
  100.000  232.536   86.119    0.493    0.241    3.980
  100.250  233.821   85.695    0.488    0.247    4.309
  100.500  234.110   82.327    0.483    0.262    4.766
  100.750  238.383   79.469    0.492    0.278    4.960
  101.000  246.711   76.612    0.517    0.310    4.898
  101.250  248.991   72.005    0.540    0.343    4.252
  101.500  268.274   66.757    0.566    0.405    3.361
  101.750  289.621   60.955    0.582    0.376    2.757
  102.000  242.887   58.695    0.581    0.357    2.985
  102.250  231.226   54.089    0.557    0.332    3.891
  102.500  231.515   48.243    0.523    0.313    6.462
  102.750  230.808   47.863    0.474    0.294    7.259
  103.000  231.097   49.785    0.461    0.280    9.816
  103.250  231.386   51.751    0.468    0.272   15.688
  103.500  231.603   53.761    0.473    0.274   19.024
  103.750  230.968   54.531    0.471    0.276   20.222
  104.000  231.185   54.151    0.466    0.281   21.103
  104.250  229.554   53.727    0.474    0.302   21.621
  104.500  228.848   52.151    0.473    0.292   21.382
  104.750  227.217   52.237    0.483    0.288   20.669
  105.000  226.366   53.008    0.489    0.279   17.943
  105.250  224.735   57.364    0.473    0.264   15.270
  105.500  224.028   64.751    0.473    0.243    9.846
  105.750  224.245   72.138    0.473    0.225    6.970
  106.000  223.538   80.720    0.488    0.238    5.112
  106.250  222.831   86.956    0.525    0.250    3.062
  106.500  221.201   88.368    0.549    0.251    2.562
  106.750  220.349   89.052    0.563    0.242    2.629
  107.000  219.643   89.225    0.539    0.242    2.740
  107.250  219.932   88.204    0.511    0.242    3.082
  107.500  223.353   84.238    0.495    0.234    3.399
  107.750  228.549   82.575    0.493    0.223    3.680
  108.000  235.881   82.194    0.494    0.235    4.140
  108.250  235.174   82.368    0.474    0.230    4.657
  108.500  231.408   83.139    0.452    0.208    4.943
  108.750  228.781   83.866    0.457    0.192    5.166
  109.000  228.998   84.637    0.463    0.200    5.211
  109.250  228.291   84.897    0.461    0.212    5.138
  109.500  227.656   84.386    0.453    0.214    5.161
  109.750  227.945   83.365    0.449    0.197    5.303
  110.000  227.311   81.789    0.454    0.196    5.326
  110.250  228.451   79.529    0.464    0.214    5.670
  110.500  235.856   76.671    0.483    0.205    5.899
  110.750  227.037   76.247    0.469    0.180    6.656
  111.000  214.380   74.671    0.453    0.203    7.196
  111.250  227.615   72.411    0.441    0.233    7.791
  111.500  230.964   67.761    0.429    0.239    8.605
  111.750  221.222   60.721    0.415    0.250    9.489
  112.000  211.480   53.681    0.416    0.269    9.888
  112.250  205.794   50.910    0.420    0.269   11.140
  112.500  205.087   48.650    0.426    0.258   11.824
  112.750  205.449   47.628    0.428    0.251   12.839
  113.000  205.665   50.192    0.435    0.261   13.398
  113.250  206.099   47.975    0.438    0.267   13.727
  113.500  206.316   44.563    0.430    0.275   14.346
  113.750  206.532   43.585    0.421    0.278   14.677
  114.000  207.889   43.074    0.412    0.265   15.037
  114.250  209.102   46.279    0.398    0.265   16.891
  114.500  211.527   50.081    0.405    0.264   17.330
  114.750  212.740   50.254    0.414    0.260   15.876
  115.000  216.161   49.830    0.421    0.256   14.813
  115.250  217.374   49.362    0.418    0.263   12.395
  115.500  219.582   47.743    0.413    0.260   11.164
  115.750  220.867   45.526    0.405    0.253   11.454
  116.000  223.220   42.115    0.402    0.248   12.140
  116.250  224.505   39.257    0.389    0.253   14.432
  116.500  225.790   35.845    0.381    0.264   17.157
  116.750  228.070   34.226    0.365    0.275   20.805
  117.000  230.351   33.802    0.357    0.286   23.371
  117.250  232.632   33.975    0.377    0.280   26.253
  117.500  236.053   32.954    0.395    0.284   28.994
  117.750  237.266   32.530    0.404    0.281   30.819
  118.000  239.619   35.093    0.389    0.272   27.717
  118.250  240.976   37.059    0.375    0.274   23.159
  118.500  242.116   39.666    0.398    0.273   16.700
  118.750  243.473   41.632    0.413    0.277   12.043
  119.000  243.762   43.000    0.408    0.277   10.649
  119.250  243.128   42.576    0.414    0.284   10.910
  119.500  242.276   42.793    0.418    0.282   11.161
  119.750  240.646   44.161    0.411    0.275   12.807
  120.000  237.023   45.530    0.416    0.266   14.145
  120.250  235.248   46.942    0.409    0.266   14.718
  120.500  234.469   48.908    0.404    0.265   14.804
  120.750  230.847   50.874    0.415    0.261   13.834
  121.000  229.000   54.078    0.427    0.260   12.946
  121.250  224.454   57.837    0.431    0.265   13.741
  121.500  223.603   60.357    0.427    0.271   16.335
  121.750  221.049   62.964    0.422    0.265   23.412
  122.000  219.201   65.570    0.419    0.256   25.819
  122.250  215.651   68.090    0.413    0.241   26.453
  122.500  213.876   70.654    0.404    0.239   26.084
  122.750  212.101   73.304    0.394    0.244   23.098
