~VERSION INFORMATION
 VERS.                 2.0:   CWLS LOG ASCII STANDARD -VERSION 2.0
 WRAP.                  NO:   ONE LINE PER DEPTH STEP
~WELL INFORMATION BLOCK
#MNEM.UNIT           DATA                    DESCRIPTION OF MNEMONIC
#---------    -------------------            -------------------------------
# Generated from Intellog Unique Number	CC_80_83/WELL/2364
NULL.         -999.25                        : NULL_VALUE
WELL.         PEX PCEJ HANGST OV             : Well_name    - WELL              
LOC .         10-23-081-08W4                 : Location     - LOCATION          
UWI .         AA/10-23-081-08W4/0            : Uwi          - UNIQUE WELL ID    
ENTR.         DW                             : Entered      - ENTERED BY        
SRVC.         SCHLUMBERGER                   : Scn          - SERVICE COMPANY   
DATE.         18 JAN 80                      : Date         - LOG DATE
STRT.M        250                            : top_depth    - START DEPTH       
STOP.M        494.79                         : bot_depth    - STOP DEPTH        
STEP.M        0.3                            : increment    - STEP LENGTH       
~CURVE INFORMATION BLOCK
#MNEM UNIT       ERCB CURVE CODE    CURVE DESCRIPTION
#-----------   ------------------   ----------------------------------
DEPT.M        00 001 00 00         : DEPTH        - DEPTH                       
DPHI.V/V      00 890 00 00         : PHID         - DENSITY POROSITY (LIMESTONE)
NPHI.V/V      00 330 00 00         : PHIN         - NEUTRON POROSITY (LIMESTONE)
GR  .API      00 310 00 00         : GR           - GAMMA RAY                   
ILD .OHMM     00 120 00 00         : RESD         - DEEP RESISTIVITY (DIL)      
~PARAMETER INFORMATION       
#MNEM.UNIT           DATA             DESCRIPTION OF MNEMONIC
#---------         -----------     ------------------------------
GL  .M        735.25               : gl           - GROUND LEVEL ELEVATION      
EREF.M        738.85               : kb           - ELEVATION OF DEPTH REFERENCE
DATM.M        738.85               : datum        - DATUM ELEVATION             
TDD .M        497                  : tdd          - TOTAL DEPTH DRILLER         
RUN .         ONE                  : Run          - RUN NUMBER                  
ENG .         BILL                 : Engineer     - RECORDING ENGINEER          
WIT .         JIM                  : Witness      - WITNESSED BY                
MUD .         GEL                  : Mud_type     - MUD TYPE                    
MATR.         LIMESTONE            : Logunit      - NEUTRON MATRIX              
TMAX.C        19                   : BHT          - MAXIMUM RECORDED TEMPERATURE
BHTD.M        497                  : BHTDEP       - MAXIMUM RECORDED TEMPERATURE
MATR.         1                    : LOGUNIT      - NEUTRON MATRIX              
RMT .C        25                   : MDTP         - TEMPERATURE OF MUD          
NEUT.         1                    : NEUTRON      - NEUTRON TYPE                
RESI.         0                    : RESIST       - RESISTIVITY TYPE            
RMC .OHMM     0.25                 : RMC          - RESISTIVITY OF MUD CAKE     
RMF .OHMM     0.25                 : RMF          - RESISTIVITY OF MUD FILTRATE 
SUFT.C        4                    : SUFT         - SURFACE TEMPERATURE         
~A  DEPTH     PHID     PHIN       GR     RESD
# ...
  458.792    0.232    0.378  110.897   13.727
  459.092    0.217    0.391  114.600   14.788
  459.392    0.252    0.397  117.684   15.053
  459.692    0.250    0.438  118.277   15.044
  459.992    0.232    0.453  125.716   14.476
  460.292    0.260    0.438  127.550   12.672
  460.592    0.277    0.399  118.201   11.520
  460.892    0.246    0.390  106.359   11.087
  461.192    0.251    0.374   93.274   11.720
  461.492    0.264    0.373   95.734   12.631
  461.792    0.270    0.375  113.122   13.868
  462.092    0.294    0.370  139.832   15.808
  462.392    0.320    0.366   91.927   16.713
  462.692    0.332    0.346   81.950   18.353
  462.992    0.299    0.357   66.379   22.141
  463.292    0.286    0.367   58.268   25.730
  463.592    0.319    0.383   60.107   33.475
  463.892    0.319    0.396   60.703   43.561
  464.192    0.292    0.383   54.457   61.123
  464.492    0.259    0.375   50.701   92.482
  464.792    0.271    0.386   54.408  101.543
  465.092    0.309    0.388   51.892  111.483
  465.392    0.328    0.375   38.188  139.690
  465.692    0.308    0.359   40.650  142.154
  465.992    0.288    0.345   52.438  134.278
  466.292    0.278    0.337   93.446  115.366
  466.591    0.278    0.332  100.262   88.513
  466.891    0.277    0.328   98.994   62.973
  467.191    0.277    0.323   99.586   45.655
  467.491    0.276    0.308  103.917   39.957
  467.791    0.279    0.302  111.352   41.453
  468.091    0.285    0.313  114.435   42.224
  468.391    0.291    0.334   78.344   42.985
  468.691    0.285    0.337   62.771   38.354
  468.991    0.271    0.327   75.802   32.332
  469.291    0.257    0.336   99.405   28.311
  469.591    0.254    0.332   98.136   27.754
  469.891    0.265    0.329   94.375   28.800
  470.191    0.272    0.337   89.375   33.456
  470.491    0.263    0.347   81.268   38.152
  470.791    0.266    0.344   85.594   43.494
  471.091    0.277    0.350   86.189   45.124
  471.391    0.284    0.359   81.811   41.814
  471.691    0.292    0.359   83.027   35.251
  471.991    0.279    0.348   92.330   28.622
  472.291    0.263    0.334  108.466   23.681
  472.591    0.266    0.317  113.416   22.355
  472.891    0.267    0.304  114.631   24.085
  473.191    0.271    0.301  113.366   27.982
  473.491    0.280    0.311   97.794   30.732
  473.791    0.287    0.324   99.632   36.383
  474.091    0.295    0.318   76.597   38.466
  474.391    0.291    0.308   82.166   37.720
  474.691    0.277    0.322   89.604   34.936
  474.991    0.275    0.328   96.419   32.367
  475.291    0.281    0.325   78.357   31.736
  475.591    0.283    0.336   77.086   32.935
  475.891    0.281    0.341   78.306   36.850
  476.191    0.270    0.341   88.230   44.462
  476.491    0.267    0.350  105.613   54.661
  476.791    0.282    0.349   72.010   71.135
  477.091    0.299    0.362   71.980  107.634
  477.391    0.314    0.366   82.529  162.860
  477.691    0.318    0.355   97.425  189.220
  477.991    0.317    0.343  106.727  207.705
  478.291    0.314    0.341  116.026  326.408
  478.591    0.314    0.361   87.399 1050.470
  478.891    0.315    0.359   71.826 1473.980
  479.191    0.317    0.361   71.174 1745.200
  479.491    0.319    0.368   76.747 1879.740
  479.791    0.318    0.362  122.737 1950.090
  480.091    0.319    0.370  109.030 1986.270
  480.391    0.322    0.375   58.635 2022.060
  480.691    0.318    0.362   64.204 2058.970
  480.991    0.311    0.367   75.370 2096.100
  481.291    0.306    0.362   80.941 2094.490
  481.591    0.307    0.342   90.865 1868.480
  481.891    0.309    0.348   90.219 1832.110
  482.191    0.312    0.353   60.966 1865.080
  482.491    0.319    0.353   71.511 1972.260
  482.791    0.322    0.361   77.082 2085.230
  483.091    0.324    0.372   62.753 2123.260
  483.391    0.326    0.393   50.290 2120.960
  483.691    0.330    0.390   39.694 2079.710
  483.991    0.329    0.373   40.288 1136.290
  484.291    0.328    0.364   53.319   85.627
  484.591    0.317    0.359   66.353   74.945
  484.891    0.296    0.346   75.030   73.505
  485.191    0.291    0.340   62.568   88.691
  485.491    0.325    0.355   42.021  195.624
  485.791    0.335    0.361   48.835  191.877
  486.091    0.337    0.368   60.624  152.859
  486.391    0.343    0.370   56.866  124.115
  486.691    0.344    0.375   65.545   88.304
  486.991    0.338    0.380   55.570   71.682
  487.291    0.323    0.358   68.603   61.587
  487.591    0.301    0.322   58.001   53.919
  487.891    0.304    0.309   69.172   41.372
  488.191    0.296    0.292   98.992   18.716
  488.491    0.276    0.279   56.684   16.080
  488.791    0.051    0.250   59.763   16.062
  489.091    0.046    0.182   68.444   17.310
  489.391    0.034    0.176   73.392   24.750
  489.691    0.019    0.174   73.366   44.373
  489.991    0.000    0.165   65.257   47.816
  490.291    0.000    0.144   55.275   47.762
  490.591    0.021    0.145   62.094   45.951
  490.891    0.041    0.165   72.641   43.389
  491.190    0.055    0.185   76.345   38.719
  491.490    0.065    0.189   74.452   32.636
  491.790    0.065    0.194   75.668   30.241
  492.090    0.063    0.201   79.997   28.555
  492.390    0.058    0.208   87.428   27.998
  492.690    0.052    0.214   85.540   27.958
  492.990    0.050    0.213   81.161   28.477
  493.290    0.058    0.217   83.621   29.541
  493.590    0.062    0.222   91.058   30.077
  493.890    0.064    0.222   91.654   29.488
  494.190    0.068    0.219   86.647   27.838
  494.490    0.072    0.216   79.160   26.795
  494.790    0.073    0.214   84.734   25.779
