~VERSION INFORMATION
 VERS.                 2.0:   CWLS LOG ASCII STANDARD -VERSION 2.0
 WRAP.                  NO:   ONE LINE PER DEPTH STEP
~WELL INFORMATION BLOCK
#MNEM.UNIT           DATA                    DESCRIPTION OF MNEMONIC
#---------    -------------------            -------------------------------
# Generated from Intellog Unique Number	CC_84_87/WELL/2324
NULL.         -999.25                        : NULL_VALUE
WELL.         PEX PCEJ HANGST OV             : Well_name    - WELL
LOC .         11-07-084-08W4                 : Location     - LOCATION          
UWI .         AA/11-07-084-08W4/0            : Uwi          - UNIQUE WELL ID    
ENTR.         RJA                            : Entered      - ENTERED BY        
SRVC.         DRESSER ATLAS                  : Scn          - SERVICE COMPANY   
DATE.         30 JAN 80                      : Date         - LOG DATE
STRT.M        250                            : top_depth    - START DEPTH       
STOP.M        537.089                        : bot_depth    - STOP DEPTH        
STEP.M        0.3                            : increment    - STEP LENGTH       
~CURVE INFORMATION BLOCK
#MNEM UNIT       ERCB CURVE CODE    CURVE DESCRIPTION
#-----------   ------------------   ----------------------------------
DEPT.M        00 001 00 00         : DEPTH        - DEPTH                       
DPHI.V/V      00 890 00 00         : PHID         - DENSITY POROSITY (LIMESTONE)
NPHI.V/V      00 330 00 00         : PHIN         - NEUTRON POROSITY (LIMESTONE)
GR  .API      00 310 00 00         : GR           - GAMMA RAY                   
ILD .OHMM     00 120 00 00         : RESD         - DEEP RESISTIVITY (DIL)      
~PARAMETER INFORMATION       
#MNEM.UNIT           DATA             DESCRIPTION OF MNEMONIC
#---------         -----------     ------------------------------
GL  .M        272.32               : gl           - GROUND LEVEL ELEVATION      
EREF.M        730.92               : kb           - ELEVATION OF DEPTH REFERENCE
DATM.M        730.92               : datum        - DATUM ELEVATION             
TDD .M        541                  : tdd          - TOTAL DEPTH DRILLER         
RUN .         ONE                  : Run          - RUN NUMBER                  
ENG .         BILL                 : Engineer     - RECORDING ENGINEER          
WIT .         JIM                  : Witness      - WITNESSED BY                
MUD .         GEL                  : Mud_type     - MUD TYPE                    
MATR.         LIMESTONE            : Logunit      - NEUTRON MATRIX              
TMAX.C        20                   : BHT          - MAXIMUM RECORDED TEMPERATURE
BHTD.M        541                  : BHTDEP       - MAXIMUM RECORDED TEMPERATURE
MATR.         1                    : LOGUNIT      - NEUTRON MATRIX              
RMT .C        25                   : MDTP         - TEMPERATURE OF MUD          
NEUT.         1                    : NEUTRON      - NEUTRON TYPE                
RESI.         0                    : RESIST       - RESISTIVITY TYPE            
RMC .OHMM     0.25                 : RMC          - RESISTIVITY OF MUD CAKE     
RMF .OHMM     0.25                 : RMF          - RESISTIVITY OF MUD FILTRATE 
SUFT.C        15                   : SUFT         - SURFACE TEMPERATURE         
~A  DEPTH     PHID     PHIN       GR     RESD
# ...
  406.594    0.177    0.369  124.200   13.334
  406.894    0.210    0.372  114.995   12.935
  407.194    0.216    0.392  121.215   12.617
  407.494    0.209    0.367  117.624   12.700
  407.794    0.202    0.368  122.734   13.073
  408.094    0.242    0.380  113.468   12.496
  408.394    0.270    0.404  104.943   10.904
  408.694    0.293    0.458   99.688    9.151
  408.994    0.294    0.517  111.646    8.489
  409.294    0.275    0.520  109.289    9.001
  409.594    0.296    0.487  117.546   10.551
  409.894    0.303    0.433  117.903   12.674
  410.194    0.242    0.395  116.473   15.191
  410.494    0.229    0.389  115.967   15.578
  410.794    0.226    0.376  115.217   15.140
  411.094    0.219    0.409  121.437   14.123
  411.394    0.217    0.404  114.021   13.373
  411.694    0.213    0.393  114.196   12.499
  411.994    0.235    0.396  120.045   10.785
  412.294    0.278    0.437  117.690    9.570
  412.594    0.363    0.461  112.372    8.228
  412.894    0.388    0.536  106.006    7.688
  413.194    0.409    0.544  102.292    7.640
  413.494    0.310    0.512  108.821    8.284
  413.794    0.298    0.481  112.695    9.512
  414.094    0.263    0.437  119.349    9.833
  414.394    0.255    0.449  122.730   10.485
  414.694    0.299    0.473  109.578   10.753
  414.994    0.333    0.475  105.370   11.615
  415.294    0.253    0.457   96.290   12.271
  415.594    0.227    0.428   99.547   12.262
  415.894    0.214    0.412  101.758   11.983
  416.194    0.215    0.390  100.263   11.582
  416.494    0.221    0.406  102.906   10.333
  416.794    0.240    0.433  106.289    7.841
  417.094    0.289    0.473   96.837    6.908
  417.393    0.361    0.523  102.811    5.235
  417.693    0.378    0.567  100.826    4.560
  417.993    0.387    0.585  109.205    4.334
  418.293    0.361    0.585  117.091    4.895
  418.593    0.338    0.511  115.969    6.272
  418.893    0.330    0.487  118.363    7.395
  419.193    0.217    0.462  115.267    8.996
  419.493    0.229    0.406  113.096    9.920
  419.793    0.235    0.417  105.928   11.713
  420.093    0.231    0.386  111.593   12.916
  420.393    0.223    0.370  106.583   14.058
  420.693    0.225    0.358  102.809   13.335
  420.993    0.248    0.358   90.088   12.302
  421.293    0.190    0.367   97.726   12.712
  421.593    0.080    0.352  100.614   13.036
  421.893    0.090    0.309   94.681   12.343
  422.193    0.203    0.357  102.629   10.730
  422.493    0.221    0.430  108.231    9.173
  422.793    0.252    0.437  105.567    8.079
  423.093    0.278    0.456  106.974    7.385
  423.393    0.249    0.488  114.178    7.124
  423.693    0.243    0.508  113.921    6.988
  423.993    0.235    0.497  110.641    7.423
  424.293    0.222    0.491  113.037    7.742
  424.593    0.245    0.498  114.506    7.838
  424.893    0.293    0.532  107.831    5.916
  425.193    0.386    0.578  102.881    4.288
  425.493    0.409    0.603   98.615    3.598
  425.793    0.441    0.595   95.580    3.400
  426.093    0.438    0.577   94.149    3.354
  426.393    0.238    0.474  102.960    4.142
  426.693    0.242    0.466   98.940    5.368
  426.993    0.241    0.472  101.890    6.327
  427.293    0.240    0.442  104.715    7.240
  427.593    0.234    0.440  105.322    7.565
  427.893    0.224    0.458   97.105    7.365
  428.193    0.256    0.471  102.400    6.633
  428.493    0.311    0.502   98.254    5.403
  428.793    0.346    0.560  103.794    4.559
  429.093    0.358    0.599  101.563    4.382
  429.393    0.358    0.544   99.083    5.223
  429.693    0.359    0.500   94.321    6.681
  429.993    0.190    0.485   95.483    7.139
  430.293    0.261    0.465   86.646    5.793
  430.593    0.321    0.557   88.920    5.326
  430.893    0.394    0.634   99.644    4.699
  431.193    0.466    0.681   97.411    4.146
  431.493    0.427    0.663  104.802    3.775
  431.793    0.396    0.623   97.821    3.495
  432.093    0.388    0.655  104.718    3.506
  432.393    0.367    0.682  105.385    3.671
  432.693    0.325    0.676  102.784    3.951
  432.993    0.338    0.638  104.438    4.244
  433.293    0.297    0.599  103.686    4.500
  433.593    0.273    0.594  111.263    4.746
  433.893    0.246    0.559  106.809    5.126
  434.193    0.266    0.557  104.577    5.457
  434.493    0.321    0.548  106.108    5.883
  434.793    0.368    0.583  101.161    6.024
  435.093    0.424    0.613   96.521    5.974
  435.393    0.391    0.605  101.817    5.730
  435.693    0.361    0.612   98.596    5.518
  435.993    0.345    0.599  101.424    5.422
  436.293    0.333    0.527  105.547    5.500
  436.593    0.366    0.504  111.026    5.767
  436.893    0.357    0.536  104.167    5.471
  437.193    0.240    0.480  100.082    5.208
  437.493    0.265    0.440   96.184    5.273
  437.793    0.287    0.434   93.705    6.147
  438.093    0.290    0.422   89.312    7.548
  438.393    0.272    0.353   98.679   10.555
  438.693    0.253    0.327   89.721   13.781
  438.993    0.249    0.342   87.674   16.066
  439.293    0.253    0.336   93.462   16.785
  439.593    0.250    0.343   93.513   16.465
  439.893    0.254    0.351  102.386   15.647
  440.193    0.254    0.357   98.117   14.436
  440.493    0.247    0.349  100.325   13.171
  440.793    0.233    0.359   97.478   12.963
  441.093    0.223    0.382  103.760   12.907
  441.393    0.234    0.396  103.933   11.996
  441.693    0.225    0.403  114.164   11.485
  441.992    0.220    0.407  121.679   10.836
  442.292    0.216    0.428  130.367    9.632
  442.592    0.212    0.400  120.359    9.118
  442.892    0.213    0.402  124.730    8.879
  443.192    0.220    0.393  135.023    8.974
  443.492    0.225    0.392  122.918    9.766
  443.792    0.228    0.414  129.507   11.196
  444.092    0.275    0.395   99.511   14.058
  444.392    0.258    0.336   89.258   15.908
  444.692    0.245    0.322   81.966   17.218
  444.992    0.232    0.324   89.419   18.394
  445.292    0.234    0.320   84.595   20.204
  445.592    0.239    0.321   83.843   21.030
  445.892    0.205    0.319   76.984   23.312
  446.192    0.171    0.320   64.818   25.802
  446.492    0.229    0.331   73.134   27.314
  446.792    0.239    0.356   81.701   26.400
  447.092    0.243    0.378   77.740   27.735
  447.392    0.249    0.384   79.641   33.243
  447.692    0.255    0.395   78.457   45.968
  447.992    0.273    0.408   71.104   63.586
  448.292    0.275    0.428   67.142   96.841
  448.592    0.271    0.420   65.775  194.531
  448.892    0.265    0.394   80.449  326.913
  449.192    0.262    0.389   67.911  402.211
  449.492    0.263    0.386   72.281  281.362
  449.792    0.267    0.402   63.014  119.234
  450.092    0.268    0.429   62.705   64.607
  450.392    0.273    0.407   59.285   48.198
  450.692    0.263    0.407   59.048   36.291
  450.992    0.256    0.395   71.332   30.481
  451.292    0.252    0.429   81.407   30.470
  451.592    0.258    0.439   83.382   29.079
  451.892    0.251    0.411   72.902   24.154
  452.192    0.210    0.395   81.810   20.137
  452.492    0.191    0.387   96.486   17.779
  452.792    0.195    0.427  100.610   16.593
  453.092    0.194    0.401  103.996   16.014
  453.392    0.192    0.422  106.339   15.746
  453.692    0.197    0.443   94.633   15.710
  453.992    0.200    0.445   98.818   16.236
  454.292    0.197    0.435   85.392   16.717
  454.592    0.188    0.419   97.922   16.555
  454.892    0.189    0.440  114.502   16.156
  455.192    0.185    0.440  113.348   15.738
  455.492    0.181    0.421   98.757   15.415
  455.792    0.196    0.429  109.199   15.872
  456.092    0.214    0.420  101.663   17.466
  456.392    0.224    0.417   98.425   19.192
  456.692    0.224    0.426  105.248   21.007
  456.992    0.229    0.452   95.259   22.572
  457.292    0.227    0.445   91.160   24.030
  457.592    0.254    0.470  100.009   29.500
  457.892    0.271    0.426   88.853   36.421
  458.192    0.275    0.451   82.116   41.142
  458.492    0.278    0.418   95.749   41.200
