~VERSION INFORMATION
 VERS.                 2.0:   CWLS LOG ASCII STANDARD -VERSION 2.0
 WRAP.                  NO:   ONE LINE PER DEPTH STEP
~WELL INFORMATION BLOCK
#MNEM.UNIT           DATA                    DESCRIPTION OF MNEMONIC
#---------    -------------------            -------------------------------
# Generated from Intellog Unique Number	CC_84_87/WELL/2332
NULL.         -999.25                        : NULL_VALUE
WELL.         PEX PCEJ HANGST OV             : Well_name    - WELL              
LOC .         11-26-087-09W4                 : Location     - LOCATION          
UWI .         AA/11-26-087-09W400            : Uwi          - UNIQUE WELL ID    
ENTR.         RJA                            : Entered      - ENTERED BY        
SRVC.         DRESSER ATLAS                  : Scn          - SERVICE COMPANY   
DATE.         07 FEB 81                      : Date         - LOG DATE
STRT.M        65                             : top_depth    - START DEPTH       
STOP.M        170.001                        : bot_depth    - STOP DEPTH        
STEP.M        0.3                            : increment    - STEP LENGTH       
~CURVE INFORMATION BLOCK
#MNEM UNIT       ERCB CURVE CODE    CURVE DESCRIPTION
#-----------   ------------------   ----------------------------------
DEPT.M        00 001 00 00         : DEPTH        - DEPTH                       
ILD .OHMM     00 120 00 00         : RESD         - DEEP RESISTIVITY (DIL)      
GR  .API      00 310 00 00         : GR           - GAMMA RAY                   
NPHI.V/V      00 330 00 00         : PHIN         - NEUTRON POROSITY (LIMESTONE)
DPHI.V/V      00 890 00 00         : PHID         - DENSITY POROSITY (LIMESTONE)
~PARAMETER INFORMATION       
#MNEM.UNIT           DATA             DESCRIPTION OF MNEMONIC
#---------         -----------     ------------------------------
GL  .M        407.8                : gl           - GROUND LEVEL ELEVATION      
EREF.M        412.9                : kb           - ELEVATION OF DEPTH REFERENCE
DATM.M        412.9                : datum        - DATUM ELEVATION             
TDD .M        173.5                : tdd          - TOTAL DEPTH DRILLER         
RUN .         ONE                  : Run          - RUN NUMBER                  
ENG .         BILL                 : Engineer     - RECORDING ENGINEER          
WIT .         JIM                  : Witness      - WITNESSED BY                
MUD .         GEL                  : Mud_type     - MUD TYPE                    
MATR.         LIMESTONE            : Logunit      - NEUTRON MATRIX              
TMAX.C        19                   : BHT          - MAXIMUM RECORDED TEMPERATURE
BHTD.M        173.5                : BHTDEP       - MAXIMUM RECORDED TEMPERATURE
MATR.         1                    : LOGUNIT      - NEUTRON MATRIX              
RMT .C        25                   : MDTP         - TEMPERATURE OF MUD          
NEUT.         1                    : NEUTRON      - NEUTRON TYPE                
RESI.         0                    : RESIST       - RESISTIVITY TYPE            
RMC .OHMM     0.25                 : RMC          - RESISTIVITY OF MUD CAKE     
RMF .OHMM     0.25                 : RMF          - RESISTIVITY OF MUD FILTRATE 
SUFT.C        15                   : SUFT         - SURFACE TEMPERATURE         
~A  DEPTH     RESD       GR     PHIN     PHID
   65.000    7.706   78.166    0.509    0.275
   65.300    7.167   69.346    0.485    0.282
   65.600    6.964   67.294    0.468    0.241
   65.900    7.275   72.567    0.469    0.224
   66.200    8.536   70.266    0.475    0.223
   66.500   10.326   71.069    0.475    0.216
   66.800   10.363   74.418    0.467    0.227
   67.100    9.657   78.947    0.450    0.237
   67.400   10.262   81.923    0.449    0.240
   67.700   11.635   79.685    0.450    0.229
   68.000   12.201   69.188    0.450    0.172
   68.300   11.154   66.450    0.431    0.147
   68.600   10.120   68.187    0.422    0.216
   68.900    8.020   70.978    0.446    0.251
   69.200    6.925   66.069    0.458    0.240
   69.500    6.515   69.108    0.462    0.218
   69.800    6.427   70.097    0.459    0.210
   70.100    6.766   69.846    0.472    0.221
   70.400    7.656   76.857    0.481    0.222
   70.700    9.018   77.040    0.458    0.217
   71.000   10.264   74.180    0.423    0.232
   71.300   10.824   73.742    0.418    0.256
   71.600   10.679   66.102    0.432    0.268
   71.900   10.123   69.326    0.445    0.251
   72.200    8.858   69.695    0.437    0.228
   72.500    8.068   74.472    0.440    0.227
   72.800    7.517   74.406    0.441    0.234
   73.100    7.375   67.139    0.443    0.230
   73.400    7.374   65.582    0.452    0.224
   73.700    7.457   71.539    0.451    0.220
   74.000    7.628   73.398    0.462    0.214
   74.300    7.803   71.097    0.459    0.231
   74.600    8.105   68.361    0.476    0.251
   74.900    8.089   68.047    0.471    0.254
   75.200    7.741   61.524    0.459    0.233
   75.500    6.839   68.537    0.460    0.228
   75.800    5.389   70.210    0.476    0.240
   76.100    4.403   71.571    0.516    0.271
   76.400    3.674   72.003    0.517    0.288
   76.700    3.502   63.804    0.550    0.300
   77.000    4.285   66.096    0.544    0.251
   77.300    4.999   70.377    0.518    0.221
   77.600    6.403   74.160    0.482    0.216
   77.900    7.687   71.176    0.467    0.225
   78.200    8.422   65.399    0.478    0.235
   78.500    9.018   63.346    0.469    0.219
   78.800    9.034   62.101    0.460    0.221
   79.100    8.661   60.607    0.447    0.228
   79.400    8.693   63.831    0.454    0.241
   79.700    9.168   67.429    0.464    0.250
   80.000   10.007   68.916    0.442    0.241
   80.300   11.764   64.814    0.450    0.213
   80.600   12.011   56.615    0.388    0.153
   80.900   11.517   55.184    0.419    0.181
   81.200    9.392   66.107    0.450    0.213
   81.500    6.318   72.622    0.446    0.201
   81.800    4.115   77.213    0.437    0.221
   82.100    3.460   70.380    0.486    0.257
   82.400    3.027   64.416    0.535    0.308
   82.700    2.747   65.219    0.570    0.454
   83.000    2.725   63.539    0.551    0.374
   83.300    2.975   56.892    0.513    0.337
   83.600    3.898   65.705    0.485    0.369
   83.900    4.583   55.209    0.466    0.235
   84.200    5.166   50.548    0.462    0.212
   84.500    5.438   53.524    0.466    0.239
   84.800    5.670   57.494    0.483    0.296
   85.100    6.367   53.766    0.464    0.242
   85.400    7.428   53.265    0.453    0.260
   85.700    7.761   56.552    0.438    0.290
   86.000    8.951   63.005    0.436    0.291
   86.300    8.373   66.603    0.464    0.167
   86.600    6.750   64.302    0.430    0.081
   86.900    5.664   62.746    0.456    0.208
   87.200    4.637   71.248    0.543    0.238
   87.500    3.846   74.410    0.551    0.243
   87.800    3.477   76.332    0.562    0.248
   88.100    3.308   76.949    0.575    0.259
   88.400    3.208   68.253    0.538    0.273
   88.700    3.226   64.897    0.543    0.296
   89.000    3.257   72.530    0.549    0.254
   89.300    3.428   72.898    0.520    0.235
   89.600    3.720   73.949    0.518    0.238
   89.900    3.961   73.139    0.523    0.238
   90.200    4.145   77.791    0.524    0.230
   90.500    4.273   80.396    0.511    0.224
   90.800    4.472   77.474    0.491    0.226
   91.100    4.601   74.303    0.468    0.235
   91.400    4.689   70.885    0.457    0.199
   91.700    4.936   63.742    0.433    0.146
   92.000    5.660   60.448    0.411    0.164
   92.300    5.891   60.568    0.429    0.250
   92.600    7.249   59.013    0.399    0.264
   92.900    9.812   55.407    0.362    0.302
   93.200   11.983   57.825    0.367    0.319
   93.500   13.769   58.380    0.368    0.308
   93.800   13.227   56.328    0.370    0.278
   94.100   12.116   56.014    0.369    0.253
   94.400   10.971   58.431    0.407    0.181
   94.700   10.520   56.069    0.392    0.160
   95.000   10.183   64.322    0.396    0.243
   95.300   10.259   68.416    0.396    0.255
   95.600   10.656   69.095    0.378    0.252
   95.900   12.646   65.614    0.369    0.224
   96.200   13.517   61.885    0.329    0.249
   96.500   16.383   57.039    0.292    0.255
   96.800   21.304   49.275    0.285    0.272
   97.100   25.478   42.504    0.315    0.317
   97.400   27.180   38.216    0.301    0.305
   97.700   28.232   43.428    0.297    0.294
   98.000   28.715   48.142    0.310    0.302
   98.300   29.826   46.338    0.305    0.319
   98.600   32.553   46.148    0.278    0.312
   98.900   37.618   50.739    0.262    0.311
   99.200   41.135   46.265    0.259    0.320
   99.500   44.807   40.487    0.274    0.315
   99.800   46.188   40.297    0.302    0.299
  100.100   45.830   38.741    0.354    0.304
  100.400   45.306   36.316    0.377    0.294
  100.700   44.696   41.962    0.366    0.301
  101.000   45.206   41.152    0.362    0.323
  101.300   49.620   48.785    0.381    0.301
  101.600   54.359   52.009    0.386    0.296
  101.900   54.981   51.509    0.376    0.301
  102.200   56.139   47.470    0.396    0.266
  102.500   56.775   53.612    0.408    0.255
  102.800   57.419   48.083    0.418    0.284
  103.100   62.548   44.540    0.419    0.293
  103.400   63.259   44.225    0.410    0.289
  103.700   57.391   39.752    0.395    0.305
  104.000   52.269   35.650    0.380    0.291
  104.300   50.116   40.303    0.377    0.291
  104.600   50.490   43.094    0.375    0.308
  104.900   51.458   43.835    0.368    0.320
  105.200   55.417   40.913    0.366    0.275
  105.500   61.293   37.246    0.377    0.260
  105.800   62.703   41.464    0.360    0.280
  106.100   64.145   39.225    0.368    0.275
  106.400   61.973   36.925    0.374    0.272
  106.700   60.449   37.230    0.376    0.282
  107.000   57.958   41.138    0.374    0.291
  107.300   54.940   46.351    0.355    0.298
  107.600   54.103   51.438    0.337    0.288
  107.900   51.481   47.026    0.353    0.289
  108.200   47.969   41.187    0.357    0.292
  108.500   44.274   44.225    0.357    0.263
  108.800   42.049   54.528    0.374    0.265
  109.100   39.408   53.531    0.363    0.273
  109.400   36.859   50.485    0.380    0.261
  109.700   35.612   47.501    0.362    0.262
  110.000   34.868   49.111    0.377    0.278
  110.300   34.467   51.776    0.360    0.272
  110.600   33.682   55.250    0.343    0.261
  110.900   34.129   57.110    0.342    0.262
  111.200   35.790   48.661    0.348    0.254
  111.500   37.103   42.511    0.346    0.256
  111.800   36.121   43.873    0.353    0.272
  112.100   33.531   46.353    0.359    0.273
  112.400   26.930   51.502    0.379    0.278
  112.700   21.059   52.989    0.381    0.267
  113.000   18.427   48.328    0.392    0.224
  113.300   16.783   60.556    0.403    0.237
  113.600   15.141   60.118    0.394    0.213
  113.900   14.135   68.061    0.396    0.177
  114.201   14.025   70.169    0.412    0.186
  114.501   14.735   67.992    0.387    0.198
  114.801   15.452   63.207    0.395    0.198
  115.101   16.233   63.576    0.383    0.194
  115.401   16.607   67.546    0.369    0.199
  115.701   16.956   64.500    0.367    0.206
  116.001   16.602   70.642    0.364    0.211
  116.301   16.256   64.678    0.365    0.208
  116.601   16.130   65.358    0.362    0.202
  116.901   16.375   68.894    0.371    0.191
