~Version : LASO    vs 4.00
VERS.                2.00:   CWLS Log ASCII Standard -VERSION 2.0
WRAP.                  NO:
~Well Information Block
#MNEM.UNIT       Data                        Description of Mnemonic
#----.----      -------------------------- : -----------------------------
STRT.M            21.0000:
STOP.M           215.4000:
STEP.M             0.2000:
NULL.           -999.2500:
COMP.  MOBIL OIL CANADA                 :COMPANY
WELL.  MOBIL CLARKE OV PROG. 2-81       :WELL
FLD.                                    :FIELD
LOC.   13-28-089-07W4                   :LOCATION
CTRY.  CANADA                           :COUNTRY
PROV.  ALBERTA                          :PROVINCE
SRVC.  SCHLUMBERGER                     :SERVICE COMPANY
DATE.  31-JAN-81                        :LOG DATE
UWI.   AA/13-28-089-07W400              :UNIQUE WELL ID
~Parameter Information Block
#MNEM.UNIT       Data                        Description of Mnemonic
#----.----      -------------------------- : -----------------------------
RUN .                   1                 : Run Number
GL  .M           458.5000                 : Ground Level Elevation
DREF.                  GD                 : Depth Reference
EREF.M           458.5000                 : Elevation of Depth Reference
TDL .M           216.0000                 : Total Depth Logger
TDD .M           216.0000                 : Total Depth Driller
CSGL.M            22.0000                 : Casing Bottom Logger
CSGD.M            22.0000                 : Casing Bottom Driller
CSGS.MM          219.0000                 : Casing Size
CSGW.KG/M          0.0000                 : Casing Weight
BHT .DEGC         12.0000                 : Bottom Hole Temperature
BS  .MM          171.0000                 : Bit Size
DFD .           9999.0000                 : Mud Weight (Density)
DFV .             45.0000                 : Mud Viscosity
DFPH.             11.0000                 : Mud pH
RM  .OHMM          5.7400                 : Mud Resistivity
RMT .DEGC         12.0000                 : Mud Resistivity Temperature
~Curve Information Block
#MNEM.UNIT        API CODE    Curve Description
#---------    ------------    -------------------------------------------
DEPT.M                    :   DEPTH
CALI.MM       42 280  1  1:   3 DENSITY CALIPER
DPHI.V/V                  :   DPHI
DT  .US/M     60 520  0  1:   2 SONIC INTERVAL TRANSIT TIME (COMPENSATED)
GR  .GAPI     42 310  1  1:   4 GAMMA RAY
ILD .OHMM      5 120 46  1:   7 DEEP INDUCTION
ILM .OHMM      5 120 44  1:   8 MEDIUM INDUCTION
NPHI.V/V      42 890  3  1:   5 NEUTRON POROSITY (SANDSTONE)
RHOB.K/M3     42 350  1  1:   6 BULK DENSITY
SFLU.OHMM      5 220  1  1:   9 FOCUSSED RESISTIVITY
SP  .MV        5  10  1  1:   10 SPONTANEOUS POTENTIAL
~A  Depth           CALI        DPHI          DT          GR         ILD         ILM        NPHI        RHOB        SFLU          SP
# ...
33.2000         204.6000      0.1340    309.2400     59.5500     55.4409     53.2881      0.3005   2417.7000     51.4079    -52.9950
33.4000         206.9000      0.1360    490.9600     60.0900     54.9326     53.2881      0.2982   2414.5000     51.4079    -53.2500
33.6000         209.2500      0.1384    459.0400     60.8400     55.4409     52.7995      0.2984   2424.1001     51.4079    -53.4900
33.8000         202.8250      0.1364    527.2000     60.1950     58.5909     52.7995      0.3133   2476.5000     50.9366    -53.7450
34.0000         198.8250      0.1329    345.6800     59.0100     64.2436     54.7810      0.3163   2457.8000     49.5484    -54.4950
34.2000         196.8000      0.1280    181.2000     58.4100     73.7615     58.4292      0.3192   2437.7000     50.9366    -55.2300
34.4000         191.4000      0.1238    522.0800     57.8550     87.0623     65.2574      0.3207   2422.2000     60.6778    -56.9700
34.6000         190.3250      0.1244    468.4000     57.5400     80.8779     64.0663      0.3440   2426.0000     64.1254    -57.4800
34.8000         190.1750      0.1358    469.2400     57.5250     66.0435     55.2879      0.3593   2387.3999     70.3121    -58.7250
35.0000         195.6750      0.1538    484.3600     56.0850     49.6398     26.0034      0.4132   2290.7000     82.3057    -61.4550
35.2000         204.9000      0.1808    494.4000     54.3750     50.5627     20.6552      0.4426   2254.5000     52.3637    -62.4450
35.4000         211.6500      0.2010    520.3600     52.4100     52.9456     20.8463      0.5353   1989.0000     30.9478    -62.4450
35.6000         214.5250      0.2196    544.2400     51.5250     54.4289     25.2947      0.5732   1782.3000     28.7495    -62.4450
35.8000         282.4500      0.2336    442.2000     52.6050     49.1847     41.1747      0.6002   1630.3000     40.7972    -60.9600
36.0000         375.4750      0.2322    284.7600     54.2250     52.9456     53.2881      0.5918   1617.4000     54.8315    -59.9550
36.2000         375.4750      0.2225    624.1200     55.8900     61.9199     75.6188      0.5713   1614.5000     64.7187    -59.4600
36.4000         365.3000      0.2100    537.8400     58.5750     84.6896    112.3647      0.4639   1647.4000     68.3959    -57.9750
36.6000         333.0500      0.1936    499.9200     59.0100     87.0623     92.6040      0.4219   1776.3000     62.3778    -57.2250
36.8000         244.9500      0.1775    453.9200     58.9200     83.1438     74.9256      0.3766   1999.0000     56.3677    -56.7300
37.0000         252.6500      0.1605    395.9600     59.9250     69.1560     56.8368      0.3011   2442.0000     47.3184    -55.7400
37.2000         254.4750      0.1432    398.5200     60.8100     64.2436     54.7810      0.2950   2439.3999     44.3231    -54.4950
37.4000         259.5500      0.1280    410.2400     61.8000     59.6802     55.7995      0.2932   2478.2000     45.5648    -53.4900
37.6000         256.8000      0.1133    433.4400     63.5100     51.9792     57.3627      0.3044   2464.1001     54.3288    -54.2400
37.8000         236.4250      0.1155    425.3600     62.7150     51.0305     53.2881      0.3074   2453.2000     55.8509    -54.7350
38.0000         216.4500      0.1042    433.2400     60.7650     51.0305     49.9609      0.3073   2461.6001     51.8836    -54.7350
38.2000         222.4000      0.0994    458.1600     57.8250     52.9456     53.2881      0.3092   2445.0000     43.9167    -55.4850
38.4000         226.0500      0.1054    474.1600     56.3400     53.9299     54.7810      0.3032   2431.2000     43.9167    -55.7400
38.6000         226.6500      0.1165    460.3200     54.6150     55.4409     56.3158      0.2923   2418.1001     44.3231    -55.7400
38.8000         226.8750      0.1336    439.4400     53.3850     56.9941     59.5155      0.2818   2406.8000     48.6441    -55.2300
39.0000         227.2250      0.1315    394.4800     52.3050     61.9199     66.4706      0.2685   2407.5000     67.1475    -55.2300
39.2000         227.3000      0.1080    390.0000     52.9200     66.0435     69.6033      0.2662   2508.5000     72.9508    -54.9900
39.4000         226.4750      0.0775    384.8800     53.5950     69.7959     72.8836      0.2650   2522.6001     73.6258    -54.9900
39.6000         215.8750      0.0698    380.6400     54.1050     73.7615     77.0247      0.2611   2504.2000     74.9946    -55.2300
39.8000         214.4750      0.0798    381.4800     54.1950     74.4440     77.7374      0.2561   2495.2000     75.6885    -55.2300
40.0000         213.0750      0.0801    379.3600     54.3450     74.4440     79.1826      0.2546   2502.2000     74.9946    -53.9850
40.2000         209.0250      0.0735    383.2000     54.6300     74.4440     83.6816      0.2571   2562.7000     79.3286    -53.9850
40.4000         203.0500      0.0872    348.4400     54.9900     74.4440     82.9144      0.2581   2536.3999     80.0626    -55.2300
40.6000         195.7250      0.1008    188.8800     55.1700     74.4440     80.6547      0.2588   2495.2000     77.8807    -55.7400
40.8000         190.8000      0.1335    627.3200     54.9750     76.5297     79.1826      0.2480   2467.3999     77.1667    -56.7300
41.0000         192.4500      0.1493    594.5200     55.1250     77.2378     79.1826      0.2438   2459.8000     77.8807    -56.9700
41.2000         194.1750      0.1344    477.3600     55.2900     77.2378     79.1826      0.2437   2564.8999     78.6013    -56.7300
41.4000         196.8750      0.1113    452.2000     56.2500     77.2378     79.9153      0.2440   2530.8999     82.3057    -56.7300
41.6000         196.7250      0.0905    464.7600     56.3100     75.8281     81.4010      0.2449   2499.8999     83.8359    -56.7300
41.8000         193.5500      0.0643    374.2400     56.0250     75.8281     81.4010      0.2473   2501.0000     80.0626    -56.4750
42.0000         198.5750      0.0669    640.3200     55.7250     76.5297     81.4010      0.2507   2516.2000     77.8807    -56.7300
42.2000         190.2500      0.0729    586.0000     55.3800     76.5297     80.6547      0.2532   2518.3000     77.1667    -56.4750
42.4000         189.0000      0.0739    406.2000     56.4150     75.1329     80.6547      0.2531   2530.8000     78.6013    -55.7400
42.6000         190.4500      0.0779    331.2000     57.4500     71.7513     82.1542      0.2545   2559.7000     83.8359    -55.2300
42.8000         190.2000      0.0787    405.3200     61.2300     62.4928     67.7064      0.2584   2581.3999     97.1471    -53.9850
43.0000         185.8500      0.0788    408.3200     63.4500     57.5215     58.4292      0.2611   2580.5000     85.3945    -53.7450
43.2000         185.1500      0.0644    375.0800     65.8800     52.9456     51.3606      0.2780   2554.3999     67.1475    -53.9850
43.4000         182.9500      0.0412    409.1600     70.8150     44.8570     43.9167      0.3098   2503.3999     39.6853    -53.4900
43.6000         181.2000      0.0478    420.6800     73.1700     40.9100     40.4231      0.3226   2485.3999     33.6225    -53.4900
43.8000         183.3250      0.1040    392.7600     75.2550     38.0041     36.8663      0.3332   2474.7000     32.4063    -53.7450
44.0000         191.6250      0.1422    401.0800     78.8250     34.3423     31.8149      0.3512   2457.5000     30.1044    -54.2400
44.2000         193.5500      0.1523    434.0800     79.7100     33.1001     30.3829      0.3589   2448.8999     28.7495    -53.7450
44.4000         192.8000      0.1521    451.3600     79.9350     32.1981     29.5549      0.3675   2431.8999     27.9402    -52.9950
44.6000         193.3250      0.1484    443.4800     78.2550     31.0334     29.0422      0.3781   2415.3000     27.9402    -52.5000
44.8000         194.4000      0.1434    451.7600     74.8350     30.1877     28.5121      0.3905   2445.5000     28.7495    -51.5100
45.0000         195.7000      0.1382    457.5200     73.1100     30.1877     28.5121      0.3915   2427.3999     28.4859    -52.2450
45.2000         197.5500      0.1392    469.6800     71.4900     30.7489     29.3110      0.3841   2411.8999     27.1788    -53.4900
