~VERSION INFORMATION
 VERS.                 2.0:   CWLS LOG ASCII STANDARD -VERSION 2.0
 WRAP.                  NO:   ONE LINE PER DEPTH STEP
~WELL INFORMATION BLOCK
#MNEM.UNIT           DATA                    DESCRIPTION OF MNEMONIC
#---------    -------------------            -------------------------------
# Generated from Intellog Unique Number	CN_94_101/WELL/3576
WELL.         15-36-096-11W4                 : Well_name    - WELL
LOC .         AA/15-36-096-11W4/0            : Location     - LOCATION
UWI .         AA/15-36-096-11W400            : Uwi          - UNIQUE WELL ID
ENTR.         JOETTE                         : Entered      - ENTERED BY
SRVC.         SCHLUMBERGER                   : Scn          - SERVICE COMPANY
DATE.         07/31/92                       : Date         - LOG DATE
STRT.M        10                             : top_depth    - START DEPTH
STOP.M        125                            : bot_depth    - STOP DEPTH
STEP.M        0.25                           : increment    - STEP LENGTH
 NULL. -999.2500:NULL Value
~CURVE INFORMATION BLOCK
#MNEM UNIT       ERCB CURVE CODE    CURVE DESCRIPTION
#-----------   ------------------   ----------------------------------
DEPT.M        00 001 00 00         : DEPTH        - DEPTH
GR  .API      00 310 00 00         : GR           - GAMMA RAY
ILD .OHMM     00 120 00 00         : RESD         - DEEP RESISTIVITY (DIL)
NPHI.V/V      00 330 00 00         : PHIN         - NEUTRON POROSITY (SANDSTONE)
RHOB.KG/M3    00 350 00 00         : DENS         - BULK DENSITY
DPHI.V/V      00 890 00 00         : PHID         - DENSITY POROSITY (SANDSTONE)
~PARAMETER INFORMATION
#MNEM.UNIT           DATA             DESCRIPTION OF MNEMONIC
#---------         -----------     ------------------------------
GL  .M        0                    : gl           - GROUND LEVEL ELEVATION
EREF.M        0                    : kb           - ELEVATION OF DEPTH REFERENCE
DATM.M        0                    : datum        - DATUM ELEVATION
TDD .M        127.7                : tdd          - TOTAL DEPTH DRILLER
RUN .         ONE                  : Run          - RUN NUMBER
ENG .         BILL                 : Engineer     - RECORDING ENGINEER
WIT .         JIM                  : Witness      - WITNESSED BY
MUD .         GEL                  : Mud_type     - MUD TYPE
MATR.         SANDSTONE            : Logunit      - NEUTRON MATRIX
TMAX.C        3                    : BHT          - MAXIMUM RECORDED TEMPERATURE
BHTD.M        127.7                : BHTDEP       - MAXIMUM RECORDED TEMPERATURE
RMT .C        3                    : MDTP         - TEMPERATURE OF MUD
MUDD.KG/M     1180                 : MWT          - MUD DENSITY
NEUT.         1                    : NEUTRON      - NEUTRON TYPE
RESI.         0                    : RESIST       - RESISTIVITY TYPE
RM  .OHMM     17                   : RM           - RESISTIVITY OF MUD
RMC .OHMM     17                   : RMC          - RESISTIVITY OF MUD CAKE
RMF .OHMM     17                   : RMF          - RESISTIVITY OF MUD FILTRATE
SUFT.C        4                    : SUFT         - SURFACE TEMPERATURE
~A  DEPTH       GR     RESD     PHIN     DENS     PHID
   10.000   35.909   98.160    0.370 2143.950    0.307
   10.250   37.162   87.860    0.385 2183.220    0.283
   10.500   48.190   80.225    0.415 2185.460    0.282
   10.750   48.286   89.945    0.418 2233.000    0.253
   11.000   51.987   90.155    0.408 2261.990    0.235
   11.250   50.849   77.768    0.425 2243.660    0.246
   11.500   43.638   84.027    0.454 2262.360    0.235
   11.750   49.180   96.106    0.454 2299.610    0.212
   12.000   49.864  101.910    0.408 2293.680    0.216
   12.250   39.009  102.149    0.406 2320.650    0.200
   12.500   53.073   75.829    0.382 2310.500    0.206
   12.750   50.720   62.963    0.380 2331.210    0.193
   13.000   46.546   61.937    0.336 2389.040    0.158
   13.250   52.696   93.874    0.337 2411.900    0.144
   13.500   50.950  120.165    0.351 2385.300    0.160
   13.750   52.241  101.667    0.372 2303.160    0.210
   14.000   54.140  101.906    0.325 2323.910    0.198
   14.250   53.628  128.021    0.365 2231.490    0.254
   14.500   54.901  116.827    0.405 2099.980    0.333
   14.750   45.279   91.694    0.419 2067.260    0.353
   15.000   38.029   86.928    0.420 2262.950    0.235
   15.250   35.676   79.327    0.383 2335.170    0.191
   15.500   51.563   73.719    0.391 2345.640    0.184
   15.750   62.002   69.846    0.374 2304.640    0.209
   16.000   63.901   68.749    0.380 2294.540    0.215
   16.250   53.634   68.910    0.391 2342.090    0.187
   16.500   67.072   69.031    0.388 2358.770    0.176
   16.750   66.541   64.188    0.370 2323.950    0.198
   17.000   52.061   57.520    0.367 2305.620    0.209
   17.250   56.977   52.491    0.371 2301.690    0.211
   17.500   60.697   53.610    0.357 2336.840    0.190
   17.750   54.701   61.245    0.331 2357.600    0.177
   18.000   52.348   81.396    0.353 2353.670    0.180
   18.250   56.068   89.614    0.331 2320.990    0.199
   18.500   37.298   77.301    0.346 2329.410    0.194
   18.750   37.982   66.719    0.350 2300.750    0.212
   19.000   53.261   62.038    0.348 2296.820    0.214
   19.250   49.713   58.779    0.392 2313.510    0.204
   19.500   55.237   57.788    0.424 2317.760    0.201
   19.750   68.086   54.752    0.431 2293.260    0.216
   20.000   61.482   46.351    0.393 2285.220    0.221
   20.250   65.203   49.179    0.387 2301.860    0.211
   20.500   54.328   40.052    0.408 2277.370    0.226
   20.750   61.105   26.087    0.409 2283.720    0.222
   21.000   64.825   27.663    0.400 2290.080    0.218
   21.250   65.509   27.727    0.342 2263.520    0.234
   21.500   60.727   31.676    0.377 2255.480    0.239
   21.750   71.755   31.750    0.401 2243.330    0.246
   22.000   67.561   26.894    0.397 2264.080    0.234
   22.250   63.386   36.399    0.371 2303.400    0.210
   22.500   60.426   38.620    0.357 2307.650    0.207
   22.750   65.969   36.591    0.350 2297.600    0.214
   23.000   55.721   35.974    0.352 2297.780    0.213
   23.250   60.656   35.388    0.353 2293.810    0.216
   23.500   56.481   34.164    0.363 2353.690    0.180
   23.750   57.811   32.983    0.379 2349.760    0.182
   24.000   59.064   31.842    0.359 2317.040    0.202
   24.250   59.786   29.075    0.355 2298.760    0.213
   24.500   60.470   27.531    0.366 2282.440    0.223
   24.750   62.976   22.873    0.369 2183.800    0.283
   25.000   64.267   17.953    0.387 2095.540    0.336
   25.250   63.736   10.841    0.498 2077.160    0.347
   25.500   79.015    8.195    0.566 2056.780    0.360
   25.750   82.109    7.620    0.632 2044.620    0.367
   26.000   84.615    6.331    0.573 2048.970    0.364
   26.250   85.299    4.786    0.624 2055.280    0.360
   26.500   89.020    4.535    0.662 2129.560    0.315
   26.750   77.557    3.768    0.527 2329.370    0.194
   27.000   80.689    5.297    0.481 2337.780    0.189
   27.250   77.103    8.024    0.514 2235.070    0.251
   27.500   89.953    7.751    0.525 2181.780    0.284
   27.750  103.391    4.766    0.583 2161.390    0.296
   28.000   95.572    4.432    0.541 2178.030    0.286
   28.250   82.894    4.612    0.584 2194.720    0.276
   28.500   77.486    6.729    0.561 2201.170    0.272
   28.750   72.704    6.027    0.550 2203.320    0.271
   29.000   76.424    5.607    0.531 2199.390    0.273
   29.250  111.764    5.214    0.502 2172.790    0.289
   29.500  113.056    4.329    0.504 2150.350    0.303
   29.750   86.391    3.036    0.533 2156.710    0.299
   30.000   88.289    3.045    0.534 2167.180    0.293
   30.250   93.224    3.352    0.646 2181.760    0.284
   30.500  101.215    3.622    0.606 2188.120    0.280
   30.750  109.795    3.699    0.596 2184.190    0.282
   31.000  126.896    3.253    0.513 2184.380    0.282
   31.250  113.611    3.025    0.547 2178.440    0.286
   31.500  111.258    3.146    0.561 2162.120    0.296
   31.750   93.096    3.274    0.582 2133.510    0.313
   32.000   99.853    3.161    0.518 2139.870    0.309
   32.250  112.095    3.230    0.464 2187.360    0.280
   32.500  104.865    3.555    0.479 2304.890    0.209
   32.750   91.580    3.563    0.487 2268.000    0.232
   33.000   88.620    5.104    0.485 2229.150    0.255
   33.250  100.236    8.339    0.524 2241.680    0.247
   33.500  104.583    3.727    0.567 2250.050    0.242
   33.750  135.653    4.184    0.478 2252.380    0.241
   34.000  112.631    4.691    0.594 2244.250    0.246
   34.250  115.137    5.262    0.625 2225.920    0.257
   34.500  110.963    4.133    0.573 2199.370    0.273
   34.750  111.058    3.370    0.527 2174.870    0.288
   35.000  105.042    3.255    0.546 2189.450    0.279
   35.250  109.978    3.515    0.507 2220.490    0.260
   35.500  103.373    4.172    0.493 2257.750    0.238
   35.750   91.284    5.050    0.495 2303.190    0.210
   36.000   72.533    5.879    0.475 2365.130    0.173
   36.250   61.659    9.605    0.414 2406.460    0.148
   36.500   47.140   38.654    0.387 2272.890    0.229
   36.750   24.726   45.901    0.368 2229.880    0.255
   37.000   24.195  626.380    0.352 2217.730    0.262
   37.250   20.021  571.610    0.348 2205.520    0.269
   37.500   10.987  629.319    0.352 2211.880    0.266
   37.750    7.420 1129.990    0.323 2228.570    0.255
   38.000   12.355  974.161    0.326 2230.810    0.254
   38.250   15.468 1449.010    0.354 2257.740    0.238
   38.500   14.938 1158.840    0.348 2241.470    0.248
   38.750   13.800  613.270    0.370 2206.680    0.269
   39.000   24.220 1933.690    0.361 2163.670    0.295
   39.250   19.438  949.317    0.421 2161.760    0.296
   39.500   22.551  408.677    0.406 2176.390    0.287
   39.750   18.965  868.340    0.389 2193.080    0.277
   40.000   20.882  534.295    0.405 2184.990    0.282
   40.250   17.941  794.269    0.374 2179.050    0.285
   40.500   21.643  842.243    0.352 2183.300    0.283
   40.750   25.363  437.437    0.360 2191.810    0.278
   41.000   27.262  519.451    0.376 2193.960    0.276
   41.250   22.480  967.826    0.385 2194.140    0.276
   41.500   16.483 1309.870    0.357 2190.220    0.279
   41.750   19.596  224.802    0.352 2184.230    0.282
   42.000   23.336  261.680    0.377 2188.580    0.280
   42.250   18.535  889.424    0.371 2196.990    0.275
   42.500   14.967 1117.350    0.367 2207.410    0.268
   42.750   19.295  613.576    0.374 2211.710    0.266
   43.000   22.409 1040.800    0.367 2187.260    0.280
   43.250   24.307  817.851    0.381 2175.110    0.288
   43.500   32.317  219.968    0.406 2175.250    0.288
   43.750   36.019  127.863    0.435 2148.690    0.304
   44.000   26.378  114.513    0.454 2175.620    0.288
   44.250   30.099  404.106    0.415 2181.970    0.284
   44.500   36.856  202.149    0.388 2149.250    0.303
   44.750   35.718  244.597    0.387 2176.170    0.287
   45.000   33.992  165.213    0.383 2207.260    0.268
   45.250   34.068  319.594    0.372 2186.830    0.281
   45.500   37.789  401.261    0.386 2172.620    0.289
   45.750   42.724  229.176    0.434 2176.960    0.287
   46.000   47.052  221.120    0.462 2168.920    0.292
   46.250   44.092  161.094    0.479 2160.830    0.296
