~VERSION INFORMATION
 VERS.                 2.0:   CWLS LOG ASCII STANDARD -VERSION 2.0
 WRAP.                  NO:   ONE LINE PER DEPTH STEP
~WELL INFORMATION BLOCK
#MNEM.UNIT           DATA                    DESCRIPTION OF MNEMONIC
#---------    -------------------            -------------------------------
# Generated from Intellog Unique Number	CN_94_101/WELL/5017
WELL.         11-13-100-13W4                 : Well_name    - WELL
LOC .         AA/11-13-100-13W4/0            : Location     - LOCATION
UWI .         AA/11-13-100-13W400            : Uwi          - UNIQUE WELL ID
ENTR.         TIM                            : Entered      - ENTERED BY
SRVC.         SCHLUMBERGER                   : Scn          - SERVICE COMPANY
DATE.         08/13/92                       : Date         - LOG DATE
STRT.M        345                            : top_depth    - START DEPTH
STOP.M        600                            : bot_depth    - STOP DEPTH
STEP.M        0.25                           : increment    - STEP LENGTH
 NULL. -999.2500:NULL Value
~CURVE INFORMATION BLOCK
#MNEM UNIT       ERCB CURVE CODE    CURVE DESCRIPTION
#-----------   ------------------   ----------------------------------
DEPT.M        00 001 00 00         : DEPTH        - DEPTH
GR  .API      00 310 00 00         : GR           - GAMMA RAY
ILD .OHMM     00 120 00 00         : RESD         - DEEP RESISTIVITY (DIL)
NPHI.V/V      00 330 00 00         : PHIN         - NEUTRON POROSITY (SANDSTONE)
DPHI.V/V      00 890 00 00         : PHID         - DENSITY POROSITY (SANDSTONE)
~PARAMETER INFORMATION
#MNEM.UNIT           DATA             DESCRIPTION OF MNEMONIC
#---------         -----------     ------------------------------
GL  .M        791                  : gl           - GROUND LEVEL ELEVATION
EREF.M        794.8                : kb           - ELEVATION OF DEPTH REFERENCE
DATM.M        794.8                : datum        - DATUM ELEVATION
TDD .M        606                  : tdd          - TOTAL DEPTH DRILLER
RUN .         ONE                  : Run          - RUN NUMBER
ENG .         BILL                 : Engineer     - RECORDING ENGINEER
WIT .         JIM                  : Witness      - WITNESSED BY
MUD .         GEL                  : Mud_type     - MUD TYPE
MATR.         SANDSTONE            : Logunit      - NEUTRON MATRIX
TMAX.C        28                   : BHT          - MAXIMUM RECORDED TEMPERATURE
BHTD.M        606                  : BHTDEP       - MAXIMUM RECORDED TEMPERATURE
RMT .C        4                    : MDTP         - TEMPERATURE OF MUD
MUDD.KG/M     1090                 : MWT          - MUD DENSITY
NEUT.         1                    : NEUTRON      - NEUTRON TYPE
RESI.         0                    : RESIST       - RESISTIVITY TYPE
RM  .OHMM     0.24                 : RM           - RESISTIVITY OF MUD
RMC .OHMM     0.24                 : RMC          - RESISTIVITY OF MUD CAKE
RMF .OHMM     0.24                 : RMF          - RESISTIVITY OF MUD FILTRATE
SUFT.C        4                    : SUFT         - SURFACE TEMPERATURE
~A  DEPTH       GR     RESD     PHIN     PHID
# ...
  562.500   83.632    4.201    0.359    0.213
  562.750   82.999    4.198    0.362    0.227
  563.000   81.136    4.275    0.363    0.228
  563.250   79.878    4.272    0.358    0.230
  563.500   76.791    4.270    0.353    0.246
  563.750   74.322    4.187    0.351    0.255
  564.000   71.847    3.952    0.353    0.256
  564.250   69.365    3.877    0.367    0.257
  564.500   68.733    3.801    0.379    0.257
  564.750   66.863    3.658    0.381    0.256
  565.000   67.442    3.519    0.377    0.259
  565.250   68.040    3.451    0.375    0.262
  565.500   71.061    3.383    0.371    0.263
  565.750   72.265    3.318    0.367    0.259
  566.000   73.463    3.254    0.362    0.254
  566.250   73.436    3.130    0.357    0.258
  566.500   72.797    3.012    0.358    0.263
  566.750   70.315    2.954    0.361    0.268
  567.000   69.071    2.842    0.364    0.273
  567.250   71.486    2.683    0.370    0.272
  567.500   73.908    2.632    0.370    0.268
  567.750   74.493    2.485    0.370    0.264
  568.000   72.018    2.391    0.370    0.271
  568.250   69.549    2.258    0.371    0.277
  568.500   66.448    2.215    0.373    0.273
  568.750   63.973    2.131    0.373    0.271
  569.000   63.348    2.051    0.372    0.272
  569.250   62.709    2.011    0.364    0.280
  569.500   62.682    1.971    0.356    0.282
  569.750   64.492    1.970    0.361    0.282
  570.000   68.737    1.968    0.371    0.289
  570.250   70.546    1.967    0.365    0.295
  570.500   71.757    1.966    0.357    0.290
  570.750   72.955    1.964    0.350    0.280
  571.000   72.928    1.963    0.347    0.280
  571.250   73.514    1.961    0.354    0.282
  571.500   75.310    1.960    0.355    0.283
  571.750   75.297    1.958    0.359    0.284
  572.000   73.427    1.956    0.364    0.285
  572.250   70.333    1.919    0.366    0.288
  572.500   68.483    1.881    0.368    0.289
  572.750   66.600    1.845    0.369    0.292
  573.000   67.198    1.844    0.368    0.295
  573.250   70.219    1.808    0.363    0.297
  573.500   71.430    1.772    0.362    0.301
  573.750   76.300    1.771    0.359    0.302
  574.000   79.335    1.770    0.359    0.302
  574.250   80.532    1.803    0.361    0.299
  574.500   80.499    1.942    0.366    0.294
  574.750   79.867    2.093    0.370    0.292
  575.000   78.615    2.131    0.368    0.282
  575.250   76.752    2.051    0.363    0.276
  575.500   73.053    1.973    0.360    0.272
  575.750   66.904    1.899    0.355    0.277
  576.000   65.647    1.827    0.366    0.293
  576.250   66.837    1.758    0.385    0.313
  576.500   68.661    1.724    0.407    0.311
  576.750   72.300    1.722    0.410    0.304
  577.000   74.722    1.721    0.402    0.297
  577.250   74.689    1.786    0.393    0.289
  577.500   73.444    1.819    0.394    0.282
  577.750   71.588    1.783    0.400    0.275
  578.000   68.493    1.716    0.407    0.274
  578.250   66.025    1.651    0.407    0.278
  578.500   61.087    1.619    0.407    0.282
  578.750   59.224    1.588    0.405    0.290
  579.000   58.592    1.528    0.403    0.292
  579.250   56.729    1.470    0.402    0.293
  579.500   54.247    1.415    0.397    0.293
  579.750   53.615    1.387    0.390    0.295
  580.000   53.588    1.335    0.386    0.304
  580.250   53.561    1.309    0.385    0.311
  580.500   53.528    1.284    0.380    0.322
  580.750   52.882    1.258    0.375    0.329
  581.000   52.869    1.258    0.371    0.337
  581.250   53.448    1.305    0.366    0.341
  581.500   56.482    1.488    0.361    0.328
  581.750   59.522    1.697    0.352    0.307
  582.000   79.085    2.048    0.335    0.153
  582.250   98.041    2.519    0.331    0.155
  582.500  108.421    3.039    0.345    0.170
  582.750  105.334    3.737    0.360    0.178
  583.000  104.063    3.664    0.365    0.186
  583.250  106.491    3.332    0.401    0.189
  583.500  109.539    3.087    0.450    0.220
  583.750  115.634    3.085    0.503    0.236
  584.000  117.443    3.025    0.536    0.267
  584.250  118.634    3.139    0.564    0.320
  584.500  119.226    3.256    0.566    0.350
  584.750  119.798    3.255    0.560    0.357
  585.000  121.003    3.378    0.545    0.344
  585.250  124.023    3.439    0.530    0.311
  585.500  125.234    3.187    0.522    0.297
  585.750  127.044    3.067    0.517    0.285
  586.000  129.466    2.895    0.512    0.270
  586.250  129.439    2.893    0.510    0.251
  586.500  126.338    2.891    0.501    0.257
  586.750  125.101    2.890    0.506    0.269
  587.000  122.625    2.886    0.531    0.288
  587.250  118.300    2.940    0.547    0.304
  587.500  116.444    2.993    0.563    0.317
  587.750  114.587    3.049    0.558    0.324
  588.000  110.262    3.223    0.523    0.259
  588.250  108.405    3.283    0.486    0.172
  588.500  105.923    3.343    0.485    0.159
  588.750  104.686    3.404    0.484    0.117
  589.000  107.101    3.466    0.483    0.086
  589.250  109.529    3.529    0.478    0.068
  589.500  113.176    3.460    0.466    0.120
  589.750  116.203    3.458    0.483    0.177
  590.000  116.176    3.390    0.512    0.213
  590.250  110.028    3.388    0.532    0.239
  590.500  103.268    3.385    0.571    0.314
  590.750  100.792    3.447    0.582    0.420
  591.000  100.147    3.510    0.607    0.452
  591.250  100.120    3.574    0.598    0.447
  591.500  100.712    3.640    0.581    0.442
  591.750  103.746    3.776    0.549    0.406
  592.000  108.610    3.775    0.538    0.275
  592.250  115.324    3.771    0.506    0.261
  592.500  119.582    3.628    0.516    0.278
  592.750  121.392    3.558    0.544    0.309
  593.000  121.365    3.424    0.580    0.350
  593.250  121.950    3.357    0.591    0.398
  593.500  120.080    3.355    0.583    0.410
  593.750  116.381    3.353    0.567    0.376
  594.000  113.300    3.349    0.533    0.317
  594.250  108.376    3.348    0.502    0.298
  594.500  103.445    3.473    0.473    0.263
  594.750  102.806    3.471    0.464    0.235
  595.000  102.168    3.602    0.471    0.247
  595.250  100.298    3.737    0.506    0.301
  595.500   99.047    3.805    0.520    0.316
  595.750   97.796    3.949    0.528    0.331
  596.000   95.932    4.098    0.491    0.301
  596.250   91.627    4.173    0.439    0.203
  596.500   81.194    4.330    0.419    0.181
  596.750   70.760    4.492    0.407    0.170
  597.000   59.702    4.489    0.412    0.170
  597.250   59.681    4.572    0.426    0.162
  597.500   59.655    4.743    0.438    0.152
  597.750   59.628    4.832    0.438    0.108
  598.000   59.595    5.108    0.429    0.053
  598.250   60.180    5.202    0.255    0.036
  598.500   60.772    5.713    0.225    0.044
  598.750   61.358    7.159    0.203    0.050
  599.000   61.324   10.432    0.183    0.063
  599.250   61.297   15.202    0.159    0.081
  599.500   61.271   19.417    0.139    0.067
  599.750   60.632   22.993    0.130    0.042
  600.000   60.612   21.712    0.128    0.027
