~VERSION INFORMATION
 VERS.                 2.0:   CWLS LOG ASCII STANDARD -VERSION 2.0
 WRAP.                  NO:   ONE LINE PER DEPTH STEP
~WELL INFORMATION BLOCK
#MNEM.UNIT           DATA                    DESCRIPTION OF MNEMONIC
#---------    -------------------            -------------------------------
# Generated from Intellog Unique Number	CC_80_83/WELL/2370
COMP.         PETRO CANADA                   : COMPANY
WELL.         PEX PCEJ CHARD OV              : Well_name    - WELL
LOC .         10-26-080-07W4                 : Location     - LOCATION
UWI .         AA/10-26-080-07W400            : Uwi          - UNIQUE WELL ID
ENTR.         DW                             : Entered      - ENTERED BY
SRVC.         SCHLUMBERGER                   : Scn          - SERVICE COMPANY
STRT.M        145                            : top_depth    - START DEPTH
STOP.M        394.895                        : bot_depth    - STOP DEPTH
STEP.M        0.3                            : increment    - STEP LENGTH
 NULL. -999.2500:NULL Value
~CURVE INFORMATION BLOCK
#MNEM UNIT       ERCB CURVE CODE    CURVE DESCRIPTION
#-----------   ------------------   ----------------------------------
DEPT.M        00 001 00 00         : DEPTH        - DEPTH
DPHI.V/V      00 890 00 00         : PHID         - DENSITY POROSITY (LIMESTONE)
NPHI.V/V      00 330 00 00         : PHIN         - NEUTRON POROSITY (LIMESTONE)
GR  .API      00 310 00 00         : GR           - GAMMA RAY
ILD .OHMM     00 120 00 00         : RESD         - DEEP RESISTIVITY (DIL)
~PARAMETER INFORMATION
#MNEM.UNIT           DATA             DESCRIPTION OF MNEMONIC
#---------         -----------     ------------------------------
GL  .M        581.1                : gl           - GROUND LEVEL ELEVATION
EREF.M        584.75               : kb           - ELEVATION OF DEPTH REFERENCE
DATM.M        584.75               : datum        - DATUM ELEVATION
TDD .M        400                  : tdd          - TOTAL DEPTH DRILLER
RUN .         ONE                  : Run          - RUN NUMBER
ENG .         BILL                 : Engineer     - RECORDING ENGINEER
WIT .         JIM                  : Witness      - WITNESSED BY
MUD .         GEL                  : Mud_type     - MUD TYPE
MATR.         LIMESTONE            : Logunit      - NEUTRON MATRIX
TMAX.C        16                   : BHT          - MAXIMUM RECORDED TEMPERATURE
BHTD.M        400                  : BHTDEP       - MAXIMUM RECORDED TEMPERATURE
MATR.         1                    : LOGUNIT      - NEUTRON MATRIX
RMT .C        25                   : MDTP         - TEMPERATURE OF MUD
NEUT.         1                    : NEUTRON      - NEUTRON TYPE
RESI.         0                    : RESIST       - RESISTIVITY TYPE
RMC .OHMM     0.25                 : RMC          - RESISTIVITY OF MUD CAKE
RMF .OHMM     0.25                 : RMF          - RESISTIVITY OF MUD FILTRATE
SUFT.C        4                    : SUFT         - SURFACE TEMPERATURE
~A  DEPTH     PHID     PHIN       GR     RESD
# ...
  249.401    0.303    0.568  133.781    3.408
  249.701    0.292    0.588  130.019    3.469
  250.001    0.282    0.601  119.382    3.666
  250.301    0.281    0.602  113.120    3.874
  250.601    0.296    0.600  113.732    3.796
  250.901    0.307    0.600  117.468    3.790
  251.201    0.307    0.602  116.207    3.857
  251.501    0.296    0.604  121.818    4.001
  251.801    0.279    0.594  123.681    4.390
  252.101    0.280    0.578  118.670    4.553
  252.401    0.288    0.578  101.782    4.460
  252.701    0.291    0.593  103.017    4.289
  253.001    0.292    0.601  107.382    4.125
  253.301    0.289    0.604  110.491    3.817
  253.601    0.293    0.599  114.232    3.671
  253.901    0.310    0.597  115.470    3.397
  254.201    0.318    0.593  111.082    3.329
  254.501    0.335    0.594  116.694    3.323
  254.801    0.351    0.595  108.557    3.381
  255.101    0.380    0.586  107.294    3.508
  255.401    0.430    0.572  108.533    3.851
  255.701    0.449    0.541  102.893    4.473
  256.001    0.311    0.519   97.881    5.100
  256.301    0.343    0.497  100.370    6.513
  256.601    0.332    0.487   93.482    8.473
  256.901    0.299    0.430   98.470    8.625
  257.201    0.301    0.433   97.207    7.832
  257.501    0.300    0.454   94.693    6.853
  257.801    0.352    0.470   99.055    5.880
  258.101    0.359    0.501   99.669    5.761
  258.401    0.342    0.470   94.033    6.087
  258.701    0.346    0.493   92.143    6.557
  259.001    0.277    0.461   89.008    7.764
  259.301    0.287    0.429   95.243    9.190
  259.601    0.287    0.434   93.983    9.714
  259.901    0.284    0.438   95.220    9.880
  260.201    0.284    0.441   88.331    9.872
  260.501    0.287    0.421   90.194    9.667
  260.801    0.278    0.394   91.433    9.657
  261.101    0.276    0.396   90.795    9.638
  261.401    0.278    0.410   93.282    9.629
  261.701    0.277    0.412   96.394    9.986
  262.001    0.278    0.417   97.631   10.356
  262.301    0.281    0.411   98.869   10.939
  262.601    0.282    0.409   94.482   10.925
  262.901    0.287    0.414   86.345   11.116
  263.201    0.288    0.417   86.327   11.100
  263.501    0.292    0.430   88.815   10.880
  263.801    0.296    0.438   89.431   10.458
  264.101    0.299    0.442   86.918   10.057
  264.401    0.296    0.440   87.531    9.486
  264.701    0.285    0.438   90.020    9.296
  265.001    0.281    0.427   90.007    9.106
  265.301    0.276    0.427   89.994    9.096
  265.601    0.269    0.413   94.358    9.079
  265.901    0.267    0.409   99.344    8.894
  266.201    0.262    0.444  100.583    8.718
  266.501    0.260    0.460   91.195    8.380
  266.801    0.263    0.425   94.307    8.209
  267.101    0.265    0.413   93.670    8.201
  267.401    0.261    0.407   96.156    8.182
  267.701    0.263    0.423   99.894    8.330
  268.001    0.266    0.446  103.007    8.321
  268.301    0.268    0.445   98.621    8.465
  268.601    0.268    0.452  101.108    8.610
  268.901    0.269    0.455   96.095    8.604
  269.201    0.261    0.452   94.831    8.430
  269.501    0.253    0.445  102.946    8.413
  269.801    0.250    0.452   99.182    8.565
  270.101    0.255    0.448   99.169    8.717
  270.401    0.257    0.469   97.284    8.701
  270.701    0.255    0.482   96.019    8.691
  271.001    0.259    0.461   96.630    7.893
  271.301    0.279    0.456   98.496    6.776
  271.600    0.306    0.474   98.482    5.706
  271.900    0.334    0.570   97.846    4.806
  272.200    0.413    0.603  102.208    4.047
  272.500    0.401    0.610  117.196    3.474
  272.800    0.415    0.594  120.307    3.096
  273.100    0.385    0.586  109.671    3.092
  273.400    0.424    0.560  102.158    3.592
  273.700    0.440    0.538  107.770    4.674
  274.000    0.420    0.498  120.882    6.317
  274.300    0.285    0.445  120.871    8.868
  274.600    0.288    0.436  107.733   10.499
  274.900    0.294    0.426  107.721    9.356
  275.200    0.301    0.411  106.458    8.341
  275.500    0.303    0.393  104.570    8.173
  275.800    0.193    0.364  102.682    8.638
  276.100    0.093    0.313   88.921    9.129
  276.400    0.102    0.257   78.907    8.612
  276.700    0.234    0.271   88.271    7.675
  277.000    0.266    0.355  122.008    7.243
  277.300    0.273    0.483  122.621    6.960
  277.600    0.292    0.523  117.608    6.950
  277.900    0.337    0.515  108.846    6.683
  278.200    0.383    0.547  106.959    5.959
  278.500    0.373    0.605  108.820    4.923
  278.800    0.372    0.573  116.306    4.226
  279.100    0.379    0.583  118.170    3.558
  279.400    0.390    0.600  117.530    2.997
  279.700    0.395    0.611  115.646    2.385
  280.000    0.402    0.606  115.009    2.250
  280.300    0.402    0.605  115.620    2.289
  280.600    0.372    0.602  114.355    2.513
  280.900    0.320    0.601  112.471    2.864
  281.200    0.314    0.586  104.334    3.391
  281.500    0.304    0.568   98.070    3.940
  281.800    0.286    0.542  100.558    4.665
  282.100    0.266    0.492  103.669    5.523
  282.400    0.271    0.465  106.783    6.537
  282.700    0.254    0.466  109.895    7.314
  283.000    0.232    0.465  111.759    8.337
  283.300    0.215    0.445  110.494    8.979
  283.600    0.115    0.429   97.984    9.135
  283.900    0.130    0.414   91.097    8.783
  284.200    0.258    0.390   99.834    8.284
  284.500    0.297    0.415  102.317    7.968
  284.800    0.298    0.443  100.430    7.513
  285.100    0.284    0.455  101.047    7.501
  285.400    0.255    0.457  106.034    7.783
  285.700    0.248    0.396  115.397    8.070
  286.000    0.246    0.374  115.384    8.370
  286.300    0.239    0.348  118.497    8.845
  286.600    0.238    0.331  116.608    9.176
  286.900    0.264    0.274  116.595    9.879
  287.200    0.241    0.242  112.209   12.381
  287.500    0.038    0.127   84.697   15.516
  287.800    0.059    0.140   79.059   14.916
  288.100    0.124    0.205   85.296   12.801
  288.400    0.179    0.284   95.910   10.989
  288.700    0.227    0.348  106.522    9.432
  289.000    0.237    0.413  110.884    7.792
  289.300    0.245    0.439  118.370    7.214
  289.600    0.251    0.457  117.110    6.936
  289.900    0.275    0.486  110.221    6.669
  290.200    0.316    0.498  116.458    6.535
  290.500    0.326    0.486  119.571    6.905
  290.800    0.292    0.462  115.185    7.578
  291.100    0.287    0.427  105.171    8.009
  291.400    0.299    0.407  105.157    8.466
  291.700    0.297    0.402  103.271    8.779
  292.000    0.286    0.406   99.509    8.934
  292.300    0.287    0.420   96.373    8.921
  292.600    0.339    0.438  100.110    8.741
  292.900    0.380    0.470  103.220    8.092
  293.200    0.474    0.502   98.209    7.491
  293.500    0.509    0.541   94.446    6.677
  293.800    0.541    0.569   96.309    6.064
  294.100    0.574    0.591  103.795    5.722
  294.400    0.525    0.569  111.284    5.501
  294.700    0.511    0.546  110.648    5.190
  295.000    0.487    0.547  106.260    5.086
  295.300    0.485    0.578  100.621    5.078
  295.600    0.490    0.562  100.610    5.366
  295.900    0.482    0.525   98.097    5.672
  296.199    0.425    0.458   88.708    5.881
  296.499    0.288    0.405   94.320    7.096
  296.799    0.277    0.414   97.435    8.891
  297.099    0.274    0.409   93.671    9.048
  297.399    0.277    0.404   96.783    8.535
  297.699    0.286    0.419  100.523    7.189
  297.999    0.401    0.437   99.260    5.404
  298.299    0.447    0.455   99.247    4.383
  298.599    0.502    0.510   99.860    3.982
  298.899    0.498    0.360   94.222    4.803
  299.199    0.378    0.291   87.960    7.553
  299.499    0.072    0.189   79.823   11.655
  299.799    0.200    0.232   72.934   12.553
  300.099    0.244    0.284   79.173   12.068
  300.399    0.268    0.367   98.535   10.358
  300.699    0.148    0.335   96.022   10.742
  300.999    0.121    0.291   85.383   11.570
  301.299    0.135    0.279   84.122   10.911
