~Version : LASO    vs 4.00
VERS.                2.00:   CWLS Log ASCII Standard -VERSION 2.0
WRAP.                  NO:
~Well Information Block
#MNEM.UNIT       Data                        Description of Mnemonic
#----.----      -------------------------- : -----------------------------
STRT.M             3.0000:
STOP.M           202.0000:
STEP.M             0.1250:
NULL.           -999.2500:
COMP.  MOBILOIL CANADA             :COMPANY
WELL.  MOBIL CLARKE OV 10-26       :WELL
FLD.   CLARKE                      :FIELD
LOC.   10-26-090-07W4              :LOCATION
CTRY.  CANADA                      :COUNTRY
PROV.  ALBERTA                     :PROVINCE
SRVC.  DRESSER ATLAS               :SERVICE COMPANY
DATE.  31-JAN-81                   :LOG DATE
UWI.   AA/10-26-090-07W400         :UNIQUE WELL ID
~Parameter Information Block
#MNEM.UNIT       Data                        Description of Mnemonic
#----.----      -------------------------- : -----------------------------
RUN .                   1                 : Run Number
GL  .M           456.0000                 : Ground Level Elevation
DREF.                  KB                 : Depth Reference
EREF.M           456.0000                 : Elevation of Depth Reference
TDL .M           201.0000                 : Total Depth Logger
TDD .M           203.0000                 : Total Depth Driller
CSGL.M            13.0000                 : Casing Bottom Logger
CSGD.M            12.0000                 : Casing Bottom Driller
CSGS.MM          219.0000                 : Casing Size
CSGW.KG/M          0.0000                 : Casing Weight
BHT .DEGC         18.0000                 : Bottom Hole Temperature
BS  .MM          171.4000                 : Bit Size
DFD .              9.7000                 : Mud Weight (Density)
DFV .             85.0000                 : Mud Viscosity
RM  .OHMM          4.0000                 : Mud Resistivity
RMT .DEGC         18.0000                 : Mud Resistivity Temperature
RMF .OHMM          6.2000                 : Mud Filtrate Resistivity
RMFT.DEGC         12.0000                 : RMF Temperature
RMC .OHMM         11.6000                 : Mud Cake Resistivity
RMCT.DEGC         12.0000                 : RMC Temperature
~Curve Information Block
#MNEM.UNIT        API CODE    Curve Description
#---------    ------------    -------------------------------------------
DEPT.M                    :   DEPTH
CALI.MM       42 280  1  1:   3 DENSITY CALIPER
DPHI.V/V                  :   DPHI
DT  .US/M     60 520 42  1:   2 SONIC INTERVAL TRANSIT TIME (COMPENSATED)
GR  .GAPI     42 310  1  1:   4 GAMMA RAY
LLD .Ohmm                 :   LLD
NPHI.V/V      42 890  3  1:   5 NEUTRON POROSITY (SANDSTONE)
RHOB.K/M3     42 350  1  1:   6 BULK DENSITY
~A  Depth           CALI        DPHI          DT          GR         LLD        NPHI        RHOB
# ...
127.5000        194.1000      0.2461    505.4000    109.8450     42.7022      0.4740   2233.6001
127.6250        194.4000      0.2502    505.6400    106.8900     43.0551      0.4654   2226.8999
127.7500        195.6250      0.2520    503.6400    101.7300     42.5588      0.4654   2225.0000
127.8750        196.2500      0.2551    508.8400     98.9700     42.3187      0.4612   2215.8999
128.0000        196.5500      0.2569    510.8000     97.5000     42.3707      0.4552   2201.2000
128.1250        195.0250      0.2589    512.0400     93.2550     41.5725      0.4534   2193.8000
128.2500        195.0250      0.2622    514.9600     94.1700     41.5534      0.4567   2194.3999
128.3750        194.7250      0.2710    514.7200     97.8600     41.6353      0.4669   2193.8000
128.5000        193.1750      0.2770    514.4800     95.2800     40.9954      0.4672   2200.6001
128.6250        192.8750      0.2778    514.0000     92.8800     40.8400      0.4755   2207.8999
128.7500        195.0250      0.2779    511.2800     95.8350     40.9118      0.4770   2206.1001
128.8750        195.3250      0.2759    510.3200     96.5700     41.0001      0.4691   2200.6001
129.0000        195.0250      0.2742    511.0400     95.4600     41.0957      0.4680   2197.5000
129.1250        192.8750      0.2731    512.0400     97.8600     41.1921      0.4717   2197.5000
129.2500        191.3500      0.2746    515.4400     96.7500     41.2886      0.4669   2198.7000
129.3750        191.3500      0.2767    514.4800     95.4600     41.3851      0.4691   2205.5000
129.5000        191.3500      0.2773    512.5200     98.4150     39.9839      0.4635   2210.3000
129.6250        190.7250      0.2757    511.8000    101.5500     39.5909      0.4575   2222.0000
129.7500        190.7250      0.2735    510.0800    102.2850     39.6390      0.4485   2231.2000
129.8750        190.4250      0.2710    507.8800    105.2400     39.7309      0.4403   2234.2000
130.0000        189.8250      0.2686    505.4000    104.4900     40.7620      0.4350   2231.8000
130.1250        188.2750      0.2644    504.6800    105.4200     43.7927      0.4448   2234.2000
130.2500        191.0500      0.2611    500.9600    107.2650     46.9966      0.4384   2237.3000
130.3750        191.6500      0.2574    496.6000    106.5300     48.2294      0.4410   2248.8999
130.5000        191.3500      0.2549    493.1600    100.4400     45.4701      0.4414   2255.0000
130.6250        191.3500      0.2532    489.7200     97.8600     45.4189      0.4511   2255.6001
130.7500        191.6500      0.2511    483.1200     93.0750     45.5097      0.4567   2253.8000
130.8750        191.0500      0.2487    483.8400     88.8300     45.6046      0.4571   2248.8999
131.0000        190.4250      0.2462    488.5200     91.4100     46.4978      0.4631   2242.8000
131.1250        189.8250      0.2426    493.1600     96.9450     47.5727      0.4736   2238.5000
131.2500        190.1250      0.2408    495.3600     96.9450     48.6881      0.4594   2244.0000
131.3750        191.3500      0.2397    496.0800     99.7050     49.0495      0.4478   2254.3999
131.5000        192.8750      0.2406    494.8800    103.0200     48.3369      0.4403   2267.8999
131.6250        192.8750      0.2446    492.1600    104.6850     48.2255      0.4350   2289.8999
131.7500        191.3500      0.2462    486.5200    103.0200     48.3210      0.4211   2313.8000
131.8750        193.5000      0.2456    482.3600     99.8850     49.2403      0.4148   2339.5000
132.0000        193.5000      0.2445    469.4000     98.5950     50.3263      0.4148   2374.3999
132.1250        193.5000      0.2424    437.0400     92.7000     50.6091      0.4141   2392.1001
132.2500        192.8750      0.2343    428.4400     89.0100     50.7402      0.4088   2398.8000
132.3750        190.7250      0.2246    432.1200     95.4600     52.5323      0.4141   2390.3000
132.5000        191.0500      0.2145    443.6400    103.9500     57.2532      0.4099   2342.5000
132.6250        191.0500      0.2022    460.0800    104.8650     64.3353      0.4091   2267.8999
132.7500        190.1250      0.1893    496.6000    100.2600     69.9039      0.4024   2268.5000
132.8750        186.7500      0.1775    496.0800     94.7250     76.2440      0.3901   2277.1001
133.0000        187.3750      0.1671    490.2000     99.5250     85.7235      0.3871   2279.5000
133.1250        188.6000      0.1911    479.6800     99.1500    100.5959      0.3739   2286.2000
133.2500        193.5000      0.2075    449.7600     93.4350    115.9791      0.3455   2290.5000
133.3750        195.6250      0.2230    441.4400     89.5650    127.3624      0.3298   2288.7000
133.5000        196.2500      0.2291    434.3200     86.6250    156.2966      0.3170   2282.6001
133.6250        195.0250      0.2275    435.5600     86.4300    182.1800      0.3080   2263.0000
133.7500        190.7250      0.2262    461.5200     84.7800    198.5447      0.2919   2234.2000
133.8750        187.0500      0.2228    488.2400     78.6900    206.7234      0.2765   2195.7000
134.0000        182.4750      0.2191    514.2400     73.1700    211.5883      0.2627   2160.2000
134.1250        179.4000      0.2186    539.0000     66.9000    213.2045      0.2484   2131.3999
134.2500        179.4000      0.2213    580.1600     60.0900    209.0860      0.2612   2117.3000
134.3750        178.4750      0.2255    595.6000     59.3550    203.4445      0.2769   2113.0000
134.5000        178.4750      0.2374    598.5600     62.2950    197.6017      0.2945   2129.6001
134.6250        178.1750      0.2476    589.4800     63.5850    190.9280      0.2968   2157.1001
134.7500        178.4750      0.2673    571.8400     64.5150    182.4299      0.3024   2193.8000
134.8750        181.8500      0.2846    556.6400     69.1200    175.5578      0.3099   2220.8000
135.0000        184.9250      0.2712    538.5200     73.3500    167.8024      0.3319   2228.1001
135.1250        186.7500      0.2624    514.7200     74.2800    161.7835      0.3329   2227.5000
135.2500        187.0500      0.2557    504.9200     75.7500    155.0187      0.3307   2226.3000
135.3750        187.0500      0.2545    509.8400     76.1250    153.3946      0.3295   2225.0000
135.5000        184.6000      0.2555    518.8800     75.3750    155.5587      0.3292   2225.0000
135.6250        180.6250      0.2577    536.0400     72.4350    157.7244      0.3272   2218.3000
135.7500        178.4750      0.2600    552.7200     71.1450    160.3634      0.3220   2205.5000
135.8750        179.4000      0.2633    350.7600     70.2150    165.4826      0.3161   2188.8999
136.0000        180.0000      0.2677    318.8800     70.0350    179.1193      0.3101   2182.2000
136.1250        180.6250      0.2742    638.5200     70.4100    192.3687      0.3032   2182.8000
136.2500        180.6250      0.2783    607.8800     70.9650    209.5342      0.2961   2185.3000
136.3750        180.3250      0.2785    553.9200     71.1450    232.8733      0.2897   2190.8000
136.5000        179.7000      0.2777    549.7600     68.9250    284.4281      0.2802   2195.7000
136.6250        177.5500      0.2774    534.5600     62.1150    307.8868      0.2654   2185.3000
136.7500        176.6500      0.2813    546.0800     54.7350    327.4068      0.2533   2169.3000
136.8750        176.9500      0.2902    562.2800     45.9000    351.1575      0.2412   2134.5000
137.0000        177.2500      0.3101    585.0800     37.4250    376.2871      0.2299   2092.8000
137.1250        176.6500      0.3256    628.6800     32.0700    386.0987      0.2207   2053.1001
137.2500        177.8750      0.3396    630.1600     27.6600    395.8531      0.2182   2016.3000
137.3750        177.2500      0.3535    637.2800     28.9500    415.5652      0.2259   2001.7000
137.5000        174.8000      0.3655    636.0400     30.6000    419.8848      0.2308   2008.4000
137.6250        171.7500      0.3755    628.4400     33.5550    410.8631      0.2365   2031.6000
137.7500        174.2000      0.3809    617.1600     35.0250    402.9632      0.2394   2053.1001
