~VERSION INFORMATION
 VERS.                 2.0:   CWLS LOG ASCII STANDARD -VERSION 2.0
 WRAP.                  NO:   ONE LINE PER DEPTH STEP
~WELL INFORMATION BLOCK
#MNEM.UNIT           DATA                    DESCRIPTION OF MNEMONIC
#---------    -------------------            -------------------------------
# Generated from Intellog Unique Number	CN_94_101/WELL/5017
WELL.         11-13-100-13W4                 : Well_name    - WELL
LOC .         AA/11-13-100-13W4/0            : Location     - LOCATION
UWI .         AA/11-13-100-13W400            : Uwi          - UNIQUE WELL ID
ENTR.         TIM                            : Entered      - ENTERED BY
SRVC.         SCHLUMBERGER                   : Scn          - SERVICE COMPANY
DATE.         08/13/92                       : Date         - LOG DATE
STRT.M        345                            : top_depth    - START DEPTH
STOP.M        600                            : bot_depth    - STOP DEPTH
STEP.M        0.25                           : increment    - STEP LENGTH
 NULL. -999.2500:NULL Value
~CURVE INFORMATION BLOCK
#MNEM UNIT       ERCB CURVE CODE    CURVE DESCRIPTION
#-----------   ------------------   ----------------------------------
DEPT.M        00 001 00 00         : DEPTH        - DEPTH
GR  .API      00 310 00 00         : GR           - GAMMA RAY
ILD .OHMM     00 120 00 00         : RESD         - DEEP RESISTIVITY (DIL)
NPHI.V/V      00 330 00 00         : PHIN         - NEUTRON POROSITY (SANDSTONE)
DPHI.V/V      00 890 00 00         : PHID         - DENSITY POROSITY (SANDSTONE)
~PARAMETER INFORMATION
#MNEM.UNIT           DATA             DESCRIPTION OF MNEMONIC
#---------         -----------     ------------------------------
GL  .M        791                  : gl           - GROUND LEVEL ELEVATION
EREF.M        794.8                : kb           - ELEVATION OF DEPTH REFERENCE
DATM.M        794.8                : datum        - DATUM ELEVATION
TDD .M        606                  : tdd          - TOTAL DEPTH DRILLER
RUN .         ONE                  : Run          - RUN NUMBER
ENG .         BILL                 : Engineer     - RECORDING ENGINEER
WIT .         JIM                  : Witness      - WITNESSED BY
MUD .         GEL                  : Mud_type     - MUD TYPE
MATR.         SANDSTONE            : Logunit      - NEUTRON MATRIX
TMAX.C        28                   : BHT          - MAXIMUM RECORDED TEMPERATURE
BHTD.M        606                  : BHTDEP       - MAXIMUM RECORDED TEMPERATURE
RMT .C        4                    : MDTP         - TEMPERATURE OF MUD
MUDD.KG/M     1090                 : MWT          - MUD DENSITY
NEUT.         1                    : NEUTRON      - NEUTRON TYPE
RESI.         0                    : RESIST       - RESISTIVITY TYPE
RM  .OHMM     0.24                 : RM           - RESISTIVITY OF MUD
RMC .OHMM     0.24                 : RMC          - RESISTIVITY OF MUD CAKE
RMF .OHMM     0.24                 : RMF          - RESISTIVITY OF MUD FILTRATE
SUFT.C        4                    : SUFT         - SURFACE TEMPERATURE
~A  DEPTH       GR     RESD     PHIN     PHID
# ...
  519.000   87.731    3.965    0.446    0.276
  519.250   85.867    3.815    0.435    0.249
  519.500   70.530    4.111    0.404    0.215
  519.750   61.933    5.056    0.349    0.196
  520.000   59.458    7.945    0.391    0.190
  520.250   58.207   11.799    0.415    0.318
  520.500   58.792   19.998    0.415    0.331
  520.750   58.766   27.024    0.410    0.332
  521.000   58.113   37.916    0.412    0.329
  521.250   57.488   40.101    0.413    0.324
  521.500   56.835   39.323    0.410    0.318
  521.750   56.815   37.831    0.407    0.314
  522.000   56.183   37.104    0.404    0.308
  522.250   55.538   36.377    0.399    0.303
  522.500   53.062   36.350    0.392    0.294
  522.750   49.975   38.438    0.372    0.289
  523.000   46.275   40.653    0.359    0.288
  523.250   38.290   50.943    0.340    0.296
  523.500   27.245   61.463    0.321    0.303
  523.750   20.484   66.231    0.310    0.305
  524.000   16.172   67.455    0.309    0.306
  524.250   17.982   56.880    0.309    0.306
  524.500   20.397   39.702    0.318    0.310
  524.750   22.214   36.789    0.332    0.323
  525.000   27.690   35.400    0.364    0.334
  525.250   31.955   36.048    0.375    0.347
  525.500   36.213   39.591    0.381    0.366
  525.750   34.956   52.501    0.362    0.327
  526.000   29.419   75.078    0.324    0.296
  526.250   25.706   84.013    0.326    0.302
  526.500   25.081   83.951    0.328    0.309
  526.750   26.278   79.273    0.333    0.307
  527.000   26.252   74.856    0.342    0.300
  527.250   24.987   69.350    0.343    0.298
  527.500   24.355   65.498    0.341    0.296
  527.750   23.716   53.185    0.342    0.293
  528.000   23.689   41.587    0.345    0.298
  528.250   23.669   35.067    0.336    0.301
  528.500   24.867   30.127    0.329    0.300
  528.750   27.289   25.883    0.329    0.298
  529.000   30.323   23.535    0.336    0.298
  529.250   33.969   23.078    0.341    0.302
  529.500   38.221   23.505    0.343    0.306
  529.750   41.874   25.328    0.368    0.309
  530.000   45.520   29.993    0.378    0.314
  530.250   47.942   39.030    0.380    0.321
  530.500   51.588   42.058    0.372    0.332
  530.750   55.234   40.471    0.388    0.339
  531.000   52.147   37.501    0.402    0.348
  531.250   48.447   33.463    0.410    0.352
  531.500   44.135   29.296    0.420    0.361
  531.750   41.048   28.191    0.425    0.369
  532.000   38.572   28.175    0.418    0.357
  532.250   37.321   28.685    0.410    0.345
  532.500   39.124   28.664    0.402    0.343
  532.750   40.934   26.561    0.394    0.342
  533.000   41.526   22.819    0.393    0.336
  533.250   43.329   20.753    0.390    0.333
  533.500   44.520   18.172    0.395    0.332
  533.750   47.548   16.521    0.403    0.326
  534.000   48.758   15.604    0.409    0.316
  534.250   50.568   14.732    0.412    0.306
  534.500   53.602   13.911    0.413    0.302
  534.750   56.017   13.388    0.410    0.306
  535.000   55.379   12.878    0.407    0.309
  535.250   54.746   13.116    0.402    0.312
  535.500   52.883   13.867    0.392    0.313
  535.750   52.856   14.126    0.383    0.311
  536.000   54.047   14.937    0.395    0.310
  536.250   55.252   16.399    0.397    0.310
  536.500   57.061   18.005    0.392    0.310
  536.750   58.259   18.690    0.386    0.313
  537.000   60.062   19.760    0.384    0.317
  537.250   60.654   20.125    0.384    0.319
  537.500   60.621   20.884    0.391    0.317
  537.750   60.594   21.666    0.401    0.314
  538.000   59.962   22.063    0.404    0.316
  538.250   59.323   22.894    0.402    0.322
  538.500   57.453   23.317    0.400    0.322
  538.750   55.583   23.739    0.400    0.321
  539.000   54.958   24.164    0.400    0.316
  539.250   53.700   24.151    0.394    0.317
  539.500   53.054   24.597    0.384    0.322
  539.750   51.817   25.519    0.384    0.334
  540.000   51.164   27.499    0.386    0.331
  540.250   51.763   28.007    0.386    0.331
  540.500   54.178   29.062    0.382    0.333
  540.750   55.383   30.157    0.383    0.338
  541.000   57.192   30.135    0.383    0.339
  541.250   57.159   28.998    0.381    0.334
  541.500   57.132   26.865    0.377    0.328
  541.750   57.105   26.348    0.372    0.325
  542.000   59.527   24.875    0.380    0.325
  542.250   61.331   24.397    0.391    0.325
  542.500   63.134   23.923    0.398    0.325
  542.750   63.114   22.590    0.398    0.322
  543.000   63.087   21.328    0.398    0.317
  543.250   61.224   20.917    0.396    0.313
  543.500   59.360   19.744    0.390    0.318
  543.750   59.327   19.365    0.385    0.323
  544.000   59.926   17.941    0.386    0.321
  544.250   61.736   16.941    0.389    0.317
  544.500   63.539   16.305    0.390    0.316
  544.750   64.736   15.683    0.389    0.317
  545.000   64.716   15.675    0.387    0.320
  545.250   65.288   15.964    0.378    0.320
  545.500   65.275   16.566    0.367    0.319
  545.750   65.241   17.187    0.374    0.321
  546.000   65.215   16.538    0.403    0.321
  546.250   64.569   15.917    0.403    0.321
  546.500   63.937   13.930    0.396    0.320
  546.750   63.910   13.412    0.386    0.319
  547.000   63.271   11.965    0.383    0.316
  547.250   63.863   11.089    0.383    0.314
  547.500   66.891    9.527    0.381    0.306
  547.750   68.095    8.032    0.377    0.293
  548.000   70.510    7.584    0.373    0.286
  548.250   71.708    7.298    0.371    0.280
  548.500   71.069    7.294    0.376    0.284
  548.750   70.423    7.428    0.401    0.289
  549.000   69.784    7.851    0.415    0.295
  549.250   69.152    7.996    0.418    0.300
  549.500   69.738    8.299    0.413    0.304
  549.750   67.874    8.451    0.404    0.308
  550.000   64.175    8.605    0.397    0.312
  550.250   64.754    8.599    0.390    0.310
  550.500   66.570    8.591    0.383    0.306
  550.750   69.604    8.424    0.380    0.303
  551.000   70.183    7.806    0.382    0.298
  551.250   69.537    7.800    0.398    0.296
  551.500   68.912    8.093    0.410    0.301
  551.750   67.654    8.559    0.414    0.306
  552.000   67.634    9.223    0.415    0.311
  552.250   65.764    9.755    0.410    0.313
  552.500   64.506   10.121    0.405    0.310
  552.750   63.874   10.115    0.391    0.304
  553.000   62.630    9.731    0.385    0.300
  553.250   61.977    9.362    0.376    0.288
  553.500   61.345    9.179    0.361    0.275
  553.750   60.700    9.004    0.350    0.275
  554.000   59.442    8.997    0.355    0.278
  554.250   58.198    8.989    0.362    0.280
  554.500   56.341    8.984    0.366    0.285
  554.750   52.635    9.321    0.367    0.290
  555.000   48.942   10.428    0.374    0.297
  555.250   44.630   11.029    0.385    0.311
  555.500   38.482   11.447    0.390    0.315
  555.750   36.618   11.878    0.361    0.318
  556.000   35.973   11.216    0.366    0.321
  556.250   35.946   10.195    0.391    0.330
  556.500   37.150    9.629    0.394    0.332
  556.750   41.409    9.093    0.394    0.330
  557.000   45.667    8.424    0.379    0.324
  557.250   50.538    8.109    0.369    0.315
  557.500   56.020    7.233    0.357    0.305
  557.750   60.891    6.961    0.350    0.296
  558.000   66.979    6.330    0.353    0.292
  558.250   68.795    5.756    0.362    0.290
  558.500   73.666    5.038    0.370    0.285
  558.750   82.815    4.759    0.380    0.279
  559.000   87.073    4.493    0.387    0.265
  559.250   85.203    4.324    0.396    0.262
  559.500   84.571    4.241    0.395    0.262
  559.750   82.708    4.080    0.391    0.262
  560.000   82.681    4.001    0.398    0.263
  560.250   85.709    3.923    0.402    0.260
  560.500   87.532    3.847    0.404    0.253
  560.750   90.566    3.844    0.399    0.241
  561.000   90.539    3.841    0.395    0.234
  561.250   88.676    3.838    0.384    0.230
  561.500   86.813    3.982    0.378    0.222
  561.750   83.113    4.054    0.373    0.211
  562.000   83.698    4.129    0.368    0.197
  562.250   84.889    4.205    0.362    0.187
