~VERSION INFORMATION
 VERS.                 2.0:   CWLS LOG ASCII STANDARD -VERSION 2.0
 WRAP.                  NO:   ONE LINE PER DEPTH STEP
~WELL INFORMATION BLOCK
#MNEM.UNIT           DATA                    DESCRIPTION OF MNEMONIC
#---------    -------------------            -------------------------------
# Generated from Intellog Unique Number	CN_91_93/WELL/3715
WELL.         10-12-093-07W4                 : Well_name    - WELL
LOC .         AA/10-12-093-07W4/0            : Location     - LOCATION
UWI .         AA/10-12-093-07W400            : Uwi          - UNIQUE WELL ID
ENTR.         JOETTE                         : Entered      - ENTERED BY
SRVC.         WESTERN ATLAS                  : Scn          - SERVICE COMPANY
DATE.         03/22/92                       : Date         - LOG DATE
STRT.F        50                             : top_depth    - START DEPTH
STOP.F        860.367                        : bot_depth    - STOP DEPTH
STEP.F        0.8202                         : increment    - STEP LENGTH
 NULL. -999.2500:NULL Value
~CURVE INFORMATION BLOCK
#MNEM UNIT       ERCB CURVE CODE    CURVE DESCRIPTION
#-----------   ------------------   ----------------------------------
DEPT.F        00 001 00 00         : DEPTH        - DEPTH
CALI.IN       00 280 01 00         : CAL          - CALIPER
GR  .API      00 310 00 00         : GR           - GAMMA RAY
NPHI.V/V      00 330 00 00         : PHIN         - NEUTRON POROSITY (SANDSTONE)
ILD .OHMM     00 120 00 00         : RESD         - DEEP RESISTIVITY (DIL)
~PARAMETER INFORMATION
#MNEM.UNIT           DATA             DESCRIPTION OF MNEMONIC
#---------         -----------     ------------------------------
GL  .M        520.111              : gl           - GROUND LEVEL ELEVATION
EREF.M        521.635              : kb           - ELEVATION OF DEPTH REFERENCE
DATM.M        521.635              : datum        - DATUM ELEVATION
TDD .M        267.31               : tdd          - TOTAL DEPTH DRILLER
RUN .         ONE                  : Run          - RUN NUMBER
ENG .         BILL                 : Engineer     - RECORDING ENGINEER
WIT .         JIM                  : Witness      - WITNESSED BY
MUD .         GEL                  : Mud_type     - MUD TYPE
MATR.         SANDSTONE            : Logunit      - NEUTRON MATRIX
TMAX.F        45                   : BHT          - MAXIMUM RECORDED TEMPERATURE
BHTD.F        877                  : BHTDEP       - MAXIMUM RECORDED TEMPERATURE
RMT .F        45                   : MDTP         - TEMPERATURE OF MUD
MUDD.LB/G     1.07                 : MWT          - MUD DENSITY
NEUT.         1                    : NEUTRON      - NEUTRON TYPE
RESI.         0                    : RESIST       - RESISTIVITY TYPE
RM  .OHMM     8.9                  : RM           - RESISTIVITY OF MUD
RMC .OHMM     8.9                  : RMC          - RESISTIVITY OF MUD CAKE
RMF .OHMM     8.9                  : RMF          - RESISTIVITY OF MUD FILTRATE
SUFT.F        39.2                 : SUFT         - SURFACE TEMPERATURE
~A  DEPTH      CAL       GR     PHIN     RESD
# ...
  478.150    6.465   89.094    0.445    8.400
  478.970    6.588   90.933    0.463    8.249
  479.790    6.751   90.336    0.470    7.527
  480.610    6.874   92.789    0.470    6.743
  481.430    6.834   98.296    0.469    6.501
  482.251    6.673   97.698    0.468    5.932
  483.071    6.633   97.711    0.466    5.825
  483.891    6.634   97.113    0.465    5.617
  484.711    6.838   92.855    0.462    5.617
  485.531    7.286   89.820    0.457    5.829
  486.352    7.775   89.829    0.452    6.048
  487.172    7.573   89.234    0.445    6.631
  487.992    7.411   91.077    0.443    7.009
  488.812    7.208   92.917    0.443    7.139
  489.633    6.924   91.102    0.449    7.139
  490.453    6.722   91.115    0.455    5.731
  491.273    6.479   94.178    0.456    5.627
  492.093    6.439   96.631    0.456    5.526
  492.913    6.399   92.376    0.453    5.526
  493.734    6.481   90.555    0.449    5.527
  494.554    6.604   92.401    0.440    5.735
  495.374    6.686   92.413    0.436    6.289
  496.194    6.565   87.545    0.432    6.646
  497.014    6.485   82.676    0.431    7.286
  497.835    6.364   85.129    0.436    7.844
  498.655    6.324   87.582    0.443    8.139
  499.475    6.325   87.595    0.452    7.847
  500.295    6.285   89.438    0.467    7.030
  501.115    6.286   95.551    0.477    5.851
  501.936    6.327  102.275    0.483    4.961
  502.756    6.328   99.854    0.480    4.611
  503.576    6.370   96.205    0.478    4.131
  504.396    6.411   93.170    0.476    3.700
  505.217    6.412   92.566    0.472    3.634
  506.037    6.454   92.579    0.467    3.702
  506.857    6.454   96.252    0.460    4.289
  507.677    6.456   95.654    0.454    4.702
  508.497    6.456   90.789    0.452    5.155
  509.318    6.498   89.581    0.450    5.757
  510.138    6.539   88.984    0.448    6.197
  510.958    6.621   88.999    0.446    6.549
  511.778    6.703   87.181    0.444    6.922
  512.598    6.704   85.970    0.438    7.051
  513.419    6.624   90.864    0.428    7.591
  514.239    6.462   95.758    0.415    7.877
  515.059    6.422   93.943    0.390    8.478
  515.879    6.423   92.125    0.350    9.823
  516.699    6.383   93.358    0.346   10.969
  517.520    6.384   95.811    0.354   14.188
  518.340    6.426   93.996    0.367   13.933
  519.160    6.426   91.565    0.376   12.712
  519.980    6.468   94.018    0.388   10.014
  520.801    6.509   97.691    0.407    8.185
  521.621    6.755   99.537    0.422    7.606
  522.441    6.796   97.719    0.426    7.334
  523.261    6.756   97.122    0.428    7.202
  524.081    6.676   97.744    0.424    7.611
  524.902    6.676   96.543    0.419    8.345
  525.722    6.678   95.942    0.414    8.819
  526.542    6.637   95.344    0.410    9.152
  527.362    6.557   95.967    0.407    8.986
  528.182    6.477   97.810    0.404    8.665
  529.003    6.437   98.433    0.400    8.508
  529.823    6.438   97.222    0.396    8.510
  530.643    6.601   92.969    0.393    8.513
  531.463    6.643   92.372    0.387    8.513
  532.283    6.562   91.167    0.382    8.673
  533.104    6.441   89.346    0.378    9.000
  533.924    6.442   88.138    0.375    9.338
  534.744    6.646   89.978    0.370    9.341
  535.564    6.647   91.824    0.366    8.681
  536.385    6.607   91.223    0.365    8.369
  537.205    6.527   88.795    0.363    8.219
  538.025    6.487   83.930    0.359    9.012
  538.845    6.447   85.163    0.357    9.523
  539.665    6.407   85.785    0.351   10.441
  540.486    6.408   82.137    0.346   10.066
  541.306    6.409   80.319    0.339    9.530
  542.126    6.410   82.165    0.326    9.707
  542.946    6.411   84.005    0.307   10.073
  543.766    6.412   81.580    0.284   10.646
  544.587    6.412   76.098    0.229   12.109
  545.407    6.454   71.840    0.163   14.553
  546.227    6.455   65.757    0.149   20.258
  547.047    6.456   62.719    0.339   23.904
  547.867    6.416   62.728    0.356   24.803
  548.688    6.376   72.506    0.367   18.492
  549.508    6.296   76.786    0.375   14.837
  550.328    6.256   82.290    0.380   12.580
  551.148    6.257   85.353    0.387   10.666
  551.969    6.339   89.030    0.396    9.912
  552.789    6.421   89.656    0.411    8.880
  553.609    6.503   92.105    0.448    7.955
  554.429    6.667   95.169    0.448    7.127
  555.249    6.586   97.015    0.441    6.503
  556.070    6.465   95.197    0.430    6.269
  556.890    6.466   93.989    0.417    6.627
  557.710    6.426   92.171    0.409    6.875
  558.530    6.427   90.353    0.413    7.538
  559.350    6.550   88.538    0.429    7.822
  560.171    6.714   86.720    0.452    7.681
  560.991    6.674   89.170    0.471    7.008
  561.811    6.553   92.844    0.490    5.521
  562.631    6.472   95.910    0.508    4.856
  563.451    6.432   98.970    0.511    4.042
  564.272    6.393  102.033    0.510    3.621
  565.092    6.393  104.493    0.505    3.365
  565.912    6.394  102.061    0.501    3.128
  566.732    6.395  100.243    0.497    3.129
  567.552    6.437  101.479    0.490    3.246
  568.373    6.478  102.102    0.482    3.494
  569.193    6.479  102.111    0.474    3.831
  570.013    6.520  100.297    0.465    4.357
  570.833    6.562   97.868    0.456    4.956
  571.654    6.563   95.441    0.445    5.637
  572.474    6.564   93.012    0.434    6.180
  573.294    6.565   91.198    0.419    7.160
  574.114    6.566   90.597    0.417    7.851
  574.934    6.566   90.609    0.419    8.451
  575.755    6.567   90.015    0.424    8.452
  576.575    6.568   90.027    0.424    8.301
  577.395    6.569   90.043    0.415    8.456
  578.215    6.570   90.659    0.381    8.614
  579.035    6.490   90.062    0.365    9.445
  579.856    6.490   81.535    0.340   11.145
  580.676    6.450   77.277    0.280   14.153
  581.496    6.573   82.171    0.251   13.899
  582.316    6.615   86.454    0.365   11.569
  583.136    6.616   88.297    0.392   10.364
  583.957    6.576   84.045    0.389    9.457
  584.777    6.536   84.051    0.389    8.952
  585.597    6.496   84.674    0.389    8.320
  586.417    6.456   86.517    0.392    8.169
  587.238    6.416   88.366    0.397    8.022
  588.058    6.377   87.765    0.405    8.174
  588.878    6.378   87.778    0.410    8.327
  589.698    6.419   87.790    0.418    8.176
  590.518    6.420   87.192    0.426    7.884
  591.339    6.462   87.208    0.436    7.601
  592.159    6.503   88.441    0.436    7.328
  592.979    6.545   90.284    0.432    7.196
  593.799    6.586   89.689    0.425    6.938
  594.619    6.587   87.261    0.413    6.813
  595.440    6.588   87.884    0.413    6.691
  596.260    6.548   89.724    0.413    6.692
  597.080    6.508   92.177    0.411    6.817
  597.900    6.428   94.019    0.411    7.074
  598.720    6.388   94.642    0.413    7.476
  599.541    6.348   93.438    0.432    7.757
  600.361    6.308   94.060    0.449    7.759
  601.181    6.309   96.516    0.456    7.481
  602.001    6.310   95.919    0.461    6.826
  602.822    6.311   95.318    0.457    5.787
  603.642    6.311   97.164    0.455    5.090
  604.462    6.312   99.007    0.454    4.818
  605.282    6.313   97.189    0.454    4.646
  606.102    6.355   95.371    0.455    4.733
  606.923    6.356   97.824    0.455    4.821
  607.743    6.397   99.667    0.455    5.002
  608.563    6.398  101.513    0.455    5.096
  609.383    6.399   99.692    0.454    5.097
  610.203    6.400   95.433    0.450    5.098
  611.024    6.401   93.009    0.449    5.100
  611.844    6.401   94.238    0.450    5.008
  612.664    6.402   96.081    0.449    5.009
  613.484    6.362   96.094    0.447    5.198
  614.304    6.363   93.672    0.442    5.393
  615.125    6.364   94.294    0.437    5.596
  615.945    6.365   94.917    0.436    5.597
  616.765    6.406   94.320    0.435    5.496
  617.585    6.407   95.552    0.429    5.108
  618.406    6.530   98.005    0.418    5.109
  619.226    6.653   97.408    0.408    5.602
  620.046    6.654   99.251    0.395    5.812
