~VERSION INFORMATION
 VERS.                 2.0:   CWLS LOG ASCII STANDARD -VERSION 2.0
 WRAP.                  NO:   ONE LINE PER DEPTH STEP
~WELL INFORMATION BLOCK
#MNEM.UNIT           DATA                    DESCRIPTION OF MNEMONIC
#---------    -------------------            -------------------------------
# Generated from Intellog Unique Number	CS_77_79/WELL/949
WELL.         PEX PCEJ THORNBURY OV          : Well_name    - WELL
LOC .         AA/10-11-079-12W4/0            : Location     - LOCATION
UWI .         AA/10-11-079-12W4/0            : Uwi          - UNIQUE WELL ID
ENTR.         JHS                            : Entered      - ENTERED BY
SRVC.         SCHLUMBERGER                   : Scn          - SERVICE COMPANY
STRT.M        250                            : top_depth    - START DEPTH
STOP.M        465                            : bot_depth    - STOP DEPTH
STEP.M        0.25                           : increment    - STEP LENGTH
 NULL. -999.2500:NULL Value
~CURVE INFORMATION BLOCK
#MNEM UNIT       ERCB CURVE CODE    CURVE DESCRIPTION
#-----------   ------------------   ----------------------------------
DEPT.M        00 001 00 00         : DEPTH        - DEPTH
DPHI.V/V      00 890 00 00         : PHID         - DENSITY POROSITY (LIMESTONE)
NPHI.V/V      00 330 00 00         : PHIN         - NEUTRON POROSITY (LIMESTONE)
GR  .API      00 310 00 00         : GR           - GAMMA RAY
ILD .OHMM     00 120 00 00         : RESD         - DEEP RESISTIVITY (DIL)
RHOB.KG/M3    00 350 00 00         : DENS         - BULK DENSITY
~PARAMETER INFORMATION
#MNEM.UNIT           DATA             DESCRIPTION OF MNEMONIC
#---------         -----------     ------------------------------
GL  .M        640                  : gl           - GROUND LEVEL ELEVATION
EREF.M        643.5                : kb           - ELEVATION OF DEPTH REFERENCE
DATM.M        643.5                : datum        - DATUM ELEVATION
TDD .M        474                  : tdd          - TOTAL DEPTH DRILLER
RUN .         ONE                  : Run          - RUN NUMBER
ENG .         BILL                 : Engineer     - RECORDING ENGINEER
WIT .         JIM                  : Witness      - WITNESSED BY
MUD .         GEL                  : Mud_type     - MUD TYPE
MATR.         LIMESTONE            : Logunit      - NEUTRON MATRIX
TMAX.C        26                   : BHT          - MAXIMUM RECORDED TEMPERATURE
BHTD.M        474                  : BHTDEP       - MAXIMUM RECORDED TEMPERATURE
MATR.         1                    : LOGUNIT      - NEUTRON MATRIX
RMT .C        25                   : MDTP         - TEMPERATURE OF MUD
NEUT.         1                    : NEUTRON      - NEUTRON TYPE
RESI.         0                    : RESIST       - RESISTIVITY TYPE
RMC .OHMM     0.25                 : RMC          - RESISTIVITY OF MUD CAKE
RMF .OHMM     0.25                 : RMF          - RESISTIVITY OF MUD FILTRATE
SUFT.C        15                   : SUFT         - SURFACE TEMPERATURE
~A  DEPTH     PHID     PHIN       GR     RESD     DENS
# ...
  286.500    0.184    0.390   92.886   16.561    0.000
  286.750    0.178    0.405   97.883   13.447    0.000
  287.000    0.192    0.407   98.521   10.316    0.000
  287.250    0.208    0.396   87.959    7.766    0.000
  287.500    0.221    0.405   84.245    6.802    0.000
  287.750    0.184    0.422   93.599    6.548    0.000
  288.000    0.172    0.448  111.040    6.548    0.000
  288.250    0.171    0.458  119.150    6.930    0.000
  288.500    0.183    0.450  110.455    7.911    0.000
  288.750    0.209    0.427  103.006    9.558    0.000
  289.000    0.232    0.409  114.224   10.506    0.000
  289.250    0.243    0.401  116.116   11.768    0.000
  289.500    0.247    0.397  113.016   12.454    0.000
  289.750    0.238    0.407  106.189   13.689    0.000
  290.000    0.242    0.403  104.339   14.216    0.000
  290.250    0.239    0.413  106.226   13.687    0.000
  290.500    0.229    0.425  100.022   12.931    0.000
  290.750    0.223    0.418   92.569   12.216    0.000
  291.000    0.232    0.399   78.894   12.685    0.000
  291.250    0.240    0.418   75.800   13.682    0.000
  291.500    0.262    0.421   85.156   14.757    0.000
  291.750    0.324    0.430   87.662   15.916    0.000
  292.000    0.282    0.415   83.945   17.494    0.000
  292.250    0.240    0.404   81.476   18.167    0.000
  292.500    0.233    0.413   72.781   18.513    0.000
  292.750    0.225    0.415   83.378   18.164    0.000
  293.000    0.230    0.437   85.264   18.509    0.000
  293.250    0.228    0.427   79.683   18.508    0.000
  293.500    0.219    0.428   78.456   18.859    0.000
  293.750    0.212    0.423   83.451   18.858    0.000
  294.000    0.204    0.415   81.603   19.584    0.000
  294.250    0.199    0.411   82.870   19.582    0.000
  294.500    0.192    0.407   80.396   19.213    0.000
  294.750    0.194    0.395   76.676   18.852    0.000
  295.000    0.204    0.383   69.230   18.150    0.000
  295.250    0.194    0.388   69.249   17.474    0.000
  295.500    0.192    0.395   70.507   16.824    0.000
  295.750    0.189    0.396   72.393   16.197    0.000
  296.000    0.190    0.397   71.165   15.892    0.000
  296.250    0.200    0.407   68.074   15.013    0.000
  296.500    0.204    0.428   76.181   14.455    0.000
  296.750    0.196    0.432   73.711   13.656    0.000
  297.000    0.195    0.429   79.332   12.901    0.000
  297.250    0.198    0.438   81.216   12.421    0.000
  297.500    0.196    0.455   81.231   11.958    0.000
  297.750    0.194    0.452   87.473   11.732    0.000
  298.000    0.194    0.447   83.757   11.732    0.000
  298.250    0.201    0.424   78.796   11.731    0.000
  298.500    0.207    0.410   85.661   11.954    0.000
  298.750    0.210    0.404   81.947   12.414    0.000
  299.000    0.208    0.401   78.229   12.892    0.000
  299.250    0.203    0.404   83.232   12.891    0.000
  299.500    0.191    0.419   84.489   12.890    0.000
  299.750    0.182    0.429   79.529   12.410    0.000
  300.000    0.175    0.440   80.168   11.288    0.000
  300.250    0.169    0.421   80.188   10.464    0.000
  300.500    0.164    0.415   74.604    9.886    0.000
  300.750    0.174    0.426   85.204    9.165    0.000
  301.000    0.218    0.436   90.198    8.991    0.000
  301.250    0.255    0.435   96.441    8.991    0.000
  301.500    0.245    0.412   97.703    9.337    0.000
  301.750    0.214    0.391   91.497    9.882    0.000
  302.000    0.208    0.378   96.497   10.658    0.000
  302.250    0.209    0.386   96.512   11.279    0.000
  302.500    0.218    0.386   89.065   12.165    0.000
  302.750    0.224    0.399   83.478   12.874    0.000
  303.000    0.220    0.393   85.365   13.626    0.000
  303.250    0.221    0.384   86.004   14.421    0.000
  303.500    0.218    0.385   82.910   16.462    0.000
  303.750    0.214    0.401   82.308   18.440    0.000
  304.000    0.226    0.415   65.520   21.452    0.000
  304.250    0.273    0.406   50.602   24.029    0.000
  304.500    0.305    0.447   45.019   25.431    0.000
  304.750    0.307    0.449   33.836   25.915    0.000
  305.000    0.260    0.391   35.100   27.427    0.000
  305.250    0.252    0.348   35.742   29.026    0.000
  305.500    0.257    0.349   33.889   30.143    0.000
  305.750    0.258    0.356   34.536   30.716    0.000
  306.000    0.258    0.355   36.420   30.713    0.000
  306.250    0.257    0.362   36.436   30.711    0.000
  306.500    0.255    0.382   34.585   30.707    0.000
  306.750    0.250    0.396   35.228   31.292    0.000
  307.000    0.247    0.386   37.114   31.887    0.000
  307.250    0.250    0.380   37.127   33.113    0.000
  307.500    0.258    0.380   37.146   34.388    0.000
  307.750    0.259    0.371   40.899   35.043    0.000
  308.000    0.251    0.387   44.652   36.391    0.000
  308.250    0.246    0.415   47.157   37.791    0.000
  308.500    0.246    0.409   47.799   39.246    0.000
  308.750    0.248    0.398   44.083   39.993    0.000
  309.000    0.252    0.385   45.967   40.753    0.000
  309.250    0.260    0.384   46.611   39.985    0.000
  309.500    0.260    0.384   44.761   39.232    0.000
  309.750    0.263    0.371   44.158   37.062    0.000
  310.000    0.268    0.367   42.928   36.365    0.000
  310.250    0.274    0.379   43.569   35.011    0.000
  310.500    0.271    0.400   44.832   34.352    0.000
  310.750    0.269    0.398   46.093   33.074    0.000
  311.000    0.272    0.396   46.734   32.450    0.000
  311.250    0.278    0.410   47.375   31.243    0.000
  311.500    0.268    0.402   46.151   30.079    0.000
  311.750    0.266    0.390   44.298   28.959    0.000
  312.000    0.266    0.380   42.450   27.881    0.000
  312.250    0.263    0.392   44.338   27.356    0.000
  312.500    0.258    0.397   46.220   26.842    0.000
  312.750    0.262    0.396   46.862   25.842    0.000
  313.000    0.265    0.413   48.126   24.879    0.000
  313.250    0.267    0.413   46.277   24.411    0.000
  313.500    0.263    0.397   45.051   23.951    0.000
  313.750    0.260    0.379   45.065   23.500    0.000
  314.000    0.266    0.375   42.595   23.057    0.000
  314.250    0.276    0.386   43.237   23.055    0.000
  314.500    0.281    0.399   45.122   22.622    0.000
  314.750    0.276    0.386   43.897   22.195    0.000
  315.000    0.272    0.380   46.401   21.777    0.000
  315.250    0.271    0.373   47.041   21.776    0.000
  315.500    0.272    0.380   45.192   21.365    0.000
  315.750    0.285    0.398   48.949   21.363    0.000
  316.000    0.288    0.412   50.211   20.961    0.000
  316.250    0.287    0.414   50.227   20.960    0.000
  316.500    0.282    0.399   48.999   20.957    0.000
  316.750    0.278    0.384   44.039   21.356    0.000
  317.000    0.275    0.372   38.458   20.953    0.000
  317.250    0.275    0.398   36.609   20.952    0.000
  317.500    0.278    0.406   37.249   20.556    0.000
  317.750    0.279    0.410   41.626   20.555    0.000
  318.000    0.281    0.419   44.135   20.169    0.000
  318.250    0.278    0.412   43.525   19.789    0.000
  318.500    0.281    0.422   45.416   19.416    0.000
  318.750    0.285    0.419   48.544   19.414    0.000
  319.000    0.287    0.428   50.426   19.412    0.000
  319.250    0.282    0.425   46.709   19.782    0.000
  319.500    0.279    0.409   45.487   19.780    0.000
  319.750    0.275    0.407   43.635   19.778    0.000
  320.000    0.272    0.397   44.898   20.539    0.000
  320.250    0.270    0.401   44.917   20.537    0.000
  320.500    0.272    0.389   40.577   20.928    0.000
  320.750    0.275    0.408   38.109   21.326    0.000
  321.000    0.281    0.413   36.258   21.324    0.000
  321.250    0.283    0.413   38.141   21.322    0.000
  321.500    0.284    0.400   38.158   21.320    0.000
  321.750    0.285    0.401   35.064   21.319    0.000
  322.000    0.287    0.403   37.575   20.916    0.000
  322.250    0.290    0.395   34.483   20.915    0.000
  322.500    0.290    0.388   36.988   20.913    0.000
  322.750    0.287    0.383   37.629   20.912    0.000
