~Version : LASO    vs 4.00
VERS.                2.00:   CWLS Log ASCII Standard -VERSION 2.0
WRAP.                  NO:
~Well Information Block
#MNEM.UNIT       Data                        Description of Mnemonic
#----.----      -------------------------- : -----------------------------
STRT.M             3.0000:
STOP.M           202.0000:
STEP.M             0.1250:
NULL.           -999.2500:
COMP.  MOBILOIL CANADA             :COMPANY
WELL.  MOBIL CLARKE OV 10-26       :WELL
FLD.   CLARKE                      :FIELD
LOC.   10-26-090-07W4              :LOCATION
CTRY.  CANADA                      :COUNTRY
PROV.  ALBERTA                     :PROVINCE
SRVC.  DRESSER ATLAS               :SERVICE COMPANY
DATE.  31-JAN-81                   :LOG DATE
UWI.   AA/10-26-090-07W400         :UNIQUE WELL ID
~Parameter Information Block
#MNEM.UNIT       Data                        Description of Mnemonic
#----.----      -------------------------- : -----------------------------
RUN .                   1                 : Run Number
GL  .M           456.0000                 : Ground Level Elevation
DREF.                  KB                 : Depth Reference
EREF.M           456.0000                 : Elevation of Depth Reference
TDL .M           201.0000                 : Total Depth Logger
TDD .M           203.0000                 : Total Depth Driller
CSGL.M            13.0000                 : Casing Bottom Logger
CSGD.M            12.0000                 : Casing Bottom Driller
CSGS.MM          219.0000                 : Casing Size
CSGW.KG/M          0.0000                 : Casing Weight
BHT .DEGC         18.0000                 : Bottom Hole Temperature
BS  .MM          171.4000                 : Bit Size
DFD .              9.7000                 : Mud Weight (Density)
DFV .             85.0000                 : Mud Viscosity
RM  .OHMM          4.0000                 : Mud Resistivity
RMT .DEGC         18.0000                 : Mud Resistivity Temperature
RMF .OHMM          6.2000                 : Mud Filtrate Resistivity
RMFT.DEGC         12.0000                 : RMF Temperature
RMC .OHMM         11.6000                 : Mud Cake Resistivity
RMCT.DEGC         12.0000                 : RMC Temperature
~Curve Information Block
#MNEM.UNIT        API CODE    Curve Description
#---------    ------------    -------------------------------------------
DEPT.M                    :   DEPTH
CALI.MM       42 280  1  1:   3 DENSITY CALIPER
DPHI.V/V                  :   DPHI
DT  .US/M     60 520 42  1:   2 SONIC INTERVAL TRANSIT TIME (COMPENSATED)
GR  .GAPI     42 310  1  1:   4 GAMMA RAY
LLD .Ohmm                 :   LLD
NPHI.V/V      42 890  3  1:   5 NEUTRON POROSITY (SANDSTONE)
RHOB.K/M3     42 350  1  1:   6 BULK DENSITY
~A  Depth           CALI        DPHI          DT          GR         LLD        NPHI        RHOB
# ...
189.7500        164.0750      0.0000    317.1600     64.3200    241.5392      0.2395   2657.1001
189.8750        164.0750      0.0000    323.3200     61.5600    246.3090      0.2410   2662.6001
190.0000        164.7000      0.0000    328.2000     58.4250    249.7978      0.2432   2654.7000
190.1250        165.3000      0.0000    341.4400     60.0900    253.9469      0.2402   2647.8999
190.2500        165.6250      0.0000    336.8000     61.1850    256.3988      0.2387   2642.3999
190.3750        165.9250      0.0000    330.4000     61.1850    263.2303      0.2375   2647.3000
190.5000        166.2250      0.0060    338.7600     60.0900    277.7756      0.2330   2646.7000
190.6250        166.5250      0.0088    345.1200     60.8250    299.3119      0.2290   2646.1001
190.7500        167.7500      0.0078    219.6400     59.7150    315.7395      0.2245   2627.7000
190.8750        169.9000      0.0040    212.7600     56.9550    336.7828      0.2181   2610.0000
191.0000        169.3000      0.0025    186.2800     48.1050    353.7052      0.2136   2605.1001
191.1250        168.6750      0.0040    179.6800     40.9200    369.4003      0.2035   2621.0000
191.2500        166.2250      0.0071    163.0000     31.7100    395.5053      0.1742   2631.3999
191.3750        161.9250      0.0149    164.2400     26.1750    426.4031      0.1604   2646.1001
191.5000        161.3250      0.0228    164.2400     21.0150    451.5020      0.1510   2669.3000
191.6250        162.2500      0.0198    156.4000     19.1700    473.6017      0.1447   2677.3000
191.7500        163.1500      0.0129    170.1200     19.1700    490.8165      0.1357   2675.5000
191.8750        161.9250      0.0000    203.4400     20.2800    493.2075      0.1342   2667.5000
192.0000        163.4750      0.0000    199.5200     21.2100    488.0159      0.1327   2667.5000
192.1250        163.7750      0.0000    189.0000     23.5950    482.7940      0.1327   2677.3000
192.2500        163.7750      0.0000    171.3600     25.4400    481.7885      0.1353   2687.1001
192.3750        163.7750      0.0000    173.3200     22.6800    484.9212      0.1353   2695.1001
192.5000        163.4750      0.0000    185.8000     17.7000    492.6601      0.1353   2700.0000
192.6250        163.4750      0.0000    193.6400     15.6750    845.1187      0.1330   2697.5000
192.7500        163.4750      0.0000    207.6000     17.3400   -999.2500      0.1360   2691.3999
192.8750        163.4750      0.0000    213.2400     19.7250   -999.2500      0.1398   2685.3000
193.0000        163.4750      0.0000    219.6400     21.0150   -999.2500      0.1428   2677.8999
193.1250        163.1500      0.0000    207.8800     20.8350   -999.2500      0.1432   2678.5000
193.2500        162.8500      0.0000    227.2400     20.4600   -999.2500      0.1487   2686.5000
193.3750        162.8500      0.0000    331.4000     20.1000   -999.2500      0.1525   2694.3999
193.5000        162.8500      0.0000    317.1600     21.7500   -999.2500      0.1555   2693.2000
193.6250        161.9250      0.0000    219.1200     23.7900   -999.2500      0.1585   2695.1001
193.7500        162.5500      0.0000    401.4800     26.9100   -999.2500      0.1630   2696.8999
193.8750        162.5500      0.0000    513.7600     27.6600   -999.2500      0.1675   2697.5000
194.0000        162.5500      0.0018    381.6400     29.1300   -999.2500      0.1724   2692.0000
194.1250        162.8500      0.0018    261.8000     29.6850   -999.2500      0.1754   2683.3999
194.2500        162.8500      0.0018    280.4000     29.6850   -999.2500      0.1787   2671.2000
194.3750        162.8500      0.0017    264.4800     33.3600   -999.2500      0.1814   2661.3999
194.5000        163.1500      0.0017    218.6400     36.4950   -999.2500      0.1855   2642.3999
194.6250        163.1500      0.0025    213.7600     34.8450   -999.2500      0.1892   2626.5000
194.7500        162.2500      0.0062    206.6400     32.6250   -999.2500      0.1874   2616.1001
194.8750        161.6250      0.0113    253.2000     34.2900   -999.2500      0.1810   2621.0000
195.0000        161.3250      0.0129    262.5200     35.0250   -999.2500      0.1769   2631.3999
195.1250        161.6250      0.0117    248.3200     38.3400   -999.2500      0.1750   2630.2000
195.2500        162.2500      0.0111    228.4400     40.7400   -999.2500      0.1840   2622.2000
195.3750        161.9250      0.0122    223.0400     39.6300   -999.2500      0.1922   2616.7000
195.5000        163.7750      0.0176    254.9200     39.4500   -999.2500      0.1971   2610.0000
195.6250        164.0750      0.0202    317.1600     40.7400   -999.2500      0.1967   2611.2000
195.7500        162.8500      0.0245    275.7600     43.3200   -999.2500      0.1915   2618.6001
195.8750        161.9250      0.0281    256.6400     38.3400   -999.2500      0.1922   2619.8000
196.0000        161.3250      0.0324    210.8000     35.0250   -999.2500      0.1911   2607.5000
196.1250        161.6250      0.0418    200.2800     35.4000   -999.2500      0.1926   2591.6001
196.2500        161.9250      0.0497    260.8000     37.2300   -999.2500      0.1956   2584.8999
196.3750        162.5500      0.0543    307.6000     37.6050   -999.2500      0.1956   2580.6001
196.5000        162.8500      0.0557    398.3200     34.1100   -999.2500      0.1967   2570.2000
196.6250        162.8500      0.0455    362.5200     33.7350   -999.2500      0.2005   2558.0000
196.7500        162.2500      0.0448    295.1200     32.0700   -999.2500      0.2173   2554.8999
196.8750        162.8500      0.0498    332.8800     31.1550   -999.2500      0.2271   2558.6001
197.0000        164.3750      0.0554    320.3600     32.6250   -999.2500      0.2365   2570.2000
197.1250        166.2250      0.0611    235.3200     32.4450   -999.2500      0.2410   2572.7000
197.2500        167.7500      0.0641    194.6400     33.5550   -999.2500      0.2529   2554.8999
197.3750        168.0750      0.0666    215.9600     34.1100   -999.2500      0.2634   2541.3999
197.5000        167.4500      0.0593    366.2000     35.0250   -999.2500      0.2649   2541.3999
197.6250        167.1500      0.0525    587.2800     35.5800   -999.2500      0.2638   2551.2000
197.7500        165.9250      0.0463    303.6800     35.2050   -999.2500      0.2623   2559.8000
197.8750        166.2250      0.0419    242.4400     34.2900   -999.2500      0.2544   2567.1001
198.0000        166.2250      0.0371     72.0800     34.4700   -999.2500      0.2447   2579.3999
198.1250        167.4500      0.0322     67.4400     35.2050   -999.2500      0.2290   2586.7000
198.2500        164.0750      0.0253    166.2000     35.9400   -999.2500      0.2102   2610.6001
198.3750        161.0250      0.0208    185.0800     36.4950   -999.2500      0.1993   2642.3999
198.5000        161.3250      0.0150    195.6000     35.4000   -999.2500      0.1945   2658.3000
198.6250        161.3250      0.0098    206.1600     33.9150   -999.2500      0.1892   2649.8000
198.7500        159.4750      0.0047    213.7600     35.0250   -999.2500      0.1802   2652.2000
198.8750        157.9500      0.0025    211.8000     36.4950   -999.2500      0.1795   2650.3999
199.0000        157.0250      0.0053    206.1600     36.3150   -999.2500      0.1780   2641.8000
199.1250        156.7250      0.0109    190.4800     32.8200   -999.2500      0.1780   2626.5000
199.2500        155.2000      0.0160    225.0000     30.6000   -999.2500      0.1802   2610.0000
199.3750        158.5750      0.0195    230.9200     30.6000   -999.2500      0.1829   2595.8999
199.5000        164.0750      0.0260    238.2400     29.3100   -999.2500      0.1829   2584.3000
199.6250        161.0250      0.0279    238.7600     28.9500   -999.2500      0.1821   2594.1001
199.7500        153.0500      0.0260    239.9600     30.0450   -999.2500      0.1810   2608.8000
199.8750        153.9750      0.0237   -999.2500     32.6250   -999.2500      0.1844   2605.7000
200.0000        155.5000      0.0204   -999.2500     35.0250   -999.2500      0.1866   2611.8000
