~VERSION INFORMATION
 VERS.                 2.0:   CWLS LOG ASCII STANDARD -VERSION 2.0
 WRAP.                  NO:   ONE LINE PER DEPTH STEP
~WELL INFORMATION BLOCK
#MNEM.UNIT           DATA                    DESCRIPTION OF MNEMONIC
#---------    -------------------            -------------------------------
# Generated from Intellog Unique Number	CN_91_93/WELL/2634
WELL.         10-29-091-16W4                 : Well_name    - WELL
LOC .         AA/10-29-091-16W4/0            : Location     - LOCATION
UWI .         AA/10-29-091-16W400            : Uwi          - UNIQUE WELL ID
ENTR.         JOETTE                         : Entered      - ENTERED BY
SRVC.         SCHLUMBERGER                   : Scn          - SERVICE COMPANY
DATE.         02/11/92                       : Date         - LOG DATE
STRT.M        75                             : top_depth    - START DEPTH
STOP.M        240                            : bot_depth    - STOP DEPTH
STEP.M        0.25                           : increment    - STEP LENGTH
 NULL. -999.2500:NULL Value
~CURVE INFORMATION BLOCK
#MNEM UNIT       ERCB CURVE CODE    CURVE DESCRIPTION
#-----------   ------------------   ----------------------------------
DEPT.M        00 001 00 00         : DEPTH        - DEPTH
GR  .API      00 310 00 00         : GR           - GAMMA RAY
CALI.MM       00 280 01 00         : CAL          - CALIPER
NPHI.V/V      00 330 00 00         : PHIN         - NEUTRON POROSITY (SANDSTONE)
DPHI.V/V      00 890 00 00         : PHID         - DENSITY POROSITY (SANDSTONE)
ILD .OHMM     00 120 00 00         : RESD         - DEEP RESISTIVITY (DIL)
~PARAMETER INFORMATION
#MNEM.UNIT           DATA             DESCRIPTION OF MNEMONIC
#---------         -----------     ------------------------------
GL  .M        490.6                : gl           - GROUND LEVEL ELEVATION
EREF.M        493.66               : kb           - ELEVATION OF DEPTH REFERENCE
DATM.M        493.66               : datum        - DATUM ELEVATION
TDD .M        249.5                : tdd          - TOTAL DEPTH DRILLER
RUN .         ONE                  : Run          - RUN NUMBER
ENG .         BILL                 : Engineer     - RECORDING ENGINEER
WIT .         JIM                  : Witness      - WITNESSED BY
MUD .         GEL                  : Mud_type     - MUD TYPE
MATR.         SANDSTONE            : Logunit      - NEUTRON MATRIX
TMAX.C        22                   : BHT          - MAXIMUM RECORDED TEMPERATURE
BHTD.M        249.5                : BHTDEP       - MAXIMUM RECORDED TEMPERATURE
RMT .C        21                   : MDTP         - TEMPERATURE OF MUD
MUDD.KG/M     1060                 : MWT          - MUD DENSITY
NEUT.         1                    : NEUTRON      - NEUTRON TYPE
RESI.         0                    : RESIST       - RESISTIVITY TYPE
RM  .OHMM     7.3                  : RM           - RESISTIVITY OF MUD
RMC .OHMM     9.8                  : RMC          - RESISTIVITY OF MUD CAKE
RMF .OHMM     6.8                  : RMF          - RESISTIVITY OF MUD FILTRATE
SUFT.C        4                    : SUFT         - SURFACE TEMPERATURE
~A  DEPTH       GR      CAL     PHIN     PHID     RESD
# ...
  184.500   28.522  308.813    0.397    0.324  123.106
  184.750   28.552  313.336    0.408    0.318  122.179
  185.000   31.261  316.358    0.420    0.314  124.616
  185.250   34.272  319.380    0.453    0.308  131.837
  185.500   36.098  319.946    0.444    0.289  132.041
  185.750   36.123  319.995    0.431    0.283  120.720
  186.000   35.571  318.070    0.426    0.287   97.186
  186.250   35.597  316.647    0.425    0.306   81.898
  186.500   38.306  316.647    0.439    0.286   68.351
  186.750   46.668  314.807    0.455    0.281   55.026
  187.000   49.381  312.853    0.449    0.291   49.872
  187.250   52.087  310.440    0.446    0.300   42.386
  187.500   54.201  308.508    0.451    0.295   37.723
  187.750   56.019  306.087    0.466    0.278   32.955
  188.000   56.350  303.659    0.455    0.268   36.480
  188.250   54.605  301.245    0.436    0.255   42.657
  188.500   52.256  299.816    0.452    0.228   41.573
  188.750   58.834  298.881    0.482    0.228   30.001
  189.000   63.038  296.949    0.510    0.268   14.908
  189.250   64.554  293.042    0.465    0.247    8.727
  189.500   65.484  293.601    0.461    0.244    6.773
  189.750   65.811  296.623    0.493    0.240    5.306
  190.000   66.440  303.135    0.531    0.252    4.552
  190.250   56.362  303.687    0.573    0.280    4.162
  190.500   51.937  289.361    0.648    0.311    4.443
  190.750   46.323  281.491    0.626    0.332    6.582
  191.000   43.686  273.124    0.497    0.258   10.880
  191.250   50.260  264.263    0.449    0.203   20.794
  191.500   54.158  256.392    0.478    0.228   44.744
  191.750   55.385  251.006    0.521    0.258   35.689
  192.000   56.906  249.081    0.452    0.289   19.958
  192.250   69.420  255.083    0.443    0.244   10.764
  192.500   78.971  259.096    0.458    0.228    8.989
  192.750   69.790  240.318    0.474    0.253   10.797
  193.000   63.874  229.978    0.390    0.284   15.999
  193.250   58.855  226.566    0.353    0.319   19.398
  193.500   55.916  226.566    0.338    0.329   26.963
  193.750   54.463  223.728    0.334    0.338   39.582
  194.000   53.907  222.270    0.339    0.335   48.882
  194.250   53.648  220.344    0.332    0.336   52.187
  194.500   53.673  219.410    0.338    0.331   50.841
  194.750   53.733  218.483    0.333    0.335   47.786
  195.000   53.444  213.592    0.360    0.333   47.851
  195.250   53.189  214.632    0.404    0.306   44.560
  195.500   53.189  215.729    0.425    0.254   31.871
  195.750   53.253  217.237    0.421    0.248   29.685
  196.000   53.295  217.237    0.413    0.254   27.388
  196.250   53.325  219.346    0.413    0.235   25.274
  196.500   53.354  221.865    0.411    0.245   25.313
  196.750   52.501  223.394    0.413    0.248   26.302
  197.000   51.346  225.439    0.415    0.231   28.321
  197.250   49.893  228.483    0.433    0.201   31.072
  197.500   48.445  231.016    0.443    0.208   40.159
  197.750   47.290  233.543    0.446    0.285   56.836
  198.000   45.540  236.565    0.428    0.299   80.469
  198.250   44.084  240.097    0.413    0.309  103.019
  198.500   39.654  242.624    0.402    0.312  129.584
  198.750   31.959  247.161    0.392    0.305  137.040
  199.000   26.341  249.680    0.382    0.294  142.367
  199.250   26.978  252.221    0.385    0.300  142.587
  199.500   29.093  252.285    0.406    0.298  135.220
  199.750   29.424  250.841    0.419    0.299  129.381
  200.000   29.156  249.906    0.409    0.298  133.218
  200.250   29.190  249.467    0.397    0.303  139.635
  200.500   29.530  249.036    0.401    0.310  139.878
  200.750   30.150  248.604    0.416    0.292  113.595
  201.000   32.264  243.203    0.426    0.296   89.784
  201.250   34.685  236.317    0.426    0.300   65.384
  201.500   37.687  227.958    0.408    0.288   42.698
  201.750   44.559  223.555    0.363    0.222   30.534
  202.000   58.572  220.144    0.362    0.092   15.449
  202.250   64.845  219.698    0.381    0.133   10.950
  202.500   80.341  220.752    0.429    0.175    8.498
  202.750   89.896  223.286    0.487    0.257    6.597
  203.000   91.420  228.785    0.542    0.274    4.230
  203.250   90.855  238.758    0.580    0.264    3.404
  203.500   87.318  246.246    0.625    0.295    3.319
  203.750   79.920  252.255    0.650    0.305    3.741
  204.000   67.167  249.332    0.663    0.330    5.644
  204.250   58.283  227.589    0.635    0.353    8.062
  204.500   44.044  209.314    0.452    0.335   11.412
  204.750   55.676  202.427    0.288    0.348   15.863
  205.000   63.438  187.132    0.277    0.291   16.480
  205.250   72.395  185.199    0.300    0.277   16.061
  205.500   74.510  183.770    0.308    0.316   16.061
  205.750   68.012  182.354    0.326    0.343   16.114
  206.000   66.848  181.908    0.260    0.267   17.038
  206.250   65.400  182.962    0.264    0.263   20.101
  206.500   63.948  183.996    0.252    0.258   24.381
  206.750   62.194  185.553    0.267    0.299   25.784
  207.000   61.340  186.600    0.314    0.318   28.283
  207.250   61.370  188.646    0.313    0.300   28.283
  207.500   61.404  191.661    0.383    0.291   34.378
  207.750   60.253  196.176    0.382    0.288   35.687
  208.000   60.283  200.699    0.371    0.256   37.060
  208.250   55.858  204.712    0.399    0.283   38.508
  208.500   52.324  211.719    0.381    0.299   40.739
  208.750   52.656  215.732    0.389    0.294   42.315
  209.000   69.638  219.264    0.397    0.290   42.751
  209.250   72.356  221.797    0.397    0.285   41.664
  209.500   71.791  224.324    0.397    0.275   38.106
  209.750   74.500  228.868    0.396    0.268   32.689
  210.000   79.588  231.387    0.393    0.250   30.719
  210.250   82.301  233.914    0.361    0.206   28.091
  210.500   80.853  237.941    0.350    0.129   23.236
  210.750   80.585  240.963    0.343    0.108   22.246
  211.000   83.885  243.993    0.348    0.151   20.905
  211.250   92.850  247.531    0.380    0.188   19.825
  211.500   90.794  250.058    0.379    0.183   19.490
  211.750   79.231  253.597    0.378    0.215   18.998
  212.000   71.540  256.124    0.381    0.246   19.024
  212.250   71.276  258.664    0.387    0.256   20.876
  212.500   71.017  259.705    0.387    0.263   25.543
  212.750   71.340  259.761    0.381    0.258   32.123
  213.000   71.671  259.860    0.373    0.254   39.655
  213.250   71.115  259.393    0.371    0.246   41.196
  213.500   69.956  258.940    0.376    0.247   39.075
  213.750   71.480  258.544    0.386    0.244   41.324
  214.000   67.645  258.069    0.387    0.269   50.560
  214.250   64.711  258.069    0.365    0.280   74.917
  214.500   62.957  257.687    0.362    0.262  126.087
  214.750   56.748  256.753    0.379    0.260  167.403
  215.000   54.404  256.802    0.403    0.290  353.782
  215.250   50.578  257.368    0.381    0.302  628.718
  215.500   48.229  257.956    0.374    0.304  931.406
  215.750   52.722  257.970    0.376    0.307 1088.910
  216.000   58.111  258.019    0.390    0.306 1194.480
  216.250   53.087  258.090    0.408    0.303 1174.760
  216.500   50.446  258.139    0.394    0.307  825.083
  216.750   47.511  257.700    0.383    0.306  425.126
  217.000   46.054  256.773    0.373    0.309  177.717
  217.250   61.848  254.848    0.379    0.281  118.164
  217.500   65.449  253.411    0.413    0.245   80.010
  217.750   65.190  251.981    0.416    0.263   51.297
  218.000   68.795  250.063    0.387    0.257   46.917
  218.250   70.609  248.138    0.379    0.246   51.926
  218.500   70.345  247.196    0.381    0.254   51.545
  218.750   75.730  245.774    0.377    0.255   41.876
  219.000   81.709  244.351    0.367    0.241   34.956
  219.250   86.801  244.351    0.366    0.223   29.715
  219.500   86.801  243.976    0.369    0.207   27.421
  219.750   86.304  243.523    0.383    0.205   23.532
  220.000   85.726  243.586    0.381    0.178   23.170
  220.250   85.726  243.133    0.359    0.170   22.550
  220.500   85.488  243.133    0.360    0.174   16.724
  220.750   84.924  242.758    0.376    0.167   13.463
