~VERSION INFORMATION
 VERS.                 2.0:   CWLS LOG ASCII STANDARD -VERSION 2.0
 WRAP.                  NO:   ONE LINE PER DEPTH STEP
~WELL INFORMATION BLOCK
#MNEM.UNIT           DATA                    DESCRIPTION OF MNEMONIC
#---------    -------------------            -------------------------------
# Generated from Intellog Unique Number	CC_80_83/WELL/2441
NULL.         -999.25                        : NULL_VALUE
WELL.         PEX PCEJ HANGST OV             : Well_name    - WELL
LOC .         15-23-081-11W4                 : Location     - LOCATION          
UWI .         AA/15-23-081-11W400            : Uwi          - UNIQUE WELL ID    
ENTR.         DW                             : Entered      - ENTERED BY        
SRVC.         DRESSER ATLAS                  : Scn          - SERVICE COMPANY   
DATE.         28 FEB 80                      : Date         - LOG DATE
STRT.M        260                            : top_depth    - START DEPTH       
STOP.M        489.791                        : bot_depth    - STOP DEPTH        
STEP.M        0.3                            : increment    - STEP LENGTH       
~CURVE INFORMATION BLOCK
#MNEM UNIT       ERCB CURVE CODE    CURVE DESCRIPTION
#-----------   ------------------   ----------------------------------
DEPT.M        00 001 00 00         : DEPTH        - DEPTH                       
DPHI.V/V      00 890 00 00         : PHID         - DENSITY POROSITY (LIMESTONE)
NPHI.V/V      00 330 00 00         : PHIN         - NEUTRON POROSITY (LIMESTONE)
GR  .API      00 310 00 00         : GR           - GAMMA RAY                   
ILD .OHMM     00 120 00 00         : RESD         - DEEP RESISTIVITY (DIL)      
~PARAMETER INFORMATION       
#MNEM.UNIT           DATA             DESCRIPTION OF MNEMONIC
#---------         -----------     ------------------------------
GL  .M        700.26               : gl           - GROUND LEVEL ELEVATION      
EREF.M        703.98               : kb           - ELEVATION OF DEPTH REFERENCE
DATM.M        703.98               : datum        - DATUM ELEVATION             
TDD .M        500                  : tdd          - TOTAL DEPTH DRILLER         
RUN .         ONE                  : Run          - RUN NUMBER                  
ENG .         BILL                 : Engineer     - RECORDING ENGINEER          
WIT .         JIM                  : Witness      - WITNESSED BY                
MUD .         GEL                  : Mud_type     - MUD TYPE                    
MATR.         LIMESTONE            : Logunit      - NEUTRON MATRIX              
TMAX.C        18                   : BHT          - MAXIMUM RECORDED TEMPERATURE
BHTD.M        500                  : BHTDEP       - MAXIMUM RECORDED TEMPERATURE
MATR.         1                    : LOGUNIT      - NEUTRON MATRIX              
RMT .C        25                   : MDTP         - TEMPERATURE OF MUD          
NEUT.         1                    : NEUTRON      - NEUTRON TYPE                
RESI.         0                    : RESIST       - RESISTIVITY TYPE            
RMC .OHMM     0.25                 : RMC          - RESISTIVITY OF MUD CAKE     
RMF .OHMM     0.25                 : RMF          - RESISTIVITY OF MUD FILTRATE 
SUFT.C        15                   : SUFT         - SURFACE TEMPERATURE         
~A  DEPTH     PHID     PHIN       GR     RESD
# ...
  416.594    0.198    0.364   97.556  296.294
  416.894    0.209    0.355   93.779  296.316
  417.194    0.208    0.358   92.529  296.349
  417.494    0.194    0.352   94.445  296.380
  417.794    0.193    0.347   96.356  293.655
  418.094    0.198    0.365   97.639  288.205
  418.394    0.202    0.368   95.759  277.282
  418.694    0.210    0.380   88.817  258.144
  418.994    0.223    0.404   86.944  239.004
  419.294    0.231    0.402   88.221  211.651
  419.594    0.235    0.418   86.972  178.824
  419.893    0.220    0.418   85.089  154.212
  420.193    0.214    0.406   74.986  148.760
  420.493    0.218    0.385   72.476  159.735
  420.793    0.204    0.386   75.652  187.139
  421.093    0.199    0.376   78.836  211.803
  421.393    0.203    0.361   83.274  250.161
  421.693    0.213    0.360   85.825  266.614
  421.993    0.219    0.357   82.677  277.593
  422.293    0.214    0.352   80.165  283.088
  422.593    0.220    0.377   80.183  277.642
  422.893    0.227    0.368   82.091  261.246
  423.193    0.226    0.358   85.903  253.049
  423.493    0.215    0.366   86.553  239.384
  423.793    0.206    0.376   85.937  236.674
  424.093    0.207    0.368   87.850  236.697
  424.393    0.210    0.379   89.134  239.464
  424.693    0.215    0.389   88.515  239.492
  424.993    0.221    0.397   93.595  231.298
  425.293    0.226    0.384   94.872  214.908
  425.593    0.226    0.374   94.257  209.455
  425.893    0.226    0.372   99.335  204.005
  426.193    0.224    0.382  104.409  206.769
  426.493    0.203    0.392   96.835  212.266
  426.793    0.198    0.382   89.264  220.507
  427.093    0.196    0.365   91.178  226.007
  427.393    0.191    0.389   94.358  231.506
  427.693    0.188    0.367   95.638  231.538
  427.993    0.196    0.360   96.287  228.822
  428.293    0.193    0.368   99.467  226.108
  428.593    0.165    0.376   80.511  226.130
  428.893    0.121    0.371   83.055  226.156
  429.193    0.168    0.363   94.457  228.924
  429.493    0.186    0.371  103.958  231.693
  429.793    0.213    0.365  102.709  231.721
  430.093    0.226    0.363   79.327  231.732
  430.393    0.231    0.349   73.020  239.979
  430.693    0.239    0.334   76.200  248.215
  430.993    0.254    0.318   83.176  256.450
  431.293    0.266    0.312   81.925  272.902
  431.593    0.227    0.313   80.045  286.615
  431.893    0.206    0.315   79.427  305.812
  432.193    0.203    0.309   76.918  316.786
  432.493    0.208    0.305   76.303  325.022
  432.793    0.209    0.308   79.480  330.522
  433.093    0.208    0.328   83.287  333.283
  433.393    0.206    0.318   88.996  327.832
  433.693    0.202    0.325   90.276  327.864
  433.993    0.199    0.313   89.029  327.883
  434.293    0.189    0.300   96.634  322.441
  434.593    0.186    0.303  108.035  316.990
  434.893    0.186    0.327  101.728  314.281
  435.193    0.194    0.329   93.525  317.040
  435.493    0.204    0.324   90.379  319.801
  435.793    0.197    0.325   96.716  325.300
  436.093    0.195    0.335  110.013  330.800
  436.393    0.196    0.345  114.462  341.777
  436.693    0.206    0.358  110.681  352.755
  436.993    0.219    0.354   79.075  358.256
  437.293    0.223    0.315   70.240  382.923
  437.593    0.217    0.316   68.994  396.633
  437.893    0.195    0.317   70.273  410.351
  438.193    0.193    0.317   77.246  415.847
  438.493    0.192    0.310   75.999  418.610
  438.793    0.212    0.303   69.057  421.377
  439.093    0.243    0.305   62.115  429.619
  439.393    0.244    0.291   52.646  432.386
  439.693    0.228    0.280   49.501  429.670
  439.993    0.199    0.303   67.227  413.263
  440.293    0.186    0.313   75.466  388.652
  440.593    0.186    0.317   83.702  374.991
  440.893    0.182    0.327   91.306  372.274
  441.193    0.198    0.327   96.383  377.784
  441.493    0.219    0.329   83.750  388.754
  441.793    0.230    0.320   72.387  399.728
  442.093    0.197    0.314   71.768  399.752
  442.393    0.163    0.286   76.847  375.143
  442.693    0.192    0.287   80.023  361.484
  442.993    0.178    0.320   85.097  353.301
  443.293    0.178    0.312  100.926  353.312
  443.593    0.212    0.319   92.090  364.292
  443.893    0.230    0.315   78.824  386.216
  444.193    0.238    0.307   67.456  413.621
  444.492    0.241    0.305   42.178  451.973
  444.792    0.271    0.283   35.871  493.064
  445.092    0.274    0.272   32.091  517.729
  445.392    0.272    0.280   28.949  523.233
  445.692    0.269    0.293   28.333  528.736
  445.992    0.269    0.295   34.042  526.023
  446.292    0.269    0.291   39.114  520.578
  446.592    0.269    0.293   35.338  509.654
  446.892    0.272    0.295   32.825  504.195
  447.192    0.279    0.295   32.842  496.012
  447.492    0.286    0.293   30.327  490.556
  447.792    0.276    0.299   31.610  479.639
  448.092    0.264    0.309   39.846  468.707
  448.392    0.258    0.321   58.202  452.307
  448.692    0.250    0.339   62.014  438.641
  448.992    0.234    0.339   64.563  424.979
  449.292    0.217    0.323   69.007  405.842
  449.592    0.218    0.313   72.814  392.175
  449.892    0.177    0.275   91.090   12.617
  450.192    0.177    0.261   76.841   12.157
  450.492    0.178    0.269   70.022   11.492
  450.792    0.180    0.285   71.865   11.070
  451.092    0.182    0.307   65.664   11.076
  451.392    0.194    0.324   76.172   11.510
  451.692    0.220    0.342  107.104   12.423
  451.992    0.251    0.334  105.234   13.156
  452.292    0.239    0.324   78.608   13.417
  452.592    0.228    0.318   74.883   12.447
  452.892    0.217    0.332   82.915   11.328
  453.192    0.204    0.341   83.521   10.314
  453.492    0.183    0.345   98.361   10.318
  453.792    0.146    0.329  109.489   10.521
  454.092    0.153    0.313  105.762   11.355
  454.392    0.187    0.302   83.469   12.488
  454.692    0.175    0.325   83.455   12.736
  454.992    0.171    0.305   92.725   12.506
  455.292    0.180    0.318  103.233   12.751
  455.592    0.206    0.315  106.315   13.760
  455.892    0.222    0.307  102.589   15.717
  456.192    0.269    0.317   71.013   19.001
  456.492    0.257    0.300   49.956   22.543
  456.792    0.231    0.291   53.657   22.988
  457.092    0.202    0.304   63.546   21.329
  457.392    0.212    0.304   69.104   20.546
  457.692    0.232    0.307   74.659   19.799
  457.992    0.228    0.309   72.792   19.070
  458.292    0.221    0.309   82.681   18.030
  458.592    0.212    0.299   70.908   17.045
  458.892    0.204    0.310   61.612   15.520
  459.192    0.206    0.306   72.121   15.235
  459.492    0.216    0.321   78.913   14.675
  459.792    0.206    0.305   70.856   14.141
  460.092    0.188    0.322   69.605   13.881
  460.392    0.179    0.315   75.781   13.125
  460.692    0.160    0.316   90.620   12.178
  460.992    0.154    0.312   87.515   11.729
  461.292    0.154    0.315  101.117   10.883
  461.592    0.158    0.319   97.391   10.684
  461.892    0.164    0.331  104.184   10.296
  462.192    0.163    0.331  106.029   10.107
  462.492    0.159    0.330   90.544   10.115
  462.792    0.157    0.334   84.961   10.119
  463.092    0.159    0.326   95.468    9.933
  463.392    0.161    0.316  102.263    9.757
  463.692    0.159    0.313  103.490    9.578
  463.992    0.159    0.309  106.567    9.404
  464.292    0.170    0.320  106.558    9.409
  464.592    0.175    0.316   92.309    9.417
  464.892    0.174    0.318   95.388    9.421
  465.192    0.159    0.325  100.328    9.605
  465.492    0.154    0.339  105.884    9.613
  465.792    0.153    0.337  102.157    9.616
  466.092    0.156    0.323  100.910    9.624
  466.392    0.172    0.325  107.704    9.629
  466.692    0.172    0.319  111.405    9.452
  466.992    0.163    0.310   98.394    9.459
  467.292    0.164    0.309   95.284    9.465
  467.592    0.171    0.314   97.128    9.469
  467.892    0.172    0.310   98.355    9.656
  468.192    0.168    0.302   92.154    9.845
  468.492    0.162    0.302   85.952   10.043
