~VERSION INFORMATION
 VERS.                 2.0:   CWLS LOG ASCII STANDARD -VERSION 2.0
 WRAP.                  NO:   ONE LINE PER DEPTH STEP
~WELL INFORMATION BLOCK
#MNEM.UNIT           DATA                    DESCRIPTION OF MNEMONIC
#---------    -------------------            -------------------------------
# Generated from Intellog Unique Number	CN_94_101/WELL/2704
WELL.         THE CALIFORNIA STANDARD CO.    : Well_name    - WELL
LOC .         AA/10-03-094-13W4/0            : Location     - LOCATION
UWI .         AA/10-03-094-13W400            : Uwi          - UNIQUE WELL ID
ENTR.         JOETTE                         : Entered      - ENTERED BY
SRVC.         SCHLUMBERGER                   : Scn          - SERVICE COMPANY
DATE.         06/19/92                       : Date         - LOG DATE
STRT.F        50                             : top_depth    - START DEPTH
STOP.F        350.197                        : bot_depth    - STOP DEPTH
STEP.F        0.8202                         : increment    - STEP LENGTH
 NULL. -999.2500:NULL Value
~CURVE INFORMATION BLOCK
#MNEM UNIT       ERCB CURVE CODE    CURVE DESCRIPTION
#-----------   ------------------   ----------------------------------
DEPT.F        00 001 00 00         : DEPTH        - DEPTH
GR  .API      00 310 00 00         : GR           - GAMMA RAY
NPHI.V/V      00 330 00 00         : PHIN         - NEUTRON POROSITY (SANDSTONE)
ILD .OHMM     00 120 00 00         : RESD         - DEEP RESISTIVITY (DIL)
~PARAMETER INFORMATION
#MNEM.UNIT           DATA             DESCRIPTION OF MNEMONIC
#---------         -----------     ------------------------------
GL  .F        1222                 : gl           - GROUND LEVEL ELEVATION
EREF.F        1222                 : kb           - ELEVATION OF DEPTH REFERENCE
DATM.F        1222                 : datum        - DATUM ELEVATION
TDD .F        358                  : tdd          - TOTAL DEPTH DRILLER
RUN .         ONE                  : Run          - RUN NUMBER
ENG .         BILL                 : Engineer     - RECORDING ENGINEER
WIT .         JIM                  : Witness      - WITNESSED BY
MUD .         GEL                  : Mud_type     - MUD TYPE
MATR.         SANDSTONE            : Logunit      - NEUTRON MATRIX
TMAX.F        48                   : BHT          - MAXIMUM RECORDED TEMPERATURE
BHTD.F        358                  : BHTDEP       - MAXIMUM RECORDED TEMPERATURE
RMT .F        48                   : MDTP         - TEMPERATURE OF MUD
MUDD.LB/G     1.12                 : MWT          - MUD DENSITY
NEUT.         1                    : NEUTRON      - NEUTRON TYPE
RESI.         0                    : RESIST       - RESISTIVITY TYPE
RM  .OHMM     13                   : RM           - RESISTIVITY OF MUD
RMC .OHMM     13                   : RMC          - RESISTIVITY OF MUD CAKE
RMF .OHMM     13                   : RMF          - RESISTIVITY OF MUD FILTRATE
SUFT.F        39.2                 : SUFT         - SURFACE TEMPERATURE
~A  DEPTH       GR     PHIN     RESD
# ...
  227.986   41.559    0.205    3.170
  228.806   54.136    0.080   30.838
  229.626   60.654   -0.039   29.020
  230.446   40.368   -0.267   26.256
  231.266   36.946   -0.332   21.526
  232.087   43.904    0.435   15.559
  232.907   46.974    0.435   13.014
  233.727   45.271    0.398    9.523
  234.547   47.467    0.402    8.942
  235.367   48.375    0.400    8.799
  236.188   47.105    0.400   12.005
  237.008   44.988    0.403   11.352
  237.828   46.320    0.388   13.102
  238.648   48.516    0.381   11.649
  239.469   50.279    0.403    6.773
  240.289   50.315    0.433    6.557
  241.109   51.646    0.424    6.997
  241.929   54.274    0.407    6.636
  242.749   49.988    0.402    6.711
  243.570   51.337    0.417    6.203
  244.390   53.524    0.434    5.041
  245.210   56.152    0.446    5.409
  246.030   56.196    0.444    5.774
  246.850   58.401    0.412    6.286
  247.671   59.724    0.412    5.706
  248.491   57.174    0.458    4.980
  249.311   58.074    0.470    4.837
  250.131   60.261    0.442    5.715
  250.951   59.864    0.437    5.280
  251.772   46.502    0.424    6.738
  252.592   41.774    0.408   10.453
  253.412   35.758    0.362   36.083
  254.232   27.582    0.343   37.468
  255.052   20.703    0.329   39.801
  255.873   19.009    0.357   39.585
  256.693   22.069    0.347   39.441
  257.513   20.375    0.286   40.173
  258.333   16.953    0.269   40.175
  259.154   23.039    0.280   40.323
  259.974   27.404    0.301   40.690
  260.794   32.202    0.361   40.473
  261.614   30.941    0.365   39.893
  262.434   30.103    0.391   38.294
  263.255   28.409    0.379   35.749
  264.075   27.148    0.354   31.674
  264.895   28.911    0.304   27.164
  265.715   28.532    0.291   27.239
  266.535   27.270    0.330   26.877
  267.356   26.441    0.310   26.370
  268.176   26.035    0.299   24.698
  268.996   25.215    0.336   23.754
  269.816   25.241    0.346   40.355
  270.636   24.853    0.340   41.669
  271.457   26.184    0.310   41.453
  272.277   28.372    0.300   39.635
  273.097   26.695    0.297   36.580
  273.917   24.137    0.301   22.241
  274.738   26.334    0.314   21.661
  275.558   28.521    0.329   23.119
  276.378   27.259    0.315   24.578
  277.198   27.727    0.336   25.381
  278.018   28.203    0.334   21.671
  278.839   27.382    0.322   21.164
  279.659   26.535    0.340   21.311
  280.479   23.122    0.310   25.901
  281.299   24.885    0.307   37.843
  282.119   26.649    0.342   39.302
  282.940   26.684    0.333   39.741
  283.760   24.991    0.308   40.909
  284.580   23.297    0.314   41.057
  285.400   22.909    0.318   40.695
  286.220   22.071    0.327   39.533
  287.041   21.682    0.309   39.682
  287.861   23.446    0.322   40.266
  288.681   25.227    0.313   39.322
  289.501   26.109    0.310   39.325
  290.322   26.144    0.328   39.983
  291.142   26.188    0.351   40.131
  291.962   26.215    0.322   39.623
  292.782   26.258    0.361   40.062
  293.602   26.294    0.345   39.992
  294.423   26.320    0.314   40.285
  295.243   25.067    0.324   40.580
  296.063   22.500    0.352   40.000
  296.883   27.730    0.368   39.930
  297.703   31.232    0.394   40.515
  298.524   27.368    0.379   40.881
  299.344   25.251    0.332   40.447
  300.164   26.583    0.278   38.338
  300.984   29.634    0.263   25.018
  301.804   30.119    0.285   22.035
  302.625   26.265    0.317   18.834
  303.445   24.130    0.328   14.032
  304.265   22.437    0.346   10.976
  305.085   18.582    0.359    9.524
  305.906   22.939    0.325    8.215
  306.726   33.346    0.288    6.398
  307.546   42.466    0.320    5.381
  308.366   53.746    0.382    4.801
  309.186   58.535    0.430    4.076
  310.007   68.969    0.429    3.932
  310.827   69.851    0.474    4.372
  311.647   70.750    0.464    4.156
  312.467   70.785    0.442    4.304
  313.287   70.820    0.460    4.527
  314.108   73.025    0.441    4.455
  314.928   63.985    0.440    4.457
  315.748   67.900    0.462    4.533
  316.568   73.995    0.467    4.318
  317.388   77.055    0.482    4.174
  318.209   75.794    0.458    3.885
  319.029   78.863    0.440    3.378
  319.849   78.025    0.464    3.309
  320.669   72.009    0.477    3.675
  321.490   71.189    0.456    3.896
  322.310   69.927    0.450    3.899
  323.130   68.225    0.440    3.827
  323.950   70.871    0.459    3.830
  324.770   73.490    0.472    3.906
  325.591   76.127    0.439    3.980
  326.411   72.696    0.429    3.910
  327.231   73.163    0.430    3.913
  328.051   74.062    0.470    4.207
  328.871   73.665    0.445    4.137
  329.692   75.870    0.441    3.921
  330.512   76.337    0.453    3.705
  331.332   74.653    0.471    3.562
  332.152   77.281    0.472    3.564
  332.972   79.036    0.454    3.785
  333.793   75.613    0.447    3.860
  334.613   76.081    0.430    3.863
  335.433   77.412    0.460    3.866
  336.253   74.431    0.430    4.014
  337.073   72.728    0.423    4.236
  337.894   70.603    0.421    4.383
  338.714   75.400    0.411    4.312
  339.534   70.682    0.427    6.280
  340.354   56.878    0.429   11.670
  341.175   62.540    0.398   12.838
  341.995   69.499    0.431    8.472
  342.815   55.687    0.452    5.636
  343.635   44.918    0.461    4.473
  344.455   43.656    0.218    6.369
  345.276   40.234    0.154    7.754
  346.096   19.948    0.115    8.412
  346.916   10.475    0.075    7.541
  347.736    8.349    0.042    5.578
  348.556    9.257   -0.009    6.745
  349.377    9.725   -0.048    7.913
  350.197   10.192   -0.072    7.405
