~VERSION INFORMATION
 VERS.                 2.0:   CWLS LOG ASCII STANDARD -VERSION 2.0
 WRAP.                  NO:   ONE LINE PER DEPTH STEP
~WELL INFORMATION BLOCK
#MNEM.UNIT           DATA                    DESCRIPTION OF MNEMONIC
#---------    -------------------            -------------------------------
# Generated from Intellog Unique Number	CC_88_90/WELL/3159
WELL.         WESTERN HEMISPHERE PETROLEUM L : Well_name    - WELL
LOC .         AA/16-10-088-10W4/0            : Location     - LOCATION
UWI .         AA/16-10-088-10W400            : Uwi          - UNIQUE WELL ID
ENTR.         JOETTE                         : Entered      - ENTERED BY
SRVC.         SCHLUMBERGER                   : Scn          - SERVICE COMPANY
DATE.         03/06/92                       : Date         - LOG DATE
STRT.M        30.480                         : top_depth    - START DEPTH
STOP.M        131.480                        : bot_depth    - STOP DEPTH
STEP.M        0.25                           : increment    - STEP LENGTH
 NULL. -999.2500:NULL Value
~CURVE INFORMATION BLOCK
#MNEM UNIT       ERCB CURVE CODE    CURVE DESCRIPTION
#-----------   ------------------   ----------------------------------
DEPT.M        00 001 00 00         : DEPTH        - DEPTH
GR  .API      00 310 00 00         : GR           - GAMMA RAY
NPHI.V/V      00 330 00 00         : PHIN         - NEUTRON POROSITY (SANDSTONE)
ILD .OHMM     00 120 00 00         : RESD         - DEEP RESISTIVITY (DIL)
~PARAMETER INFORMATION
#MNEM.UNIT           DATA             DESCRIPTION OF MNEMONIC
#---------         -----------     ------------------------------
GL  .M        386.791              : gl           - GROUND LEVEL ELEVATION
EREF.M        386.791              : kb           - ELEVATION OF DEPTH REFERENCE
DATM.M        386.791              : datum        - DATUM ELEVATION
TDD .M        148.133              : tdd          - TOTAL DEPTH DRILLER
RUN .         ONE                  : Run          - RUN NUMBER
ENG .         BILL                 : Engineer     - RECORDING ENGINEER
WIT .         JIM                  : Witness      - WITNESSED BY
MUD .         GEL                  : Mud_type     - MUD TYPE
MATR.         SANDSTONE            : Logunit      - NEUTRON MATRIX
TMAX.C        10                   : BHT          - MAXIMUM RECORDED TEMPERATURE
BHTD.M        148.133              : BHTDEP       - MAXIMUM RECORDED TEMPERATURE
RMT .C        10                   : MDTP         - TEMPERATURE OF MUD
MUDD.KG/M     9800                 : MWT          - MUD DENSITY
NEUT.         1                    : NEUTRON      - NEUTRON TYPE
RESI.         0                    : RESIST       - RESISTIVITY TYPE
RM  .OHMM     7                    : RM           - RESISTIVITY OF MUD
RMC .OHMM     7                    : RMC          - RESISTIVITY OF MUD CAKE
RMF .OHMM     7                    : RMF          - RESISTIVITY OF MUD FILTRATE
SUFT.C        4                    : SUFT         - SURFACE TEMPERATURE
~A  DEPTH       GR     PHIN     RESD
# ...
   84.730   84.881    0.508    8.764
   84.980   82.425    0.511    8.576
   85.230   80.585    0.511    8.568
   85.480   91.650    0.505    8.563
   85.730  115.622    0.508    8.558
   85.980  122.385    0.511    8.728
   86.230  116.857    0.507    8.720
   86.480  121.162    0.505    8.892
   86.730  121.780    0.499    8.882
   86.980  121.783    0.498    8.875
   87.230  108.880    0.498    9.223
   87.480   92.905    0.485   10.104
   87.730   83.075    0.449   13.112
   87.980  100.286    0.411   21.615
   88.230  124.257    0.379   19.835
   88.480  124.875    0.383   19.827
   88.730  116.889    0.372   19.113
   88.980  111.361    0.375   18.041
   89.230   97.229    0.397   18.213
   89.480   84.940    0.437   16.077
   89.730   64.663    0.447   17.488
   89.980   41.313    0.434   20.673
   90.230   43.774    0.417   21.021
   90.480   40.705    0.456   16.050
   90.730   33.333    0.466   16.398
   90.980   35.179    0.461   17.987
   91.230   59.151    0.469   19.930
   91.480   99.101    0.465   17.262
   91.730  105.250    0.453   16.724
   91.980  108.326    0.440   19.908
   92.230   84.361    0.436   18.660
   92.480   68.385    0.443   17.058
   92.730   48.722    0.456   15.808
   92.980   46.267    0.443   17.397
   93.230   60.406    0.417   18.630
   93.480   65.940    0.406   16.852
   93.730   57.953    0.394   16.845
   93.980   45.050    0.387   19.143
   94.230   45.668    0.382   19.491
   94.480   51.203    0.372   22.498
   94.730   58.581    0.385   22.314
   94.980   58.584    0.398   21.418
   95.230   54.900    0.407   21.411
   95.480   57.975    0.413   23.711
   95.730   63.510    0.412   22.817
   95.980   61.669    0.394   20.327
   96.230   61.673    0.380   24.043
   96.480   55.530    0.403   24.216
   96.730   62.908    0.425   24.560
   96.980   75.817    0.433   25.087
   97.230   83.809    0.412   25.080
   97.480   83.198    0.386   26.846
   97.730   78.284    0.412   32.336
   97.980   67.840    0.431   27.542
   98.230   57.396    0.436   21.860
   98.480   47.566    0.438   18.839
   98.730   35.892    0.439   21.669
   98.980   32.823    0.436   24.322
   99.230   35.284    0.420   20.769
   99.480   38.360    0.420   19.521
   99.730   37.134    0.421   19.868
   99.980   40.210    0.415   23.939
  100.230   46.359    0.409   24.464
  100.480   38.987    0.405   23.214
  100.730   43.907    0.400   24.096
  100.980   48.826    0.397   21.784
  101.230   48.830    0.399   21.245
  101.480   46.989    0.400   19.817
  101.730   46.377    0.409   18.569
  101.980   46.381    0.412   18.741
  102.230   42.697    0.399   19.621
  102.480   48.231    0.408   19.082
  102.730   48.849    0.403   18.544
  102.980   36.560    0.400   20.842
  103.230   29.189    0.412   22.608
  103.480   25.505    0.408   20.116
  103.730   21.820    0.403   19.577
  103.980   31.042    0.411   19.572
  104.230   48.867    0.401   19.565
  104.480   44.568    0.414   18.493
  104.730   42.728    0.437   17.953
  104.980   45.190    0.438   18.657
  105.230   47.651    0.435   18.296
  105.480   71.622    0.425   18.466
  105.730   87.604    0.417   19.169
  105.980   92.523    0.406   20.226
  106.230   94.370    0.414   19.153
  106.480   77.780    0.437   17.728
  106.730   71.638    0.460   17.721
  106.980   86.391    0.447   17.358
  107.230   96.841    0.443   17.527
  107.480   96.230    0.446   17.345
  107.730   95.618    0.460   17.337
  107.980   82.716    0.470   17.862
  108.230   72.272    0.479   18.032
  108.480   64.285    0.482   17.848
  108.730   64.903    0.479   16.779
  108.980   82.728    0.470   15.709
  109.230   82.117    0.459   15.877
  109.480   75.360    0.466   15.692
  109.730   75.363    0.485   16.750
  109.980   77.210    0.504   15.680
  110.230   71.068    0.507   13.899
  110.480   69.227    0.510   13.360
  110.730   66.772    0.508   13.708
  110.980   63.702    0.479   14.765
  111.230   46.498    0.472   15.822
  111.480   45.886    0.476   15.636
  111.730   55.722    0.474   15.629
  111.980   73.548    0.465   15.444
  112.230   83.999    0.450   15.263
  112.480   79.700    0.414   14.724
  112.730   66.797    0.432   18.973
  112.980   48.978    0.459   14.707
  113.230   71.105    0.416   16.830
  113.480   95.691    0.391   17.529
  113.730  123.964    0.390   17.171
  113.980  115.978    0.439   16.274
  114.230  115.981    0.484   15.916
  114.480  124.588    0.472   15.908
  114.730  120.904    0.461   15.901
  114.980   92.637    0.472   16.426
  115.230   76.047    0.522   16.597
  115.480   47.780    0.513   17.120
  115.730   63.762    0.494   17.291
  115.980  106.785    0.471   16.754
  116.230  104.330    0.446   17.100
  116.480  106.176    0.497   17.271
  116.730   93.888    0.507   17.087
  116.980   61.934    0.513   16.901
  117.230   44.115    0.515   17.602
  117.480   65.014    0.497   17.776
  117.730   74.235    0.477   17.591
  117.980   83.457    0.452   17.760
  118.230  113.573    0.420   18.461
  118.480   96.984    0.413   18.811
  118.730   55.196    0.399   19.332
  118.980   39.221    0.361   19.505
  119.230   52.744    0.352   19.677
  119.480   66.882    0.439   19.846
  119.730   77.948    0.461   19.484
  119.980   87.169    0.458   18.589
  120.230   83.485    0.426   18.405
  120.480   75.499    0.413   18.400
  120.730   73.044    0.434   18.924
  120.980   77.349    0.494   20.158
  121.230   74.894    0.513   20.862
  121.480   76.126    0.506   21.033
  121.730   67.525    0.489   20.315
  121.980   63.841    0.466   20.486
  122.230   65.688    0.445   19.768
  122.480   59.545    0.438   19.052
  122.730   54.632    0.416   17.983
  122.980   60.781    0.439   17.087
  123.230   63.242    0.469   17.612
  123.480   58.944    0.483   17.961
  123.730   62.020    0.489   18.483
  123.980   70.627    0.480   18.478
  124.230   73.703    0.467   18.294
  124.480   74.935    0.454   17.933
  124.730   74.324    0.408   17.747
  124.980   71.869    0.405   17.742
  125.230   63.883    0.419   17.732
  125.480   63.885    0.438   17.549
  125.730   66.347    0.454   17.190
  125.980   67.579    0.457   17.536
  126.230   76.187    0.446   18.949
  126.480   71.887    0.444   19.295
  126.730   69.432    0.453   19.111
  126.980   66.362    0.451   19.812
  127.230   66.980    0.425   20.516
  127.480   68.213    0.393   21.928
  127.730   65.757    0.377   21.033
  127.980   67.605    0.417   19.964
  128.230   76.212    0.475   18.182
  128.480   74.371    0.478   19.417
  128.730   70.072    0.465   26.504
  128.980   72.534    0.421   31.637
  129.230   71.308    0.394   35.708
  129.480   67.623    0.341   39.249
  129.730   65.168    0.350   45.270
  129.980   74.390    0.353   46.859
  130.230   71.935    0.354   50.753
  130.480   59.032    0.356   52.697
  130.730   39.369    0.362   51.981
  130.980   20.320    0.386   50.556
  131.230   21.553    0.405   49.127
  131.480   25.243    0.426   46.106
