~VERSION INFORMATION
 VERS.                 2.0:   CWLS LOG ASCII STANDARD -VERSION 2.0
 WRAP.                  NO:   ONE LINE PER DEPTH STEP
~WELL INFORMATION BLOCK
#MNEM.UNIT           DATA                    DESCRIPTION OF MNEMONIC
#---------    -------------------            -------------------------------
# Generated from Intellog Unique Number	CN_94_101/WELL/3583
WELL.         10-32-096-12W4                 : Well_name    - WELL
LOC .         AA/10-32-096-12W4/0            : Location     - LOCATION
UWI .         AA/10-32-096-12W400            : Uwi          - UNIQUE WELL ID
ENTR.         JOETTE                         : Entered      - ENTERED BY
SRVC.         SCHLUMBERGER                   : Scn          - SERVICE COMPANY
DATE.         07/31/92                       : Date         - LOG DATE
STRT.F        100                            : top_depth    - START DEPTH
STOP.F        710.236                        : bot_depth    - STOP DEPTH
STEP.F        0.82                           : increment    - STEP LENGTH
 NULL. -999.2500:NULL Value
~CURVE INFORMATION BLOCK
#MNEM UNIT       ERCB CURVE CODE    CURVE DESCRIPTION
#-----------   ------------------   ----------------------------------
DEPT.F        00 001 00 00         : DEPTH        - DEPTH
ILD .OHMM     00 120 00 00         : RESD         - DEEP RESISTIVITY (DIL)
GR  .API      00 310 00 00         : GR           - GAMMA RAY
DPHI.V/V      00 890 00 00         : PHID         - DENSITY POROSITY (SANDSTONE)
~PARAMETER INFORMATION
#MNEM.UNIT           DATA             DESCRIPTION OF MNEMONIC
#---------         -----------     ------------------------------
GL  .M        388.01               : gl           - GROUND LEVEL ELEVATION
EREF.M        389.23               : kb           - ELEVATION OF DEPTH REFERENCE
DATM.M        389.23               : datum        - DATUM ELEVATION
TDD .M        220.37               : tdd          - TOTAL DEPTH DRILLER
RUN .         ONE                  : Run          - RUN NUMBER
ENG .         BILL                 : Engineer     - RECORDING ENGINEER
WIT .         JIM                  : Witness      - WITNESSED BY
MUD .         GEL                  : Mud_type     - MUD TYPE
MATR.         SANDSTONE            : Logunit      - NEUTRON MATRIX
TMAX.F        40                   : BHT          - MAXIMUM RECORDED TEMPERATURE
BHTD.F        723                  : BHTDEP       - MAXIMUM RECORDED TEMPERATURE
RMT .F        40                   : MDTP         - TEMPERATURE OF MUD
MUDD.LB/G     6                    : MWT          - MUD DENSITY
NEUT.         1                    : NEUTRON      - NEUTRON TYPE
RESI.         0                    : RESIST       - RESISTIVITY TYPE
RM  .OHMM     5.51                 : RM           - RESISTIVITY OF MUD
RMC .OHMM     5.51                 : RMC          - RESISTIVITY OF MUD CAKE
RMF .OHMM     5.51                 : RMF          - RESISTIVITY OF MUD FILTRATE
SUFT.F        39.2                 : SUFT         - SURFACE TEMPERATURE
~A  DEPTH     RESD       GR     PHID
# ...
  455.971   18.266   66.179    0.224
  456.791   18.301   73.090    0.230
  457.612   17.355   71.398    0.237
  458.432   15.877   63.268    0.240
  459.252   15.063   66.297    0.234
  460.072   14.553   67.621    0.229
  460.892   14.074   69.790    0.232
  461.713   13.847   75.412    0.226
  462.533   14.387   78.877    0.210
  463.353   15.503   77.193    0.195
  464.173   15.825   74.642    0.181
  464.993   15.555   74.240    0.188
  465.814   13.239   72.542    0.176
  466.634   14.008   78.163    0.192
  467.454   13.540   75.612    0.209
  468.274   13.559   78.655    0.230
  469.094   17.524   77.823    0.211
  469.915   17.250   75.695    0.178
  470.735   15.497   74.871    0.190
  471.555   13.935   76.181    0.185
  472.375   13.457   79.653    0.168
  473.196   13.233   83.119    0.157
  474.016   12.792   85.302    0.174
  474.836   13.052   87.049    0.166
  475.656   13.561   89.655    0.166
  476.476   14.097   88.823    0.179
  477.297   14.111   84.553    0.198
  478.117   13.152   83.306    0.206
  478.937   12.713   82.460    0.193
  479.757   12.502   82.058    0.183
  480.577   12.526   87.672    0.191
  481.398   12.781   82.543    0.202
  482.218   13.280   82.148    0.204
  483.038   13.805   78.738    0.186
  483.858   12.629   82.633    0.187
  484.678   12.202   81.372    0.199
  485.499   15.206   82.689    0.207
  486.319   16.992   90.029    0.171
  487.139   14.720   79.736    0.171
  487.959   12.758   74.177    0.173
  488.780   12.782   75.064    0.197
  489.600   13.042   79.826    0.204
  490.420   13.073   78.994    0.193
  491.240   12.875   76.443    0.190
  492.060   12.433   77.760    0.194
  492.881   11.784   80.373    0.191
  493.701   10.984   79.971    0.188
  494.521   11.207   76.984    0.212
  495.341   12.070   80.886    0.219
  496.161   13.994   82.633    0.210
  496.982   15.078   86.958    0.201
  497.802   15.107   92.156    0.187
  498.622   13.572   85.724    0.198
  499.442   11.551   81.884    0.188
  500.262   10.567   78.910    0.178
  501.083   10.583   79.797    0.164
  501.903   11.618   84.130    0.169
  502.723   12.748   82.002    0.172
  503.543   12.316   79.451    0.199
  504.364   11.070   76.470    0.216
  505.184   12.822   77.357    0.233
  506.004   14.083   78.251    0.206
  506.824   13.120   75.271    0.192
  507.644   13.139   77.018    0.194
  508.465   13.652   81.343    0.211
  509.285   12.271   81.814    0.212
  510.105   11.426   80.969    0.207
  510.925   13.002   82.715    0.208
  511.745   14.024   84.912    0.205
  512.566   13.542   84.926    0.195
  513.386   12.623   81.946    0.178
  514.206   10.732   78.112    0.175
  515.026   10.753   76.851    0.180
  515.846   10.972   77.315    0.175
  516.667   11.200   79.048    0.164
  517.487   12.068   82.951    0.166
  518.307   13.485   86.416    0.189
  519.127   13.759   91.171    0.195
  519.948   12.367   85.189    0.232
  520.768   10.904   87.373    0.210
  521.588   11.126   90.831    0.183
  522.408   13.136   94.727    0.167
  523.228   13.899   98.622    0.169
  524.049   14.181   85.764    0.197
  524.869   16.137   79.769    0.210
  525.689   20.111   69.482    0.242
  526.509   30.628   57.900    0.256
  527.329   32.407   42.456    0.262
  528.150   25.172   43.773    0.278
  528.970   17.853   52.826    0.267
  529.790   13.372   58.017    0.235
  530.610   16.364   79.110    0.209
  531.430   24.922   84.724    0.183
  532.251   22.799   64.124    0.215
  533.071   16.162   62.869    0.233
  533.891   16.499   65.469    0.230
  534.711   18.121   74.951    0.217
  535.531   16.578   79.713    0.204
  536.352   15.721   81.889    0.206
  537.172   29.229   79.768    0.222
  537.992   44.514   74.209    0.234
  538.812   63.005   70.799    0.208
  539.633   55.609   54.059    0.226
  540.453   65.623   45.062    0.271
  541.273   87.952   33.916    0.317
  542.093  117.935   31.795    0.314
  542.913  109.873   30.104    0.335
  543.734   93.466   27.123    0.331
  544.554   80.968   24.150    0.318
  545.374   58.479   25.889    0.304
  546.194   46.234   31.088    0.300
  547.014   66.673   33.687    0.315
  547.835   71.842   36.300    0.301
  548.655   65.756   36.765    0.293
  549.475  101.931   35.919    0.305
  550.295  100.287   34.228    0.323
  551.115   91.748   31.677    0.322
  551.936   87.044   31.712    0.318
  552.756   88.812   31.309    0.325
  553.576  119.089   30.478    0.341
  554.396  151.210   30.935    0.345
  555.217  130.928   30.533    0.331
  556.037  111.376   31.850    0.336
  556.857   89.715   32.314    0.327
  557.677   67.196   31.912    0.320
  558.497  116.226   34.518    0.316
  559.318   85.444   36.265    0.300
  560.138   65.172   35.004    0.289
  560.958   56.484   32.453    0.308
  561.778   99.443   29.049    0.311
  562.598  165.860   27.358    0.314
  563.419  157.357   26.956    0.327
  564.239  166.500   24.835    0.337
  565.059  193.128   22.284    0.342
  565.879  170.292   24.904    0.340
  566.699  186.859   23.636    0.325
  567.520  245.928   22.797    0.317
  568.340  205.434   22.825    0.332
  569.160   59.744   22.000    0.355
  569.980   54.657   21.175    0.365
  570.801   47.348   20.759    0.360
  571.621   45.745   28.099    0.365
  572.441   69.633   38.011    0.358
  573.261  107.992   36.764    0.353
  574.081  147.465   34.636    0.361
  574.902  150.461   30.796    0.370
  575.722   64.104   26.096    0.355
  576.542   64.227   27.413    0.355
  577.362  135.691   29.166    0.352
  578.182  178.670   27.038    0.356
  579.003  226.752   23.198    0.346
  579.823   48.385   27.094    0.356
  580.643   25.641   37.872    0.352
  581.463   33.763   49.933    0.328
  582.283  137.400   57.280    0.276
  583.104  110.623   48.706    0.273
  583.924  130.544   40.132    0.328
  584.744  151.349   25.978    0.343
  585.564  214.221   25.146    0.338
  586.385  122.148   25.610    0.353
  587.205   20.197   23.482    0.371
  588.025   17.504   20.509    0.398
  588.845   16.904   22.692    0.354
  589.665   15.748   32.174    0.308
  590.486   23.551   33.914    0.276
  591.306   25.389   37.816    0.254
  592.126   24.517   42.148    0.231
  592.946   20.856   43.042    0.240
  593.766   14.013   41.344    0.253
  594.587   11.915   37.934    0.259
  595.407   23.836   37.525    0.253
  596.227   33.754   44.006    0.253
  597.047   29.241   51.776    0.244
  597.867   23.974   55.242    0.228
  598.688   11.601   52.684    0.242
  599.508    8.532   47.555    0.246
  600.328   25.945   41.566    0.233
  601.148   28.991   48.476    0.215
  601.969   19.119   55.817    0.215
  602.789   15.401   56.697    0.242
  603.609   25.224   43.409    0.261
  604.429   62.764   43.860    0.261
  605.249   40.626   45.614    0.264
  606.070   29.881   41.767    0.267
  606.890   24.511   35.348    0.278
  607.710   16.763   19.475    0.316
  608.530   10.089   20.792    0.321
  609.350   10.299   22.109    0.311
  610.171   11.509   22.136    0.286
  610.991   10.727   19.163    0.276
  611.811    9.632   20.910    0.270
  612.631    8.493   23.952    0.279
  613.451    7.225   30.433    0.283
  614.272    6.855   30.884    0.274
  615.092    7.529   32.201    0.263
  615.912    7.970   33.525    0.247
  616.732    8.128   34.412    0.220
  617.552    7.432   37.011    0.221
  618.373    6.928   25.435    0.227
  619.193    7.201   23.328    0.254
  620.013    7.902   24.202    0.287
  620.833    8.826   25.518    0.292
  621.654    7.929   47.470    0.279
  622.474    5.325   53.951    0.281
  623.294    4.784   59.566    0.292
  624.114    4.709   23.917    0.300
  624.934    4.716   22.663    0.306
  625.755    4.162   24.839    0.300
  626.575    4.021   24.437    0.311
  627.395    4.253   25.324    0.307
  628.215    4.842   27.937    0.297
  629.035    4.591   29.677    0.288
  629.856    3.698   31.854    0.283
  630.676    3.322   34.037    0.287
  631.496    3.714   32.768    0.297
  632.316    3.656   25.490    0.303
  633.136    3.467   30.682    0.310
