~VERSION INFORMATION
 VERS.                 2.0:   CWLS LOG ASCII STANDARD -VERSION 2.0
 WRAP.                  NO:   ONE LINE PER DEPTH STEP
~WELL INFORMATION BLOCK
#MNEM.UNIT           DATA                    DESCRIPTION OF MNEMONIC
#---------    -------------------            -------------------------------
# Generated from Intellog Unique Number	CN_94_101/WELL/2690
WELL.         16-30-094-15W4                 : Well_name    - WELL
LOC .         AA/16-30-094-15W4/0            : Location     - LOCATION
UWI .         AA/16-30-094-15W400            : Uwi          - UNIQUE WELL ID
ENTR.         JOETTE                         : Entered      - ENTERED BY
SRVC.         SCHLUMBERGER                   : Scn          - SERVICE COMPANY
DATE.         06/19/92                       : Date         - LOG DATE
STRT.F        100                            : top_depth    - START DEPTH
STOP.F        870.177                        : bot_depth    - STOP DEPTH
STEP.F        0.82                           : increment    - STEP LENGTH
 NULL. -999.2500:NULL Value
~CURVE INFORMATION BLOCK
#MNEM UNIT       ERCB CURVE CODE    CURVE DESCRIPTION
#-----------   ------------------   ----------------------------------
DEPT.F        00 001 00 00         : DEPTH        - DEPTH
CALI.IN       00 280 01 00         : CAL          - CALIPER
GR  .API      00 310 00 00         : GR           - GAMMA RAY
DPHI.V/V      00 890 00 00         : PHID         - DENSITY POROSITY (SANDSTONE)
ILD .OHMM     00 120 00 00         : RESD         - DEEP RESISTIVITY (DIL)
~PARAMETER INFORMATION
#MNEM.UNIT           DATA             DESCRIPTION OF MNEMONIC
#---------         -----------     ------------------------------
GL  .M        520.294              : gl           - GROUND LEVEL ELEVATION
EREF.M        523.342              : kb           - ELEVATION OF DEPTH REFERENCE
DATM.M        523.342              : datum        - DATUM ELEVATION
TDD .M        269.748              : tdd          - TOTAL DEPTH DRILLER
RUN .         ONE                  : Run          - RUN NUMBER
ENG .         BILL                 : Engineer     - RECORDING ENGINEER
WIT .         JIM                  : Witness      - WITNESSED BY
MUD .         GEL                  : Mud_type     - MUD TYPE
MATR.         SANDSTONE            : Logunit      - NEUTRON MATRIX
TMAX.F        68                   : BHT          - MAXIMUM RECORDED TEMPERATURE
BHTD.F        885                  : BHTDEP       - MAXIMUM RECORDED TEMPERATURE
RMT .F        68                   : MDTP         - TEMPERATURE OF MUD
MUDD.LB/G     9.5                  : MWT          - MUD DENSITY
NEUT.         1                    : NEUTRON      - NEUTRON TYPE
RESI.         0                    : RESIST       - RESISTIVITY TYPE
RM  .OHMM     0.84                 : RM           - RESISTIVITY OF MUD
RMC .OHMM     0.84                 : RMC          - RESISTIVITY OF MUD CAKE
RMF .OHMM     0.84                 : RMF          - RESISTIVITY OF MUD FILTRATE
SUFT.F        39.2                 : SUFT         - SURFACE TEMPERATURE
~A  DEPTH      CAL       GR     PHID     RESD
  100.000    9.524   44.072    0.210   23.529
  100.820    9.527   46.829    0.200   22.269
  101.640    9.530   47.638    0.196   20.692
  102.461    9.533   46.108    0.194   19.584
  103.281    9.614   46.923    0.193   18.884
  104.101    9.773   47.739    0.203   18.549
  104.921    9.778   45.819    0.211   18.228
  105.741    9.780   47.010    0.221   17.909
  106.562    9.782   48.989    0.233   17.604
  107.382    9.747   49.797    0.241   17.617
  108.202    9.710   43.199    0.242   17.968
  109.022    9.675   42.073    0.230   19.377
  109.843    9.678   43.257    0.228   20.145
  110.663    9.641   45.632    0.213   19.066
  111.483    9.685   48.787    0.224   17.379
  112.303    9.726   50.368    0.229   16.144
  113.123    9.767   49.228    0.232   15.567
  113.944    9.771   46.535    0.236   15.294
  114.764    9.813   46.954    0.238   15.893
  115.584    9.815   47.373    0.247   16.515
  116.404    9.740   44.283    0.239   17.174
  117.224    9.628   42.753    0.252   17.506
  118.045    9.552   44.731    0.241   18.539
  118.865    9.360   45.929    0.236   19.259
  119.685    9.285   41.281    0.257   20.018
  120.505    9.209   39.360    0.257   20.801
  121.325    9.057   39.389    0.256   21.615
  122.146    9.021   39.808    0.258   22.050
  122.966    8.985   41.014    0.248   22.073
  123.786    8.987   38.704    0.225   21.680
  124.606    8.953   39.123    0.218   20.917
  125.427    8.955   40.321    0.218   20.545
  126.247    8.918   39.181    0.224   19.450
  127.067    8.883   38.040    0.225   19.114
  127.887    8.846   37.679    0.220   19.128
  128.707    8.811   38.495    0.231   19.514
  129.528    8.813   39.694    0.227   20.267
  130.348    8.778   37.391    0.230   21.060
  131.168    8.819   37.810    0.224   21.495
  131.988    8.822   39.788    0.218   21.108
  132.808    8.864   39.420    0.214   20.738
  133.629    8.868   37.507    0.253   20.002
  134.449    8.833   36.756    0.244   19.647
  135.269    8.795   37.175    0.240   19.677
  136.089    8.759   39.543    0.249   19.687
  136.909    8.763   41.918    0.267   19.716
  137.730    8.766   41.940    0.255   19.741
  138.550    8.768   40.417    0.231   19.751
  139.370    8.811   38.114    0.232   20.529
  140.190    8.853   38.533    0.224   21.740
  141.010    8.894   38.944    0.236   23.028
  141.831    8.937   39.760    0.235   23.040
  142.651    9.019   40.172    0.240   23.069
  143.471    9.020   40.988    0.252   22.659
  144.291    8.947   41.407    0.243   22.676
  145.112    8.950   39.876    0.241   21.872
  145.932    9.030   38.346    0.248   21.889
  146.752    9.072   38.375    0.247   22.335
  147.572    9.035   38.404    0.235   23.209
  148.392    8.961   36.874    0.233   24.578
  149.213    8.886   37.682    0.243   25.054
  150.033    8.810   39.292    0.261   25.565
  150.853    8.736   38.527    0.255   25.584
  151.673    8.778   36.607    0.270   25.617
  152.493    8.820   41.704    0.259   25.636
  153.314    8.784   39.783    0.240   25.662
  154.134    8.786   39.423    0.248   25.688
  154.954    8.867   39.842    0.252   26.199
  155.774    9.027   41.054    0.245   25.270
  156.594    9.148   41.091    0.231   24.367
  157.415    9.149   40.715    0.242   24.392
  158.235    9.114   39.185    0.239   24.877
  159.055    9.039   38.831    0.245   25.850
  159.875    9.003   38.860    0.244   26.868
  160.696    9.007   39.676    0.242   27.403
  161.516    9.048   40.485    0.243   26.936
  162.336    9.169   40.896    0.240   26.451
  163.156    9.209   41.712    0.256   25.041
  163.976    9.174   40.962    0.280   25.532
  164.797    9.059   37.865    0.299   27.031
  165.617    8.908   35.945    0.277   28.619
  166.437    8.792   34.804    0.312   30.314
  167.257    8.679   35.230    0.325   30.925
  168.077    8.683   36.833    0.313   30.368
  168.898    8.724   38.024    0.283   28.749
  169.718    8.805   39.223    0.260   28.238
  170.538    8.846   40.031    0.250   27.743
  171.358    8.927   41.634    0.261   27.257
  172.178    8.970   42.038    0.254   26.800
  172.999    8.974   43.634    0.244   25.830
  173.819    8.976   46.002    0.255   22.692
  174.639    8.940   46.803    0.271   20.684
  175.459    8.904   48.023    0.287   18.171
  176.280    8.907   47.655    0.297   19.971
  177.100    8.832   46.125    0.301   20.752
  177.920    8.757   39.910    0.315   20.778
  178.740    8.799   26.677    0.351   21.992
  179.560    8.841   28.655    0.343   25.091
  180.381    8.883   38.444    0.306   24.657
  181.201    8.886   40.415    0.297   24.682
  182.021    8.889   40.444    0.303   25.654
  182.841    8.853   35.406    0.313   27.673
  183.661    8.819   31.536    0.324   29.298
  184.482    8.820   31.183    0.313   31.010
  185.302    8.823   33.551    0.308   32.223
  186.122    8.826   36.308    0.304   32.864
  186.942    8.829   39.073    0.294   24.857
  187.762    8.832   41.449    0.317   13.183
  188.583    8.797   43.816    0.336   13.957
  189.403    8.799   45.795    0.311   18.843
  190.223    8.802   46.993    0.288   24.502
  191.043    8.805   43.506    0.253   29.018
  191.864    8.808   38.468    0.253   30.721
  192.684    8.811   33.039    0.255   31.340
  193.504    8.814   34.238    0.248   35.102
  194.324    8.817   34.281    0.281   36.466
  195.144    8.821   33.133    0.246   42.388
  195.965    8.824   31.213    0.227   43.231
  196.785    8.827   31.250    0.257   40.936
  197.605    8.829   31.278    0.282   39.475
  198.425    8.871   31.307    0.281   38.773
  199.245    8.874   31.329    0.258   37.398
  200.066    8.839   29.806    0.268   37.427
  200.886    8.843   27.879    0.335   36.771
  201.706    8.845   24.789    0.331   35.458
  202.526    8.849   22.097    0.308   36.855
  203.346    8.850   24.465    0.301   38.296
  204.167    8.853   28.392    0.288   39.058
  204.987    8.817   29.597    0.290   38.393
  205.807    8.820   30.016    0.285   37.701
  206.627    8.823   33.164    0.276   36.364
  207.448    8.827   36.311    0.313   36.401
  208.268    8.829   39.459    0.317   39.275
  209.088    8.832   37.149    0.288   41.592
  209.908    8.836   33.280    0.262   42.408
  210.728    8.877   32.926    0.247   43.241
  211.549    8.881   36.074    0.281   41.697
  212.369    8.846   40.391    0.302   37.313
  213.189    8.847   48.223    0.284   27.187
  214.009    8.851   51.371    0.293   15.830
  214.829    8.854   59.593    0.317    9.933
  215.650    8.936   64.690    0.336    7.654
  216.470    8.977   70.963    0.337    6.010
  217.290    9.058   69.036    0.327    5.181
  218.110    9.022   65.557    0.318    5.383
  218.930    8.908   62.077    0.300    6.618
  219.751    8.872   57.428    0.296   11.184
  220.571    8.874   51.220    0.327   12.289
  221.391    8.839   52.419    0.323   16.591
  222.211    8.882   53.234    0.326   16.921
  223.031    8.884   50.535    0.335   13.791
  223.852    8.886   35.361    0.352   11.453
  224.672    8.891   34.213    0.372   10.248
  225.492    8.892   35.801    0.378   12.137
  226.312    8.896   37.000    0.376   19.753
  227.133    8.860   37.036    0.382   23.394
  227.953    8.862   37.079    0.385   24.774
  228.773    8.866   37.094    0.356   24.799
  229.593    8.868   37.520    0.363   26.743
  230.413    8.871   37.931    0.373   31.680
  231.234    8.913   39.137    0.375   32.310
  232.054    8.956   39.556    0.381   30.022
  232.874    8.959   39.195    0.378   26.865
  233.694    9.003   38.055    0.382   27.406
  234.514    9.005   39.253    0.392   27.937
  235.335    8.968   39.282    0.400   27.462
  236.155    8.933   37.362    0.375   26.987
  236.975    8.934   37.398    0.377   26.501
  237.795    8.978   38.994    0.383   27.028
  238.615    8.980   38.633    0.379   28.615
  239.436    8.943   36.706    0.380   29.735
  240.256    8.829   32.843    0.382   25.632
  241.076    8.794   34.035    0.373   17.991
  241.896    8.836   43.037    0.363   17.028
