~VERSION INFORMATION
 VERS.                 2.0:   CWLS LOG ASCII STANDARD -VERSION 2.0
 WRAP.                  NO:   ONE LINE PER DEPTH STEP
~WELL INFORMATION BLOCK
#MNEM.UNIT           DATA                    DESCRIPTION OF MNEMONIC
#---------    -------------------            -------------------------------
# Generated from Intellog Unique Number	CN_94_101/WELL/5040
WELL.         14-14-101-14W4                 : Well_name    - WELL
LOC .         AA/14-14-101-14W4/0            : Location     - LOCATION
UWI .         AA/14-14-101-14W400            : Uwi          - UNIQUE WELL ID
ENTR.         TIM                            : Entered      - ENTERED BY
SRVC.         SCHLUMBERGER                   : Scn          - SERVICE COMPANY
DATE.         08/17/92                       : Date         - LOG DATE
STRT.M        304.8                          : top_depth    - START DEPTH
STOP.M        502.8                          : bot_depth    - STOP DEPTH
STEP.M        0.25                           : increment    - STEP LENGTH
NULL. -999.2500:NULL Value
~CURVE INFORMATION BLOCK
#MNEM UNIT       ERCB CURVE CODE    CURVE DESCRIPTION
#-----------   ------------------   ----------------------------------
DEPT.M        00 001 00 00         : DEPTH        - DEPTH
GR  .API      00 310 00 00         : GR           - GAMMA RAY
ILD .OHMM     00 120 00 00         : RESD         - DEEP RESISTIVITY (DIL)
NPHI.V/V      00 330 00 00         : PHIN         - NEUTRON POROSITY (SANDSTONE)
~PARAMETER INFORMATION
#MNEM.UNIT           DATA             DESCRIPTION OF MNEMONIC
#---------         -----------     ------------------------------
GL  .M        726.643              : gl           - GROUND LEVEL ELEVATION
EREF.M        729.996              : kb           - ELEVATION OF DEPTH REFERENCE
DATM.M        729.996              : datum        - DATUM ELEVATION
TDD .M        507.187              : tdd          - TOTAL DEPTH DRILLER
RUN .         ONE                  : Run          - RUN NUMBER
ENG .         BILL                 : Engineer     - RECORDING ENGINEER
WIT .         JIM                  : Witness      - WITNESSED BY
MUD .         GEL                  : Mud_type     - MUD TYPE
MATR.         SANDSTONE            : Logunit      - NEUTRON MATRIX
TMAX.C        19.4444              : BHT          - MAXIMUM RECORDED TEMPERATURE
BHTD.M        507.187              : BHTDEP       - MAXIMUM RECORDED TEMPERATURE
RMT .C        12.2222              : MDTP         - TEMPERATURE OF MUD
MUDD.KG/M     0                    : MWT          - MUD DENSITY
NEUT.         1                    : NEUTRON      - NEUTRON TYPE
RESI.         0                    : RESIST       - RESISTIVITY TYPE
RM  .OHMM     9.5                  : RM           - RESISTIVITY OF MUD
RMC .OHMM     5                    : RMC          - RESISTIVITY OF MUD CAKE
RMF .OHMM     10                   : RMF          - RESISTIVITY OF MUD FILTRATE
SUFT.C        4                    : SUFT         - SURFACE TEMPERATURE
~A  DEPTH       GR     RESD     PHIN
# ...
  413.300   87.803    2.728    0.385
  413.550   87.786    2.672    0.386
  413.800   87.764    2.721    0.394
  414.050   88.519    2.720    0.403
  414.300   88.887    2.880    0.419
  414.550   89.642    2.992    0.460
  414.800   90.006    2.990    0.485
  415.050   90.379    3.046    0.499
  415.300   90.358    3.102    0.504
  415.550   90.336    3.038    0.511
  415.800   90.328    2.918    0.515
  416.050   90.311    2.802    0.519
  416.300   91.056    2.588    0.518
  416.550   91.811    2.390    0.513
  416.800   92.951    2.121    0.511
  417.050   94.092    1.998    0.510
  417.300   95.237    1.845    0.509
  417.550   96.377    1.703    0.509
  417.800   96.746    1.636    0.509
  418.050   96.729    1.540    0.508
  418.300   95.164    1.450    0.506
  418.550   93.984    1.420    0.502
  418.800   94.735    1.364    0.492
  419.050   95.112    1.336    0.481
  419.300   95.862    1.308    0.476
  419.550   95.845    1.359    0.473
  419.800   95.438    1.469    0.468
  420.050   95.425    1.931    0.466
  420.300   95.017    2.302    0.464
  420.550   95.004    2.637    0.463
  420.800   94.597    2.794    0.461
  421.050   94.575    2.903    0.460
  421.300   94.562    2.957    0.457
  421.550   94.545    3.011    0.455
  421.800   94.528    3.068    0.451
  422.050   94.511    3.065    0.450
  422.300   94.875    3.121    0.448
  422.550   94.849    3.118    0.447
  422.800   95.226    3.115    0.446
  423.050   95.205    3.173    0.444
  423.300   95.192    3.232    0.441
  423.550   95.166    3.229    0.440
  423.800   95.157    3.288    0.436
  424.050   94.364    3.284    0.434
  424.300   93.185    3.344    0.433
  424.550   93.172    3.342    0.433
  424.800   93.536    3.338    0.436
  425.050   93.909    3.400    0.443
  425.300   94.655    3.396    0.454
  425.550   94.638    3.392    0.465
  425.800   94.621    3.388    0.480
  426.050   94.608    3.254    0.485
  426.300   94.582    3.187    0.485
  426.550   94.569    3.122    0.483
  426.800   94.933    3.118    0.465
  427.050   94.916    3.113    0.409
  427.300   95.289    3.170    0.367
  427.550   94.886    3.168    0.347
  427.800   92.549    3.228    0.332
  428.050   90.208    3.352    0.326
  428.300   89.037    3.483    0.314
  428.550   88.252    3.763    0.299
  428.800   87.069    3.985    0.282
  429.050   86.670    4.143    0.259
  429.300   86.648    4.651    0.242
  429.550   86.631    4.741    0.228
  429.800   87.386    5.021    0.256
  430.050   88.140    5.218    0.342
  430.300   88.513    4.725    0.372
  430.550   89.649    3.447    0.378
  430.800   90.790    2.883    0.386
  431.050   92.312    2.826    0.398
  431.300   93.453    2.766    0.421
  431.550   93.821    2.711    0.453
  431.800   93.808    2.654    0.476
  432.050   94.168    2.599    0.484
  432.300   94.546    2.545    0.489
  432.550   95.682    2.543    0.495
  432.800   98.748    2.441    0.495
  433.050  100.278    2.440    0.498
  433.300  101.801    2.390    0.498
  433.550  102.169    2.205    0.496
  433.800  101.380    2.118    0.491
  434.050  100.205    1.918    0.489
  434.300   98.640    1.670    0.487
  434.550   97.851    1.483    0.490
  434.800   97.452    1.316    0.491
  435.050   97.045    1.340    0.494
  435.300   96.637    1.393    0.495
  435.550   96.624    1.565    0.495
  435.800   96.603    1.794    0.494
  436.050   97.357    2.056    0.495
  436.300   98.502    2.356    0.496
  436.550   99.257    2.648    0.498
  436.800   99.239    2.861    0.492
  437.050   96.898    3.030    0.487
  437.300   96.105    3.086    0.482
  437.550   96.092    3.144    0.470
  437.800   96.075    3.079    0.464
  438.050   94.900    3.017    0.456
  438.300   91.400    2.839    0.446
  438.550   89.458    2.782    0.437
  438.800   91.761    2.724    0.425
  439.050   95.988    2.615    0.425
  439.300   98.673    2.561    0.432
  439.550  100.585    2.559    0.461
  439.800  100.563    2.507    0.469
  440.050  100.546    2.455    0.478
  440.300  100.143    2.405    0.478
  440.550   99.736    2.355    0.477
  440.800   99.723    2.307    0.471
  441.050  100.473    2.258    0.450
  441.300  101.613    2.212    0.448
  441.550  102.364    2.167    0.444
  441.800  100.807    2.122    0.455
  442.050   98.860    2.078    0.471
  442.300   97.685    2.036    0.483
  442.550   96.896    1.994    0.488
  442.800   96.489    1.953    0.496
  443.050   96.849    1.913    0.496
  443.300   98.375    1.873    0.482
  443.550   99.906    1.871    0.484
  443.800   99.889    1.868    0.487
  444.050   99.104    1.867    0.485
  444.300   97.149    1.865    0.483
  444.550   96.750    1.862    0.475
  444.800   96.347    1.860    0.469
  445.050   95.558    1.857    0.466
  445.300   95.150    1.892    0.460
  445.550   96.291    1.928    0.454
  445.800   98.589    1.964    0.451
  446.050  101.655    2.001    0.448
  446.300  103.953    2.120    0.443
  446.550  105.870    2.202    0.440
  446.800  107.396    2.288    0.436
  447.050  106.993    2.329    0.428
  447.300  104.656    2.237    0.419
  447.550  102.323    2.026    0.411
  447.800   99.600    1.764    0.408
  448.050   97.267    1.261    0.413
  448.300   93.777    1.142    0.423
  448.550   89.129    1.097    0.496
  448.800   82.937    1.054    0.520
  449.050   78.670    1.073    0.515
  449.300   76.723    1.183    0.502
  449.550   74.005    1.820    0.494
  449.800   65.497    2.538    0.459
  450.050   40.391    3.982    0.429
  450.300   36.506    5.663    0.405
  450.550   36.489    8.712    0.302
  450.800   35.700   12.637    0.284
  451.050   34.529   15.976    0.282
  451.300   33.350   17.257    0.279
  451.550   32.166   16.902    0.281
  451.800   31.768   15.917    0.283
  452.050   31.365   14.990    0.286
  452.300   30.966   14.401    0.288
  452.550   30.563   12.779    0.293
  452.800   32.475   11.349    0.295
  453.050   34.769    8.957    0.302
  453.300   38.225    5.369    0.307
  453.550   42.067    4.320    0.311
  453.800   45.523    3.911    0.319
  454.050   49.365    3.758    0.326
  454.300   53.593    3.538    0.337
  454.550   59.364    3.534    0.344
  454.800   60.505    3.599    0.347
  455.050   60.101    3.739    0.348
  455.300   59.698    3.808    0.348
  455.550   59.291    3.804    0.348
  455.800   59.273    3.653    0.348
  456.050   61.572    3.374    0.345
  456.300   66.186    3.177    0.339
  456.550   68.484    2.992    0.338
  456.800   70.396    2.708    0.341
  457.050   76.553    2.501    0.354
  457.300   84.641    2.220    0.384
  457.550   90.412    2.091    0.401
  457.800   93.868    2.009    0.418
  458.050   96.934    1.928    0.430
  458.300   96.917    1.926    0.445
  458.550   96.123    1.924    0.455
  458.800   95.716    1.922    0.466
  459.050   95.321    1.958    0.469
  459.300   94.528    2.074    0.471
  459.550   92.199    2.331    0.470
  459.800   83.688    2.671    0.462
  460.050   79.811    3.311    0.456
  460.300   75.935    3.947    0.439
  460.550   70.125    4.798    0.390
  460.800   65.858    5.948    0.351
  461.050   62.368    7.089    0.333
  461.300   59.259    7.966    0.324
  461.550   58.856    7.651    0.321
  461.800   59.996    7.063    0.322
  462.050   61.908    6.030    0.326
  462.300   64.202    5.147    0.333
  462.550   64.966    4.309    0.336
  462.800   68.422    3.334    0.341
  463.050   73.807    2.846    0.359
  463.300   80.350    2.381    0.407
  463.550   85.350    2.113    0.451
  463.800   89.188    2.031    0.465
  464.050   91.100    1.912    0.461
  464.300   90.693    1.873    0.455
  464.550   89.136    1.946    0.450
  464.800   87.567    2.101    0.442
  465.050   86.786    2.184    0.435
  465.300   84.835    2.455    0.424
  465.550   81.726    2.812    0.414
  465.800   79.784    3.160    0.380
  466.050   76.679    3.482    0.363
  466.300   72.412    4.151    0.362
  466.550   68.532    4.851    0.358
  466.800   64.660    5.897    0.354
  467.050   57.692    6.892    0.345
  467.300   53.429    8.055    0.309
