~VERSION INFORMATION
 VERS.                 2.0:   CWLS LOG ASCII STANDARD -VERSION 2.0
 WRAP.                  NO:   ONE LINE PER DEPTH STEP
~WELL INFORMATION BLOCK
#MNEM.UNIT           DATA                    DESCRIPTION OF MNEMONIC
#---------    -------------------            -------------------------------
# Generated from Intellog Unique Number	CS_77_79/WELL/935
WELL.         PEX PCEJ THORNBURY OV          : Well_name    - WELL
LOC .         AA/10-08-079-13W4/0            : Location     - LOCATION
UWI .         AA/10-08-079-13W4/0            : Uwi          - UNIQUE WELL ID
ENTR.         JHS                            : Entered      - ENTERED BY
SRVC.         SCHLUMBERGER                   : Scn          - SERVICE COMPANY
STRT.M        260                            : top_depth    - START DEPTH
STOP.M        515                            : bot_depth    - STOP DEPTH
STEP.M        0.25                           : increment    - STEP LENGTH
 NULL. -999.2500:NULL Value
~CURVE INFORMATION BLOCK
#MNEM UNIT       ERCB CURVE CODE    CURVE DESCRIPTION
#-----------   ------------------   ----------------------------------
DEPT.M        00 001 00 00         : DEPTH        - DEPTH
DPHI.V/V      00 890 00 00         : PHID         - DENSITY POROSITY (LIMESTONE)
NPHI.V/V      00 330 00 00         : PHIN         - NEUTRON POROSITY (LIMESTONE)
GR  .API      00 310 00 00         : GR           - GAMMA RAY
ILD .OHMM     00 120 00 00         : RESD         - DEEP RESISTIVITY (DIL)
RHOB.KG/M3    00 350 00 00         : DENS         - BULK DENSITY
~PARAMETER INFORMATION
#MNEM.UNIT           DATA             DESCRIPTION OF MNEMONIC
#---------         -----------     ------------------------------
GL  .M        685.55               : gl           - GROUND LEVEL ELEVATION
EREF.M        688.75               : kb           - ELEVATION OF DEPTH REFERENCE
DATM.M        688.75               : datum        - DATUM ELEVATION
TDD .M        522                  : tdd          - TOTAL DEPTH DRILLER
RUN .         ONE                  : Run          - RUN NUMBER
ENG .         BILL                 : Engineer     - RECORDING ENGINEER
WIT .         JIM                  : Witness      - WITNESSED BY
MUD .         GEL                  : Mud_type     - MUD TYPE
MATR.         LIMESTONE            : Logunit      - NEUTRON MATRIX
TMAX.C        26                   : BHT          - MAXIMUM RECORDED TEMPERATURE
BHTD.M        522                  : BHTDEP       - MAXIMUM RECORDED TEMPERATURE
MATR.         1                    : LOGUNIT      - NEUTRON MATRIX
RMT .C        25                   : MDTP         - TEMPERATURE OF MUD
NEUT.         1                    : NEUTRON      - NEUTRON TYPE
RESI.         0                    : RESIST       - RESISTIVITY TYPE
RMC .OHMM     0.25                 : RMC          - RESISTIVITY OF MUD CAKE
RMF .OHMM     0.25                 : RMF          - RESISTIVITY OF MUD FILTRATE
SUFT.C        15                   : SUFT         - SURFACE TEMPERATURE
~A  DEPTH     PHID     PHIN       GR     RESD     DENS
# ...
  369.500    0.404    0.506   79.566    2.576    0.000
  369.750    0.442    0.500   71.521    2.675    0.000
  370.000    0.426    0.510   77.734    2.994    0.000
  370.250    0.415    0.496   83.326    3.352    0.000
  370.500    0.403    0.515   80.863    4.201    0.000
  370.750    0.402    0.524   80.878    5.365    0.000
  371.000    0.440    0.530   85.849    6.355    0.000
  371.250    0.517    0.519   69.751    8.117    0.000
  371.500    0.469    0.509   71.625    9.435    0.000
  371.750    0.286    0.448   79.078    9.613    0.000
  372.000    0.251    0.414   77.854    9.433    0.000
  372.250    0.228    0.422   73.529    8.748    0.000
  372.500    0.237    0.407   77.260    8.113    0.000
  372.750    0.231    0.401   84.094    7.667    0.000
  373.000    0.247    0.388   82.870    6.978    0.000
  373.250    0.287    0.405   80.405    6.472    0.000
  373.500    0.244    0.407   76.701    6.116    0.000
  373.750    0.230    0.446   80.436    5.780    0.000
  374.000    0.243    0.468   82.307    5.462    0.000
  374.250    0.277    0.469   77.364    5.360    0.000
  374.500    0.320    0.468   74.278    5.359    0.000
  374.750    0.338    0.476   78.632    5.778    0.000
  375.000    0.396    0.485   78.646    6.348    0.000
  375.250    0.428    0.465   69.983    6.844    0.000
  375.500    0.454    0.447   68.759    7.661    0.000
  375.750    0.431    0.432   76.832    8.260    0.000
  376.000    0.451    0.456   74.985    8.739    0.000
  376.250    0.414    0.434   68.188    9.073    0.000
  376.500    0.253    0.391   65.718    9.245    0.000
  376.750    0.255    0.398   75.650    9.072    0.000
  377.000    0.340    0.411   76.904    8.573    0.000
  377.250    0.342    0.444   68.243    7.237    0.000
  377.500    0.280    0.438   60.821    6.109    0.000
  377.750    0.268    0.430   67.654    5.254    0.000
  378.000    0.309    0.462   72.004    4.353    0.000
  378.250    0.370    0.467   75.742    4.113    0.000
  378.500    0.461    0.468   75.132    3.887    0.000
  378.750    0.449    0.447   71.430    3.814    0.000
  379.000    0.449    0.452   71.445    3.605    0.000
  379.250    0.437    0.498   76.420    3.219    0.000
  379.500    0.420    0.521   80.154    2.822    0.000
  379.750    0.405    0.532   82.023    2.251    0.000
  380.000    0.395    0.546   78.942    0.714    0.000
  380.250    0.413    0.549   74.617    0.570    0.000
  380.500    0.418    0.558   75.871    0.509    0.000
  380.750    0.456    0.533   73.409    0.472    0.000
  381.000    0.487    0.519   69.704    0.509    0.000
  381.250    0.452    0.525   67.856    0.650    0.000
  381.500    0.432    0.527   77.170    0.862    0.000
  381.750    0.432    0.514   75.949    1.379    0.000
  382.000    0.448    0.521   72.245    2.336    0.000
  382.250    0.403    0.511   75.354    3.468    0.000
  382.500    0.385    0.509   81.566    3.956    0.000
  382.750    0.390    0.521   80.964    4.265    0.000
  383.000    0.406    0.545   74.782    4.429    0.000
  383.250    0.506    0.553   72.934    4.428    0.000
  383.500    0.464    0.523   71.095    4.185    0.000
  383.750    0.441    0.511   72.963    4.107    0.000
  384.000    0.459    0.491   76.699    4.106    0.000
  384.250    0.443    0.469   80.433    4.427    0.000
  384.500    0.426    0.457   81.686    5.050    0.000
  384.750    0.422    0.474   81.082    5.244    0.000
  385.000    0.436    0.472   77.994    5.981    0.000
  385.250    0.491    0.468   70.576    6.571    0.000
  385.500    0.459    0.438   66.874    7.084    0.000
  385.750    0.300    0.424   66.882    7.356    0.000
  386.000    0.311    0.410   65.655    7.930    0.000
  386.250    0.300    0.390   62.571    8.081    0.000
  386.500    0.292    0.387   52.669    8.711    0.000
  386.750    0.295    0.381   55.166    8.876    0.000
  387.000    0.295    0.380   59.517    8.876    0.000
  387.250    0.282    0.385   66.349    8.709    0.000
  387.500    0.276    0.381   65.127    8.387    0.000
  387.750    0.277    0.402   71.337    7.926    0.000
  388.000    0.291    0.406   67.636    7.491    0.000
  388.250    0.301    0.414   62.692    7.632    0.000
  388.500    0.295    0.415   58.367    7.777    0.000
  388.750    0.302    0.413   53.421    8.074    0.000
  389.000    0.301    0.403   63.353    8.227    0.000
  389.250    0.301    0.393   62.132    8.383    0.000
  389.500    0.311    0.396   57.807    8.382    0.000
  389.750    0.331    0.407   57.199    8.382    0.000
  390.000    0.271    0.418   67.129    8.071    0.000
  390.250    0.251    0.424   77.682    7.772    0.000
  390.500    0.241    0.423   71.499    7.772    0.000
  390.750    0.232    0.411   73.993    7.771    0.000
  391.000    0.230    0.403   79.588    7.771    0.000
  391.250    0.238    0.418   78.362    7.918    0.000
  391.500    0.231    0.436   75.896    7.917    0.000
  391.750    0.224    0.417   76.529    7.917    0.000
  392.000    0.230    0.416   70.347    8.067    0.000
  392.250    0.244    0.408   71.602    8.066    0.000
  392.500    0.244    0.400   73.477    8.065    0.000
  392.750    0.234    0.399   69.151    8.065    0.000
  393.000    0.225    0.407   69.165    8.064    0.000
  393.250    0.229    0.416   75.380    8.064    0.000
  393.500    0.241    0.427   76.633    7.913    0.000
  393.750    0.258    0.447   79.748    7.764    0.000
  394.000    0.361    0.446   78.521    7.764    0.000
  394.250    0.295    0.432   75.437    7.911    0.000
  394.500    0.271    0.431   76.074    8.061    0.000
  394.750    0.263    0.416   78.565    8.060    0.000
  395.000    0.253    0.407   66.186    8.059    0.000
  395.250    0.248    0.410   68.066    7.761    0.000
  395.500    0.265    0.419   69.933    7.474    0.000
  395.750    0.256    0.416   74.285    7.197    0.000
  396.000    0.244    0.408   79.882    6.931    0.000
  396.250    0.231    0.401   81.754    6.075    0.000
  396.500    0.235    0.398   74.329    5.128    0.000
  396.750    0.322    0.440   73.110    4.756    0.000
  397.000    0.370    0.450   70.644    4.410    0.000
  397.250    0.454    0.464   66.318    4.666    0.000
  397.500    0.387    0.460   66.951    5.031    0.000
  397.750    0.399    0.470   73.166    5.738    0.000
  398.000    0.439    0.465   67.603    6.072    0.000
  398.250    0.427    0.465   68.853    6.546    0.000
  398.500    0.431    0.472   74.448    7.191    0.000
  398.750    0.445    0.467   68.883    7.609    0.000
  399.000    0.478    0.493   68.277    7.900    0.000
  399.250    0.499    0.505   78.211    8.049    0.000
  399.500    0.441    0.447   78.225    8.049    0.000
  399.750    0.288    0.398   77.004    7.750    0.000
  400.000    0.265    0.382   77.633    7.464    0.000
  400.250    0.255    0.391   80.128    6.666    0.000
  400.500    0.255    0.408   85.103    6.542    0.000
  400.750    0.262    0.432   89.454    6.182    0.000
  401.000    0.301    0.442   94.430    6.066    0.000
  401.250    0.342    0.424   92.582    5.841    0.000
  401.500    0.293    0.408   83.300    5.952    0.000
  401.750    0.270    0.413   80.217    6.297    0.000
  402.000    0.278    0.426   83.950    6.539    0.000
  402.250    0.339    0.442   81.488    7.049    0.000
  402.500    0.336    0.436   80.263    7.600    0.000
  402.750    0.306    0.410   75.317    8.194    0.000
  403.000    0.266    0.403   75.330    8.669    0.000
  403.250    0.245    0.391   87.742    8.833    0.000
  403.500    0.248    0.383   92.095    9.000    0.000
  403.750    0.247    0.374   83.433    9.000    0.000
  404.000    0.239    0.365   82.829    8.999    0.000
  404.250    0.230    0.376   82.844    8.831    0.000
  404.500    0.234    0.383   80.996    8.504    0.000
  404.750    0.251    0.378   77.294    8.189    0.000
  405.000    0.251    0.385   74.210    7.739    0.000
  405.250    0.233    0.370   80.420    7.313    0.000
  405.500    0.228    0.373   87.254    7.043    0.000
  405.750    0.244    0.389   81.691    7.042    0.000
