~VERSION INFORMATION
 VERS.                 2.0:   CWLS LOG ASCII STANDARD -VERSION 2.0
 WRAP.                  NO:   ONE LINE PER DEPTH STEP
~WELL INFORMATION BLOCK
#MNEM.UNIT           DATA                    DESCRIPTION OF MNEMONIC
#---------    -------------------            -------------------------------
# Generated from Intellog Unique Number	CS_77_79/WELL/935
WELL.         PEX PCEJ THORNBURY OV          : Well_name    - WELL
LOC .         AA/10-08-079-13W4/0            : Location     - LOCATION
UWI .         AA/10-08-079-13W4/0            : Uwi          - UNIQUE WELL ID
ENTR.         JHS                            : Entered      - ENTERED BY
SRVC.         SCHLUMBERGER                   : Scn          - SERVICE COMPANY
STRT.M        260                            : top_depth    - START DEPTH
STOP.M        515                            : bot_depth    - STOP DEPTH
STEP.M        0.25                           : increment    - STEP LENGTH
 NULL. -999.2500:NULL Value
~CURVE INFORMATION BLOCK
#MNEM UNIT       ERCB CURVE CODE    CURVE DESCRIPTION
#-----------   ------------------   ----------------------------------
DEPT.M        00 001 00 00         : DEPTH        - DEPTH
DPHI.V/V      00 890 00 00         : PHID         - DENSITY POROSITY (LIMESTONE)
NPHI.V/V      00 330 00 00         : PHIN         - NEUTRON POROSITY (LIMESTONE)
GR  .API      00 310 00 00         : GR           - GAMMA RAY
ILD .OHMM     00 120 00 00         : RESD         - DEEP RESISTIVITY (DIL)
RHOB.KG/M3    00 350 00 00         : DENS         - BULK DENSITY
~PARAMETER INFORMATION
#MNEM.UNIT           DATA             DESCRIPTION OF MNEMONIC
#---------         -----------     ------------------------------
GL  .M        685.55               : gl           - GROUND LEVEL ELEVATION
EREF.M        688.75               : kb           - ELEVATION OF DEPTH REFERENCE
DATM.M        688.75               : datum        - DATUM ELEVATION
TDD .M        522                  : tdd          - TOTAL DEPTH DRILLER
RUN .         ONE                  : Run          - RUN NUMBER
ENG .         BILL                 : Engineer     - RECORDING ENGINEER
WIT .         JIM                  : Witness      - WITNESSED BY
MUD .         GEL                  : Mud_type     - MUD TYPE
MATR.         LIMESTONE            : Logunit      - NEUTRON MATRIX
TMAX.C        26                   : BHT          - MAXIMUM RECORDED TEMPERATURE
BHTD.M        522                  : BHTDEP       - MAXIMUM RECORDED TEMPERATURE
MATR.         1                    : LOGUNIT      - NEUTRON MATRIX
RMT .C        25                   : MDTP         - TEMPERATURE OF MUD
NEUT.         1                    : NEUTRON      - NEUTRON TYPE
RESI.         0                    : RESIST       - RESISTIVITY TYPE
RMC .OHMM     0.25                 : RMC          - RESISTIVITY OF MUD CAKE
RMF .OHMM     0.25                 : RMF          - RESISTIVITY OF MUD FILTRATE
SUFT.C        15                   : SUFT         - SURFACE TEMPERATURE
~A  DEPTH     PHID     PHIN       GR     RESD     DENS
# ...
  333.000    0.334    0.419   47.051   14.992    0.000
  333.250    0.345    0.423   44.586   15.276    0.000
  333.500    0.336    0.410   38.404   15.565    0.000
  333.750    0.335    0.418   39.038   15.860    0.000
  334.000    0.342    0.412   45.252   15.858    0.000
  334.250    0.343    0.410   45.268   15.562    0.000
  334.500    0.339    0.423   42.185   15.560    0.000
  334.750    0.338    0.413   40.963   15.269    0.000
  335.000    0.338    0.406   40.970   14.983    0.000
  335.250    0.328    0.419   37.886   14.703    0.000
  335.500    0.326    0.434   41.011   14.158    0.000
  335.750    0.325    0.414   41.637   13.894    0.000
  336.000    0.327    0.403   42.890   13.633    0.000
  336.250    0.338    0.389   46.624   13.892    0.000
  336.500    0.332    0.374   48.498   14.423    0.000
  336.750    0.323    0.365   46.655   14.976    0.000
  337.000    0.324    0.354   44.806   17.083    0.000
  337.250    0.334    0.345   49.161   19.125    0.000
  337.500    0.332    0.324   46.079   24.424    0.000
  337.750    0.339    0.300   43.610   29.481    0.000
  338.000    0.342    0.273   41.768   39.838    0.000
  338.250    0.343    0.250   39.922   61.414    0.000
  338.500    0.275    0.223   37.459   71.389    0.000
  338.750    0.217    0.187   34.374   68.747    0.000
  339.000    0.088    0.130   31.287   54.844    0.000
  339.250    0.019    0.136   29.443   37.637    0.000
  339.500    0.000    0.152   28.220   25.346    0.000
  339.750    0.037    0.180   27.614   20.996    0.000
  340.000    0.070    0.200   29.486   17.723    0.000
  340.250    0.102    0.232   34.461   15.244    0.000
  340.500    0.134    0.296   39.437   14.680    0.000
  340.750    0.325    0.389   41.928   14.405    0.000
  341.000    0.325    0.386   41.324   14.404    0.000
  341.250    0.345    0.382   37.619   14.403    0.000
  341.500    0.339    0.392   43.218   14.676    0.000
  341.750    0.324    0.397   45.088   14.953    0.000
  342.000    0.325    0.414   36.423   15.236    0.000
  342.250    0.332    0.433   34.579   15.525    0.000
  342.500    0.340    0.425   40.172   15.818    0.000
  342.750    0.335    0.403   43.906   15.818    0.000
  343.000    0.320    0.391   42.061   16.116    0.000
  343.250    0.322    0.405   40.841   16.116    0.000
  343.500    0.327    0.401   42.713   16.114    0.000
  343.750    0.330    0.414   39.625   16.113    0.000
  344.000    0.327    0.394   40.880   16.112    0.000
  344.250    0.336    0.411   43.375   16.110    0.000
  344.500    0.326    0.402   39.669   16.110    0.000
  344.750    0.321    0.399   38.444   16.108    0.000
  345.000    0.322    0.396   44.036   16.107    0.000
  345.250    0.327    0.405   49.012   16.106    0.000
  345.500    0.323    0.390   49.644   16.105    0.000
  345.750    0.321    0.381   40.983   16.104    0.000
  346.000    0.327    0.371   42.236   15.802    0.000
  346.250    0.320    0.387   39.771   15.801    0.000
  346.500    0.327    0.401   41.028   15.799    0.000
  346.750    0.337    0.406   46.619   15.799    0.000
  347.000    0.332    0.392   50.972   15.797    0.000
  347.250    0.328    0.384   50.369   15.796    0.000
  347.500    0.322    0.386   44.805   15.795    0.000
  347.750    0.317    0.390   46.059   15.794    0.000
  348.000    0.326    0.395   44.831   15.793    0.000
  348.250    0.327    0.392   41.129   16.092    0.000
  348.500    0.324    0.392   49.203   15.790    0.000
  348.750    0.325    0.403   49.837   15.495    0.000
  349.000    0.324    0.391   48.612   15.205    0.000
  349.250    0.320    0.386   46.150   14.642    0.000
  349.500    0.328    0.382   46.161   14.641    0.000
  349.750    0.324    0.376   48.037   14.639    0.000
  350.000    0.317    0.399   48.051   14.917    0.000
  350.250    0.310    0.413   46.204   15.488    0.000
  350.500    0.320    0.399   41.263   16.081    0.000
  350.750    0.329    0.390   38.796   16.697    0.000
  351.000    0.323    0.392   35.098   17.336    0.000
  351.250    0.321    0.383   33.867   17.664    0.000
  351.500    0.320    0.381   37.599   17.333    0.000
  351.750    0.312    0.385   40.094   17.332    0.000
  352.000    0.314    0.401   37.635   17.330    0.000
  352.250    0.313    0.408   35.785   17.006    0.000
  352.500    0.302    0.395   37.045   17.005    0.000
  352.750    0.302    0.375   37.056   16.686    0.000
  353.000    0.314    0.367   33.349   16.686    0.000
  353.250    0.321    0.372   37.084   16.684    0.000
  353.500    0.316    0.372   38.959   16.683    0.000
  353.750    0.311    0.364   35.256   16.681    0.000
  354.000    0.328    0.375   42.086   16.680    0.000
  354.250    0.333    0.376   37.143   16.680    0.000
  354.500    0.330    0.373   37.776   16.678    0.000
  354.750    0.325    0.373   39.030   16.677    0.000
  355.000    0.327    0.391   42.143   16.676    0.000
  355.250    0.330    0.407   47.116   16.674    0.000
  355.500    0.320    0.396   41.552   16.989    0.000
  355.750    0.316    0.387   36.610   16.988    0.000
  356.000    0.327    0.408   35.389   16.987    0.000
  356.250    0.313    0.396   37.258   16.986    0.000
  356.500    0.311    0.393   42.851   16.985    0.000
  356.750    0.324    0.405   43.485   16.983    0.000
  357.000    0.312    0.406   42.262   16.666    0.000
  357.250    0.308    0.403   43.517   16.664    0.000
  357.500    0.302    0.392   46.012   16.663    0.000
  357.750    0.300    0.376   47.266   16.352    0.000
  358.000    0.311    0.380   47.901   16.350    0.000
  358.250    0.307    0.383   47.296   16.349    0.000
  358.500    0.318    0.370   49.786   16.348    0.000
  358.750    0.311    0.362   52.281   16.346    0.000
  359.000    0.311    0.364   48.579   16.040    0.000
  359.250    0.334    0.393   45.496   16.040    0.000
  359.500    0.314    0.398   43.649   16.038    0.000
  359.750    0.306    0.399   43.661   16.037    0.000
  360.000    0.318    0.384   39.343   16.036    0.000
  360.250    0.308    0.393   38.736   16.034    0.000
  360.500    0.310    0.388   39.367   16.033    0.000
  360.750    0.310    0.376   43.103   16.032    0.000
  361.000    0.302    0.368   46.834   16.031    0.000
  361.250    0.307    0.383   50.567   16.030    0.000
  361.500    0.309    0.398   49.344   16.028    0.000
  361.750    0.314    0.400   46.878   16.028    0.000
  362.000    0.320    0.405   43.798   16.331    0.000
  362.250    0.308    0.393   42.574   16.329    0.000
  362.500    0.304    0.383   43.205   16.328    0.000
  362.750    0.305    0.375   44.459   16.327    0.000
  363.000    0.305    0.378   43.855   16.636    0.000
  363.250    0.306    0.385   42.012   16.635    0.000
  363.500    0.310    0.373   41.406   16.633    0.000
  363.750    0.294    0.383   45.138   16.948    0.000
  364.000    0.287    0.390   44.530   16.947    0.000
  364.250    0.284    0.400   43.927   16.946    0.000
  364.500    0.289    0.390   46.423   16.629    0.000
  364.750    0.298    0.376   45.195   16.317    0.000
  365.000    0.298    0.376   45.209   15.713    0.000
  365.250    0.299    0.392   52.666   14.850    0.000
  365.500    0.306    0.401   55.157   14.034    0.000
  365.750    0.310    0.413   57.038   13.014    0.000
  366.000    0.310    0.412   57.666   12.299    0.000
  366.250    0.313    0.401   60.779   10.579    0.000
  366.500    0.294    0.417   62.032    9.100    0.000
  366.750    0.287    0.390   68.870    7.976    0.000
  367.000    0.283    0.388   70.738    6.732    0.000
  367.250    0.271    0.411   70.755    5.683    0.000
  367.500    0.269    0.425   75.730    4.449    0.000
  367.750    0.281    0.451   78.221    3.685    0.000
  368.000    0.338    0.475   76.998    3.230    0.000
  368.250    0.316    0.457   68.335    2.940    0.000
  368.500    0.300    0.439   67.730    2.626    0.000
  368.750    0.324    0.497   75.809    2.529    0.000
  369.000    0.393    0.513   78.295    2.528    0.000
  369.250    0.410    0.506   82.648    2.481    0.000
