~VERSION INFORMATION
 VERS.                 2.0:   CWLS LOG ASCII STANDARD -VERSION 2.0
 WRAP.                  NO:   ONE LINE PER DEPTH STEP
~WELL INFORMATION BLOCK
#MNEM.UNIT           DATA                    DESCRIPTION OF MNEMONIC
#---------    -------------------            -------------------------------
# Generated from Intellog Unique Number	CC_80_83/WELL/2426
NULL.         -999.25                        : NULL_VALUE
WELL.         ARCO ACI MCMURRAY OV           : Well_name    - WELL
LOC .         12-08-083-10W4                 : Location     - LOCATION          
UWI .         AA/12-08-083-10W400            : Uwi          - UNIQUE WELL ID    
ENTR.         DW                             : Entered      - ENTERED BY        
SRVC.         SCHLUMBERGER                   : Scn          - SERVICE COMPANY   
DATE.         12 MAR 74                      : Date         - LOG DATE
STRT.M        262.128                        : top_depth    - START DEPTH       
STOP.M        499.879                        : bot_depth    - STOP DEPTH        
STEP.M        0.305                          : increment    - STEP LENGTH       
~CURVE INFORMATION BLOCK
#MNEM UNIT       ERCB CURVE CODE    CURVE DESCRIPTION
#-----------   ------------------   ----------------------------------
DEPT.M        00 001 00 00         : DEPTH        - DEPTH                       
DPHI.V/V      00 890 00 00         : PHID         - DENSITY POROSITY (LIMESTONE)
GR  .API      00 310 00 00         : GR           - GAMMA RAY                   
ILD .OHMM     00 120 00 00         : RESD         - DEEP RESISTIVITY (DIL)      
NPHI.V/V      00 330 00 00         : PHIN         - NEUTRON POROSITY (LIMESTONE)
~PARAMETER INFORMATION       
#MNEM.UNIT           DATA             DESCRIPTION OF MNEMONIC
#---------         -----------     ------------------------------
GL  .M        729.844              : gl           - GROUND LEVEL ELEVATION      
EREF.M        732.892              : kb           - ELEVATION OF DEPTH REFERENCE
DATM.M        732.892              : datum        - DATUM ELEVATION             
TDD .M        501.701              : tdd          - TOTAL DEPTH DRILLER         
RUN .         ONE                  : Run          - RUN NUMBER                  
ENG .         BILL                 : Engineer     - RECORDING ENGINEER          
WIT .         JIM                  : Witness      - WITNESSED BY                
MUD .         GEL                  : Mud_type     - MUD TYPE                    
MATR.         LIMESTONE            : Logunit      - NEUTRON MATRIX              
TMAX.C        28.8889              : BHT          - MAXIMUM RECORDED TEMPERATURE
BHTD.M        501.701              : BHTDEP       - MAXIMUM RECORDED TEMPERATURE
MATR.         1                    : LOGUNIT      - NEUTRON MATRIX              
RMT .C        25                   : MDTP         - TEMPERATURE OF MUD          
NEUT.         1                    : NEUTRON      - NEUTRON TYPE                
RESI.         0                    : RESIST       - RESISTIVITY TYPE            
RMC .OHMM     0.25                 : RMC          - RESISTIVITY OF MUD CAKE     
RMF .OHMM     0.25                 : RMF          - RESISTIVITY OF MUD FILTRATE 
SUFT.C        15                   : SUFT         - SURFACE TEMPERATURE         
~A  DEPTH     PHID       GR     RESD     PHIN
# ...
  368.202    0.420   77.391    2.480    0.540
  368.507    0.432   83.081    2.390    0.539
  368.811    0.414   83.521    2.302    0.542
  369.116    0.424   82.328    2.345    0.544
  369.421    0.424   76.290    2.526    0.544
  369.726    0.403   75.103    2.772    0.540
  370.031    0.346   72.302    3.041    0.420
  370.335    0.292   73.141    3.399    0.440
  370.640    0.301   78.016    3.871    0.427
  370.945    0.292   80.072    4.408    0.418
  371.250    0.302   78.475    4.748    0.440
  371.555    0.294   73.247    4.927    0.418
  371.859    0.305   73.281    5.113    0.395
  372.164    0.325   73.714    5.823    0.390
  372.469    0.344   72.926    7.412    0.413
  372.774    0.362   69.315    8.599    0.395
  373.079    0.364   64.892   11.151    0.384
  373.383    0.357   52.787   12.235    0.387
  373.688    0.359   54.435   12.234    0.395
  373.993    0.354   54.869   12.233    0.398
  374.298    0.346   52.868   12.008    0.409
  374.603    0.345   53.300   12.007    0.392
  374.908    0.341   56.569   12.006    0.384
  375.212    0.329   56.590   11.785    0.382
  375.517    0.337   47.319   12.005    0.402
  375.822    0.339   49.382   12.004    0.393
  376.127    0.349   51.426   12.228    0.387
  376.432    0.359   53.063   12.002    0.419
  376.736    0.354   55.920   11.781    0.402
  377.041    0.361   55.953   11.780    0.419
  377.346    0.367   56.394   11.563    0.407
  377.651    0.361   56.812   11.562    0.416
  377.956    0.355   59.679   11.349    0.376
  378.260    0.363   59.293   11.140    0.370
  378.565    0.373   53.663   11.139    0.387
  378.870    0.354   50.046   11.138    0.413
  379.175    0.352   53.717   11.138    0.433
  379.480    0.364   61.023   11.137    0.402
  379.784    0.375   61.858   10.931    0.404
  380.089    0.358   54.606   10.730    0.384
  380.394    0.366   50.183   10.930    0.351
  380.699    0.356   52.237   11.772    0.278
  381.004    0.268   55.501   13.406    0.234
  381.309    0.111   56.738   18.042    0.164
  381.613    0.072   53.531   27.654    0.174
  381.918    0.088   48.304   28.698    0.210
  382.223    0.077   46.713   23.833    0.293
  382.528    0.157   43.103   18.721    0.380
  382.833    0.348   41.510   15.839    0.394
  383.137    0.375   50.027   12.212    0.414
  383.442    0.368   54.107   11.550    0.421
  383.747    0.365   52.520   11.549    0.414
  384.052    0.359   52.535   11.764    0.420
  384.357    0.353   52.967   11.984    0.432
  384.661    0.358   54.212   11.984    0.437
  384.966    0.377   54.642   11.983    0.418
  385.271    0.382   55.071   11.762    0.416
  385.576    0.366   55.505   11.545    0.414
  385.881    0.346   53.513   11.332    0.408
  386.185    0.351   54.349   11.544    0.414
  386.490    0.362   56.803   11.543    0.404
  386.795    0.369   55.620   11.330    0.399
  387.100    0.373   51.601   11.329    0.410
  387.405    0.363   53.248   11.120    0.393
  387.710    0.347   54.491   11.120    0.382
  388.014    0.351   54.917   11.119    0.399
  388.319    0.358   57.783   11.118    0.417
  388.624    0.368   57.396   10.913    0.401
  388.929    0.354   53.382   10.913    0.410
  389.234    0.335   51.800   11.116    0.423
  389.538    0.325   54.655   11.116    0.436
  389.843    0.331   57.921   10.710    0.421
  390.148    0.363   57.942   10.512    0.433
  390.453    0.362   57.964   10.709    0.418
  390.758    0.357   54.352   10.909    0.426
  391.062    0.363   59.243   11.112    0.400
  391.367    0.360   59.270   11.320    0.417
  391.672    0.364   58.074   11.320    0.406
  391.977    0.351   53.654   11.319    0.411
  392.282    0.345   54.903   11.318    0.432
  392.586    0.357   58.170   11.110    0.413
  392.891    0.360   58.995   11.317    0.398
  393.196    0.364   59.427   11.316    0.392
  393.501    0.365   58.239   11.528    0.413
  393.806    0.358   55.844   11.527    0.395
  394.111    0.350   54.665   11.314    0.400
  394.415    0.348   55.099   10.901    0.385
  394.720    0.319   55.523   10.700    0.413
  395.025    0.325   56.762   10.309    0.422
  395.330    0.338   58.811   10.309    0.395
  395.635    0.352   60.050   10.698    0.390
  395.939    0.362   59.674   11.523    0.400
  396.244    0.370   53.639   11.738    0.414
  396.549    0.367   54.070   11.957    0.428
  396.854    0.347   57.330   11.308    0.440
  397.159    0.342   58.571   10.896    0.456
  397.463    0.357   57.391    9.929    0.488
  397.768    0.389   57.007    9.391    0.557
  398.073    0.433   59.875    6.976    0.521
  398.378    0.413   62.322    6.240    0.481
  398.683    0.358   66.798    6.240    0.442
  398.987    0.252   70.061    6.476    0.408
  399.292    0.256   71.704    6.721    0.411
  399.597    0.300   69.309    6.596    0.439
  399.902    0.337   69.738    6.475    0.456
  400.207    0.366   75.842    6.355    0.479
  400.512    0.385   77.070    6.011    0.504
  400.816    0.367   77.909    5.685    0.512
  401.121    0.369   73.494    4.991    0.485
  401.426    0.420   75.952    4.549    0.537
  401.731    0.433   76.370    4.383    0.548
  402.036    0.397   69.526    4.382    0.516
  402.340    0.295   71.573    4.808    0.425
  402.645    0.257   73.624    5.179    0.409
  402.950    0.225   71.628    5.897    0.394
  403.255    0.296   71.663    6.841    0.374
  403.560    0.304   73.311    7.647    0.391
  403.864    0.296   73.731    7.790    0.397
  404.169    0.288   74.572    7.646    0.402
  404.474    0.276   72.172    7.505    0.409
  404.779    0.290   69.773    7.645    0.425
  405.084    0.266   73.847    7.366    0.452
  405.388    0.284   68.614    7.097    0.472
  405.693    0.304   71.472    6.966    0.443
  405.998    0.289   77.971    6.838    0.450
  406.303    0.296   82.042    6.712    0.488
  406.608    0.338   79.641    6.466    0.500
  406.913    0.341   74.819    6.116    0.516
  407.217    0.330   73.225    5.678    0.527
  407.522    0.314   72.444    5.271    0.501
  407.827    0.311   79.751    4.628    0.517
  408.132    0.347   80.186    3.916    0.545
  408.437    0.412   79.401    3.503    0.544
  408.741    0.392   79.434    3.252    0.542
  409.046    0.378   79.457    3.252    0.540
  409.351    0.362   81.914    3.915    0.539
  409.656    0.343   81.938    4.216    0.528
  409.961    0.312   75.093    4.713    0.508
  410.265    0.285   74.728    5.171    0.488
  410.570    0.290   75.151    5.268    0.504
  410.875    0.285   78.816    5.467    0.459
  411.180    0.280   81.677    5.780    0.438
  411.485    0.279   79.274    5.998    0.424
  411.789    0.264   77.686    6.958    0.403
  412.094    0.269   81.755    7.635    0.417
  412.399    0.256   86.633    8.534    0.398
  412.704    0.237   83.832    8.856    0.345
  413.009    0.202   89.120    9.022    0.324
  413.314    0.188   91.168    9.717    0.334
  413.618    0.200   90.382   10.466    0.367
  413.923    0.208   83.535   10.861    0.363
  414.228    0.220   84.783   10.661    0.340
  414.533    0.231   86.829   10.271    0.335
  414.838    0.241   85.647    9.896    0.365
  415.142    0.294   87.696    9.188    0.419
  415.447    0.312   88.530    8.218    0.454
  415.752    0.318   88.153    7.216    0.454
  416.057    0.321   87.775    6.825    0.461
  416.362    0.323   87.403    6.824    0.472
  416.666    0.313   86.217    7.215    0.444
  416.971    0.259   84.625    7.488    0.351
  417.276    0.273   82.219    8.686    0.372
  417.581    0.259   79.012   10.854    0.371
  417.886    0.253   79.855   11.264    0.370
  418.190    0.267   84.324   11.263    0.368
  418.495    0.272   87.993   11.055    0.368
  418.800    0.281   86.410   10.652    0.369
  419.105    0.289   84.817    9.888    0.429
  419.410    0.346   84.839    9.180    0.464
  419.715    0.316   84.872    8.061    0.468
  420.019    0.261   82.880    7.766    0.414
  420.324    0.258   81.283    7.766    0.401
  420.629    0.285   78.885    7.911    0.411
  420.934    0.279   77.292    8.059    0.469
