~VERSION INFORMATION
 VERS.                 2.0:   CWLS LOG ASCII STANDARD -VERSION 2.0
 WRAP.                  NO:   ONE LINE PER DEPTH STEP
~WELL INFORMATION BLOCK
#MNEM.UNIT           DATA                    DESCRIPTION OF MNEMONIC
#---------    -------------------            -------------------------------
# Generated from Intellog Unique Number	CC_80_83/WELL/2347
NULL.         -999.25                        : NULL_VALUE
WELL.         ARCO ACI MCMURRAY OV           : Well_name    - WELL
LOC .         10-11-080-11W4                 : Location     - LOCATION          
UWI .         AA/10-11-080-11W400            : Uwi          - UNIQUE WELL ID    
ENTR.         DW                             : Entered      - ENTERED BY        
SRVC.         SCHLUMBERGER                   : Scn          - SERVICE COMPANY   
DATE.         05 FEB 76                      : Date         - LOG DATE
STRT.M        249.936                        : top_depth    - START DEPTH       
STOP.M        474.885                        : bot_depth    - STOP DEPTH        
STEP.M        0.305                          : increment    - STEP LENGTH       
~CURVE INFORMATION BLOCK
#MNEM UNIT       ERCB CURVE CODE    CURVE DESCRIPTION
#-----------   ------------------   ----------------------------------
DEPT.M        00 001 00 00         : DEPTH        - DEPTH                       
RHOB.KG/M3    00 350 00 00         : DENS         - BULK DENSITY                
GR  .API      00 310 00 00         : GR           - GAMMA RAY                   
NPHI.V/V      00 330 00 00         : PHIN         - NEUTRON POROSITY (LIMESTONE)
ILD .OHMM     00 120 00 00         : RESD         - DEEP RESISTIVITY (DIL)      
~PARAMETER INFORMATION       
#MNEM.UNIT           DATA             DESCRIPTION OF MNEMONIC
#---------         -----------     ------------------------------
GL  .M        686.105              : gl           - GROUND LEVEL ELEVATION      
EREF.M        689.153              : kb           - ELEVATION OF DEPTH REFERENCE
DATM.M        689.153              : datum        - DATUM ELEVATION             
TDD .M        474.878              : tdd          - TOTAL DEPTH DRILLER         
RUN .         ONE                  : Run          - RUN NUMBER                  
ENG .         BILL                 : Engineer     - RECORDING ENGINEER          
WIT .         JIM                  : Witness      - WITNESSED BY                
MUD .         GEL                  : Mud_type     - MUD TYPE                    
MATR.         LIMESTONE            : Logunit      - NEUTRON MATRIX              
TMAX.C        21.1111              : BHT          - MAXIMUM RECORDED TEMPERATURE
BHTD.M        474.878              : BHTDEP       - MAXIMUM RECORDED TEMPERATURE
MATR.         1                    : LOGUNIT      - NEUTRON MATRIX              
RMT .C        25                   : MDTP         - TEMPERATURE OF MUD          
NEUT.         0                    : NEUTRON      - NEUTRON TYPE                
RESI.         0                    : RESIST       - RESISTIVITY TYPE            
RMC .OHMM     0.25                 : RMC          - RESISTIVITY OF MUD CAKE     
RMF .OHMM     0.25                 : RMF          - RESISTIVITY OF MUD FILTRATE 
SUFT.C        15                   : SUFT         - SURFACE TEMPERATURE         
~A  DEPTH     DENS       GR     PHIN     RESD
# ...
  302.973 2152.240   55.749    0.363   18.154
  303.277 2156.310   56.369    0.363   18.499
  303.582 2115.960   58.209    0.365   18.850
  303.887 2105.910   55.783    0.372   18.853
  304.192 2118.080   56.404    0.379   19.211
  304.497 2118.100   59.465    0.379   18.858
  304.801 2110.070   59.473    0.381   18.512
  305.106 2102.040   56.443    0.381   17.836
  305.411 2102.080   54.019    0.375   17.185
  305.716 2106.140   54.028    0.370   16.869
  306.021 2124.360   55.869    0.366   17.189
  306.325 2136.520   52.834    0.368   17.515
  306.630 2136.540   49.806    0.369   17.848
  306.935 2112.360   51.643    0.363   18.529
  307.240 2088.170   52.871    0.358   19.600
  307.545 2104.370   52.273    0.364   19.603
  307.850 2098.340   51.069    0.365   19.604
  308.154 2055.980   49.256    0.362   19.246
  308.459 2049.970   48.656    0.364   19.610
  308.764 2076.260   46.843    0.363   19.984
  309.069 2096.480   45.639    0.348   20.363
  309.374 2122.770   45.647    0.342   20.748
  309.678 2132.910   47.486    0.342   20.753
  309.983 2141.020   47.498    0.346   20.372
  310.288 2161.250   46.900    0.349   19.997
  310.593 2124.950   49.348    0.349   19.630
  310.898 2104.800   50.579    0.348   18.563
  311.202 2102.810   50.593    0.349   18.221
  311.507 2153.340   49.991    0.366   18.919
  311.812 2159.430   48.788    0.367   19.278
  312.117 2153.410   49.409    0.367   19.644
  312.422 2113.070   50.635    0.367   20.017
  312.726 2117.160   48.823    0.376   20.396
  313.031 2119.220   45.790    0.372   20.398
  313.336 2119.240   45.191    0.365   20.025
  313.641 2137.460   47.642    0.359   19.656
  313.946 2149.610   48.261    0.356   19.296
  314.251 2141.570   47.053    0.361   19.663
  314.555 2147.670   43.417    0.367   20.035
  314.860 2163.860   42.210    0.370   19.667
  315.165 2131.590   42.220    0.357   20.418
  315.470 2085.200   44.060    0.351   20.421
  315.775 2081.200   44.070    0.354   20.045
  316.079 2097.400   42.870    0.355   20.812
  316.384 2113.580   42.874    0.361   20.814
  316.689 2139.870   42.892    0.363   20.817
  316.994 2137.890   43.507    0.366   21.213
  317.299 2117.740   45.348    0.367   20.823
  317.603 2113.740   45.968    0.363   20.441
  317.908 2113.780   45.370    0.360   20.065
  318.213 2115.830   44.166    0.361   19.698
  318.518 2105.780   44.179    0.373   19.336
  318.823 2101.790   44.799    0.379   19.339
  319.127 2107.890   44.811    0.381   19.341
  319.432 2118.010   42.995    0.380   18.986
  319.737 2116.040   41.787    0.374   18.989
  320.042 2110.020   39.974    0.366   18.992
  320.347 2110.050   38.158    0.364   19.352
  320.652 2112.110   37.565    0.362   19.355
  320.956 2106.100   41.226    0.359   19.358
  321.261 2112.190   46.720    0.352   19.361
  321.566 2118.300   47.951    0.339   19.005
  321.871 2122.380   46.745    0.339   19.008
  322.176 2126.440   45.534    0.346   19.010
  322.480 2128.500   42.503    0.357   19.012
  322.785 2120.460   41.297    0.360   18.663
  323.090 2126.560   42.531    0.363   18.665
  323.395 2142.750   42.540    0.357   18.668
  323.700 2126.640   41.941    0.348   18.327
  324.004 2118.600   40.741    0.345   18.328
  324.309 2114.610   40.139    0.347   18.330
  324.614 2112.630   41.367    0.353   18.332
  324.919 2118.730   43.208    0.359   18.336
  325.224 2128.860   43.223    0.360   18.338
  325.528 2134.950   43.838    0.360   18.001
  325.833 2130.950   44.462    0.360   18.004
  326.138 2114.840   45.087    0.358   18.006
  326.443 2062.390   45.095    0.358   17.676
  326.748 2066.460   44.494    0.361   17.679
  327.053 2104.860   44.506    0.365   18.014
  327.357 2137.210   43.913    0.361   18.016
  327.662 2143.300   43.920    0.359   18.020
  327.967 2135.270   44.541    0.365   17.688
  328.272 2153.480   46.990    0.366   17.691
  328.577 2161.590   47.608    0.368   17.693
  328.881 2129.330   47.622    0.368   17.697
  329.186 2119.280   46.417    0.360   17.371
  329.491 2111.230   47.652    0.359   17.373
  329.796 2072.910   48.271    0.362   17.375
  330.101 2054.790   48.889    0.366   17.378
  330.405 2091.160   48.290    0.371   17.380
  330.710 2123.510   46.476    0.372   17.061
  331.015 2107.400   46.489    0.372   16.747
  331.320 2097.340   47.111    0.368   16.751
  331.625 2107.480   48.339    0.366   16.444
  331.929 2101.450   50.782    0.364   16.446
  332.234 2067.170   51.402    0.367   16.448
  332.539 2065.190   50.806    0.373   16.450
  332.844 2109.650   50.214    0.380   16.453
  333.149 2111.710   50.220    0.383   16.455
  333.454 2113.770   51.453    0.383   16.152
  333.758 2095.640   54.505    0.376   16.154
  334.063 2081.540   57.560    0.374   15.857
  334.368 2071.500   55.747    0.376   15.859
  334.673 2075.560   53.934    0.381   15.569
  334.978 2101.850   53.337    0.385   15.570
  335.282 2134.190   54.566    0.378   15.572
  335.587 2112.020   53.971    0.376   15.005
  335.892 2095.930   53.979    0.384   14.728
  336.197 2095.950   52.776    0.398   13.928
  336.502 2112.140   50.350    0.407   13.171
  336.806 2148.520   52.189    0.405   13.173
  337.111 2148.570   53.419    0.399   13.424
  337.416 2126.400   52.824    0.380   13.679
  337.721 2108.260   52.836    0.375   13.938
  338.026 2130.510   54.066    0.370   14.202
  338.330 2104.310   54.077    0.369   14.472
  338.635 2094.240   52.260    0.370   14.475
  338.940 2126.590   54.706    0.375   14.477
  339.245 2064.040   52.891    0.380   14.211
  339.550 2047.920   49.860    0.381   14.212
  339.855 2068.150   53.523    0.384   13.694
  340.159 2116.650   58.407    0.389   12.710
  340.464 2173.230   57.203    0.398   11.154
  340.769 2219.700   59.650    0.399    9.608
  341.074 2227.820   63.922    0.398    8.277
  341.379 2183.440   66.979    0.406    7.401
  341.683 2199.640   68.814    0.430    6.495
  341.988 2215.830   72.479    0.429    4.819
  342.293 2213.850   77.361    0.439    3.999
  342.598 2205.810   81.633    0.435    3.444
  342.903 2163.440   84.079    0.424    3.445
  343.207 2139.250   85.308    0.402    3.644
  343.512 2173.620   81.668    0.383    4.475
  343.817 2214.040   73.158    0.380    7.137
  344.122 2113.120   64.648    0.382    8.603
  344.427 2101.050   61.006    0.382   12.734
  344.731 2119.260   61.020    0.380   12.736
  345.036 2103.150   62.859    0.374   12.271
  345.341 2072.900   62.870    0.368   11.605
  345.646 2097.170   60.448    0.361   12.047
  345.951 2123.460   58.025    0.350   15.075
  346.256 2147.720   57.426    0.327   16.863
  346.560 2658.580   57.440    0.289   16.248
  346.865 2598.050   58.056    0.129   15.949
  347.170 2483.000   58.678    0.182   14.530
  347.475 2206.430   59.908    0.283   12.285
  347.780 2119.660   61.746    0.389   10.006
  348.084 2145.940   67.845    0.401    7.998
  348.389 2166.180   74.551    0.409    6.276
  348.694 2160.150   80.046    0.431    5.112
  348.999 2113.750   79.445    0.428    5.018
  349.304 2117.830   73.369    0.418    4.657
  349.608 2160.270   69.731    0.419    4.087
  349.913 2198.670   74.002    0.436    2.335
  350.218 2277.460   83.755    0.449    1.765
  350.523 2289.620   93.506    0.471    1.549
  350.828 2297.730   93.517    0.473    1.521
  351.132 2285.650   87.442    0.462    1.867
  351.437 2267.520   92.935    0.461    2.663
  351.742 2277.650   95.381    0.462    2.870
  352.047 2303.940   96.006    0.466    2.664
  352.352 2318.110   96.012    0.465    2.472
  352.657 2326.230   94.807    0.461    2.473
  352.961 2241.480   92.991    0.457    2.615
  353.266 2239.500   95.441    0.456    2.715
  353.571 2271.830   98.495    0.439    3.037
  353.876 2300.140   98.505    0.428    3.398
  354.181 2298.170   93.647    0.418    3.946
  354.485 2275.990   85.745    0.416    4.668
  354.790 2211.420   82.104    0.415    5.421
  355.095 2219.550   79.685    0.404    6.179
  355.400 2231.700   77.260    0.398    6.912
  355.705 2235.770   76.058    0.394    7.733
