~VERSION INFORMATION
 VERS.                 2.0:   CWLS LOG ASCII STANDARD -VERSION 2.0
 WRAP.                  NO:   ONE LINE PER DEPTH STEP
~WELL INFORMATION BLOCK
#MNEM.UNIT           DATA                    DESCRIPTION OF MNEMONIC
#---------    -------------------            -------------------------------
# Generated from Intellog Unique Number	CN_91_93/WELL/3123
WELL.         10-29-092-17W4                 : Well_name    - WELL
LOC .         AA/10-29-092-17W4/0            : Location     - LOCATION
UWI .         AA/10-29-092-17W400            : Uwi          - UNIQUE WELL ID
ENTR.         JOETTE                         : Entered      - ENTERED BY
SRVC.         SCHLUMBERGER                   : Scn          - SERVICE COMPANY
DATE.         04/12/92                       : Date         - LOG DATE
STRT.F        250                            : top_depth    - START DEPTH
STOP.F        850.394                        : bot_depth    - STOP DEPTH
STEP.F        0.82                           : increment    - STEP LENGTH
 NULL. -999.2500:NULL Value
~CURVE INFORMATION BLOCK
#MNEM UNIT       ERCB CURVE CODE    CURVE DESCRIPTION
#-----------   ------------------   ----------------------------------
DEPT.F        00 001 00 00         : DEPTH        - DEPTH
CALI.IN       00 280 01 00         : CAL          - CALIPER
GR  .API      00 310 00 00         : GR           - GAMMA RAY
NPHI.V/V      00 330 00 00         : PHIN         - NEUTRON POROSITY (SANDSTONE)
DPHI.V/V      00 890 00 00         : PHID         - DENSITY POROSITY (SANDSTONE)
ILD .OHMM     00 120 00 00         : RESD         - DEEP RESISTIVITY (DIL)
~PARAMETER INFORMATION
#MNEM.UNIT           DATA             DESCRIPTION OF MNEMONIC
#---------         -----------     ------------------------------
GL  .M        512.6                : gl           - GROUND LEVEL ELEVATION
EREF.M        514.807              : kb           - ELEVATION OF DEPTH REFERENCE
DATM.M        514.807              : datum        - DATUM ELEVATION
TDD .M        270.358              : tdd          - TOTAL DEPTH DRILLER
RUN .         ONE                  : Run          - RUN NUMBER
ENG .         BILL                 : Engineer     - RECORDING ENGINEER
WIT .         JIM                  : Witness      - WITNESSED BY
MUD .         GEL                  : Mud_type     - MUD TYPE
MATR.         SANDSTONE            : Logunit      - NEUTRON MATRIX
TMAX.F        75                   : BHT          - MAXIMUM RECORDED TEMPERATURE
BHTD.F        887                  : BHTDEP       - MAXIMUM RECORDED TEMPERATURE
RMT .F        53                   : MDTP         - TEMPERATURE OF MUD
MUDD.LB/G     9.2                  : MWT          - MUD DENSITY
NEUT.         1                    : NEUTRON      - NEUTRON TYPE
RESI.         0                    : RESIST       - RESISTIVITY TYPE
RM  .OHMM     6.23                 : RM           - RESISTIVITY OF MUD
RMC .OHMM     6.23                 : RMC          - RESISTIVITY OF MUD CAKE
RMF .OHMM     6.23                 : RMF          - RESISTIVITY OF MUD FILTRATE
SUFT.F        39.2                 : SUFT         - SURFACE TEMPERATURE
~A  DEPTH      CAL       GR     PHIN     PHID     RESD
# ...
  729.003    5.953   48.236    0.432    0.284   64.829
  729.823    5.952   43.826    0.425    0.291   72.475
  730.643    5.952   38.160    0.423    0.307   85.688
  731.463    5.952   33.126    0.416    0.311   97.626
  732.283    5.992   28.087    0.390    0.308  109.165
  733.104    5.908   25.566    0.379    0.306  115.349
  733.924    5.949   24.298    0.371    0.305  117.402
  734.744    5.949   24.920    0.388    0.309  124.079
  735.564    5.990   25.540    0.401    0.318  131.164
  736.385    6.032   26.160    0.395    0.324  143.946
  737.205    6.073   26.779    0.394    0.318  173.442
  738.025    6.114   29.913    0.397    0.303  190.302
  738.845    6.155   31.159    0.411    0.298  208.801
  739.665    6.197   31.150    0.419    0.289  189.931
  740.486    6.238   31.144    0.406    0.303  163.363
  741.306    6.279   31.764    0.413    0.302  166.306
  742.126    6.320   33.638    0.414    0.291  193.018
  742.946    6.320   29.228    0.403    0.279  219.816
  743.766    6.403   31.107    0.395    0.283  232.318
  744.587    6.445   38.009    0.389    0.284  192.516
  745.407    6.528   39.260    0.462    0.294  165.587
  746.227    6.527   39.877    0.464    0.313  159.361
  747.047    6.611   39.240    0.459    0.321  168.424
  747.867    6.610   38.602    0.442    0.318  195.434
  748.688    6.609   39.224    0.440    0.313  210.453
  749.508    6.650   42.358    0.443    0.307  206.370
  750.328    6.650   48.004    0.442    0.290  161.671
  751.148    6.691   50.509    0.431    0.258  103.030
  751.969    6.691   53.017    0.421    0.251   85.360
  752.789    6.690   58.036    0.427    0.251   69.409
  753.609    6.689   59.284    0.436    0.267   56.438
  754.429    6.689   58.647    0.431    0.279   47.642
  755.249    6.311   52.981    0.408    0.287   42.542
  756.070    6.227   52.344    0.390    0.251   38.706
  756.890    6.226   56.733    0.390    0.241   34.555
  757.710    6.267   61.123    0.413    0.229   32.639
  758.530    6.267   65.516    0.417    0.228   28.073
  759.350    6.266   65.508    0.419    0.234   23.698
  760.171    6.056   54.186    0.453    0.246   28.024
  760.991    5.972   47.261    0.446    0.267   41.491
  761.811    5.971   44.110    0.425    0.279   49.066
  762.631    5.970   49.758    0.426    0.287   53.847
  763.451    5.970   53.520    0.433    0.278   61.336
  764.272    5.969   53.511    0.442    0.283   62.441
  765.092    5.969   52.872    0.446    0.270   56.810
  765.912    5.968   52.234    0.442    0.229   47.047
  766.732    5.968   52.854    0.427    0.255   42.814
  767.552    6.051   52.846    0.411    0.262   36.825
  768.373    6.092   55.353    0.414    0.250   30.503
  769.193    6.176   57.227    0.425    0.244   27.758
  770.013    6.301   55.962    0.447    0.259   23.875
  770.833    6.342   54.067    0.441    0.249   22.133
  771.654    6.341   53.430    0.466    0.287   20.905
  772.474    6.341   54.676    0.493    0.324   20.887
  773.294    6.340   56.557    0.517    0.346   22.066
  774.114    6.381   60.946    0.546    0.367   24.216
  774.934    6.632   65.339    0.564    0.414   22.873
  775.755    7.302   70.358    0.580    0.400   17.915
  776.575    7.511   76.004    0.590    0.284   12.540
  777.395    6.882   80.397    0.582    0.216   10.586
  778.215    6.588   88.558    0.568    0.143   10.575
  779.035    6.461  100.491    0.519    0.141   10.565
  779.856    6.461  106.768    0.412    0.154   10.168
  780.676    6.461   86.016    0.412    0.168   10.159
  781.496    6.460   80.977    0.408    0.195   11.575
  782.316    6.459   83.484    0.386    0.216   16.819
  783.136    6.459   87.247    0.383    0.222   18.112
  783.957    6.500   92.266    0.388    0.211   21.021
  784.777    6.541   96.028    0.392    0.195   23.500
  785.597    6.583  101.676    0.422    0.184   20.595
  786.417    6.582   90.354    0.423    0.183   18.045
  787.238    6.581   90.343    0.384    0.200   20.559
  788.058    6.581   93.479    0.368    0.204   23.419
  788.878    6.454  103.526    0.373    0.201   23.841
  789.698    6.412  104.772    0.380    0.201   22.514
  790.518    6.328  105.394    0.423    0.210   21.270
  791.339    6.243   94.073    0.424    0.201   19.718
  792.159    6.201   88.407    0.411    0.212   32.059
  792.979    6.200   78.342    0.394    0.254   38.628
  793.799    6.200   74.562    0.385    0.259   49.233
  794.619    6.283   73.295    0.382    0.228   54.019
  795.440    6.282   72.655    0.380    0.222   53.960
  796.260    6.407   68.877    0.379    0.217   51.943
  797.080    6.490   71.381    0.372    0.214   47.258
  797.900    6.532   75.145    0.358    0.203   42.199
  798.720    6.531   80.793    0.351    0.190   34.313
  799.541    6.573   92.726    0.354    0.177   22.702
  800.361    6.572  106.544    0.367    0.135   19.164
  801.181    6.571  111.563    0.379    0.138   14.728
  802.001    6.571  107.783    0.452    0.151   13.151
  802.822    6.570   96.462    0.464    0.117   12.657
  803.642    6.821   91.425    0.474    0.106   13.377
  804.462    6.779   87.645    0.489    0.230   14.680
  805.282    6.527   90.776    0.417    0.216   16.718
  806.102    6.484   92.653    0.393    0.195   19.044
  806.923    6.483   91.390    0.394    0.203   18.328
  807.743    6.525   90.124    0.416    0.219   17.639
  808.563    6.524   94.513    0.406    0.229   17.627
  809.383    6.566   98.277    0.373    0.214   17.945
  810.203    6.607  105.182    0.382    0.205   17.270
  811.024    6.732  103.916    0.393    0.196   12.785
  811.844    6.899  101.391    0.413    0.236   10.790
  812.664    7.024  103.268    0.432    0.232   11.195
  813.484    6.604  104.516    0.431    0.199   11.831
  814.304    6.604  104.505    0.419    0.153   11.819
  815.125    6.687  102.611    0.405    0.187   11.163
  815.945    6.728   98.205    0.388    0.199   11.364
  816.765    6.812   86.254    0.387    0.216   13.192
  817.585    6.769   91.273    0.394    0.235   15.601
  818.406    6.685   90.005    0.398    0.246   17.771
  819.226    6.600   88.113    0.388    0.247   19.498
  820.046    6.600   92.504    0.381    0.218   20.220
  820.866    6.557   95.638    0.375    0.133   19.099
  821.686    6.557  102.541    0.372    0.112   18.044
  822.507    6.556  108.819    0.378    0.123   16.413
  823.327    6.597  111.953    0.371    0.150   15.503
  824.147    6.597  106.914    0.358    0.176   14.923
  824.967    6.638   99.365    0.360    0.202   14.627
  825.787    6.637   95.583    0.372    0.213   14.898
  826.608    6.637   96.831    0.387    0.204   16.039
  827.428    6.636   94.939    0.394    0.213   17.268
  828.248    6.594   82.989    0.437    0.233   17.919
  829.068    6.593   89.261    0.408    0.227   18.938
  829.888    6.593   92.397    0.386    0.144   18.571
  830.709    6.550   90.502    0.366    0.111   16.582
  831.529    6.550   74.781    0.369    0.093   13.736
  832.349    6.423   66.602    0.366    0.077   11.375
  833.169    6.255   55.280    0.254    0.078   10.952
  833.990    6.087   21.960    0.115    0.083   27.399
  834.810    6.128   11.265    0.084    0.092  235.926
  835.630    6.169   10.625    0.088    0.100  842.464
  836.450    6.252   10.621    0.093    0.109 1319.100
  837.270    6.252    9.984    0.098    0.117 1342.870
  838.091    6.293    9.968    0.104    0.129 1268.680
  838.911    6.377   10.590    0.110    0.136  993.672
  839.731    6.418   10.582    0.121    0.145  778.109
  840.551    6.417   11.201    0.129    0.162 1130.890
  841.371    6.417   11.193    0.142    0.163 1264.280
  842.192    6.416   11.186    0.161    0.167 1439.810
  843.012    6.373   10.544    0.173    0.168 1580.120
  843.832    6.373   10.540    0.172    0.168 1608.590
  844.652    6.372    8.643    0.169    0.172 1357.910
  845.472    6.414    7.375    0.172    0.177 1083.430
  846.293    6.497    7.371    0.181    0.180  985.729
  847.113    6.496    6.734    0.151    0.145 1187.720
  847.933    6.454    5.468    0.118    0.114 1601.280
