~VERSION INFORMATION
 VERS.                 2.0:   CWLS LOG ASCII STANDARD -VERSION 2.0
 WRAP.                  NO:   ONE LINE PER DEPTH STEP
~WELL INFORMATION BLOCK
#MNEM.UNIT           DATA                    DESCRIPTION OF MNEMONIC
#---------    -------------------            -------------------------------
# Generated from Intellog Unique Number	CN_91_93/WELL/1077
WELL.         10-11-091-16W4                 : Well_name    - WELL
LOC .         AA/10-11-091-16W4/0            : Location     - LOCATION
UWI .         AA/10-11-091-16W400            : Uwi          - UNIQUE WELL ID
ENTR.         JOETTE                         : Entered      - ENTERED BY
SRVC.         SCHLUMBERGER                   : Scn          - SERVICE COMPANY
STRT.F        213.255                        : top_depth    - START DEPTH
STOP.F        787.402                        : bot_depth    - STOP DEPTH
STEP.F        0.82                           : increment    - STEP LENGTH
 NULL. -999.2500:NULL Value
~CURVE INFORMATION BLOCK
#MNEM UNIT       ERCB CURVE CODE    CURVE DESCRIPTION
#-----------   ------------------   ----------------------------------
DEPT.F        00 001 00 00         : DEPTH        - DEPTH
GR  .API      00 310 00 00         : GR           - GAMMA RAY
DPHI.V/V      00 890 00 00         : PHID         - DENSITY POROSITY (SANDSTONE)
NPHI.V/V      00 330 00 00         : PHIN         - NEUTRON POROSITY (SANDSTONE)
CALI.IN       00 280 01 00         : CAL          - CALIPER
ILD .OHMM     00 120 00 00         : RESD         - DEEP RESISTIVITY (DIL)
~PARAMETER INFORMATION
#MNEM.UNIT           DATA             DESCRIPTION OF MNEMONIC
#---------         -----------     ------------------------------
GL  .M        490.58               : gl           - GROUND LEVEL ELEVATION
EREF.M        493.87               : kb           - ELEVATION OF DEPTH REFERENCE
DATM.M        493.87               : datum        - DATUM ELEVATION
TDD .M        246                  : tdd          - TOTAL DEPTH DRILLER
RUN .         ONE                  : Run          - RUN NUMBER
ENG .         BILL                 : Engineer     - RECORDING ENGINEER
WIT .         JIM                  : Witness      - WITNESSED BY
MUD .         GEL                  : Mud_type     - MUD TYPE
MATR.         SANDSTONE            : Logunit      - NEUTRON MATRIX
TMAX.F        140                  : BHT          - MAXIMUM RECORDED TEMPERATURE
BHTD.F        6797.9               : BHTDEP       - MAXIMUM RECORDED TEMPERATURE
RMT .F        77                   : MDTP         - TEMPERATURE OF MUD
MUDD.LB/G     9.66666              : MWT          - MUD DENSITY
NEUT.         1                    : NEUTRON      - NEUTRON TYPE
RESI.         0                    : RESIST       - RESISTIVITY TYPE
RM  .OHMM     8.75                 : RM           - RESISTIVITY OF MUD
RMC .OHMM     0.25                 : RMC          - RESISTIVITY OF MUD CAKE
RMF .OHMM     6.25                 : RMF          - RESISTIVITY OF MUD FILTRATE
SUFT.F        39.2                 : SUFT         - SURFACE TEMPERATURE
~A  DEPTH       GR     PHID     PHIN      CAL     RESD
# ...
  572.507  100.873    0.120    0.405    8.507    9.847
  573.327  106.865    0.144    0.425    8.525    9.150
  574.147  107.459    0.161    0.440    8.601    8.502
  574.967  110.152    0.213    0.437    8.620    9.232
  575.787  111.347    0.207    0.423    8.639    9.663
  576.608  109.844    0.209    0.427    8.695    9.751
  577.428  106.541    0.211    0.430    8.849    9.313
  578.248  105.937    0.208    0.415    9.021    9.059
  579.068  104.733    0.210    0.412    9.155    9.396
  579.888   97.832    0.213    0.424    9.174    8.974
  580.709   88.832    0.200    0.410    9.173   10.201
  581.529   82.231    0.192    0.377    9.173   12.945
  582.349   79.529    0.213    0.364    9.171   14.316
  583.169   73.528    0.240    0.360    9.132   15.545
  583.990   64.229    0.282    0.372    9.074   17.035
  584.810   57.028    0.292    0.383    9.015   19.187
  585.630   51.327    0.300    0.356    9.111   21.811
  586.450   45.626    0.308    0.350    9.187   25.956
  587.270   45.322    0.317    0.350    9.340   29.238
  588.091   49.215    0.325    0.357    9.551   42.179
  588.911   48.310    0.332    0.368    9.878   69.181
  589.731   44.708    0.339    0.367   10.589  126.659
  590.551   42.604    0.347    0.410   11.416  159.254
  591.371   41.399    0.336    0.423   11.819  165.176
  592.192   41.096    0.330    0.436   12.223  152.078
  593.012   41.091    0.315    0.460   12.588  131.317
  593.832   43.485    0.328    0.484   13.087  119.801
  594.652   47.077    0.331    0.519   13.490  108.297
  595.472   47.672    0.339    0.541   13.567   99.709
  596.293   48.267    0.339    0.537   13.682   91.801
  597.113   49.762    0.339    0.517   13.739   97.867
  597.933   51.855    0.337    0.496   13.739  102.446
  598.753   53.349    0.350    0.469   13.775  103.376
  599.573   53.945    0.358    0.464   13.813   92.597
  600.394   53.940    0.349    0.497   13.813   74.988
  601.214   54.236    0.338    0.482   13.677   64.750
  602.034   54.831    0.325    0.445   13.561   54.895
  602.854   55.725    0.311    0.456   13.483   45.695
  603.675   56.619    0.298    0.457   13.271   39.820
  604.495   56.914    0.292    0.451   12.808   33.452
  605.315   58.709    0.319    0.439   12.442   25.174
  606.135   62.301    0.319    0.433   12.230   21.540
  606.955   62.297    0.314    0.446   12.056   17.766
  607.776   60.194    0.312    0.460   11.747   13.248
  608.596   60.489    0.302    0.467   11.611    9.437
  609.416   64.082    0.305    0.444   11.264   10.629
  610.236   64.377    0.291    0.421   10.840   13.122
  611.056   64.671    0.291    0.415   10.589   15.905
  611.877   67.665    0.305    0.431   10.146   12.416
  612.697   73.057    0.294    0.465    9.876    8.926
  613.517   79.948    0.241    0.320    9.452    5.963
  614.337   85.340    0.130    0.336    9.297    4.170
  615.157   91.332    0.166    0.408    9.181    3.440
  615.978   99.422    0.223    0.482    9.007    3.053
  616.798  114.408    0.248    0.506    8.891    2.970
  617.618  111.406    0.258    0.510    8.813    2.862
  618.438  109.002    0.253    0.531    8.812    2.969
  619.259  110.496    0.255    0.541    8.850    3.194
  620.079  102.696    0.267    0.527    8.715    3.664
  620.899   98.195    0.250    0.482    8.310    5.434
  621.719   88.295    0.228    0.432    8.117    7.984
  622.539   84.394    0.223    0.375    8.020   10.039
  623.360   77.493    0.238    0.347    8.020   10.508
  624.180   64.895    0.303    0.336    7.903   10.411
  625.000   63.092    0.324    0.360    7.671    9.943
  625.820   62.787    0.349    0.392    7.497    9.410
  626.640   59.485    0.310    0.416    7.419    8.905
  627.461   54.983    0.304    0.385    7.380    8.904
  628.281   55.278    0.303    0.356    7.380    8.985
  629.101   58.871    0.297    0.355    7.417    9.579
  629.921   64.562    0.298    0.377    7.494    9.844
  630.741   66.656    0.308    0.401    7.628   10.025
  631.562   68.151    0.303    0.423    7.742   10.591
  632.382   73.243    0.294    0.457    7.876   11.395
  633.202   78.035    0.295    0.456    8.049   13.072
  634.022   70.536    0.300    0.412    8.164   15.274
  634.843   64.535    0.305    0.397    8.298   20.856
  635.663   60.633    0.315    0.402    8.431   23.278
  636.483   55.230    0.308    0.401    8.508   32.671
  637.303   56.125    0.309    0.392    8.565   41.457
  638.123   53.123    0.315    0.387    8.603   49.790
  638.944   49.820    0.318    0.393    8.525   55.571
  639.764   51.314    0.322    0.405    8.466   54.554
  640.584   51.310    0.327    0.415    8.427   49.316
  641.404   51.004    0.329    0.417    8.426   41.809
  642.224   53.099    0.323    0.400    8.445   35.773
  643.045   54.293    0.307    0.391    8.483   29.236
  643.865   52.189    0.302    0.406    8.540   27.668
  644.685   50.985    0.301    0.390    8.540   27.162
  645.505   50.981    0.296    0.375    8.596   32.030
  646.325   51.876    0.300    0.387    8.653   36.745
  647.146   50.072    0.313    0.399    8.710   38.463
  647.966   48.569    0.319    0.394    8.786   35.739
  648.786   51.861    0.330    0.398    8.863   28.943
  649.606   56.354    0.315    0.402    8.958   19.335
  650.427   61.446    0.299    0.385    9.053   12.799
  651.247   65.939    0.305    0.373    9.111    9.900
  652.067   70.131    0.306    0.395    9.187    8.018
  652.887   75.224    0.292    0.412    9.225    7.728
  653.707   76.418    0.280    0.442    9.166    8.704
  654.528   60.523    0.289    0.459    9.146   11.563
  655.348   55.421    0.300    0.468    9.088   14.539
  656.168   49.720    0.306    0.424    9.125   17.948
  656.988   47.017    0.318    0.387    9.163   22.567
  657.808   47.312    0.328    0.402    9.259   53.404
  658.629   50.906    0.329    0.405    9.354   33.768
  659.449   55.398    0.331    0.400    9.430   21.746
  660.269   61.090    0.318    0.398    9.411   14.133
  661.089   65.283    0.291    0.401    9.410    9.355
  661.909   70.375    0.278    0.412    9.313    9.268
  662.730   78.465    0.263    0.418    9.024    9.791
  663.550   82.657    0.259    0.427    8.599   14.126
  664.370   82.952    0.244    0.418    8.060   18.937
  665.190   81.449    0.239    0.389    7.790   25.388
  666.010   77.245    0.247    0.368    7.481   35.308
  666.831   74.843    0.246    0.348    7.230   47.334
  667.651   71.241    0.279    0.326    6.999   53.809
  668.471   67.938    0.293    0.328    6.748   63.452
  669.291   67.933    0.305    0.332    6.554   61.721
  670.112   71.526    0.319    0.315    6.438   54.783
  670.932   75.418    0.316    0.333    6.361   37.617
  671.752   77.813    0.303    0.333    6.263   31.601
  672.572   80.507    0.285    0.335    6.224   30.739
  673.392   81.701    0.280    0.343    6.224   37.602
  674.213   80.497    0.285    0.348    6.224   42.354
  675.033   75.995    0.293    0.348    6.241   40.823
  675.853   68.495    0.298    0.350    6.260   38.634
  676.673   66.691    0.305    0.340    6.260   40.440
  677.493   69.085    0.302    0.341    6.297   40.440
  678.314   66.682    0.310    0.354    6.354   41.557
  679.134   63.679    0.321    0.343    6.430   47.240
  679.954   60.377    0.325    0.342    6.526   44.705
  680.774   58.872    0.319    0.347    6.679   43.887
  681.594   58.568    0.308    0.350    6.851   45.940
  682.415   60.062    0.311    0.349    7.005   44.279
  683.235   62.756    0.310    0.356    7.119   38.942
  684.055   65.150    0.301    0.368    7.119   33.936
  684.875   66.044    0.287    0.385    7.195   27.734
  685.696   64.240    0.292    0.402    7.310   25.535
  686.516   62.437    0.298    0.397    7.348   24.839
  687.336   67.529    0.296    0.392    7.348   25.064
  688.156   64.526    0.286    0.397    7.365   25.525
  688.976   59.724    0.283    0.406    7.345   26.964
  689.797   54.023    0.296    0.400    7.325   29.279
  690.617   48.922    0.302    0.384    7.286   33.283
  691.437   46.818    0.313    0.380    7.228   42.623
