~VERSION INFORMATION
 VERS.                 2.0:   CWLS LOG ASCII STANDARD -VERSION 2.0
 WRAP.                  NO:   ONE LINE PER DEPTH STEP
~WELL INFORMATION BLOCK
#MNEM.UNIT           DATA                    DESCRIPTION OF MNEMONIC
#---------    -------------------            -------------------------------
# Generated from Intellog Unique Number	CC_80_83/WELL/2347
NULL.         -999.25                        : NULL_VALUE
WELL.         ARCO ACI MCMURRAY OV           : Well_name    - WELL
LOC .         10-11-080-11W4                 : Location     - LOCATION          
UWI .         AA/10-11-080-11W400            : Uwi          - UNIQUE WELL ID    
ENTR.         DW                             : Entered      - ENTERED BY        
SRVC.         SCHLUMBERGER                   : Scn          - SERVICE COMPANY   
DATE.         05 FEB 76                      : Date         - LOG DATE
STRT.M        249.936                        : top_depth    - START DEPTH       
STOP.M        474.885                        : bot_depth    - STOP DEPTH        
STEP.M        0.305                          : increment    - STEP LENGTH       
~CURVE INFORMATION BLOCK
#MNEM UNIT       ERCB CURVE CODE    CURVE DESCRIPTION
#-----------   ------------------   ----------------------------------
DEPT.M        00 001 00 00         : DEPTH        - DEPTH                       
RHOB.KG/M3    00 350 00 00         : DENS         - BULK DENSITY                
GR  .API      00 310 00 00         : GR           - GAMMA RAY                   
NPHI.V/V      00 330 00 00         : PHIN         - NEUTRON POROSITY (LIMESTONE)
ILD .OHMM     00 120 00 00         : RESD         - DEEP RESISTIVITY (DIL)      
~PARAMETER INFORMATION       
#MNEM.UNIT           DATA             DESCRIPTION OF MNEMONIC
#---------         -----------     ------------------------------
GL  .M        686.105              : gl           - GROUND LEVEL ELEVATION      
EREF.M        689.153              : kb           - ELEVATION OF DEPTH REFERENCE
DATM.M        689.153              : datum        - DATUM ELEVATION             
TDD .M        474.878              : tdd          - TOTAL DEPTH DRILLER         
RUN .         ONE                  : Run          - RUN NUMBER                  
ENG .         BILL                 : Engineer     - RECORDING ENGINEER          
WIT .         JIM                  : Witness      - WITNESSED BY                
MUD .         GEL                  : Mud_type     - MUD TYPE                    
MATR.         LIMESTONE            : Logunit      - NEUTRON MATRIX              
TMAX.C        21.1111              : BHT          - MAXIMUM RECORDED TEMPERATURE
BHTD.M        474.878              : BHTDEP       - MAXIMUM RECORDED TEMPERATURE
MATR.         1                    : LOGUNIT      - NEUTRON MATRIX              
RMT .C        25                   : MDTP         - TEMPERATURE OF MUD          
NEUT.         0                    : NEUTRON      - NEUTRON TYPE                
RESI.         0                    : RESIST       - RESISTIVITY TYPE            
RMC .OHMM     0.25                 : RMC          - RESISTIVITY OF MUD CAKE     
RMF .OHMM     0.25                 : RMF          - RESISTIVITY OF MUD FILTRATE 
SUFT.C        15                   : SUFT         - SURFACE TEMPERATURE         
~A  DEPTH     DENS       GR     PHIN     RESD
  249.936 2302.860   85.353    0.453    3.123
  250.241 2282.720   85.362    0.459    3.123
  250.546 2266.590   85.982    0.464    3.124
  250.850 2250.480   89.040    0.475    3.124
  251.155 2260.620   90.266    0.480    3.125
  251.460 2278.830   87.237    0.471    3.244
  251.765 2276.850   84.813    0.459    3.368
  252.070 2260.750   86.041    0.453    3.698
  252.374 2266.830   89.710    0.458    3.630
  252.679 2317.350   90.938    0.464    3.563
  252.984 2307.290   90.338    0.469    3.370
  253.289 2297.250   86.091    0.469    3.247
  253.594 2295.260   85.491    0.466    3.187
  253.898 2283.190   87.942    0.459    3.129
  254.203 2275.150   89.779    0.451    3.129
  254.508 2275.190   89.788    0.461    3.189
  254.813 2277.240   88.585    0.464    3.310
  255.118 2279.300   85.553    0.438    3.501
  255.422 2283.380   83.126    0.428    3.703
  255.727 2307.650   78.271    0.423    3.704
  256.032 2327.880   75.241    0.420    3.918
  256.337 2283.490   72.814    0.409    4.549
  256.642 2216.900   70.390    0.394    5.909
  256.946 2176.570   69.184    0.374    6.991
  257.251 2158.440   69.805    0.367    9.426
  257.556 2150.400   62.514    0.364   12.243
  257.861 2150.440   60.700    0.364   13.443
  258.166 2152.490   63.148    0.365   13.196
  258.470 2158.590   66.811    0.369   11.799
  258.775 2184.880   69.256    0.373    9.432
  259.080 2219.240   75.355    0.387    7.401
  259.385 2237.460   80.237    0.390    6.495
  259.690 2267.780   83.904    0.389    5.917
  259.994 2298.110   83.915    0.383    5.918
  260.299 2334.490   80.275    0.378    6.498
  260.604 2338.560   76.634    0.381    6.873
  260.909 2296.200   73.600    0.396    9.619
  261.214 2124.620   79.092    0.427   12.037
  261.518 1981.310   87.016    0.529   12.265
  261.823 1833.960  129.639    0.559    9.805
  262.128 1866.300  140.611    0.566    7.411
  262.433 1941.050  131.490    0.553    6.384
  262.738 2013.770  122.370    0.457    6.037
  263.043 2197.540   95.597    0.338    6.629
  263.347 2308.630   80.999    0.337    7.278
  263.652 2314.720   65.793    0.338    9.631
  263.957 2278.420   59.716    0.341   13.734
  264.262 2177.510   48.162    0.341   17.839
  264.567 2169.490   42.695    0.334   18.869
  264.871 2169.520   44.535    0.336   18.180
  265.176 2163.490   48.197    0.342   16.256
  265.481 2139.310   53.078    0.346   15.088
  265.786 2119.170   59.180    0.352   14.004
  266.091 2109.100   64.062    0.355   14.271
  266.395 2103.080   67.115    0.352   15.095
  266.700 2113.220   71.392    0.331   17.204
  267.005 2123.350   72.011    0.310   18.540
  267.310 2111.270   72.021    0.286   18.200
  267.615 2173.900   56.205    0.180   17.211
  267.919 2311.240   47.086    0.158   15.389
  268.224 2327.430   57.446    0.238   13.011
  268.529 2240.660   79.983    0.340   11.419
  268.834 2266.950   81.820    0.357   11.421
  269.139 2275.050   76.962    0.365   12.540
  269.444 2188.270   61.754    0.369   13.264
  269.748 2135.820   57.508    0.377   15.117
  270.053 2123.750   58.737    0.377   18.222
  270.358 2143.980   62.403    0.370   19.638
  270.663 2162.190   66.675    0.377   20.011
  270.968 2178.380   70.944    0.378   20.014
  271.272 2152.170   75.221    0.376   20.016
  271.577 2109.820   75.839    0.378   18.928
  271.882 2109.850   81.333    0.376   17.569
  272.187 2128.070   83.168    0.369   17.246
  272.492 2122.050   80.746    0.373   16.617
  272.796 2124.110   75.888    0.381   16.619
  273.101 2142.320   74.683    0.388   16.013
  273.406 2160.520   75.913    0.389   15.718
  273.711 2162.580   76.532    0.383   15.429
  274.016 2190.890   74.107    0.374   14.592
  274.320 2203.040   73.510    0.372   14.869
  274.625 2223.270   81.436    0.367   14.871
  274.930 2265.710   78.406    0.359   14.873
  275.235 2265.750   72.331    0.345   14.600
  275.540 2271.840   68.079    0.344   14.066
  275.845 2281.990   77.222    0.351   13.302
  276.149 2269.920   80.278    0.350   12.347
  276.454 2276.000   80.289    0.350   10.635
  276.759 2312.380   84.566    0.356    8.663
  277.064 2320.500   86.399    0.388    7.746
  277.369 2328.610   94.326    0.394    7.056
  277.673 2411.430   99.817    0.391    6.309
  277.978 2399.360  101.653    0.389    5.748
  278.283 2443.810   98.013    0.398    5.335
  278.588 2399.440   93.765    0.419    4.860
  278.893 2274.300   99.863    0.427    4.596
  279.197 2340.960  107.788    0.436    4.187
  279.502 2452.050   99.888    0.442    3.815
  279.807 2381.420   97.467    0.448    3.541
  280.112 2377.430  101.130    0.450    3.225
  280.417 2314.870  104.796    0.452    3.542
  280.721 2254.340  105.415    0.443    4.865
  281.026 2244.300  103.599    0.418    7.337
  281.331 2236.250   97.526    0.394    9.892
  281.636 2222.160   91.449    0.380   13.090
  281.941 2218.160   81.111    0.376   13.846
  282.246 2230.310   78.081    0.375   14.109
  282.550 2226.320   76.266    0.375   13.343
  282.855 2218.280   76.884    0.377   13.097
  283.160 2200.140   81.159    0.389   11.932
  283.465 2117.400   81.173    0.399   11.075
  283.770 2125.520   79.967    0.389    9.903
  284.074 2214.390   80.590    0.389    8.855
  284.379 2281.060   83.643    0.399    7.771
  284.684 2319.460   88.522    0.409    6.449
  284.989 2347.770   94.016    0.411    6.571
  285.294 2347.810   96.463    0.393    6.696
  285.598 2319.590   97.691    0.370    7.490
  285.903 2297.420   97.701    0.359    9.029
  286.208 2208.620   94.060    0.359   10.485
  286.513 2186.450   89.814    0.365   11.729
  286.818 2164.280   87.388    0.371   12.879
  287.122 2123.940   80.095    0.371   12.880
  287.427 2154.260   73.408    0.365   12.644
  287.732 2188.620   72.204    0.362   12.182
  288.037 2214.900   80.130    0.363   10.494
  288.342 2247.250   83.793    0.368    9.383
  288.647 2237.190   86.241    0.377    9.211
  288.951 2219.060   85.034    0.383    9.386
  289.256 2089.880   72.261    0.400   10.305
  289.561 2091.940   77.145    0.416   12.422
  289.866 2142.460   70.460    0.372   14.696
  290.171 2150.570   64.384    0.361   17.066
  290.475 2176.860   64.397    0.357   18.052
  290.780 2191.030   64.410    0.354   18.054
  291.085 2154.730   63.206    0.349   16.758
  291.390 2148.710   61.393    0.344   16.145
  291.695 2146.730   61.402    0.340   15.268
  291.999 2154.850   65.674    0.336   16.150
  292.304 2187.200   65.076    0.328   18.067
  292.609 2195.300   59.612    0.313   19.111
  292.914 2471.960   57.795    0.159   19.112
  293.219 2643.610   58.417    0.195   16.159
  293.523 2375.120   60.862    0.334   13.161
  293.828 2247.960   70.613    0.369   11.768
  294.133 2231.850   80.973    0.375    9.950
  294.438 2227.850   85.250    0.376    9.586
  294.743 2244.040   84.656    0.379    9.410
  295.048 2234.010   84.055    0.381    9.237
  295.352 2227.970   81.631    0.388    9.239
  295.657 2185.600   76.772    0.388    9.414
  295.962 2169.500   76.784    0.382    9.773
  296.267 2191.740   79.842    0.379    9.959
  296.572 2220.050   82.288    0.370   10.148
  296.876 2252.400   80.473    0.369   10.150
  297.181 2264.550   78.048    0.368    9.963
  297.486 2280.740   84.149    0.370    9.077
  297.791 2296.930   85.380    0.384    8.583
  298.096 2301.000   81.127    0.387    7.533
  298.400 2297.020   81.139    0.389    7.258
  298.705 2297.050   86.631    0.388    7.259
  299.010 2262.760   89.076    0.388    7.678
  299.315 2147.710   87.873    0.386    8.121
  299.620 2117.470   82.404    0.381    9.790
  299.924 2155.870   79.981    0.377   10.749
  300.229 2180.140   76.950    0.375   12.483
  300.534 2093.360   71.481    0.371   13.452
  300.839 2137.830   63.580    0.371   15.049
  301.144 2162.090   56.286    0.368   15.334
  301.449 2143.950   52.646    0.357   16.837
  301.753 2125.830   57.527    0.360   17.479
  302.058 2135.960   60.587    0.373   18.147
  302.363 2148.110   59.988    0.379   18.491
  302.668 2123.930   57.564    0.369   18.494
