~VERSION INFORMATION
 VERS.                 2.0:   CWLS LOG ASCII STANDARD -VERSION 2.0
 WRAP.                  NO:   ONE LINE PER DEPTH STEP
~WELL INFORMATION BLOCK
#MNEM.UNIT           DATA                    DESCRIPTION OF MNEMONIC
#---------    -------------------            -------------------------------
# Generated from Intellog Unique Number	CN_91_93/WELL/3123
WELL.         10-29-092-17W4                 : Well_name    - WELL
LOC .         AA/10-29-092-17W4/0            : Location     - LOCATION
UWI .         AA/10-29-092-17W400            : Uwi          - UNIQUE WELL ID
ENTR.         JOETTE                         : Entered      - ENTERED BY
SRVC.         SCHLUMBERGER                   : Scn          - SERVICE COMPANY
DATE.         04/12/92                       : Date         - LOG DATE
STRT.F        250                            : top_depth    - START DEPTH
STOP.F        850.394                        : bot_depth    - STOP DEPTH
STEP.F        0.82                           : increment    - STEP LENGTH
 NULL. -999.2500:NULL Value
~CURVE INFORMATION BLOCK
#MNEM UNIT       ERCB CURVE CODE    CURVE DESCRIPTION
#-----------   ------------------   ----------------------------------
DEPT.F        00 001 00 00         : DEPTH        - DEPTH
CALI.IN       00 280 01 00         : CAL          - CALIPER
GR  .API      00 310 00 00         : GR           - GAMMA RAY
NPHI.V/V      00 330 00 00         : PHIN         - NEUTRON POROSITY (SANDSTONE)
DPHI.V/V      00 890 00 00         : PHID         - DENSITY POROSITY (SANDSTONE)
ILD .OHMM     00 120 00 00         : RESD         - DEEP RESISTIVITY (DIL)
~PARAMETER INFORMATION
#MNEM.UNIT           DATA             DESCRIPTION OF MNEMONIC
#---------         -----------     ------------------------------
GL  .M        512.6                : gl           - GROUND LEVEL ELEVATION
EREF.M        514.807              : kb           - ELEVATION OF DEPTH REFERENCE
DATM.M        514.807              : datum        - DATUM ELEVATION
TDD .M        270.358              : tdd          - TOTAL DEPTH DRILLER
RUN .         ONE                  : Run          - RUN NUMBER
ENG .         BILL                 : Engineer     - RECORDING ENGINEER
WIT .         JIM                  : Witness      - WITNESSED BY
MUD .         GEL                  : Mud_type     - MUD TYPE
MATR.         SANDSTONE            : Logunit      - NEUTRON MATRIX
TMAX.F        75                   : BHT          - MAXIMUM RECORDED TEMPERATURE
BHTD.F        887                  : BHTDEP       - MAXIMUM RECORDED TEMPERATURE
RMT .F        53                   : MDTP         - TEMPERATURE OF MUD
MUDD.LB/G     9.2                  : MWT          - MUD DENSITY
NEUT.         1                    : NEUTRON      - NEUTRON TYPE
RESI.         0                    : RESIST       - RESISTIVITY TYPE
RM  .OHMM     6.23                 : RM           - RESISTIVITY OF MUD
RMC .OHMM     6.23                 : RMC          - RESISTIVITY OF MUD CAKE
RMF .OHMM     6.23                 : RMF          - RESISTIVITY OF MUD FILTRATE
SUFT.F        39.2                 : SUFT         - SURFACE TEMPERATURE
~A  DEPTH      CAL       GR     PHIN     PHID     RESD
# ...
  369.751    9.187  104.293    0.564    0.308    2.814
  370.571    9.857  101.768    0.578    0.305    2.864
  371.391    9.438  104.902    0.601    0.272    2.808
  372.211    8.934  102.381    0.606    0.258    2.652
  373.031    9.101  100.487    0.610    0.301    2.601
  373.852    9.268   99.848    0.608    0.305    2.551
  374.672    9.226   99.210    0.605    0.299    2.548
  375.492    9.225   97.316    0.619    0.307    2.546
  376.312    9.182   95.422    0.617    0.302    2.544
  377.133    9.014   93.528    0.605    0.335    2.542
  377.953    8.972   92.262    0.608    0.331    2.540
  378.773    9.055   96.020    0.612    0.336    2.538
  379.593    9.013   97.272    0.617    0.347    2.582
  380.413    9.138   98.520    0.624    0.342    2.581
  381.234    8.886  101.026    0.595    0.318    2.727
  382.054    8.550  104.157    0.586    0.308    2.830
  382.874    8.256  104.151    0.582    0.291    2.991
  383.694    8.172   96.598    0.579    0.271    3.281
  384.514    7.417   92.818    0.580    0.261    3.599
  385.335    7.374   90.295    0.584    0.243    3.734
  386.155    7.416   89.031    0.588    0.209    3.873
  386.975    7.499   90.280    0.580    0.231    3.797
  387.795    7.582   93.413    0.552    0.248    3.795
  388.615    7.665   94.033    0.530    0.265    3.935
  389.436    7.665   92.765    0.520    0.263    4.082
  390.256    7.580   90.867    0.504    0.252    4.395
  391.076    7.454   92.748    0.507    0.247    4.560
  391.896    7.370   98.393    0.561    0.246    4.556
  392.717    7.620  102.156    0.595    0.270    3.919
  393.537    8.290  102.775    0.621    0.318    3.499
  394.357    9.128  101.510    0.634    0.340    3.010
  395.177    8.582   98.985    0.630    0.338    2.738
  395.997    8.079   98.347    0.617    0.334    2.490
  396.818    8.623   98.341    0.604    0.360    2.443
  397.638    9.209   98.332    0.592    0.362    2.307
  398.458    9.460   96.440    0.592    0.351    2.220
  399.278    7.700   92.660    0.624    0.359    2.178
  400.098    8.830   92.023    0.636    0.377    2.135
  400.919    9.333   93.271    0.628    0.398    2.055
  401.739   10.212   92.634    0.622    0.421    1.977
  402.559   10.043   88.854    0.613    0.443    1.903
  403.379    9.540   88.217    0.605    0.435    1.832
  404.199    9.120   91.348    0.603    0.402    1.795
  405.020    9.162   93.223    0.597    0.394    1.794
  405.840    9.371   93.214    0.603    0.400    1.793
  406.660   10.501   85.665    0.633    0.392    1.791
  407.480   10.291   86.285    0.636    0.356    1.789
  408.301    9.788   91.302    0.643    0.350    1.822
  409.121    8.991   95.064    0.648    0.361    1.820
  409.941    8.823   98.198    0.646    0.376    1.853
  410.761    8.823   99.449    0.643    0.389    1.887
  411.581    8.738   95.669    0.635    0.392    1.921
  412.402    8.696   91.889    0.624    0.367    2.030
  413.222    8.863   89.366    0.613    0.375    2.145
  414.042    8.317   88.100    0.603    0.316    2.225
  414.862    7.311   85.576    0.580    0.252    2.582
  415.682    6.975   83.683    0.566    0.218    2.998
  416.503    6.891   82.418    0.528    0.223    4.041
  417.323    6.890   80.523    0.484    0.288    5.763
  418.143    6.973   78.629    0.473    0.229    6.816
  418.963    7.015   76.733    0.449    0.139    7.339
  419.783    7.098   76.095    0.451    0.262    7.060
  420.604    7.223   81.115    0.471    0.266    6.926
  421.424    7.348   83.620    0.503    0.251    6.302
  422.244    7.557   86.754    0.510    0.254    5.523
  423.064    7.808   91.773    0.521    0.284    4.750
  423.885    7.807   91.764    0.543    0.289    3.935
  424.705    7.765   90.496    0.552    0.284    3.717
  425.525    7.597   87.975    0.557    0.279    4.002
  426.345    7.303   83.567    0.554    0.290    4.311
  427.165    7.009   80.414    0.542    0.287    4.817
  427.986    6.925   80.405    0.519    0.288    5.092
  428.806    6.882   80.398    0.510    0.293    5.587
  429.626    6.882   77.247    0.508    0.260    5.796
  430.446    6.965   78.495    0.504    0.259    6.012
  431.266    7.048   82.886    0.505    0.253    5.469
  432.087    7.089   84.134    0.511    0.244    5.263
  432.907    7.089   82.869    0.519    0.219    5.774
  433.727    7.046   79.084    0.487    0.340    5.992
  434.547    6.878   81.592    0.489    0.354    6.574
  435.367    8.470   81.583    0.504    0.330    3.887
  436.188    9.056   82.203    0.515    0.259    3.603
  437.008    7.966   84.708    0.518    0.217    4.181
  437.828    7.127   90.984    0.520    0.286    4.854
  438.648    8.048   95.375    0.525    0.264    5.034
  439.469    8.131   99.764    0.532    0.273    4.667
  440.289    7.712  102.271    0.508    0.289    4.492
  441.109    7.753  102.891    0.505    0.278    4.487
  441.929    7.836   96.597    0.526    0.267    4.482
  442.749    7.752   95.329    0.534    0.307    4.480
  443.570    7.542   95.323    0.538    0.313    4.475
  444.390    7.164   97.197    0.540    0.323    4.307
  445.210    7.038   97.819    0.531    0.293    3.846
  446.030    7.037   99.067    0.505    0.242    3.434
  446.850    7.037   95.287    0.503    0.196    3.367
  447.671    6.994   81.451    0.494    0.179    3.627
  448.491    6.784   78.300    0.493    0.323    3.906
  449.311    6.909   90.233    0.521    0.374    3.902
  450.131    7.747   95.252    0.570    0.366    3.616
  450.951    7.704  100.272    0.596    0.342    3.416
  451.772    7.452   94.604    0.574    0.252    3.226
  452.592    7.242   90.826    0.564    0.166    3.224
  453.412    6.990   78.874    0.559    0.156    3.472
  454.232    6.738   75.723    0.553    0.216    3.955
  455.052    7.156   81.370    0.544    0.232    5.233
  455.873    7.701   84.502    0.530    0.255    6.425
  456.693    7.323   81.979    0.492    0.241    5.526
  457.513    7.113   81.342    0.468    0.247    5.731
  458.333    6.777   81.333    0.457    0.249    6.172
  459.154    6.692   81.953    0.463    0.244    6.284
  459.974    6.692   83.830    0.476    0.240    5.824
  460.794    6.733   86.337    0.484    0.270    5.299
  461.614    6.733   88.842    0.484    0.268    4.822
  462.434    6.648   86.948    0.479    0.251    4.386
  463.255    6.271   75.626    0.454    0.242    4.903
  464.075    6.312   74.358    0.452    0.276    6.737
  464.895    6.395   76.235    0.452    0.300    7.119
  465.715    6.520   78.740    0.458    0.301    6.982
  466.535    6.771   79.362    0.465    0.337    4.797
  467.356    7.064   77.468    0.478    0.413    4.363
  468.176    7.985   76.202    0.482    0.384    3.897
  468.996    8.697   78.075    0.486    0.355    3.750
  469.816    6.894   78.694    0.485    0.300    3.889
  470.636    6.391   72.403    0.484    0.216    4.515
  471.457    6.349   69.251    0.479    0.239    6.938
  472.277    6.390   69.871    0.481    0.310    8.207
  473.097    6.473   72.376    0.472    0.245    9.523
  473.917    6.472   70.482    0.448    0.191    9.517
  474.738    6.514   68.588    0.437    0.136    8.987
  475.558    6.555   73.607    0.437    0.218    8.815
  476.378    6.764   80.512    0.478    0.258    8.483
  477.198    6.931   84.903    0.492    0.277    8.013
  478.018    7.098   89.922    0.500    0.258    6.275
  478.839    7.181   89.913    0.485    0.255    5.007
  479.659    7.223   87.390    0.491    0.268    4.388
  480.479    7.264   86.124    0.512    0.310    4.067
  481.299    7.305   85.487    0.515    0.334    3.915
  482.119    7.388   85.478    0.508    0.355    3.367
  482.940    7.555   84.213    0.551    0.375    3.122
  483.760    7.932   79.176    0.550    0.401    3.119
  484.580    8.350   83.567    0.533    0.451    3.358
  485.400    8.014   86.067    0.540    0.343    3.484
  486.220    7.762   84.173    0.572    0.277    3.752
  487.041    7.803   82.279    0.582    0.251    4.115
  487.861    7.803   81.642    0.572    0.227    4.515
  488.681    7.719   81.635    0.544    0.196    4.955
