~VERSION INFORMATION
 VERS.                 2.0:   CWLS LOG ASCII STANDARD -VERSION 2.0
 WRAP.                  NO:   ONE LINE PER DEPTH STEP
~WELL INFORMATION BLOCK
#MNEM.UNIT           DATA                    DESCRIPTION OF MNEMONIC
#---------    -------------------            -------------------------------
# Generated from Intellog Unique Number	CS_77_79/WELL/992
WELL.         PEX PCEJ LEISMER OV            : Well_name    - WELL
LOC .         AA/11-08-078-08W4/0            : Location     - LOCATION
UWI .         AA/11-08-078-08W4/0            : Uwi          - UNIQUE WELL ID
ENTR.         JHS                            : Entered      - ENTERED BY
SRVC.         SCHLUMBERGER                   : Scn          - SERVICE COMPANY
STRT.M        155                            : top_depth    - START DEPTH
STOP.M        375                            : bot_depth    - STOP DEPTH
STEP.M        0.25                           : increment    - STEP LENGTH
 NULL. -999.2500:NULL Value
~CURVE INFORMATION BLOCK
#MNEM UNIT       ERCB CURVE CODE    CURVE DESCRIPTION
#-----------   ------------------   ----------------------------------
DEPT.M        00 001 00 00         : DEPTH        - DEPTH
DPHI.V/V      00 890 00 00         : PHID         - DENSITY POROSITY (LIMESTONE)
NPHI.V/V      00 330 00 00         : PHIN         - NEUTRON POROSITY (LIMESTONE)
GR  .API      00 310 00 00         : GR           - GAMMA RAY
ILD .OHMM     00 120 00 00         : RESD         - DEEP RESISTIVITY (DIL)
RHOB.KG/M3    00 350 00 00         : DENS         - BULK DENSITY
~PARAMETER INFORMATION
#MNEM.UNIT           DATA             DESCRIPTION OF MNEMONIC
#---------         -----------     ------------------------------
GL  .M        587.96               : gl           - GROUND LEVEL ELEVATION
EREF.M        591.54               : kb           - ELEVATION OF DEPTH REFERENCE
DATM.M        591.54               : datum        - DATUM ELEVATION
TDD .M        377.6                : tdd          - TOTAL DEPTH DRILLER
RUN .         ONE                  : Run          - RUN NUMBER
ENG .         BILL                 : Engineer     - RECORDING ENGINEER
WIT .         JIM                  : Witness      - WITNESSED BY
MUD .         GEL                  : Mud_type     - MUD TYPE
MATR.         LIMESTONE            : Logunit      - NEUTRON MATRIX
TMAX.C        17                   : BHT          - MAXIMUM RECORDED TEMPERATURE
BHTD.M        377.6                : BHTDEP       - MAXIMUM RECORDED TEMPERATURE
MATR.         1                    : LOGUNIT      - NEUTRON MATRIX
RMT .C        25                   : MDTP         - TEMPERATURE OF MUD
NEUT.         1                    : NEUTRON      - NEUTRON TYPE
RESI.         0                    : RESIST       - RESISTIVITY TYPE
RMC .OHMM     0.25                 : RMC          - RESISTIVITY OF MUD CAKE
RMF .OHMM     0.25                 : RMF          - RESISTIVITY OF MUD FILTRATE
SUFT.C        15                   : SUFT         - SURFACE TEMPERATURE
~A  DEPTH     PHID     PHIN       GR     RESD     DENS
# ...
  301.000    0.292    0.422   97.281    6.829    0.000
  301.250    0.292    0.434   91.093    6.704    0.000
  301.500    0.298    0.433   98.541    6.705    0.000
  301.750    0.306    0.448  101.650    6.461    0.000
  302.000    0.307    0.457   98.564    6.461    0.000
  302.250    0.318    0.470   94.236    6.463    0.000
  302.500    0.325    0.480   91.764    6.465    0.000
  302.750    0.318    0.467   86.816    6.588    0.000
  303.000    0.299    0.454   89.308    6.714    0.000
  303.250    0.287    0.459   95.516    7.103    0.000
  303.500    0.277    0.474   96.765    7.105    0.000
  303.750    0.267    0.473   94.298    7.106    0.000
  304.000    0.256    0.469   98.646    6.847    0.000
  304.250    0.250    0.451  102.377    6.596    0.000
  304.500    0.255    0.429  102.388    6.008    0.000
  304.750    0.265    0.432  102.398    5.576    0.000
  305.000    0.264    0.442   96.828    5.175    0.000
  305.250    0.259    0.441  103.039    4.985    0.000
  305.500    0.251    0.430  111.106    4.803    0.000
  305.750    0.253    0.447  119.794    4.895    0.000
  306.000    0.264    0.436  111.749    5.277 2259.240
  306.250    0.273    0.448  104.941    5.796 2242.550
  306.500    0.282    0.437   98.751    6.609 2227.960
  306.750    0.273    0.426   88.844    6.992 2242.620
  307.000    0.251    0.424   80.178    7.398 2280.280
  307.250    0.237    0.415   80.187    7.262 2305.390
  307.500    0.250    0.404   83.917    7.263 2282.440
  307.750    0.266    0.410   83.308    7.130 2255.300
  308.000    0.287    0.419   89.518    7.000 2219.830
  308.250    0.289    0.409   87.667    7.001 2215.670
  308.500    0.245    0.397   96.976    7.269 2290.930
  308.750    0.150    0.322   92.649    7.408 2453.970
  309.000    0.135    0.293   84.601    7.693 2479.080
  309.250    0.199    0.295   78.412    7.840 2370.450
  309.500    0.271    0.376   82.763    7.842 2247.200
  309.750    0.255    0.405   84.012    7.415 2274.400
  310.000    0.249    0.418   91.461    7.144 2284.880
  310.250    0.239    0.403   84.033    7.013 2301.630
  310.500    0.257    0.416   95.821    6.757 2270.320
  310.750    0.266    0.438   98.311    6.758 2255.730
  311.000    0.267    0.449   93.363    6.760 2253.690
  311.250    0.264    0.454   94.612    6.635 2257.890
  311.500    0.253    0.462  106.401    6.158 2276.730
  311.750    0.244    0.476  118.809    5.823 2293.490
  312.000    0.233    0.478  120.679    5.404 2312.330
  312.250    0.257    0.460  116.972    5.015 2270.570
  312.500    0.299    0.496  113.261    4.654 2199.560
  312.750    0.303    0.597  112.652    4.319 2191.240
  313.000    0.291    0.564  122.581    3.935 2212.170
  313.250    0.301    0.548  120.731    3.862 2195.500
  313.500    0.292    0.562  112.683    4.011 2210.160
  313.750    0.286    0.539  119.513    4.323 2220.640
  314.000    0.287    0.512  112.704    4.660 2218.580
  314.250    0.280    0.505  113.954    5.024 2231.160
  314.500    0.274    0.507  120.784    5.415 2241.640
  314.750    0.267    0.494  114.596    5.948 2254.210
  315.000    0.273    0.502  124.523    6.293 2243.800
  315.250    0.265    0.493  128.254    6.658 2256.380
  315.500    0.252    0.475  123.305    7.044 2279.400
  315.750    0.243    0.463  117.738    7.179 2294.060
  316.000    0.242    0.472  115.269    7.180 2296.180
  316.250    0.268    0.506  108.462    5.956 2252.340
  316.500    0.317    0.533  105.371    5.128 2168.780
  316.750    0.326    0.544  106.621    4.500 2152.110
  317.000    0.347    0.544  101.056    3.874 2116.620
  317.250    0.346    0.546  104.784    3.214 2118.730
  317.500    0.353    0.577  104.175    2.927 2106.230
  317.750    0.365    0.608  109.764    2.474 2085.370
  318.000    0.371    0.618  106.674    2.253 2074.960
  318.250    0.363    0.622  102.346    2.091 2089.630
  318.500    0.359    0.623   98.638    2.092 2095.930
  318.750    0.359    0.625   96.790    2.131 2095.960
  319.000    0.364    0.625   94.941    2.213 2087.640
  319.250    0.365    0.625  100.530    2.214 2085.590
  319.500    0.359    0.625  103.641    2.214 2096.080
  319.750    0.353    0.625  106.129    2.299 2106.560
  320.000    0.349    0.625  100.561    2.387 2112.860
  320.250    0.348    0.622  106.150    2.622 2114.980
  320.500    0.353    0.620  110.500    2.990 2106.660
  320.750    0.349    0.616  110.510    3.284 2112.970
  321.000    0.367    0.606  115.480    3.675 2081.660
  321.250    0.376    0.595  109.911    4.270 2067.060
  321.500    0.355    0.574  110.542    4.690 2102.620
  321.750    0.350    0.531  109.934    5.151 2111.020
  322.000    0.359    0.510  104.984    5.874 2096.420
  322.250    0.373    0.493  101.895    6.452 2071.390
  322.500    0.345    0.479   98.807    6.955 2119.480
  322.750    0.303    0.483   92.619    6.956 2192.660
  323.000    0.216    0.464  102.548    6.578 2341.060
  323.250    0.232    0.448  111.235    5.880 2313.930
  323.500    0.312    0.442  118.685    5.063 2176.050
  323.750    0.296    0.509  116.836    4.442 2203.250
  324.000    0.294    0.530  118.705    4.201 2207.460
  324.250    0.302    0.542  117.476    4.047 2192.880
  324.500    0.317    0.575  111.288    3.973 2167.830
  324.750    0.305    0.612  113.161    3.900 2188.770
  325.000    0.295    0.597  116.889    3.901 2205.520
  325.250    0.286    0.577  118.138    3.830 2220.180
  325.500    0.283    0.564  121.248    3.759 2226.490
  325.750    0.285    0.555  126.217    3.622 2222.340
  326.000    0.288    0.588  112.594    3.489 2218.190
  326.250    0.286    0.608  116.940    3.362 2220.330
  326.500    0.289    0.619  121.290    3.239 2216.190
  326.750    0.294    0.622  113.863    3.240 2207.860
  327.000    0.299    0.605  105.194    3.364 2199.530
  327.250    0.303    0.595  109.544    3.626 2191.220
  327.500    0.300    0.588  108.315    4.135 2197.510
  327.750    0.289    0.540  110.185    4.715 2216.350
  328.000    0.284    0.466  121.354    5.179 2224.750
  328.250    0.264    0.454  121.363    5.796 2258.220
  328.500    0.199    0.454  114.558    6.248 2369.010
  328.750    0.242    0.436  113.946    6.487 2295.900
  329.000    0.291    0.500  108.998    6.612 2212.360
  329.250    0.282    0.443  106.530    6.737 2227.010
  329.500    0.265    0.412   99.721    7.263 2256.310
  329.750    0.168    0.384   94.775    8.128 2423.520
  330.000    0.143    0.364   89.206    8.928 2465.350
  330.250    0.182    0.369   94.795    9.624 2398.510
  330.500    0.259    0.376   96.664    9.809 2266.900
  330.750    0.277    0.376   89.237    9.810 2235.590
  331.000    0.282    0.372   86.149    9.997 2227.260
  331.250    0.266    0.378   91.740   10.578 2254.470
  331.500    0.252    0.392   87.410   10.984 2279.580
  331.750    0.241    0.415   84.322   11.405 2298.420
  332.000    0.236    0.422   90.532   11.623 2306.820
  332.250    0.236    0.434   96.120   11.625 2306.850
  332.500    0.246    0.430   87.451   11.628 2290.170
  332.750    0.263    0.424   89.941   11.415 2260.950
  333.000    0.271    0.423   95.530   10.997 2246.350
  333.250    0.260    0.428   95.542   10.399 2265.200
  333.500    0.260    0.454  100.512    9.296 2265.230
  333.750    0.319    0.458  106.720    8.156 2164.960
  334.000    0.346    0.489  101.773    7.291 2119.020
  334.250    0.397    0.563   98.064    7.025 2031.300
  334.500    0.431    0.608   96.214    6.768 1972.820
  334.750    0.443    0.616   88.786    6.400 1951.960
  335.000    0.310    0.618  109.253    6.051 2179.770
  335.250    0.267    0.622  128.478    5.722 2252.950
  335.500    0.249    0.507  135.310    5.310 2284.330
  335.750    0.235    0.507  139.037    5.021 2307.350
  336.000    0.223    0.508  135.950    4.660 2328.280
  336.250    0.217    0.501  132.859    4.574 2338.770
  336.500    0.217    0.493  140.928    4.491 2338.800
  336.750    0.221    0.503  140.939    4.577 2332.580
  337.000    0.216    0.541  139.709    4.842 2340.970
  337.250    0.211    0.483  150.256    5.318 2349.360
