~VERSION INFORMATION
 VERS.                 2.0:   CWLS LOG ASCII STANDARD -VERSION 2.0
 WRAP.                  NO:   ONE LINE PER DEPTH STEP
~WELL INFORMATION BLOCK
#MNEM.UNIT           DATA                    DESCRIPTION OF MNEMONIC
#---------    -------------------            -------------------------------
# Generated from Intellog Unique Number	CN_91_93/WELL/3916
WELL.         13-02-092-08W4                 : Well_name    - WELL
LOC .         AA/13-02-092-08W4/0            : Location     - LOCATION
UWI .         AA/13-02-092-08W400            : Uwi          - UNIQUE WELL ID
ENTR.         JOETTE                         : Entered      - ENTERED BY
SRVC.         SCHLUMBERGER                   : Scn          - SERVICE COMPANY
DATE.         01/15/92                       : Date         - LOG DATE
STRT.F        50                             : top_depth    - START DEPTH
STOP.F        650.394                        : bot_depth    - STOP DEPTH
STEP.F        0.8202                         : increment    - STEP LENGTH
 NULL. -999.2500:NULL Value
~CURVE INFORMATION BLOCK
#MNEM UNIT       ERCB CURVE CODE    CURVE DESCRIPTION
#-----------   ------------------   ----------------------------------
DEPT.F        00 001 00 00         : DEPTH        - DEPTH
GR  .API      00 310 00 00         : GR           - GAMMA RAY
CALI.IN       00 280 01 00         : CAL          - CALIPER
NPHI.V/V      00 330 00 00         : PHIN         - NEUTRON POROSITY (SANDSTONE)
ILD .OHMM     00 120 00 00         : RESD         - DEEP RESISTIVITY (DIL)
~PARAMETER INFORMATION
#MNEM.UNIT           DATA             DESCRIPTION OF MNEMONIC
#---------         -----------     ------------------------------
GL  .M        457.505              : gl           - GROUND LEVEL ELEVATION
EREF.M        458.724              : kb           - ELEVATION OF DEPTH REFERENCE
DATM.M        458.724              : datum        - DATUM ELEVATION
TDD .M        202.082              : tdd          - TOTAL DEPTH DRILLER
RUN .         ONE                  : Run          - RUN NUMBER
ENG .         BILL                 : Engineer     - RECORDING ENGINEER
WIT .         JIM                  : Witness      - WITNESSED BY
MUD .         GEL                  : Mud_type     - MUD TYPE
MATR.         SANDSTONE            : Logunit      - NEUTRON MATRIX
TMAX.F        49                   : BHT          - MAXIMUM RECORDED TEMPERATURE
BHTD.F        663                  : BHTDEP       - MAXIMUM RECORDED TEMPERATURE
RMT .F        49                   : MDTP         - TEMPERATURE OF MUD
MUDD.LB/G     9.6                  : MWT          - MUD DENSITY
NEUT.         1                    : NEUTRON      - NEUTRON TYPE
RESI.         0                    : RESIST       - RESISTIVITY TYPE
RM  .OHMM     2.3                  : RM           - RESISTIVITY OF MUD
RMC .OHMM     1.7                  : RMC          - RESISTIVITY OF MUD CAKE
RMF .OHMM     1.7                  : RMF          - RESISTIVITY OF MUD FILTRATE
SUFT.F        39.2                 : SUFT         - SURFACE TEMPERATURE
~A  DEPTH       GR      CAL     PHIN     RESD
# ...
  192.717   18.264    7.516    0.332   99.237
  193.537   18.251    7.516    0.328   92.370
  194.357   18.848    7.515    0.321   82.976
  195.177   18.835    7.514    0.317   83.192
  195.997   18.830    7.432    0.318   86.482
  196.818   18.815    7.391    0.326   86.707
  197.638   18.810    7.309    0.332   82.314
  198.458   18.188    7.268    0.343   81.075
  199.278   18.178    7.186    0.347   79.855
  200.098   18.166    7.185    0.345   79.959
  200.919   18.156    7.185    0.338   78.704
  201.739   18.145    7.184    0.335   78.909
  202.559   18.747    7.183    0.334   79.115
  203.379   18.729    7.182    0.343   79.424
  204.199   18.724    7.222    0.351   81.111
  205.020   18.714    7.262    0.350   82.780
  205.840   18.095    7.261    0.350   84.594
  206.660   17.476    7.302    0.354   84.814
  207.480   17.466    7.300    0.361   83.429
  208.301   17.451    7.300    0.365   80.621
  209.121   19.270    7.299    0.363   78.010
  209.941   21.693    7.299    0.360   76.786
  210.761   22.900    7.298    0.346   81.359
  211.581   23.502    7.297    0.334   84.576
  212.402   22.880    7.296    0.323   84.907
  213.222   22.261    7.296    0.318   81.943
  214.042   21.642    7.295    0.334   77.791
  214.862   21.023    7.335    0.357   76.571
  215.682   21.011    7.334    0.367   76.770
  216.503   23.436    7.334    0.344   78.401
  217.323   27.688    7.333    0.310   83.124
  218.143   34.375    7.332    0.277   88.018
  218.963   41.062    7.332    0.262   93.381
  219.783   42.878    7.331    0.251   95.303
  220.604   37.386    7.330    0.250   99.201
  221.424   34.941    7.330    0.248  101.242
  222.244   36.757    7.329    0.249  111.441
  223.064   37.962    7.247    0.281  109.693
  223.885   35.519    7.165    0.302  103.999
  224.705   31.248    7.164    0.316   96.865
  225.525   34.888    7.123    0.327   90.220
  226.345   39.751    7.122    0.322   82.498
  227.165   47.655    7.121    0.289   72.709
  227.986   55.560    7.161    0.283   70.307
  228.806   62.853    7.161    0.278   71.801
  229.626   69.540    7.200    0.309   62.086
  230.446   73.180    7.200    0.373   48.100
  231.266   73.782    7.240    0.424   37.241
  232.087   73.772    7.239    0.452   21.474
  232.907   74.370    7.279    0.472   14.625
  233.727   76.184    7.278    0.483   11.982
  234.547   78.609    7.278    0.481   11.571
  235.367   76.773    7.277    0.472   10.777
  236.188   72.501    7.317    0.452   11.639
  237.008   67.618    7.316    0.435   13.024
  237.828   64.566    7.315    0.427   14.864
  238.648   63.336    7.315    0.433   12.627
  239.469   66.979    7.314    0.460    8.288
  240.289   70.013    7.313    0.484    7.436
  241.109   70.003    7.353    0.494    6.804
  241.929   71.819    7.352    0.505    7.909
  242.749   71.200    7.352    0.518    8.531
  243.570   66.315    7.351    0.479    8.553
  244.390   63.263    7.351    0.436    8.581
  245.210   59.598    7.350    0.429    8.763
  246.030   58.979    7.308    0.435    9.995
  246.850   59.575    7.267    0.438   12.055
  247.671   60.785    7.226    0.441   14.530
  248.491   63.817    7.144    0.444   18.509
  249.311   65.027    7.102    0.458   19.266
  250.131   68.667    7.061    0.474   13.604
  250.951   70.486    7.061    0.489   13.146
  251.772   73.517    7.060    0.502   15.004
  252.592   74.114    7.059    0.516    8.652
  253.412   74.106    7.059    0.533    5.998
  254.232   74.094    7.098    0.558    4.479
  255.052   74.086    7.098    0.562    4.177
  255.873   74.682    7.138    0.562    4.260
  256.693   75.281    7.137    0.558    4.274
  257.513   74.053    7.136    0.545    4.130
  258.333   71.608    7.136    0.518    4.138
  259.154   72.207    7.094    0.495    4.729
  259.974   73.414    7.053    0.471    5.007
  260.794   75.231    6.971    0.452    5.611
  261.614   75.221    6.970    0.439    6.168
  262.434   73.379    6.929    0.423    6.902
  263.255   72.149    6.928    0.412    7.728
  264.075   72.144    6.887    0.401    8.990
  264.895   72.134    6.887    0.398    9.181
  265.715   70.906    6.886    0.390    9.199
  266.535   70.287    6.926    0.388    9.229
  267.356   71.490    6.925    0.384    9.253
  268.176   72.091    6.924    0.381   10.000
  268.996   72.690    6.924    0.379   10.388
  269.816   70.851    6.923    0.383   11.856
  270.636   68.405    6.922    0.388   13.034
  271.457   67.178    6.881    0.400   15.142
  272.277   68.385    6.880    0.416   17.281
  273.097   70.201    6.879    0.428   15.231
  273.917   72.018    6.838    0.427   12.462
  274.738   68.961    6.837    0.416    9.136
  275.558   67.127    6.796    0.403    8.834
  276.378   68.941    6.795    0.394    9.360
  277.198   70.757    6.754    0.392    9.737
  278.018   72.574    6.753    0.392   10.317
  278.839   74.390    6.753    0.392   10.739
  279.659   76.207    6.752    0.390   11.378
  280.479   73.759    6.751    0.390   11.620
  281.299   71.922    6.751    0.395   11.229
  282.119   71.912    6.750    0.399   10.653
  282.940   70.076    6.831    0.404   10.486
  283.760   63.977    6.911    0.401   10.709
  284.580   57.268    6.950    0.386   10.540
  285.400   59.693    6.950    0.364   10.192
  286.220   63.336    6.949    0.364   10.602
  287.041   66.370    6.948    0.382   18.145
  287.861   69.404    6.907    0.406   26.800
  288.681   65.741    6.907    0.412   18.591
  289.501   57.816    6.906    0.409   15.782
  290.322   58.413    6.865    0.410   13.406
  291.142   55.962    6.783    0.407   12.035
  291.962   54.128    6.782    0.397   11.418
  292.782   52.903    6.700    0.364   12.323
  293.602   51.064    6.700    0.320   11.706
  294.423   49.230    6.699    0.333   11.721
  295.243   60.176    6.698    0.383   13.626
  296.063   66.861    6.697    0.411   22.067
  296.883   68.068    6.737    0.417   17.096
  297.703   68.667    6.777    0.431   15.623
  298.524   66.830    6.817    0.408   10.639
  299.344   63.776    6.897    0.369    9.735
  300.164   59.504    6.897    0.328   10.901
  300.984   54.624    6.937    0.354   12.664
  301.804   52.785    6.936    0.404   15.549
  302.625   55.210    6.935    0.418   19.470
  303.445   56.420    6.935    0.428   21.787
  304.265   57.019    6.934    0.431   21.445
  305.085   54.566    6.933    0.428   19.264
  305.906   55.170    6.932    0.427   19.314
  306.726   58.812    6.932    0.426   21.641
  307.546   62.455    6.891    0.426   19.802
  308.366   64.880    6.890    0.437   19.111
  309.186   66.694    6.889    0.436   18.823
  310.007   68.508    6.848    0.433   17.520
  310.827   69.105    6.847    0.432   14.345
  311.647   69.706    6.847    0.429   10.509
  312.467   69.698    6.887    0.425    8.927
  313.287   70.903    6.926    0.427    7.724
  314.108   70.896    6.966    0.429    7.194
  314.928   69.660    7.046    0.421    8.839
  315.748   69.047    7.046    0.408    9.897
  316.568   67.816    7.045    0.398   10.487
  317.388   67.200    7.004    0.402   11.332
  318.209   68.405    6.841    0.409   11.999
  319.029   70.221    6.718    0.464   11.392
  319.849   71.429    6.718    0.509   10.220
  320.669   73.243    6.758    0.493    8.367
  321.490   73.839    6.879    0.478    7.108
  322.310   73.834    6.919    0.481    6.038
  323.130   73.824    7.040    0.486    5.129
  323.950   71.983    7.079    0.493    4.687
  324.770   71.364    7.079    0.498    4.131
  325.591   72.574    7.119    0.510    3.708
  326.411   73.170    7.118    0.525    3.331
  327.231   73.160    7.117    0.540    3.158
  328.051   72.541    7.117    0.540    2.945
  328.871   73.140    7.157    0.543    2.897
  329.692   72.521    7.156    0.540    2.905
  330.512   71.291    7.155    0.517    2.967
  331.332   70.065    7.195    0.500    3.322
  332.152   68.224    7.235    0.477    3.652
  332.972   68.219    7.234    0.456    4.741
  333.793   68.812    7.233    0.442    5.215
  334.613   70.631    7.233    0.437    6.286
