~VERSION INFORMATION
 VERS.                 2.0:   CWLS LOG ASCII STANDARD -VERSION 2.0
 WRAP.                  NO:   ONE LINE PER DEPTH STEP
~WELL INFORMATION BLOCK
#MNEM.UNIT           DATA                    DESCRIPTION OF MNEMONIC
#---------    -------------------            -------------------------------
# Generated from Intellog Unique Number	CN_91_93/WELL/3233
WELL.         PETRO-CANADA                   : Well_name    - WELL
LOC .         AA/10-26-092-17W4/0            : Location     - LOCATION
UWI .         AA/10-26-092-17W400            : Uwi          - UNIQUE WELL ID
ENTR.         JOETTE                         : Entered      - ENTERED BY
SRVC.         SCHLUMBERGER                   : Scn          - SERVICE COMPANY
DATE.         04/14/92                       : Date         - LOG DATE
STRT.F        290                            : top_depth    - START DEPTH
STOP.F        869.888                        : bot_depth    - STOP DEPTH
STEP.F        0.82                           : increment    - STEP LENGTH
 NULL. -999.2500:NULL Value
~CURVE INFORMATION BLOCK
#MNEM UNIT       ERCB CURVE CODE    CURVE DESCRIPTION
#-----------   ------------------   ----------------------------------
DEPT.F        00 001 00 00         : DEPTH        - DEPTH
CALI.IN       00 280 01 00         : CAL          - CALIPER
GR  .API      00 310 00 00         : GR           - GAMMA RAY
NPHI.V/V      00 330 00 00         : PHIN         - NEUTRON POROSITY (SANDSTONE)
DPHI.V/V      00 890 00 00         : PHID         - DENSITY POROSITY (SANDSTONE)
ILD .OHMM     00 120 00 00         : RESD         - DEEP RESISTIVITY (DIL)
~PARAMETER INFORMATION
#MNEM.UNIT           DATA             DESCRIPTION OF MNEMONIC
#---------         -----------     ------------------------------
GL  .F        1607.53              : gl           - GROUND LEVEL ELEVATION
EREF.F        1708.93              : kb           - ELEVATION OF DEPTH REFERENCE
DATM.F        1708.93              : datum        - DATUM ELEVATION
TDD .F        920                  : tdd          - TOTAL DEPTH DRILLER
RUN .         ONE                  : Run          - RUN NUMBER
ENG .         BILL                 : Engineer     - RECORDING ENGINEER
WIT .         JIM                  : Witness      - WITNESSED BY
MUD .         GEL                  : Mud_type     - MUD TYPE
MATR.         SANDSTONE            : Logunit      - NEUTRON MATRIX
TMAX.F        76                   : BHT          - MAXIMUM RECORDED TEMPERATURE
BHTD.F        920                  : BHTDEP       - MAXIMUM RECORDED TEMPERATURE
RMT .F        70                   : MDTP         - TEMPERATURE OF MUD
MUDD.LB/G     9                    : MWT          - MUD DENSITY
NEUT.         1                    : NEUTRON      - NEUTRON TYPE
RESI.         0                    : RESIST       - RESISTIVITY TYPE
RM  .OHMM     0.601                : RM           - RESISTIVITY OF MUD
RMC .OHMM     0.601                : RMC          - RESISTIVITY OF MUD CAKE
RMF .OHMM     0.601                : RMF          - RESISTIVITY OF MUD FILTRATE
SUFT.F        39.2                 : SUFT         - SURFACE TEMPERATURE
~A  DEPTH      CAL       GR     PHIN     PHID     RESD
  290.000    7.436   90.736    0.521    0.288    7.054
  290.820    7.435   86.464    0.526    0.288    6.552
  291.640    7.556   87.672    0.499    0.297    8.324
  292.461    7.799   92.534    0.507    0.285    7.590
  293.281    7.961   96.177    0.526    0.278    6.794
  294.101    8.001   96.776    0.536    0.265    7.048
  294.921    7.960   91.286    0.532    0.275    8.318
  295.741    7.837   82.750    0.500    0.293   10.000
  296.562    7.918   75.433    0.492    0.301    9.636
  297.382    8.120   72.987    0.537    0.313    9.458
  298.202    7.957   77.849    0.552    0.327   10.562
  299.022    7.793   81.492    0.522    0.295   13.419
  299.843    7.712   80.262    0.498    0.290   23.757
  300.663    7.468   71.727    0.481    0.297   29.090
  301.483    7.426   60.146    0.467    0.307   29.627
  302.303    7.385   52.829    0.456    0.337   29.621
  303.123    7.385   49.162    0.464    0.347   29.616
  303.944    7.424   46.719    0.471    0.343   29.609
  304.764    7.424   48.536    0.461    0.353   29.605
  305.584    7.342   50.959    0.456    0.353   30.709
  306.404    7.260   50.949    0.466    0.321   31.858
  307.224    7.259   48.504    0.475    0.325   34.289
  308.045    7.299   46.667    0.465    0.332   34.917
  308.865    7.339   45.441    0.455    0.320   34.914
  309.685    7.379   44.820    0.455    0.295   34.270
  310.505    7.460   44.810    0.465    0.324   33.635
  311.325    7.581   46.627    0.463    0.332   33.630
  312.146    7.621   48.444    0.455    0.321   33.008
  312.966    7.742   47.825    0.484    0.309   33.004
  313.786    7.863   44.770    0.489    0.309   32.995
  314.606    8.065   40.495    0.478    0.318   34.229
  315.427    8.227   38.047    0.459    0.331   35.509
  316.247    8.510   37.433    0.457    0.343   36.163
  317.067    8.794   37.423    0.457    0.339   36.154
  317.887    9.118   38.628    0.451    0.356   35.489
  318.707    9.199   39.227    0.448    0.350   33.572
  319.528    9.482   38.608    0.453    0.349   32.350
  320.348    9.684   37.992    0.469    0.363   32.345
  321.168    9.846   38.591    0.498    0.353   31.750
  321.988   10.089   39.799    0.509    0.340   31.744
  322.808   10.129   42.220    0.523    0.351   31.736
  323.629   10.210   43.430    0.519    0.354   31.733
  324.449   10.331   43.423    0.519    0.343   31.725
  325.269   10.411   44.017    0.525    0.345   32.309
  326.089   10.613   44.010    0.517    0.333   32.904
  326.909   10.816   44.608    0.494    0.334   32.897
  327.730   10.937   43.381    0.506    0.334   32.889
  328.550   11.139   42.155    0.540    0.337   32.885
  329.370   11.220   42.752    0.538    0.338   31.687
  330.190   11.300   43.957    0.532    0.339   30.536
  331.010   11.340   44.556    0.529    0.352   29.425
  331.831   11.299   42.113    0.509    0.355   28.884
  332.651   11.176   45.754    0.507    0.343   29.416
  333.471   11.014   44.526    0.495    0.339   31.080
  334.291   10.769   43.298    0.497    0.346   31.653
  335.112   10.647   45.115    0.497    0.354   31.648
  335.932   10.565   45.717    0.485    0.368   31.642
  336.752   10.564   43.880    0.484    0.384   31.636
  337.572   10.523   43.870    0.467    0.393   31.631
  338.392   10.400   45.078    0.500    0.397   31.624
  339.213   10.197   45.063    0.516    0.394   31.617
  340.033    9.953   44.447    0.526    0.387   35.307
  340.853    9.627   44.439    0.537    0.378   37.309
  341.673    9.383   43.818    0.521    0.352   37.995
  342.493    9.341   43.202    0.466    0.346   37.989
  343.314    9.381   42.580    0.443    0.340   35.279
  344.134    9.462   42.573    0.434    0.352   34.632
  344.954    9.502   42.563    0.437    0.357   33.372
  345.774    9.542   42.550    0.447    0.340   33.363
  346.594    9.541   42.543    0.480    0.326   33.979
  347.415    9.338   43.751    0.486    0.335   35.902
  348.235    8.931   43.738    0.481    0.344   37.247
  349.055    8.808   43.726    0.478    0.347   37.933
  349.875    8.726   44.934    0.484    0.354   36.553
  350.696    8.685   47.357    0.484    0.329   30.959
  351.516    8.644   47.961    0.477    0.315   32.713
  352.336    8.481   48.555    0.475    0.279   35.866
  353.156    8.237   47.941    0.498    0.221   39.321
  353.976    8.317   46.105    0.477    0.139   40.786
  354.797    8.397   44.877    0.434    0.246   37.882
  355.617    8.438   45.476    0.432    0.349   35.837
  356.437    8.478   47.293    0.464    0.343   35.828
  357.257    8.477   47.278    0.461    0.331   35.823
  358.077    8.476   47.268    0.459    0.334   35.163
  358.898    8.638   47.872    0.463    0.336   33.883
  359.718    8.759   49.080    0.477    0.325   35.149
  360.538    8.758   50.288    0.489    0.309   39.252
  361.358    8.717   48.446    0.489    0.284   39.976
  362.178    8.554   48.441    0.462    0.253   39.239
  362.999    8.513   47.817    0.460    0.328   35.778
  363.819    8.512   47.812    0.467    0.344   32.622
  364.639    8.552   49.629    0.479    0.339   29.745
  365.459    8.673   53.270    0.489    0.338   26.626
  366.280    8.713   56.305    0.503    0.345   22.140
  367.100    8.590   61.170    0.518    0.339   14.487
  367.920    8.509   72.121    0.513    0.319   11.610
  368.740    8.224   84.291    0.511    0.297    9.305
  369.560    8.020   85.496    0.518    0.291    9.476
  370.381    7.735   86.093    0.509    0.302   10.012
  371.201    7.491   87.910    0.500    0.295   10.011
  372.021    7.450   89.727    0.507    0.292    9.646
  372.841    7.490   92.155    0.513    0.296    8.796
  373.661    7.611  102.497    0.476    0.283    7.589
  374.482    7.732  111.622    0.502    0.264    6.195
  375.302    7.934  115.875    0.531    0.259    5.545
  376.122    8.056  114.038    0.558    0.262    5.246
  376.942    8.177  115.244    0.569    0.255    5.343
  377.762    8.176  114.016    0.571    0.234    5.441
  378.583    8.175  110.352    0.539    0.255    5.644
  379.403    8.175  107.906    0.538    0.249    5.855
  380.223    8.174  106.069    0.543    0.238    6.186
  381.043    8.214  107.889    0.546    0.244    5.538
  381.864    8.213  112.750    0.551    0.259    5.239
  382.684    8.294  114.565    0.553    0.264    5.048
  383.504    8.293  116.384    0.558    0.266    5.048
  384.324    8.292  118.808    0.566    0.268    5.141
  385.144    8.291  115.753    0.581    0.265    5.140
  385.965    8.291  113.307    0.588    0.254    5.139
  386.785    8.290  116.342    0.577    0.259    5.233
  387.605    8.209  118.159    0.570    0.264    5.232
  388.425    8.086  118.152    0.570    0.260    5.231
  389.245    7.963  116.315    0.562    0.245    5.230
  390.066    7.882  113.866    0.566    0.242    5.229
  390.886    7.759  112.641    0.557    0.233    5.133
  391.706    7.759  110.193    0.561    0.221    5.038
  392.526    7.880  108.965    0.576    0.252    4.855
  393.346    7.960  115.042    0.588    0.270    4.854
  394.167    8.000  113.205    0.586    0.269    4.853
  394.987    8.000  110.150    0.592    0.259    4.852
  395.807    8.202  108.316    0.601    0.249    4.851
  396.627    7.957  107.088    0.574    0.246    4.850
  397.448    7.794  105.858    0.557    0.258    4.940
  398.268    7.753  104.023    0.544    0.247    5.317
  399.088    7.590  101.578    0.548    0.252    6.047
  399.908    7.508   99.132    0.564    0.247    6.879
  400.728    7.345   96.686    0.574    0.245    8.119
  401.549    7.101   97.285    0.514    0.256    8.738
  402.369    7.141  100.320    0.482    0.268    7.967
  403.189    7.262   99.089    0.458    0.276    7.264
  404.009    7.383   96.644    0.514    0.273    6.747
  404.829    7.382   94.195    0.519    0.275    6.999
  405.650    7.382   92.970    0.511    0.280    6.998
  406.470    7.422   90.522    0.503    0.277    6.869
  407.290    7.421   89.294    0.508    0.280    6.867
  408.110    7.461   91.113    0.507    0.283    6.866
  408.930    7.501   94.754    0.506    0.277    6.865
