~Version : LASO    vs 4.00
VERS.                2.00:   CWLS Log ASCII Standard -VERSION 2.0
WRAP.                  NO:
~Well Information Block
#MNEM.UNIT       Data                        Description of Mnemonic
#----.----      -------------------------- : -----------------------------
STRT.M             3.0000:
STOP.M           202.0000:
STEP.M             0.1250:
NULL.           -999.2500:
COMP.  MOBILOIL CANADA             :COMPANY
WELL.  MOBIL CLARKE OV 10-26       :WELL
FLD.   CLARKE                      :FIELD
LOC.   10-26-090-07W4              :LOCATION
CTRY.  CANADA                      :COUNTRY
PROV.  ALBERTA                     :PROVINCE
SRVC.  DRESSER ATLAS               :SERVICE COMPANY
DATE.  31-JAN-81                   :LOG DATE
UWI.   AA/10-26-090-07W400         :UNIQUE WELL ID
~Parameter Information Block
#MNEM.UNIT       Data                        Description of Mnemonic
#----.----      -------------------------- : -----------------------------
RUN .                   1                 : Run Number
GL  .M           456.0000                 : Ground Level Elevation
DREF.                  KB                 : Depth Reference
EREF.M           456.0000                 : Elevation of Depth Reference
TDL .M           201.0000                 : Total Depth Logger
TDD .M           203.0000                 : Total Depth Driller
CSGL.M            13.0000                 : Casing Bottom Logger
CSGD.M            12.0000                 : Casing Bottom Driller
CSGS.MM          219.0000                 : Casing Size
CSGW.KG/M          0.0000                 : Casing Weight
BHT .DEGC         18.0000                 : Bottom Hole Temperature
BS  .MM          171.4000                 : Bit Size
DFD .              9.7000                 : Mud Weight (Density)
DFV .             85.0000                 : Mud Viscosity
RM  .OHMM          4.0000                 : Mud Resistivity
RMT .DEGC         18.0000                 : Mud Resistivity Temperature
RMF .OHMM          6.2000                 : Mud Filtrate Resistivity
RMFT.DEGC         12.0000                 : RMF Temperature
RMC .OHMM         11.6000                 : Mud Cake Resistivity
RMCT.DEGC         12.0000                 : RMC Temperature
~Curve Information Block
#MNEM.UNIT        API CODE    Curve Description
#---------    ------------    -------------------------------------------
DEPT.M                    :   DEPTH
CALI.MM       42 280  1  1:   3 DENSITY CALIPER
DPHI.V/V                  :   DPHI
DT  .US/M     60 520 42  1:   2 SONIC INTERVAL TRANSIT TIME (COMPENSATED)
GR  .GAPI     42 310  1  1:   4 GAMMA RAY
LLD .Ohmm                 :   LLD
NPHI.V/V      42 890  3  1:   5 NEUTRON POROSITY (SANDSTONE)
RHOB.K/M3     42 350  1  1:   6 BULK DENSITY
~A  Depth           CALI        DPHI          DT          GR         LLD        NPHI        RHOB
# ...
96.3750         191.6500      0.2476    490.7200     97.5000     60.6037      0.4526   2228.7000
96.5000         189.8250      0.2501    483.1200     95.6550     61.8534      0.4511   2228.1001
96.6250         188.6000      0.2524    481.8800     93.9900     66.9816      0.4496   2227.5000
96.7500         188.6000      0.2537    488.0000     94.3650     68.8021      0.4455   2227.5000
96.8750         188.6000      0.2538    491.2000     94.9200     70.5638      0.4436   2228.7000
97.0000         188.6000      0.2538    493.1600     96.0150     72.1518      0.4418   2230.5000
97.1250         189.2000      0.2537    492.6800     96.9450     73.3677      0.4429   2231.2000
97.2500         190.4250      0.2536    493.1600     96.3900     74.3336      0.4421   2228.1001
97.3750         190.7250      0.2536    497.3200     94.9200     73.0966      0.4358   2226.8999
97.5000         189.8250      0.2535    513.2400     93.9900     68.8531      0.4268   2229.8999
97.6250         188.6000      0.2525    574.0400     93.0750     63.8604      0.4159   2238.5000
97.7500         184.6000      0.2496    477.7200     90.6750     57.9904      0.4159   2255.6001
97.8750         180.0000      0.2469    465.2000     89.5650     53.0515      0.4178   2280.7000
98.0000         176.9500      0.2399    452.9600     90.1200     50.0140      0.4185   2303.3999
98.1250         177.5500      0.2325    448.3200     90.4950     46.1423      0.4181   2309.5000
98.2500         180.0000      0.2240    449.7600     91.2300     43.1394      0.4328   2308.3000
98.3750         183.3750      0.2162    452.2400     94.1700     40.1997      0.4511   2297.3000
98.5000         189.2000      0.2143    459.8400     98.5950     38.1750      0.4508   2277.7000
98.6250         193.5000      0.2221    472.3200    102.4650     35.3267      0.4522   2254.3999
98.7500         194.1000      0.2282    491.9200    106.7100     34.2043      0.4496   2234.8000
98.8750         193.5000      0.2371    495.8400    107.8200     32.3544      0.4496   2220.1001
99.0000         193.1750      0.2498    499.7600    106.7100     31.3310      0.4541   2202.3999
99.1250         192.5750      0.2619    506.6400    106.7100     31.3058      0.4601   2185.3000
99.2500         191.3500      0.2724    518.8800    107.2650     32.3105      0.4732   2176.1001
99.3750         191.3500      0.2803    523.8000    106.5300     32.4958      0.4747   2176.1001
99.5000         191.3500      0.2865    525.7600    102.1050     31.8448      0.4774   2168.7000
99.6250         190.7250      0.2942    526.0000    100.2600     30.7784      0.4792   2162.0000
99.7500         190.7250      0.2972    534.0800     99.5250     30.7648      0.4627   2157.1001
99.8750         191.9500      0.2976    536.8000    100.6200     30.8512      0.4594   2152.2000
100.0000        191.9500      0.2982    539.9600    104.6850     30.9471      0.4571   2151.6001
100.1250        190.7250      0.2986    540.7200    107.4450     31.0434      0.4571   2154.0000
100.2500        189.2000      0.2987    545.1200    107.2650     31.1399      0.4721   2155.8999
100.3750        187.3750      0.2995    546.6000    105.6000     32.7859      0.4725   2157.7000
100.5000        186.4500      0.3014    547.8000    104.6850     34.3100      0.4706   2154.7000
100.6250        187.9750      0.3028    549.0400    103.3950     35.2571      0.4642   2156.5000
100.7500        191.6500      0.3031    553.9200    100.8150     37.1401      0.4631   2155.3000
100.8750        191.9500      0.3032    553.4400    100.6200     38.7260      0.4627   2155.8999
101.0000        192.2750      0.3032    552.7200    102.4650     40.8773      0.4627   2154.7000
101.1250        194.1000      0.3043    551.2400     99.8850     43.4582      0.4616   2151.0000
101.2500        195.0250      0.3043    543.4000     95.8350     45.7064      0.4451   2146.1001
101.3750        195.9500      0.3049    536.5200     95.2800     48.7403      0.4350   2139.3999
101.5000        198.4000      0.3063    529.9200     94.1700     51.9248      0.4313   2136.8999
101.6250        201.1500      0.3104    526.7200     91.9650     54.2560      0.4373   2137.5000
101.7500        200.8500      0.3131    516.9200     91.5900     58.2875      0.4406   2146.7000
101.8750        198.7000      0.3136    513.0000     90.6750     60.6513      0.4425   2162.0000
102.0000        199.3250      0.3118    507.1200     90.3000     63.7624      0.4496   2185.3000
102.1250        200.5500      0.3095    500.0000     90.1200     65.6319      0.4519   2200.6001
102.2500        201.4500      0.3033    489.9600     89.5650     67.7198      0.4522   2207.3000
102.3750        201.1500      0.2951    485.8000     88.4700     70.3396      0.4496   2212.2000
102.5000        201.4500      0.2864    479.6800     86.8050     72.1402      0.4433   2222.0000
102.6250        201.1500      0.2765    476.9600     88.8300     72.7394      0.4388   2231.2000
102.7500        200.8500      0.2695    477.9600     88.0950     71.9008      0.4309   2238.5000
102.8750        201.1500      0.2651    481.4000     86.6250     70.0284      0.4313   2244.6001
103.0000        202.3750      0.2623    481.4000     86.8050     67.1582      0.4283   2244.6001
103.1250        203.3000      0.2597    476.2400     88.2750     68.6435      0.4260   2237.8999
103.2500        203.9000      0.2562    470.1200     88.6500     71.1007      0.4238   2236.7000
103.3750        201.1500      0.2544    465.9600     89.3850     73.2802      0.4271   2241.6001
103.5000        198.1000      0.2531    462.2800     91.5900     75.4471      0.4208   2254.3999
103.6250        197.7750      0.2518    459.3200     95.1000     78.8562      0.4185   2255.6001
103.7500        197.1750      0.2505    461.8000     99.1500     83.8155      0.4103   2254.3999
103.8750        198.4000      0.2483    460.3200    103.2000     89.0934      0.4088   2254.3999
104.0000        200.5500      0.2459    459.5600    104.3100     99.0410      0.4066   2254.3999
104.1250        200.5500      0.2435    461.0400    104.6850    110.7904      0.3994   2261.1001
104.2500        199.3250      0.2416    466.4400    104.8650    120.6813      0.3852   2274.0000
104.3750        198.4000      0.2387    469.1200    105.0450    137.4254      0.3747   2283.2000
104.5000        198.4000      0.2352    462.5200    105.2400    152.1372      0.3638   2296.0000
104.6250        194.4000      0.2316    454.4400    101.7300    171.8206      0.3503   2311.3000
104.7500        187.6750      0.2262    434.8400     96.2100    187.8559      0.3368   2329.1001
104.8750        183.3750      0.2175    426.2400     93.6300    209.5207      0.3346   2351.7000
105.0000        181.5500      0.2096    421.0800     91.4100    198.6205      0.3275   2374.3999
105.1250        180.9250      0.2001    419.4000     86.8050    178.6762      0.3208   2395.8000
105.2500        180.3250      0.1920    430.4000     80.7300    158.0475      0.3054   2417.2000
105.3750        179.4000      0.1823    430.1600     75.1950    141.7341      0.2911   2444.1001
105.5000        180.6250      0.1702    415.2000     69.4800    128.0138      0.2777   2476.0000
105.6250        180.9250      0.1575    377.7200     64.5150    116.0115      0.2589   2523.7000
105.7500        180.3250      0.1434    295.1200     62.2950     97.4761      0.2405   2577.5000
105.8750        181.2500      0.1279    254.9200     61.3800     88.7220      0.2420   2606.8999
106.0000        181.8500      0.1158    229.6800     65.0550     85.0998      0.2473   2600.8000
106.1250        182.4750      0.1042    258.3600     68.0100     82.9527      0.2589   2574.5000
106.2500        182.4750      0.0926    195.6000     71.8800     81.8690      0.2945   2538.3999
106.3750        183.3750      0.0729    218.4000     79.2450     80.9245      0.3188   2496.8000
106.5000        184.0000      0.0484    255.9200     86.2500     79.9983      0.3511   2450.3000
106.6250        184.9250      0.0811    293.6400     89.3850     79.9594      0.3837   2386.0000
