~Version : LASO    vs 4.00
VERS.                2.00:   CWLS Log ASCII Standard -VERSION 2.0
WRAP.                  NO:
~Well Information Block
#MNEM.UNIT       Data                        Description of Mnemonic
#----.----      -------------------------- : -----------------------------
STRT.M            15.0000:
STOP.M           203.4000:
STEP.M             0.1000:
NULL.           -999.2500:
COMP.  MOBIL OIL CANADA LTD.     :COMPANY
WELL.  MOBIL CLARKE OV 12-34     :WELL
FLD.   CLARKE                    :FIELD
LOC.   12-34-089-08W4            :LOCATION
CTRY.  CANADA                    :COUNTRY
PROV.  ALBERTA                   :PROVINCE
SRVC.  SCHLUMBERGER              :SERVICE COMPANY
DATE.  20-FEB-81                 :LOG DATE
UWI.   AA/12-34-089-08W400       :UNIQUE WELL ID
~Parameter Information Block
#MNEM.UNIT       Data                        Description of Mnemonic
#----.----      -------------------------- : -----------------------------
RUN .                   1                 : Run Number
GL  .M           415.1000                 : Ground Level Elevation
DREF.                  KB                 : Depth Reference
EREF.M           418.1000                 : Elevation of Depth Reference
TDL .M           203.0000                 : Total Depth Logger
TDD .M           200.0000                 : Total Depth Driller
CSGL.M            18.0000                 : Casing Bottom Logger
CSGD.M            15.0000                 : Casing Bottom Driller
CSGS.MM          219.0000                 : Casing Size
CSGW.KG/M          0.0000                 : Casing Weight
BHT .DEGC         12.0000                 : Bottom Hole Temperature
BS  .MM          159.0000                 : Bit Size
DFD .           1110.0000                 : Mud Weight (Density)
DFV .             90.0000                 : Mud Viscosity
DFPH.             10.0000                 : Mud pH
RM  .OHMM          1.9600                 : Mud Resistivity
RMT .DEGC         20.0000                 : Mud Resistivity Temperature
~Curve Information Block
#MNEM.UNIT        API CODE    Curve Description
#---------    ------------    -------------------------------------------
DEPT.M                    :   DEPTH
CALI.MM       42 280  1  1:   3 DENSITY CALIPER
DPHI.V/V                  :   DPHI
DT  .US/M     60 520  0  1:   2 SONIC INTERVAL TRANSIT TIME (COMPENSATED)
GR  .GAPI     42 310  1  1:   4 GAMMA RAY
ILD .OHMM      7 120 46  1:   7 DEEP INDUCTION
ILM .OHMM      7 120 44  1:   8 MEDIUM INDUCTION
NPHI.V/V      42 890  3  1:   5 NEUTRON POROSITY (SANDSTONE)
RHOB.K/M3     42 350  1  1:   6 BULK DENSITY
SFLU.OHMM      7 220  1  1:   9 FOCUSSED RESISTIVITY
SP  .MV        7  10  1  1:   10 SPONTANEOUS POTENTIAL
~A  Depth           CALI        DPHI          DT          GR         ILD         ILM        NPHI        RHOB        SFLU          SP
# ...
198.0000        156.2500      0.0705    328.5200   -999.2500     10.3808     10.0979      0.2742   2567.1001     10.6716    -33.7400
198.1000        156.2500      0.0720    325.3200   -999.2500     10.3808     10.0979      0.2742   2567.1001     10.6716    -33.7400
198.2000        156.7000      0.0715    322.5200   -999.2500     10.0237      9.5903      0.2713   2543.7000     11.0212    -37.1100
198.3000        156.7000      0.0665    320.8800   -999.2500     10.0237      9.5903      0.2713   2543.7000     11.0212    -37.1100
198.4000        156.4750      0.0605    328.1200   -999.2500      9.2434      8.7062      0.2787   2489.8999     12.2188    -38.0600
198.5000        156.4750      0.0580    336.3600   -999.2500      9.2434      8.7062      0.2787   2489.8999     12.2188    -38.0600
198.6000        155.6750      0.0641    342.9600   -999.2500      8.7949      8.4223      0.3346   2485.2000     13.5716    -39.0000
198.7000        155.6750      0.0744    350.1600   -999.2500      8.7949      8.4223      0.3346   2485.2000     13.5716    -39.0000
198.8000        155.5250      0.0828    356.5600   -999.2500      8.4846      8.1928      0.3619   2497.1001      9.8862    -38.4600
198.9000        155.5250      0.0917    359.2800   -999.2500      8.4846      8.1928      0.3619   2497.1001      9.8862    -38.4600
199.0000        157.0750      0.0983    354.7600   -999.2500      8.0432      7.9329      0.4560   2492.3000      8.6822    -35.1400
199.1000        157.0750      0.0957    353.2800   -999.2500      8.0432      7.9329      0.4560   2492.3000      8.6822    -35.1400
199.2000        157.8500      0.0934    355.3200   -999.2500      7.9695      7.8674   -999.2500   2499.8000      8.7949    -34.6800
199.3000        157.8500      0.0922    358.4000   -999.2500      7.9695      7.8674   -999.2500   2499.8000      8.7949    -34.6800
199.4000        158.3500      0.0954    358.2800   -999.2500      7.9110      7.8384   -999.2500   2549.2000      8.6026    -35.0000
199.5000        158.3500      0.0673    358.1600   -999.2500      7.9110      7.8384   -999.2500   2549.2000      8.6026    -35.0000
199.6000        158.0500      0.0491    357.4400   -999.2500      7.7952      7.6389   -999.2500   2576.7000      7.8819    -35.9700
199.7000        158.0500      0.0345    355.3200   -999.2500      7.7952      7.6389   -999.2500   2576.7000      7.8819    -35.9700
199.8000        157.0500      0.0341    353.2000   -999.2500      7.7452      7.5410   -999.2500   2564.5000      8.6026    -35.5400
199.9000        157.0500      0.0399    352.2800   -999.2500      7.7452      7.5410   -999.2500   2564.5000      8.6026    -35.5400
200.0000        155.8250      0.0463    351.6000   -999.2500      7.7167      7.5480   -999.2500   2552.5000      9.0663    -35.3700
200.1000        155.8250      0.0533   -999.2500   -999.2500      7.7167      7.5480   -999.2500   2552.5000      9.0663    -35.3700
200.2000        155.5250      0.0567   -999.2500   -999.2500      7.6741      7.5898   -999.2500   2559.5000      7.9548    -36.0200
200.3000        155.5250      0.0581   -999.2500   -999.2500      7.6741      7.5898   -999.2500   2559.5000      7.9548    -36.0200
200.4000        156.1250      0.0543   -999.2500   -999.2500      7.7380      7.7167   -999.2500   2573.8000      7.8240    -37.3700
200.5000        156.1250      0.0503   -999.2500   -999.2500      7.7380      7.7167   -999.2500   2573.8000      7.8240    -37.3700
200.6000        156.0000      0.0474   -999.2500   -999.2500      7.8096      7.7666   -999.2500   2569.8000      7.2415    -38.2100
200.7000        156.0000      0.0489   -999.2500   -999.2500      7.8096      7.7666   -999.2500   2569.8000      7.2415    -38.2100
200.8000        155.6250      0.0492   -999.2500   -999.2500      7.8746      7.8024   -999.2500   2580.5000      6.9411    -37.7400
200.9000        155.6250      0.0473   -999.2500   -999.2500      7.8746      7.8024   -999.2500   2580.5000      6.9411    -37.7400
201.0000        155.8500      0.0461   -999.2500   -999.2500      8.0284      8.5237   -999.2500   2583.7000      7.8674    -33.2800
201.1000        155.8500      0.0479   -999.2500   -999.2500      8.0284      8.5237   -999.2500   2583.7000      7.8674    -33.2800
201.2000        156.1250      0.0480   -999.2500   -999.2500      8.1102      9.9869   -999.2500   2589.7000     12.2301    -31.3400
201.3000        156.1250      0.0456   -999.2500   -999.2500      8.1102      9.9869   -999.2500   2589.7000     12.2301    -31.3400
201.4000        155.8500      0.0423   -999.2500   -999.2500      8.1701     10.8901   -999.2500   2597.6001     15.2978    -29.4500
201.5000        155.8500      0.0373   -999.2500   -999.2500      8.1701     10.8901   -999.2500   2597.6001     15.2978    -29.4500
201.6000        155.4500      0.0330   -999.2500   -999.2500      8.3682     11.2987   -999.2500   2579.8999     15.6975    -24.8600
201.7000        155.4500      0.0330   -999.2500   -999.2500      8.3682     11.2987   -999.2500   2579.8999     15.6975    -24.8600
201.8000        155.5250      0.0330   -999.2500   -999.2500      8.3836     11.4138   -999.2500   2571.7000   -999.2500    -23.5700
201.9000        155.5250      0.0318   -999.2500   -999.2500      8.3836     11.4138   -999.2500   2571.7000   -999.2500    -23.5700
202.0000        155.8750      0.0336   -999.2500   -999.2500      8.6503     11.4665   -999.2500   2565.8000   -999.2500    -23.2100
202.1000        155.8750      0.0323   -999.2500   -999.2500      8.6503     11.4665   -999.2500   2565.8000   -999.2500    -23.2100
202.2000        157.2250      0.0317   -999.2500   -999.2500     10.2289     11.4243   -999.2500   2577.7000   -999.2500    -23.0300
202.3000        157.2250      0.0333   -999.2500   -999.2500     10.2289     11.4243   -999.2500   2577.7000   -999.2500    -23.0300
202.4000        157.7000      0.0351   -999.2500   -999.2500     10.5640     11.4454   -999.2500   2567.3999   -999.2500    -23.0200
202.5000        157.7000      0.0397   -999.2500   -999.2500     10.5640     11.4454   -999.2500   2567.3999   -999.2500    -23.0200
202.6000        157.7500      0.0445   -999.2500   -999.2500     13.1653     11.4559   -999.2500   2551.0000   -999.2500    -20.9400
202.7000        157.7500      0.0448   -999.2500   -999.2500     13.1653     11.4559   -999.2500   2551.0000   -999.2500    -20.9400
202.8000        157.1000      0.0440   -999.2500   -999.2500     16.5436     14.1850   -999.2500   2528.7000   -999.2500    -19.8100
202.9000        157.1000      0.0447   -999.2500   -999.2500     16.5436     14.1850   -999.2500   2528.7000   -999.2500    -19.8100
203.0000        157.0750      0.0492   -999.2500   -999.2500   -999.2500   -999.2500   -999.2500   2523.0000   -999.2500   -999.2500
203.1000        157.0750   -999.2500   -999.2500   -999.2500   -999.2500   -999.2500   -999.2500   2523.0000   -999.2500   -999.2500
203.2000        157.1750   -999.2500   -999.2500   -999.2500   -999.2500   -999.2500   -999.2500   2523.0000   -999.2500   -999.2500
203.3000        157.1750   -999.2500   -999.2500   -999.2500   -999.2500   -999.2500   -999.2500   2523.0000   -999.2500   -999.2500
203.4000        156.1000   -999.2500   -999.2500   -999.2500   -999.2500   -999.2500   -999.2500   2523.0000   -999.2500   -999.2500
