~Version : LASO    vs 4.00
VERS.                2.00:   CWLS Log ASCII Standard -VERSION 2.0
WRAP.                  NO:
~Well Information Block
#MNEM.UNIT       Data                        Description of Mnemonic
#----.----      -------------------------- : -----------------------------
STRT.M             3.0000:
STOP.M           202.0000:
STEP.M             0.1250:
NULL.           -999.2500:
COMP.  MOBILOIL CANADA             :COMPANY
WELL.  MOBIL CLARKE OV 10-26       :WELL
FLD.   CLARKE                      :FIELD
LOC.   10-26-090-07W4              :LOCATION
CTRY.  CANADA                      :COUNTRY
PROV.  ALBERTA                     :PROVINCE
SRVC.  DRESSER ATLAS               :SERVICE COMPANY
DATE.  31-JAN-81                   :LOG DATE
UWI.   AA/10-26-090-07W400         :UNIQUE WELL ID
~Parameter Information Block
#MNEM.UNIT       Data                        Description of Mnemonic
#----.----      -------------------------- : -----------------------------
RUN .                   1                 : Run Number
GL  .M           456.0000                 : Ground Level Elevation
DREF.                  KB                 : Depth Reference
EREF.M           456.0000                 : Elevation of Depth Reference
TDL .M           201.0000                 : Total Depth Logger
TDD .M           203.0000                 : Total Depth Driller
CSGL.M            13.0000                 : Casing Bottom Logger
CSGD.M            12.0000                 : Casing Bottom Driller
CSGS.MM          219.0000                 : Casing Size
CSGW.KG/M          0.0000                 : Casing Weight
BHT .DEGC         18.0000                 : Bottom Hole Temperature
BS  .MM          171.4000                 : Bit Size
DFD .              9.7000                 : Mud Weight (Density)
DFV .             85.0000                 : Mud Viscosity
RM  .OHMM          4.0000                 : Mud Resistivity
RMT .DEGC         18.0000                 : Mud Resistivity Temperature
RMF .OHMM          6.2000                 : Mud Filtrate Resistivity
RMFT.DEGC         12.0000                 : RMF Temperature
RMC .OHMM         11.6000                 : Mud Cake Resistivity
RMCT.DEGC         12.0000                 : RMC Temperature
~Curve Information Block
#MNEM.UNIT        API CODE    Curve Description
#---------    ------------    -------------------------------------------
DEPT.M                    :   DEPTH
CALI.MM       42 280  1  1:   3 DENSITY CALIPER
DPHI.V/V                  :   DPHI
DT  .US/M     60 520 42  1:   2 SONIC INTERVAL TRANSIT TIME (COMPENSATED)
GR  .GAPI     42 310  1  1:   4 GAMMA RAY
LLD .Ohmm                 :   LLD
NPHI.V/V      42 890  3  1:   5 NEUTRON POROSITY (SANDSTONE)
RHOB.K/M3     42 350  1  1:   6 BULK DENSITY
~A  Depth           CALI        DPHI          DT          GR         LLD        NPHI        RHOB
# ...
158.6250        162.5500      0.2465    422.0800     80.1750    152.8042      0.3590   2227.5000
158.7500        165.9250      0.2505    423.0400     82.2000    144.3070      0.3616   2233.0000
158.8750        166.2250      0.2548    423.0400     81.4650    135.6035      0.3650   2245.2000
159.0000        166.5250      0.2572    428.9600     91.0500    126.6292      0.3709   2252.6001
159.1250        169.3000      0.2562    433.8400     95.2800    118.8172      0.3822   2256.8999
159.2500        174.5000      0.2539    442.9200     95.1000    112.8517      0.3968   2256.2000
159.3750        182.4750      0.2514    442.1600     89.9400    107.8748      0.3987   2255.6001
159.5000        185.5250      0.2468    439.7200     86.8050    105.6856      0.3991   2253.2000
159.6250        178.1750      0.2429    436.5200     86.6250    105.5784      0.3931   2250.1001
159.7500        175.4250      0.2403    427.2400     86.9850    105.6575      0.3968   2239.1001
159.8750        168.3750      0.2399    424.0400     86.9850    106.6979      0.3957   2220.8000
160.0000        165.3000      0.2407    422.0800     89.3850    110.7318      0.3953   2214.6001
160.1250        164.3750      0.2455    424.0400     88.8300    116.0090      0.3938   2226.8999
160.2500        165.3000      0.2509    421.3600     91.0500    119.2810      0.3889   2241.6001
160.3750        165.0000      0.2581    423.5600     91.9650    124.4018      0.3927   2263.6001
160.5000        170.8250      0.2579    431.1600     94.3650    129.7076      0.3983   2266.7000
160.6250        173.8750      0.2519    436.5200     90.8550    134.1562      0.4002   2246.5000
160.7500        174.5000      0.2466    437.2800     88.0950    143.0899      0.4039   2223.8000
160.8750        176.0250      0.2422    437.0400     86.2500    159.9031      0.3968   2196.3000
161.0000        179.1000      0.2440    437.5200     86.4300    177.7397      0.3889   2160.8000
161.1250        176.9500      0.2518    434.8400     82.2000    192.6517      0.3871   2158.3000
161.2500        165.9250      0.2636    435.0800     77.7750    206.0103      0.3792   2170.6001
161.3750        159.8000      0.2755    432.1200     65.8050    217.0276      0.3777   2192.0000
161.5000        158.8750      0.2875    431.6400     59.1600    218.8351      0.3799   2172.3999
161.6250        157.6500      0.2927    429.2000     56.5800    216.8194      0.3788   2149.8000
161.7500        158.8750      0.2940    423.0400     54.5550    215.3683      0.3728   2140.6001
161.8750        162.2500      0.2891    416.2000     54.3750    210.4759      0.3769   2136.8999
162.0000        165.0000      0.2902    411.2800     51.6150    203.6779      0.3788   2137.5000
162.1250        166.8500      0.2998    407.3600     50.5050    198.6771      0.3773   2149.2000
162.2500        166.8500      0.3050    413.2400     53.8200    192.8565      0.3728   2158.8999
162.3750        166.2250      0.3087    417.9200     63.2250    187.8699      0.3687   2176.1001
162.5000        163.7750      0.3094    423.3200     72.6150    183.8348      0.3758   2189.5000
162.6250        164.0750      0.3066    424.5200     74.6400    179.0281      0.3867   2195.1001
162.7500        164.7000      0.3041    434.0800     72.2550    173.2875      0.3934   2197.5000
162.8750        165.9250      0.3007    433.1200     69.6750    168.2577      0.3919   2185.8999
163.0000        165.0000      0.2960    429.2000     68.1900    164.1536      0.3912   2175.5000
163.1250        160.4000      0.2921    426.9600     71.7000    166.9405      0.4006   2168.7000
163.2500        159.1750      0.2874    433.3600     68.5650    178.3685      0.4088   2156.5000
163.3750        159.8000      0.2824    435.0800     68.1900    192.3435      0.4016   2147.3000
163.5000        161.0250      0.2830    432.8800     62.8500    204.4631      0.3938   2146.1001
163.6250        161.0250      0.2889    431.4000     67.4550    220.4245      0.3897   2148.5000
163.7500        160.4000      0.2976    434.8400     73.3500    232.9982      0.3848   2152.2000
163.8750        158.5750      0.3012    437.0400     71.8800    242.0001      0.3852   2161.3999
164.0000        157.6500      0.3025    443.4000     66.9000    249.6065      0.3852   2153.3999
164.1250        157.6500      0.3036    438.7600     63.7650    255.6280      0.3908   2128.3000
164.2500        162.5500      0.3047    421.8400     62.6700    259.4659      0.3968   2114.8999
164.3750        165.9250      0.3058    422.3200     58.0650    260.9795      0.3976   2110.6001
164.5000        170.5250      0.3107    418.8800     54.3750    250.1563      0.4016   2107.5000
164.6250        177.2500      0.3153    409.5600     49.7700    236.8201      0.3908   2114.8999
164.7500        170.2000      0.3207    403.4400     49.0350    222.6366      0.3623   2134.5000
164.8750        163.7750      0.3247    406.6400     54.3750    212.2045      0.3582   2166.3000
165.0000        164.0750      0.3266    408.6000     60.2700    201.0696      0.3597   2192.6001
165.1250        166.2250      0.3250    408.1200     64.6950    188.6906      0.3642   2188.8999
165.2500        167.7500      0.3217    417.4400     63.0300    169.4112      0.3590   2176.7000
165.3750        167.1500      0.3180    414.7200     63.5850    159.5609      0.3548   2162.0000
165.5000        167.1500      0.3081    416.9200     69.3000    152.3113      0.3593   2164.5000
165.6250        165.6250      0.2979    420.8400     75.0150    147.0357      0.3631   2180.3999
165.7500        165.0000      0.2830    419.4000     78.6900    143.6982      0.3653   2192.6001
165.8750        166.8500      0.2822    415.4800     79.2450    142.3390      0.3642   2206.7000
166.0000        172.0500      0.2855    413.7600     77.9550    140.8340      0.3698   2217.7000
166.1250        170.5250      0.2901    414.0000     75.3750    146.3037      0.3811   2218.8999
166.2500        166.5250      0.2880    422.8000     72.4350    152.2291      0.3957   2209.7000
166.3750        164.7000      0.2808    428.6800     67.8300    158.0140      0.3949   2187.7000
166.5000        160.7000      0.2757    427.2400     64.3200    162.4634      0.3957   2173.6001
166.6250        157.6500      0.2719    426.0000     57.1350    167.5437      0.3987   2165.7000
166.7500        160.4000      0.2670    425.7600     51.2400    172.0639      0.4058   2150.3999
166.8750        159.1750      0.2655    432.6000     42.9450    174.3437      0.3998   2130.8000
167.0000        163.4750      0.2736    435.0800     42.5850    175.3016      0.4006   2126.5000
167.1250        165.3000      0.2815    436.0400     47.7450    175.5848      0.4051   2131.3999
167.2500        165.0000      0.2867    437.7600     52.3500    175.7311      0.4066   2130.2000
167.3750        164.7000      0.2931    433.3600     51.0600    176.6398      0.4091   2133.2000
167.5000        163.4750      0.2998    422.5600     46.8150    175.9322      0.4009   2146.7000
167.6250        161.6250      0.3054    423.0400     46.8150    173.0177      0.3949   2158.3000
167.7500        159.1750      0.3110    422.8000     46.4550    170.0840      0.3901   2164.5000
167.8750        158.2500      0.3125    421.3600     51.2400    162.4205      0.3848   2176.7000
168.0000        158.8750      0.3137    423.8000     62.4750    158.2759      0.3826   2184.0000
168.1250        161.9250      0.3148    424.2800     67.8300    159.0165      0.3777   2183.3999
168.2500        162.8500      0.3099    415.2000     69.6750    163.0604      0.3702   2178.5000
168.3750        161.0250      0.3028    421.3600     67.8300    167.3272      0.3638   2185.8999
168.5000        159.4750      0.2942    424.5200     67.2750    171.6043      0.3702   2187.7000
168.6250        159.1750      0.2887    421.8400     69.4800    176.7391      0.3679   2183.3999
168.7500        159.4750      0.2847    402.4800     67.4550    182.0490      0.3653   2178.5000
168.8750        160.1000      0.2809    395.8400     65.6100    186.4906      0.3653   2186.5000
