~VERSION INFORMATION
 VERS.                 2.0:   CWLS LOG ASCII STANDARD -VERSION 2.0
 WRAP.                  NO:   ONE LINE PER DEPTH STEP
~WELL INFORMATION BLOCK
#MNEM.UNIT           DATA                    DESCRIPTION OF MNEMONIC
#---------    -------------------            -------------------------------
# Generated from Intellog Unique Number	CW_82_90/WELL/3435
WELL.         CDN SUP                        : Well_name    - WELL
LOC .         AA/10-02-090-24W4/0            : Location     - LOCATION
UWI .         AA/10-02-090-24W4/0            : Uwi          - UNIQUE WELL ID
ENTR.         MAX                            : Entered      - ENTERED BY
SRVC.         SCHLUMBERGER                   : Scn          - SERVICE COMPANY
STRT.M        173                            : top_depth    - START DEPTH
STOP.M        293                            : bot_depth    - STOP DEPTH
STEP.M        0.25                           : increment    - STEP LENGTH
 NULL. -999.2500:NULL Value
~CURVE INFORMATION BLOCK
#MNEM UNIT       ERCB CURVE CODE    CURVE DESCRIPTION
#-----------   ------------------   ----------------------------------
DEPT.M        00 001 00 00         : DEPTH        - DEPTH
ILD .OHMM     00 120 00 00         : RESD         - DEEP RESISTIVITY (DIL)
NPHI.V/V      00 330 00 00         : PHIN         - NEUTRON POROSITY (SANDSTONE)
DPHI.V/V      00 890 00 00         : PHID         - DENSITY POROSITY (SANDSTONE)
CALI.MM       00 280 01 00         : CAL          - CALIPER
GR  .API      00 310 00 00         : GR           - GAMMA RAY
~PARAMETER INFORMATION
#MNEM.UNIT           DATA             DESCRIPTION OF MNEMONIC
#---------         -----------     ------------------------------
GL  .M        512                  : gl           - GROUND LEVEL ELEVATION
EREF.M        515.5                : kb           - ELEVATION OF DEPTH REFERENCE
DATM.M        512                  : datum        - DATUM ELEVATION
TDD .M        320                  : tdd          - TOTAL DEPTH DRILLER
RUN .         ONE                  : Run          - RUN NUMBER
ENG .         BILL                 : Engineer     - RECORDING ENGINEER
WIT .         JIM                  : Witness      - WITNESSED BY
MUD .         GEL                  : Mud_type     - MUD TYPE
MATR.         SANDSTONE            : Logunit      - NEUTRON MATRIX
TMAX.C        16                   : BHT          - MAXIMUM RECORDED TEMPERATURE
BHTD.M        320                  : BHTDEP       - MAXIMUM RECORDED TEMPERATURE
MATR.         1                    : LOGUNIT      - NEUTRON MATRIX
RMT .C        16                   : MDTP         - TEMPERATURE OF MUD
NEUT.         1                    : NEUTRON      - NEUTRON TYPE
RESI.         0                    : RESIST       - RESISTIVITY TYPE
RMC .OHMM     2.61                 : RMC          - RESISTIVITY OF MUD CAKE
RMF .OHMM     2.61                 : RMF          - RESISTIVITY OF MUD FILTRATE
SUFT.C        -15                  : SUFT         - SURFACE TEMPERATURE
~A  DEPTH     RESD     PHIN     PHID      CAL       GR
# ...
  246.000   10.025    0.471    0.188  202.219   93.556
  246.250    9.929    0.472    0.179  200.180   94.451
  246.500    9.305    0.474    0.174  200.166   97.469
  246.750    9.131    0.475    0.150  201.154   98.365
  247.000    9.468    0.457    0.129  199.619   99.565
  247.250    9.817    0.438    0.135  199.098  101.976
  247.500   10.087    0.446    0.193  199.077  100.754
  247.750   10.554    0.463    0.185  198.556   98.623
  248.000   10.746    0.472    0.196  198.031   97.099
  248.250   10.353    0.455    0.209  197.510   93.151
  248.500    9.526    0.443    0.211  195.973   91.627
  248.750    9.609    0.443    0.210  195.455   93.127
  249.000   10.824    0.435    0.208  195.434   93.418
  249.250   11.751    0.432    0.200  195.410   93.106
  249.500   12.758    0.429    0.187  195.394   92.187
  249.750   13.977    0.422    0.155  195.375   88.240
  250.000   15.176    0.382    0.128  195.359   79.753
  250.250   16.325    0.288    0.105  195.340   70.659
  250.500   19.430    0.251    0.085  195.322   67.619
  250.750   24.662    0.222    0.041  195.301   66.701
  251.000   29.352    0.211    0.006  195.282   65.782
  251.250   35.912    0.222    0.000  195.263   64.256
  251.500   45.584    0.239    0.007  195.242   64.547
  251.750   51.811    0.234    0.006  195.224   66.958
  252.000   52.749    0.223    0.008  195.205   70.579
  252.250   51.288    0.254    0.009  195.186   75.110
  252.500   47.629    0.279    0.018  195.168   75.099
  252.750   38.891    0.299    0.047  195.147   75.692
  253.000   33.249    0.316    0.067  195.130   77.494
  253.250   28.164    0.365    0.060  195.112   75.064
  253.500   23.640    0.402    0.046  194.084   70.208
  253.750   19.480    0.378    0.045  193.054   74.739
  254.000   17.598    0.359    0.011  193.040   84.414
  254.250   18.247    0.403    0.059  196.546   91.969
  254.500   18.922    0.432    0.109  197.536   96.803
  254.750   16.326    0.448    0.157  197.517   98.607
  255.000   13.454    0.462    0.164  196.997   97.689
  255.250   10.492    0.444    0.149  196.978   93.440
  255.500    9.306    0.439    0.145  197.966   92.519
  255.750   10.578    0.433    0.132  197.952   96.443
  256.000   11.806    0.455    0.129  198.942   99.158
  256.250   12.816    0.468    0.158  198.921   97.631
  256.500   12.011    0.455    0.152  199.914   93.079
  256.750   11.362    0.442    0.135  199.888   91.555
  257.000   11.780    0.436    0.116  198.361   95.176
  257.250   12.215    0.440    0.098  198.340   94.257
  257.500   12.551    0.457    0.125  198.323   93.035
  257.750   12.545    0.465    0.144  198.305   93.023
  258.000   11.976    0.465    0.147  197.779   93.010
  258.250   11.431    0.455    0.127  197.763   91.790
  258.500   11.426    0.443    0.100  197.742   93.291
  258.750   11.847    0.437    0.084  197.725   96.304
  259.000   12.285    0.429    0.130  197.202   95.388
  259.250   12.279    0.439    0.160  197.181   92.348
  259.500   11.938    0.452    0.137  197.665   89.612
  259.750   12.153    0.446    0.133  197.648   87.180
  260.000   12.373    0.443    0.123  198.130   85.352
  260.250   12.947    0.433    0.115  198.116   84.433
  260.500   12.942    0.447    0.160  197.590   84.423
  260.750   12.017    0.462    0.151  197.571   84.407
  261.000   11.368    0.464    0.131  197.046   84.701
  261.250   10.850    0.439    0.120  197.030   84.691
  261.500   11.149    0.437    0.143  197.013   84.377
  261.750   11.560    0.446    0.160  196.990   84.365
  262.000   11.555    0.455    0.163  196.974   84.657
  262.250   10.928    0.449    0.142  196.953   86.158
  262.500   10.823    0.430    0.121  196.932   87.358
  262.750   11.018    0.410    0.121  196.413   89.768
  263.000   11.425    0.410    0.143  196.392   92.480
  263.250   11.631    0.416    0.161  196.373   94.288
  263.500   11.520    0.418    0.179  196.357   95.487
  263.750   11.201    0.417    0.160  196.336   89.421
  264.000   10.692    0.391    0.173  195.308   80.631
  264.250   10.589    0.387    0.169  194.276   73.657
  264.500   11.183    0.407    0.178  193.755   68.499
  264.750   11.921    0.386    0.145  193.739   71.514
  265.000   13.061    0.376    0.105  193.718   75.137
  265.250   14.050    0.363    0.110  193.701   81.180
  265.500   14.975    0.367    0.144  194.185   88.131
  265.750   15.672    0.393    0.210  194.169   89.634
  266.000   16.103    0.400    0.272  194.647   84.474
  266.250   16.393    0.415    0.319  194.636   81.134
  266.500   16.235    0.435    0.366  194.615   80.213
  266.750   15.785    0.466    0.407  194.594   81.717
  267.000   14.931    0.477    0.333  194.575   84.127
  267.250   14.517    0.440    0.260  194.554   89.262
  267.500   13.858    0.415    0.200  195.042   90.462
  267.750   13.351    0.383    0.160  195.528   88.937
  268.000   11.841    0.366    0.183  195.512   88.926
  268.250   11.514    0.374    0.168  195.995   91.032
  268.500   11.403    0.372    0.173  192.952   94.957
  268.750   11.293    0.369    0.185  187.886  100.999
  269.000   11.287    0.369    0.165  186.351  107.041
  269.250   11.281    0.364    0.164  184.819  110.965
  269.500   11.380    0.350    0.177  183.791  107.323
  269.750   11.270    0.331    0.181  180.743  103.374
  270.000   11.059    0.336    0.189  178.711  101.547
  270.250   10.952    0.328    0.190  175.158   99.115
  270.500   10.846    0.316    0.145  172.617   97.891
  270.750   10.941    0.301    0.117  170.078   97.580
  271.000   11.345    0.299    0.085  168.543  100.293
  271.250   11.655    0.322    0.073  168.020  106.336
  271.500   11.543    0.354    0.152  170.017  109.653
  271.750   11.018    0.386    0.197  172.521  114.183
  272.000   10.422    0.370    0.206  171.491  118.408
  272.250    9.859    0.359    0.177  170.468  119.305
  272.500    9.325    0.363    0.163  170.449  119.595
  272.750    9.067    0.384    0.149  170.933  120.191
  273.000    8.576    0.410    0.187  173.944  117.759
  273.250    8.038    0.413    0.202  177.454  113.208
  273.500    7.396    0.399    0.202  178.949  112.288
  273.750    6.868    0.399    0.200  179.935  113.488
  274.000    6.678    0.408    0.196  180.423  112.871
  274.250    6.553    0.404    0.190  180.404  110.134
  274.500    6.610    0.393    0.182  179.884  107.096
  274.750    7.377    0.377    0.171  175.322  101.939
  275.000    8.620    0.340    0.138  172.279  106.468
  275.250    9.273    0.368    0.115  170.242  115.236
  275.500    9.615    0.382    0.145  173.755  115.526
  275.750    9.348    0.394    0.203  177.768  114.606
  276.000    8.216    0.408    0.204  177.751  113.082
  276.250    7.771    0.411    0.180  176.721  106.715
  276.500    7.984    0.385    0.154  174.182   97.620
  276.750    8.355    0.356    0.127  170.632  103.664
  277.000    8.906    0.363    0.108  172.122  109.706
  277.250    8.820    0.365    0.122  175.131  113.934
  277.500    8.266    0.366    0.165  177.637  119.673
  277.750    7.891    0.368    0.186  180.141  121.176
  278.000    7.532    0.372    0.183  182.640  122.070
  278.250    7.257    0.374    0.176  184.142  122.061
  278.500    7.188    0.378    0.176  185.130  123.260
  278.750    7.118    0.378    0.191  185.616  127.790
  279.000    7.114    0.369    0.193  185.592  127.173
  279.250    7.045    0.352    0.185  186.081  125.044
  279.500    7.042    0.351    0.180  187.576  122.910
  279.750    7.103    0.355    0.173  187.050  119.269
  280.000    7.630    0.356    0.172  194.489  118.651
  280.250    7.907    0.352    0.173  193.442  117.176
  280.500    8.046    0.347    0.173  190.396  118.693
  280.750    8.042    0.340    0.163  186.844  120.210
  281.000    7.540    0.342    0.154  183.791  119.336
  281.250    6.511    0.351    0.132  182.256  117.568
  281.500    6.332    0.348    0.113  179.697  114.602
  281.750    6.214    0.344    0.100  178.650  112.530
  282.000    6.324    0.342    0.128  177.609  112.256
  282.250    6.674    0.372    0.144  177.062  109.888
