~VERSION INFORMATION
 VERS.                 2.0:   CWLS LOG ASCII STANDARD -VERSION 2.0
 WRAP.                  NO:   ONE LINE PER DEPTH STEP
~WELL INFORMATION BLOCK
#MNEM.UNIT           DATA                    DESCRIPTION OF MNEMONIC
#---------    -------------------            -------------------------------
# Generated from Intellog Unique Number	CX_WELLS/WELL/1170
WELL.         10-11-088-16W4                 : Well_name    - WELL
LOC .         AA/10-11-088-16W4/0            : Location     - LOCATION
UWI .         AA/10-11-088-16W400            : Uwi          - UNIQUE WELL ID
ENTR.         DW                             : Entered      - ENTERED BY
SRVC.         SCHLUMBERGER                   : Scn          - SERVICE COMPANY
STRT.M        75                             : top_depth    - START DEPTH
STOP.M        275                            : bot_depth    - STOP DEPTH
STEP.M        0.25                           : increment    - STEP LENGTH
 NULL. -999.2500:NULL Value
~CURVE INFORMATION BLOCK
#MNEM UNIT       ERCB CURVE CODE    CURVE DESCRIPTION
#-----------   ------------------   ----------------------------------
DEPT.M        00 001 00 00         : DEPTH        - DEPTH
GR  .API      00 310 00 00         : GR           - GAMMA RAY
NPHI.V/V      00 330 00 00         : PHIN         - NEUTRON POROSITY (SANDSTONE)
DPHI.V/V      00 890 00 00         : PHID         - DENSITY POROSITY (SANDSTONE)
ILD .OHMM     00 120 00 00         : RESD         - DEEP RESISTIVITY (DIL)
~PARAMETER INFORMATION
#MNEM.UNIT           DATA             DESCRIPTION OF MNEMONIC
#---------         -----------     ------------------------------
GL  .M        537.9                : gl           - GROUND LEVEL ELEVATION
EREF.M        540.9                : kb           - ELEVATION OF DEPTH REFERENCE
DATM.M        540.9                : datum        - DATUM ELEVATION
TDD .M        283.7                : tdd          - TOTAL DEPTH DRILLER
RUN .         ONE                  : Run          - RUN NUMBER
ENG .         BILL                 : Engineer     - RECORDING ENGINEER
WIT .         JIM                  : Witness      - WITNESSED BY
MUD .         GEL                  : Mud_type     - MUD TYPE
MATR.         SANDSTONE            : Logunit      - NEUTRON MATRIX
TMAX.C        25                   : BHT          - MAXIMUM RECORDED TEMPERATURE
BHTD.M        283.7                : BHTDEP       - MAXIMUM RECORDED TEMPERATURE
MATR.         1                    : LOGUNIT      - NEUTRON MATRIX
RMT .C        25                   : MDTP         - TEMPERATURE OF MUD
NEUT.         1                    : NEUTRON      - NEUTRON TYPE
RESI.         0                    : RESIST       - RESISTIVITY TYPE
RMC .OHMM     0.25                 : RMC          - RESISTIVITY OF MUD CAKE
RMF .OHMM     0.25                 : RMF          - RESISTIVITY OF MUD FILTRATE
SUFT.C        15                   : SUFT         - SURFACE TEMPERATURE
~A  DEPTH       GR     PHIN     PHID     RESD
   75.000  109.191    0.515    0.242    5.192
   75.250  108.649    0.484    0.244    5.297
   75.500  105.184    0.493    0.254    5.403
   75.750  101.708    0.502    0.268    5.515
   76.000  101.155    0.510    0.271    5.627
   76.250  101.786    0.499    0.271    5.739
   76.500  102.418    0.475    0.262    5.970
   76.750  102.474    0.465    0.254    5.978
   77.000  100.758    0.443    0.251    6.102
   77.250   94.359    0.452    0.251    6.227
   77.500   91.447    0.458    0.251    6.350
   77.750   85.037    0.443    0.291    6.974
   78.000   79.214    0.437    0.329    7.660
   78.250   71.043    0.469    0.374    8.252
   78.500   64.046    0.492    0.392    9.396
   78.750   59.408    0.483    0.394   12.384
   79.000   61.202    0.452    0.363   16.328
   79.250   64.778    0.423    0.330   18.255
   79.500   68.344    0.372    0.343   18.298
   79.750   68.389    0.382    0.361   16.739
   80.000   68.433    0.390    0.372   15.867
   80.250   71.434    0.402    0.385   15.049
   80.500   72.044    0.406    0.389   14.536
   80.750   73.262    0.417    0.373   14.034
   81.000   72.144    0.418    0.349   13.568
   81.250   72.776    0.413    0.290   13.837
   81.500   75.179    0.413    0.265   14.645
   81.750   75.811    0.426    0.271   15.499
   82.000   74.084    0.440    0.294   16.106
   82.250   71.792    0.458    0.311   17.360
   82.500   72.999    0.458    0.314   18.373
   82.750   74.805    0.438    0.306   18.099
   83.000   78.370    0.432    0.294   16.242
   83.250   88.402    0.446    0.271   14.575
   83.500   96.662    0.480    0.261   12.842
   83.750  104.335    0.501    0.264   10.915
   84.000  110.846    0.538    0.274    9.280
   84.250  115.009    0.565    0.282    7.884
   84.500  116.803    0.560    0.290    6.579
   84.750  116.261    0.560    0.275    5.293
   85.000  112.198    0.570    0.265    4.583
   85.250  111.081    0.582    0.252    4.189
   85.500  113.461    0.593    0.224    4.048
   85.750  117.049    0.608    0.213    3.980
   86.000  117.083    0.588    0.206    3.991
   86.250  117.139    0.573    0.190    3.997
   86.500  117.195    0.559    0.191    3.930
   86.750  117.826    0.549    0.215    3.733
   87.000  117.849    0.560    0.229    3.667
   87.250  117.893    0.572    0.249    3.542
   87.500  117.938    0.549    0.253    3.360
   87.750  115.060    0.530    0.251    3.304
   88.000  101.010    0.539    0.241    3.373
   88.250   96.360    0.556    0.224    3.636
   88.500   91.710    0.552    0.191    3.919
   88.750   86.474    0.505    0.190    3.928
   89.000   85.345    0.541    0.252    3.864
   89.250   93.605    0.582    0.271    3.732
   89.500   99.529    0.588    0.277    3.605
   89.750   94.879    0.573    0.284    3.545
   90.000   94.924    0.480    0.291    3.617
   90.250   99.076    0.459    0.291    4.769
   90.500  100.882    0.436    0.289    6.639
   90.750   97.405    0.430    0.284    9.769
   91.000   90.995    0.428    0.283   12.875
   91.250   86.345    0.430    0.285   14.937
   91.500   81.696    0.431    0.288   16.115
   91.750   75.872    0.433    0.299   16.739
   92.000   71.222    0.436    0.309   17.386
   92.250   69.518    0.438    0.320   18.418
   92.500   69.563    0.440    0.330   18.775
   92.750   69.596    0.437    0.335   19.889
   93.000   67.892    0.424    0.336   20.285
   93.250   67.925    0.412    0.337   21.874
   93.500   67.383    0.410    0.343   22.309
   93.750   67.439    0.417    0.349   23.622
   94.000   67.472    0.419    0.353   24.102
   94.250   67.540    0.419    0.352   25.058
   94.500   67.573    0.420    0.345   25.093
   94.750   67.618    0.425    0.334   26.076
   95.000   67.076    0.429    0.325   26.607
   95.250   67.121    0.414    0.320   27.161
   95.500   67.165    0.409    0.317   27.212
   95.750   66.634    0.419    0.324   27.250
   96.000   66.081    0.433    0.328   27.817
   96.250   65.539    0.438    0.330   28.920
   96.500   63.823    0.434    0.335   29.523
   96.750   62.119    0.422    0.336   30.109
   97.000   61.577    0.415    0.340   30.708
   97.250   61.621    0.412    0.343   31.925
   97.500   62.253    0.412    0.347   32.560
   97.750   63.482    0.416    0.345   33.223
   98.000   64.701    0.420    0.343   33.300
   98.250   67.093    0.423    0.338   31.024
   98.500   69.473    0.424    0.333   29.939
   98.750   75.409    0.432    0.327   26.879
   99.000   76.616    0.448    0.322   20.471
   99.250   77.834    0.459    0.321   17.083
   99.500   79.639    0.473    0.321   16.209
   99.750   80.858    0.478    0.321   16.539
  100.000   84.434    0.473    0.319   17.504
  100.250   82.132    0.440    0.316   17.860
  100.500   78.069    0.423    0.313   16.632
  100.750   78.712    0.425    0.308   15.207
  101.000   79.919    0.440    0.303   13.911
  101.250   81.137    0.419    0.302   13.431
  101.500   78.835    0.413    0.304   12.738
  101.750   74.185    0.411    0.307   13.249
  102.000   70.720    0.420    0.308   13.762
  102.250   68.406    0.435    0.322   14.558
  102.500   66.701    0.462    0.334   16.276
  102.750   64.997    0.476    0.351   18.196
  103.000   63.857    0.465    0.359   21.121
  103.250   63.913    0.458    0.363   22.787
  103.500   64.522    0.469    0.370   23.239
  103.750   65.153    0.480    0.377   23.690
  104.000   64.025    0.490    0.378   24.641
  104.250   62.331    0.482    0.369   25.119
  104.500   61.800    0.463    0.359   26.128
  104.750   61.834    0.448    0.360   26.659
  105.000   61.879    0.441    0.361   26.697
  105.250   61.934    0.437    0.361   26.746
  105.500   61.957    0.435    0.357   26.809
  105.750   62.013    0.429    0.356   26.372
  106.000   62.644    0.433    0.360   25.931
  106.250   62.689    0.469    0.372   22.455
  106.500   63.309    0.485    0.391   20.151
  106.750   63.963    0.507    0.405   18.091
  107.000   62.248    0.525    0.366   17.483
  107.250   59.358    0.434    0.349   17.507
  107.500   58.229    0.452    0.343   17.863
  107.750   58.861    0.474    0.346   18.572
  108.000   61.242    0.489    0.350   19.299
  108.250   63.047    0.486    0.358   20.435
  108.500   63.678    0.470    0.362   21.225
  108.750   61.962    0.459    0.357   23.322
  109.000   59.660    0.461    0.354   24.671
  109.250   57.369    0.467    0.356   26.592
  109.500   56.827    0.461    0.360   28.144
  109.750   56.871    0.454    0.362   29.260
  110.000   57.514    0.452    0.363   31.538
  110.250   58.732    0.454    0.363   34.010
  110.500   59.364    0.451    0.363   34.670
  110.750   59.995    0.450    0.362   36.045
  111.000   60.040    0.448    0.358   34.816
  111.250   60.096    0.450    0.353   33.019
  111.500   60.118    0.456    0.348   29.108
  111.750   60.185    0.460    0.343   23.839
  112.000   60.806    0.457    0.342   23.451
  112.250   61.437    0.442    0.345   25.289
  112.500   61.482    0.436    0.350   27.258
  112.750   61.538    0.443    0.355   28.848
  113.000   60.985    0.451    0.361   30.531
  113.250   59.867    0.445    0.361   32.358
  113.500   60.498    0.437    0.358   33.001
  113.750   62.315    0.432    0.356   33.047
  114.000   62.946    0.427    0.353   32.509
  114.250   62.991    0.423    0.351   31.980
  114.500   61.862    0.422    0.349   30.889
  114.750   60.146    0.418    0.354   29.850
  115.000   58.431    0.411    0.355   29.906
  115.250   59.638    0.419    0.356   29.961
  115.500   61.443    0.435    0.354   30.003
  115.750   62.661    0.447    0.353   29.515
  116.000   62.130    0.453    0.351   29.034
  116.250   61.577    0.449    0.349   29.102
  116.500   61.644    0.447    0.347   28.615
  116.750   62.287    0.442    0.350   28.682
  117.000   62.309    0.437    0.352   28.228
  117.250   63.550    0.433    0.358   28.268
  117.500   63.572    0.429    0.363   28.843
  117.750   63.617    0.428    0.363   28.897
  118.000   64.847    0.428    0.355   27.911
  118.250   66.652    0.429    0.352   26.471
