~VERSION INFORMATION
 VERS.                 2.0:   CWLS LOG ASCII STANDARD -VERSION 2.0
 WRAP.                  NO:   ONE LINE PER DEPTH STEP
~WELL INFORMATION BLOCK
#MNEM.UNIT           DATA                    DESCRIPTION OF MNEMONIC
#---------    -------------------            -------------------------------
# Generated from Intellog Unique Number	CN_94_101/WELL/3636
WELL.         10-27-096-13W4                 : Well_name    - WELL
LOC .         AA/10-27-096-13W4/0            : Location     - LOCATION
UWI .         AA/10-27-096-13W400            : Uwi          - UNIQUE WELL ID
ENTR.         J                              : Entered      - ENTERED BY
SRVC.         SCHLUMBERGER                   : Scn          - SERVICE COMPANY
DATE.         08/05/92                       : Date         - LOG DATE
STRT.F        100                            : top_depth    - START DEPTH
STOP.F        799.639                        : bot_depth    - STOP DEPTH
STEP.F        0.82                           : increment    - STEP LENGTH
 NULL. -999.2500:NULL Value
~CURVE INFORMATION BLOCK
#MNEM UNIT       ERCB CURVE CODE    CURVE DESCRIPTION
#-----------   ------------------   ----------------------------------
DEPT.F        00 001 00 00         : DEPTH        - DEPTH
ILD .OHMM     00 120 00 00         : RESD         - DEEP RESISTIVITY (DIL)
GR  .API      00 310 00 00         : GR           - GAMMA RAY
NPHI.V/V      00 330 00 00         : PHIN         - NEUTRON POROSITY (SANDSTONE)
~PARAMETER INFORMATION
#MNEM.UNIT           DATA             DESCRIPTION OF MNEMONIC
#---------         -----------     ------------------------------
GL  .M        430.012              : gl           - GROUND LEVEL ELEVATION
EREF.M        431.536              : kb           - ELEVATION OF DEPTH REFERENCE
DATM.M        431.536              : datum        - DATUM ELEVATION
TDD .M        248.107              : tdd          - TOTAL DEPTH DRILLER
RUN .         ONE                  : Run          - RUN NUMBER
ENG .         BILL                 : Engineer     - RECORDING ENGINEER
WIT .         JIM                  : Witness      - WITNESSED BY
MUD .         GEL                  : Mud_type     - MUD TYPE
MATR.         SANDSTONE            : Logunit      - NEUTRON MATRIX
TMAX.F        40                   : BHT          - MAXIMUM RECORDED TEMPERATURE
BHTD.F        814                  : BHTDEP       - MAXIMUM RECORDED TEMPERATURE
RMT .F        40                   : MDTP         - TEMPERATURE OF MUD
MUDD.LB/G     11.2                 : MWT          - MUD DENSITY
NEUT.         1                    : NEUTRON      - NEUTRON TYPE
RESI.         0                    : RESIST       - RESISTIVITY TYPE
RM  .OHMM     7.7                  : RM           - RESISTIVITY OF MUD
RMC .OHMM     7.7                  : RMC          - RESISTIVITY OF MUD CAKE
RMF .OHMM     7.7                  : RMF          - RESISTIVITY OF MUD FILTRATE
SUFT.F        39.2                 : SUFT         - SURFACE TEMPERATURE
~A  DEPTH     RESD       GR     PHIN
# ...
  633.957   13.906   39.615    0.376
  634.777   16.744   43.724    0.361
  635.597   26.581   39.681    0.369
  636.417   86.496   32.378    0.373
  637.238  132.351   29.974    0.392
  638.058  195.199   38.974    0.390
  638.878   32.777   45.528    0.406
  639.698   16.611   51.284    0.423
  640.518   17.917   53.754    0.435
  641.339   21.180   58.271    0.404
  642.159   27.960   34.657    0.394
  642.979   24.631   29.800    0.379
  643.799   23.781   29.833    0.369
  644.619   28.112   35.988    0.405
  645.440  125.132   41.319    0.419
  646.260  150.667   47.882    0.400
  647.080  214.182   50.768    0.384
  647.900  262.789   51.624    0.375
  648.720   68.630   51.649    0.362
  649.541   41.063   44.754    0.349
  650.361   30.082   27.254    0.362
  651.181   23.278   21.174    0.363
  652.001   14.187   19.178    0.368
  652.822   12.961   22.879    0.352
  653.642   21.347   28.219    0.365
  654.462   80.518   30.689    0.375
  655.282  116.538   41.327    0.371
  656.102   47.356   45.444    0.397
  656.923   23.142   37.318    0.408
  657.743   18.256   35.322    0.396
  658.563   18.626   39.023    0.387
  659.383   20.074   44.762    0.379
  660.203   30.716   49.278    0.391
  661.024   52.487   52.589    0.394
  661.844   91.355   46.908    0.397
  662.664  118.401   40.004    0.431
  663.484  134.904   31.886    0.440
  664.304  150.969   29.474    0.400
  665.125   68.510   29.507    0.387
  665.945   35.364   32.818    0.375
  666.765   16.657   35.704    0.372
  667.585   16.995   40.620    0.363
  668.406   19.011   50.442    0.357
  669.226   23.325   54.551    0.377
  670.046   27.573   43.988    0.514
  670.866   31.416   39.954    0.499
  671.686   48.964   38.349    0.487
  672.507   25.285   35.529    0.452
  673.327   20.300   33.117    0.402
  674.147   23.140   48.645    0.404
  674.967   27.862   50.317    0.399
  675.787   31.759   49.935    0.391
  676.608   85.973   47.115    0.397
  677.428   28.013   42.258    0.400
  678.248   18.034   39.446    0.398
  679.068   10.990   52.521    0.380
  679.888   10.041   54.185    0.351
  680.709  100.487   53.827    0.334
  681.529  148.203   33.466    0.376
  682.349  244.096   29.423    0.366
  683.169   30.533   29.457    0.365
  683.990   32.333   32.759    0.363
  684.810   34.862   35.229    0.367
  685.630   37.587   38.531    0.363
  686.450   41.279   41.018    0.355
  687.270   47.926   43.089    0.373
  688.091   29.184   47.206    0.384
  688.911   23.022   48.046    0.368
  689.731   24.832   53.785    0.373
  690.551   24.410   53.827    0.376
  691.371   24.471   52.637    0.378
  692.192   25.410   49.817    0.390
  693.012   26.909   49.044    0.389
  693.832   27.477   48.279    0.377
  694.652   28.531   48.287    0.366
  695.472   30.762   47.913    0.357
  696.293   38.444   46.740    0.352
  697.113   49.825   45.534    0.350
  697.933   73.485   39.046    0.355
  698.753   28.257   33.789    0.365
  699.573   20.323   35.852    0.372
  700.394   21.512   40.784    0.366
  701.214   25.902   43.271    0.359
  702.034    7.420   44.111    0.361
  702.854    7.573   44.552    0.373
  703.675    7.870   44.186    0.395
  704.495    7.466   51.963    0.433
  705.315    7.206   61.378    0.456
  706.135    6.830   74.861    0.463
  706.955    6.844   81.016    0.352
  707.776    6.850   84.309    0.285
  708.596    7.392   86.380    0.266
  709.416    7.821   82.746    0.248
  710.236    8.911   57.910    0.240
  711.056   10.934   51.014    0.245
  711.877   13.415   47.787    0.260
  712.697   15.864   43.337    0.269
  713.517   17.422   38.488    0.299
  714.337   18.434   34.030    0.308
  715.157   21.030   31.626    0.299
  715.978   19.554   31.252    0.309
  716.798   17.872   31.276    0.306
  717.618   16.941   30.495    0.287
  718.438   17.284   29.721    0.312
  719.259   18.636   30.170    0.311
  720.079   17.657   30.602    0.303
  720.899   14.993   31.867    0.307
  721.719   16.165   32.715    0.308
  722.539   10.034   31.925    0.313
  723.360    9.868   32.790    0.318
  724.180   10.255   35.676    0.313
  725.000   11.262   35.701    0.315
  725.820   11.286   36.158    0.328
  726.640    9.757   36.192    0.310
  727.461   10.332   35.410    0.295
  728.281   13.634   30.536    0.304
  729.101   21.250   22.418    0.329
  729.921   29.645   20.421    0.328
  730.741   18.402   23.316    0.317
  731.562   15.335   24.971    0.307
  732.382   15.943   27.050    0.306
  733.202   13.526   28.714    0.312
  734.022   11.694   28.755    0.321
  734.843   20.353   27.150    0.334
  735.663   29.471   25.145    0.346
  736.483   50.360   23.956    0.345
  737.303   54.297   23.956    0.354
  738.123   67.829   17.119    0.362
  738.944  113.791   18.350    0.371
  739.764  134.570   15.938    0.354
  740.584  108.084   13.126    0.351
  741.404   83.674   13.983    0.358
  742.224   75.052   14.407    0.361
  743.045   68.569   14.033    0.359
  743.865   62.645   16.520    0.339
  744.685   58.296   18.998    0.317
  745.505   49.480   19.032    0.314
  746.325   43.572   17.851    0.318
  747.146   29.114   16.661    0.311
  747.966   36.369   17.509    0.313
  748.786   53.639   19.580    0.314
  749.606   49.006   22.067    0.290
  750.427   32.744   22.907    0.281
  751.247   26.289   21.310    0.275
  752.067   22.728   17.268    0.302
  752.887   67.484   13.642    0.311
  753.707   66.364   13.683    0.312
  754.528   61.809   14.124    0.315
  755.348   63.062   14.157    0.325
  756.168   64.341   14.598    0.336
  756.988   43.753   15.030    0.329
  757.808   17.137   16.286    0.319
  758.629   21.814   17.559    0.307
  759.449   32.770   18.399    0.307
  760.269   36.657   20.470    0.334
  761.089   24.948   19.280    0.333
  761.909   22.793   20.545    0.338
  762.730   21.211   23.439    0.342
  763.550   18.678   25.918    0.351
  764.370   17.389   27.573    0.356
  765.190   18.063   28.421    0.350
  766.010   19.854   27.232    0.351
  766.831   19.525   22.374    0.342
  767.651   19.201   18.340    0.321
  768.471   19.233   17.558    0.320
  769.291   19.623   17.600    0.343
  770.112   27.386   18.032    0.341
  770.932   29.515   18.889    0.333
  771.752   41.957   19.330    0.335
  772.572   36.947   19.770    0.336
  773.392   35.687   20.619    0.327
  774.213   39.191   20.652    0.309
  775.033   43.840   20.694    0.316
  775.853   53.789   21.143    0.326
  776.673   64.766   21.159    0.325
  777.493   76.560   21.201    0.337
  778.314   82.546   21.642    0.335
  779.134   70.063   20.460    0.335
  779.954   57.319   19.679    0.338
  780.774   44.392   19.704    0.333
  781.594   44.467   19.737    0.330
  782.415   42.131   20.194    0.335
  783.235   43.021   20.618    0.356
  784.055   42.289   21.891    0.372
  784.875   45.634   22.748    0.360
  785.696   47.384   23.172    0.357
  786.516   50.200   25.650    0.375
  787.336   52.147   30.583    0.385
  788.156   46.773   35.507    0.379
  788.976   38.265   45.329    0.360
  789.797   31.886   75.123    0.339
  790.617   19.794   86.984    0.372
  791.437   12.282   99.252    0.352
  792.257    9.335  104.583    0.292
  793.077    7.497  102.171    0.245
  793.898    6.134   89.978    0.218
  794.718    4.174   83.082    0.190
  795.538    3.230   78.225    0.161
  796.358    2.410   74.590    0.170
  797.178    1.671  163.912    0.162
  797.999    8.945  156.609    0.158
  798.819   11.592  147.269    0.159
  799.639   15.303  140.365    0.163
