~VERSION INFORMATION
 VERS.                 2.0:   CWLS LOG ASCII STANDARD -VERSION 2.0
 WRAP.                  NO:   ONE LINE PER DEPTH STEP
~WELL INFORMATION BLOCK
#MNEM.UNIT           DATA                    DESCRIPTION OF MNEMONIC
#---------    -------------------            -------------------------------
# Generated from Intellog Unique Number	CC_88_90/WELL/1168
WELL.         10-08-090-14W4                 : Well_name    - WELL
LOC .         AA/10-08-090-14W4/0            : Location     - LOCATION
UWI .         AA/10-08-090-14W400            : Uwi          - UNIQUE WELL ID
ENTR.         DW                             : Entered      - ENTERED BY
SRVC.         SCHLUMBERGER                   : Scn          - SERVICE COMPANY
STRT.M        80                             : top_depth    - START DEPTH
STOP.M        214.75                         : bot_depth    - STOP DEPTH
STEP.M        0.25                           : increment    - STEP LENGTH
 NULL. -999.2500:NULL Value
~CURVE INFORMATION BLOCK
#MNEM UNIT       ERCB CURVE CODE    CURVE DESCRIPTION
#-----------   ------------------   ----------------------------------
DEPT.M        00 001 00 00         : DEPTH        - DEPTH
GR  .API      00 310 00 00         : GR           - GAMMA RAY
DPHI.V/V      00 890 00 00         : PHID         - DENSITY POROSITY (SANDSTONE)
NPHI.V/V      00 330 00 00         : PHIN         - NEUTRON POROSITY (SANDSTONE)
ILD .OHMM     00 120 00 00         : RESD         - DEEP RESISTIVITY (DIL)
~PARAMETER INFORMATION
#MNEM.UNIT           DATA             DESCRIPTION OF MNEMONIC
#---------         -----------     ------------------------------
GL  .M        477.8                : gl           - GROUND LEVEL ELEVATION
EREF.M        480.8                : kb           - ELEVATION OF DEPTH REFERENCE
DATM.M        480.8                : datum        - DATUM ELEVATION
TDD .M        225                  : tdd          - TOTAL DEPTH DRILLER
RUN .         ONE                  : Run          - RUN NUMBER
ENG .         BILL                 : Engineer     - RECORDING ENGINEER
WIT .         JIM                  : Witness      - WITNESSED BY
MUD .         GEL                  : Mud_type     - MUD TYPE
MATR.         SANDSTONE            : Logunit      - NEUTRON MATRIX
TMAX.C        10                   : BHT          - MAXIMUM RECORDED TEMPERATURE
BHTD.M        225                  : BHTDEP       - MAXIMUM RECORDED TEMPERATURE
MATR.         1                    : LOGUNIT      - NEUTRON MATRIX
RMT .C        25                   : MDTP         - TEMPERATURE OF MUD
NEUT.         1                    : NEUTRON      - NEUTRON TYPE
RESI.         0                    : RESIST       - RESISTIVITY TYPE
RMC .OHMM     0.25                 : RMC          - RESISTIVITY OF MUD CAKE
RMF .OHMM     0.25                 : RMF          - RESISTIVITY OF MUD FILTRATE
SUFT.C        4                    : SUFT         - SURFACE TEMPERATURE
~A  DEPTH       GR     PHID     PHIN     RESD
   80.000   67.862    0.393    0.453   30.918
   80.250   69.253    0.401    0.451   30.858
   80.500   64.303    0.423    0.450   31.352
   80.750   65.160    0.421    0.452   31.716
   81.000   68.119    0.415    0.458   32.744
   81.250   65.699    0.419    0.478   34.220
   81.500   63.247    0.400    0.507   34.693
   81.750   65.068    0.380    0.501   35.383
   82.000   67.489    0.388    0.493   34.508
   82.250   68.424    0.392    0.483   33.945
   82.500   68.737    0.384    0.479   34.098
   82.750   67.263    0.383    0.491   34.150
   83.000   62.929    0.388    0.489   34.758
   83.250   61.578    0.406    0.463   35.384
   83.500   62.285    0.409    0.451   35.406
   83.750   63.613    0.410    0.448   35.781
   84.000   63.737    0.416    0.467   36.221
   84.250   62.436    0.410    0.494   36.137
   84.500   62.005    0.395    0.477   36.166
   84.750   63.642    0.396    0.463   36.183
   85.000   68.241    0.389    0.470   36.168
   85.250   68.385    0.403    0.491   36.279
   85.500   66.443    0.414    0.509   35.996
   85.750   66.545    0.391    0.522   35.521
   86.000   64.752    0.377    0.522   35.566
   86.250   63.599    0.389    0.470   34.991
   86.500   62.991    0.385    0.460   34.922
   86.750   62.530    0.366    0.481   34.678
   87.000   63.304    0.367    0.502   34.042
   87.250   67.630    0.375    0.491   33.575
   87.500   73.085    0.360    0.442   33.043
   87.750   71.055    0.364    0.468   32.043
   88.000   70.618    0.368    0.496   31.067
   88.250   71.477    0.371    0.484   29.944
   88.500   71.970    0.367    0.470   28.175
   88.750   74.071    0.353    0.489   25.166
   89.000   77.086    0.345    0.524   21.867
   89.250   77.204    0.361    0.545   21.673
   89.500   76.084    0.351    0.544   22.899
   89.750   73.022    0.347    0.505   24.863
   90.000   72.820    0.361    0.485   26.276
   90.250   76.919    0.364    0.500   24.882
   90.500   80.493    0.348    0.486   19.569
   90.750   86.959    0.336    0.479   12.187
   91.000   88.277    0.317    0.511    9.239
   91.250   87.732    0.302    0.552    7.988
   91.500   92.135    0.307    0.545    7.095
   91.750  100.298    0.318    0.505    7.615
   92.000  105.484    0.317    0.504    8.083
   92.250  105.331    0.306    0.514    8.642
   92.500  102.099    0.260    0.527   10.494
   92.750  100.284    0.249    0.536   13.261
   93.000   97.333    0.156    0.523   14.986
   93.250   91.990    0.019    0.405   20.109
   93.500   87.884    0.081    0.215   32.064
   93.750   83.299    0.118    0.255   36.999
   94.000   89.606    0.149    0.304   37.722
   94.250   96.551    0.186    0.321   35.866
   94.500   99.183    0.222    0.356   32.798
   94.750   98.634    0.255    0.394   29.633
   95.000   93.741    0.271    0.416   25.628
   95.250   93.379    0.281    0.444   22.173
   95.500   89.119    0.271    0.456   20.116
   95.750   85.022    0.273    0.452   19.412
   96.000   90.322    0.285    0.450   19.307
   96.250   97.617    0.285    0.453   19.395
   96.500   94.041    0.284    0.454   19.721
   96.750   92.491    0.284    0.451   19.733
   97.000   94.957    0.283    0.448   19.773
   97.250   98.242    0.293    0.447   19.494
   97.500   99.601    0.292    0.437   18.573
   97.750   98.287    0.278    0.420   17.440
   98.000   95.577    0.276    0.417   16.364
   98.250   94.142    0.243    0.427   14.506
   98.500   96.457    0.231    0.443   12.353
   98.750   99.853    0.277    0.468   10.063
   99.000  102.704    0.301    0.496    8.547
   99.250  105.876    0.278    0.517    8.071
   99.500  107.610    0.272    0.532    7.569
   99.750  103.965    0.216    0.526    7.210
  100.000  102.173    0.203    0.532    7.017
  100.250  103.925    0.218    0.533    7.153
  100.500  109.679    0.265    0.525    7.337
  100.750  114.286    0.258    0.544    7.281
  101.000  111.004    0.113    0.578    7.167
  101.250  109.113    0.118    0.544    7.049
  101.500  110.460    0.179    0.515    6.992
  101.750  118.465    0.239    0.505    6.649
  102.000  127.025    0.266    0.510    6.351
  102.250  131.414    0.241    0.541    6.237
  102.500  135.373    0.217    0.560    5.837
  102.750  134.181    0.234    0.500    5.644
  103.000  130.186    0.246    0.481    5.542
  103.250  128.899    0.241    0.492    5.522
  103.500  131.637    0.241    0.510    5.496
  103.750  132.007    0.252    0.547    5.408
  104.000  125.805    0.259    0.581    5.423
  104.250  123.445    0.263    0.568    5.522
  104.500  127.431    0.275    0.555    5.502
  104.750  125.409    0.279    0.564    5.691
  105.000  114.627    0.278    0.588    5.896
  105.250  101.150    0.287    0.606    6.216
  105.500   89.066    0.294    0.575    8.542
  105.750   85.433    0.265    0.472   13.929
  106.000   90.766    0.254    0.442   16.079
  106.250   95.150    0.258    0.450   16.710
  106.500   95.927    0.268    0.443   17.249
  106.750   98.217    0.267    0.430   16.705
  107.000  104.188    0.243    0.419   15.355
  107.250  110.489    0.256    0.419   13.224
  107.500  109.008    0.270    0.438   12.946
  107.750  107.729    0.242    0.459   13.594
  108.000  109.526    0.228    0.463   15.038
  108.250  106.105    0.261    0.473   17.301
  108.500   97.704    0.277    0.489   18.580
  108.750  100.047    0.262    0.429   18.906
  109.000  106.072    0.246    0.425   19.050
  109.250  107.530    0.236    0.439   18.470
  109.500  105.043    0.224    0.436   17.669
  109.750  104.629    0.220    0.446   17.099
  110.000  109.109    0.239    0.459   16.008
  110.250  113.848    0.242    0.438   14.972
  110.500  116.077    0.253    0.434   14.761
  110.750  111.072    0.256    0.458   15.066
  111.000  101.300    0.256    0.472   15.795
  111.250   94.413    0.269    0.466   16.344
  111.500   93.986    0.282    0.472   15.741
  111.750   97.578    0.279    0.489   15.006
  112.000   99.430    0.259    0.484   14.467
  112.250   98.818    0.242    0.459   14.264
  112.500   94.569    0.273    0.442   14.482
  112.750   88.428    0.316    0.440   15.479
  113.000   86.273    0.303    0.448   17.659
  113.250   87.595    0.313    0.469   20.646
  113.500   89.618    0.322    0.467   24.140
  113.750   89.119    0.328    0.460   26.339
  114.000   87.339    0.303    0.452   26.860
  114.250   86.472    0.253    0.441   26.743
  114.500   85.940    0.253    0.448   26.290
  114.750   85.927    0.306    0.449   25.120
  115.000   85.255    0.327    0.427   23.904
  115.250   83.289    0.319    0.427   22.930
  115.500   83.224    0.299    0.443   21.554
  115.750   87.386    0.287    0.448   19.981
  116.000   92.422    0.287    0.449   19.118
  116.250   94.472    0.240    0.429   17.983
  116.500   96.858    0.268    0.445   16.826
  116.750   98.698    0.295    0.488   16.009
  117.000   97.504    0.266    0.462   15.175
  117.250   94.860    0.238    0.393   14.301
  117.500   93.954    0.228    0.410   13.902
  117.750   93.307    0.185    0.435   13.500
  118.000   93.557    0.208    0.436   12.892
  118.250   94.492    0.220    0.446   12.438
  118.500   99.911    0.224    0.454   12.567
  118.750  104.782    0.250    0.453   12.961
  119.000   99.816    0.240    0.461   12.920
  119.250   98.594    0.235    0.427   12.713
  119.500  103.050    0.213    0.425   12.576
  119.750  107.726    0.233    0.428   12.101
  120.000  108.874    0.258    0.423   11.674
  120.250  107.163    0.233    0.425   11.482
  120.500  105.056    0.212    0.417   10.923
  120.750  103.090    0.219    0.413   10.540
  121.000   99.537    0.214    0.427   10.641
  121.250   96.721    0.181    0.445   10.829
  121.500   94.772    0.172    0.422   11.579
  121.750   93.791    0.211    0.385   12.217
  122.000   98.581    0.250    0.411   11.153
  122.250  110.649    0.276    0.455    9.809
  122.500  116.934    0.297    0.496    7.292
  122.750  118.205    0.313    0.532    5.010
  123.000  120.802    0.315    0.562    3.779
  123.250  124.963    0.301    0.584    3.128
