~VERSION INFORMATION
 VERS.                 2.0:   CWLS LOG ASCII STANDARD -VERSION 2.0
 WRAP.                  NO:   ONE LINE PER DEPTH STEP
~WELL INFORMATION BLOCK
#MNEM.UNIT           DATA                    DESCRIPTION OF MNEMONIC
#---------    -------------------            -------------------------------
# Generated from Intellog Unique Number	CS_77_79/WELL/969
WELL.         PEX PCEJ ALGAR OV              : Well_name    - WELL
LOC .         AA/10-26-079-15W4/0            : Location     - LOCATION
UWI .         AA/10-26-079-15W4/0            : Uwi          - UNIQUE WELL ID
ENTR.         JHS                            : Entered      - ENTERED BY
SRVC.         SCHLUMBERGER                   : Scn          - SERVICE COMPANY
STRT.M        225                            : top_depth    - START DEPTH
STOP.M        470                            : bot_depth    - STOP DEPTH
STEP.M        0.25                           : increment    - STEP LENGTH
 NULL. -999.2500:NULL Value
~CURVE INFORMATION BLOCK
#MNEM UNIT       ERCB CURVE CODE    CURVE DESCRIPTION
#-----------   ------------------   ----------------------------------
DEPT.M        00 001 00 00         : DEPTH        - DEPTH
DPHI.V/V      00 890 00 00         : PHID         - DENSITY POROSITY (LIMESTONE)
NPHI.V/V      00 330 00 00         : PHIN         - NEUTRON POROSITY (LIMESTONE)
GR  .API      00 310 00 00         : GR           - GAMMA RAY
ILD .OHMM     00 120 00 00         : RESD         - DEEP RESISTIVITY (DIL)
RHOB.KG/M3    00 350 00 00         : DENS         - BULK DENSITY
~PARAMETER INFORMATION
#MNEM.UNIT           DATA             DESCRIPTION OF MNEMONIC
#---------         -----------     ------------------------------
GL  .M        640.8                : gl           - GROUND LEVEL ELEVATION
EREF.M        644                  : kb           - ELEVATION OF DEPTH REFERENCE
DATM.M        644                  : datum        - DATUM ELEVATION
TDD .M        477                  : tdd          - TOTAL DEPTH DRILLER
RUN .         ONE                  : Run          - RUN NUMBER
ENG .         BILL                 : Engineer     - RECORDING ENGINEER
WIT .         JIM                  : Witness      - WITNESSED BY
MUD .         GEL                  : Mud_type     - MUD TYPE
MATR.         LIMESTONE            : Logunit      - NEUTRON MATRIX
TMAX.C        28                   : BHT          - MAXIMUM RECORDED TEMPERATURE
BHTD.M        477                  : BHTDEP       - MAXIMUM RECORDED TEMPERATURE
MATR.         1                    : LOGUNIT      - NEUTRON MATRIX
RMT .C        25                   : MDTP         - TEMPERATURE OF MUD
NEUT.         1                    : NEUTRON      - NEUTRON TYPE
RESI.         0                    : RESIST       - RESISTIVITY TYPE
RMC .OHMM     0.25                 : RMC          - RESISTIVITY OF MUD CAKE
RMF .OHMM     0.25                 : RMF          - RESISTIVITY OF MUD FILTRATE
SUFT.C        15                   : SUFT         - SURFACE TEMPERATURE
~A  DEPTH     PHID     PHIN       GR     RESD     DENS
# ...
  444.000    0.275    0.374   95.533   13.592 2239.100
  444.250    0.277    0.383  102.361   13.341 2236.950
  444.500    0.285    0.374  105.451   13.097 2222.120
  444.750    0.255    0.356  102.320   12.148 2274.730
  445.000    0.108    0.289   84.872   11.268 2525.350
  445.250    0.128    0.276   71.158   12.156 2491.580
  445.500    0.172    0.279   77.360   13.878 2415.670
  445.750    0.223    0.314   76.088   16.145 2329.220
  446.000    0.244    0.308   75.454   17.416 2293.340
  446.250    0.266    0.310   89.748   18.788 2255.350
  446.500    0.243    0.332  102.797   19.149 2295.300
  446.750    0.233    0.353  110.866   19.156 2312.090
  447.000    0.262    0.346  117.690   17.111 2261.460
  447.250    0.294    0.367  108.960   14.442 2206.610
  447.500    0.256    0.365   95.245   12.900 2271.850
  447.750    0.219    0.357   88.378   11.966 2334.990
  448.000    0.202    0.334   93.335   11.528 2364.400
  448.250    0.202    0.344   89.578   11.749 2364.310
  448.500    0.213    0.338   83.957   12.676 2345.300
  448.750    0.229    0.334   77.092   14.200 2317.860
  449.000    0.248    0.333   65.247   15.610 2286.170
  449.250    0.260    0.340   60.247   17.158 2265.020
  449.500    0.261    0.332   54.628   19.962 2262.850
  449.750    0.257    0.344   72.655   21.943 2271.220
  450.000    0.259    0.335   79.480   24.123 2266.930
  450.250    0.271    0.340   85.681   25.536 2245.810
  450.500    0.313    0.354   94.375   26.033 2174.100
  450.750    0.248    0.365  101.199   24.147 2285.690
  451.000    0.241    0.359   99.935   20.769 2298.260
  451.250    0.254    0.375  103.024   17.529 2275.020
  451.500    0.269    0.378  109.229   14.796 2249.670
  451.750    0.245    0.357  102.362   12.727 2291.720
  452.000    0.234    0.347   89.272   12.259 2310.610
  452.250    0.230    0.338   81.783   12.735 2316.870
  452.500    0.229    0.340   84.250   14.267 2318.900
  452.750    0.221    0.354   81.121   16.915 2331.480
  453.000    0.214    0.337   86.692   17.568 2344.050
  453.250    0.191    0.330   89.169   18.598 2383.990
  453.500    0.182    0.332   92.880   18.256 2398.680
  453.750    0.157    0.366   92.862   17.256 2440.750
  454.000    0.138    0.328   84.127   16.006 2474.380
  454.250    0.165    0.313   73.523   14.848 2427.970
  454.500    0.211    0.317   70.393   15.135 2349.950
  454.750    0.236    0.334   72.863   14.580 2305.640
  455.000    0.249    0.345  100.226   13.781 2284.500
  455.250    0.264    0.394  111.410   12.783 2259.150
  455.500    0.240    0.386  116.368   11.636 2299.100
  455.750    0.227    0.384  114.479   10.792 2322.210
  456.000    0.218    0.389  123.790    9.460 2336.880
  456.250    0.229    0.398  121.282    9.113 2317.860
  456.500    0.245    0.343   98.236    9.115 2290.400
  456.750    0.222    0.322  101.325    9.650 2330.350
  457.000    0.258    0.326  109.392   10.410 2269.190
  457.250    0.259    0.350  113.732   10.813 2266.980
  457.500    0.258    0.390  111.843   11.024 2269.050
  457.750    0.249    0.391  103.733   11.026 2283.730
  458.000    0.129    0.379  105.575   11.896 2490.120
  458.250    0.001    0.343  101.202   12.124 2709.140
  458.500    0.012    0.295   91.225   13.330 2690.110
  458.750    0.137    0.297  106.763   13.847 2475.160
  459.000    0.174    0.331  121.678   13.593 2411.890
  459.250    0.200    0.367  125.391   13.341 2367.570
  459.500    0.195    0.364  121.009   12.611 2375.920
  459.750    0.190    0.362  120.990   11.921 2384.280
  460.000    0.194    0.362  120.351   11.268 2377.910
  460.250    0.234    0.368  125.929   10.651 2310.420
  460.500    0.223    0.377  126.529   10.455 2329.310
  460.750    0.183    0.369  120.289   10.461 2396.650
  461.000    0.180    0.361  125.245   10.662 2402.900
  461.250    0.215    0.371  124.605   11.075 2341.740
  461.500    0.187    0.383  122.716   11.504 2390.120
  461.750    0.164    0.340  126.425   11.950 2430.080
  462.000    0.155    0.297  114.585   11.297 2444.760
  462.250    0.192    0.287   99.626   11.088 2381.480
  462.500    0.213    0.275   87.781   11.303 2345.590
  462.750    0.179    0.264   95.853   12.663 2404.520
  463.000    0.063    0.242   82.137   14.184 2602.480
  463.250    0.033    0.186   64.071   17.463    0.000
  463.500    0.019    0.148   33.554   21.500    0.000
  463.750    0.011    0.115   16.102   29.642    0.000
  464.000    0.006    0.100   14.825   54.241    0.000
  464.250    0.011    0.096   14.196   82.186    0.000
  464.500    0.030    0.098   17.905   92.078    0.000
  464.750    0.042    0.104   19.131   92.093    0.000
  465.000    0.063    0.116   17.861   88.719    0.000
  465.250    0.073    0.131   17.223   85.453    0.000
  465.500    0.052    0.121   18.450   83.882    0.000
  465.750    0.042    0.111   17.800   87.142    0.000
  466.000    0.023    0.103   18.410   83.934    0.000
  466.250    0.013    0.094   22.744   77.863    0.000
  466.500    0.004    0.092   25.834   72.225    0.000
  466.750    0.001    0.094   27.058   66.990    0.000
  467.000    0.000    0.096   20.193   62.135    0.000
  467.250    0.003    0.094   16.439   58.738    0.000
  467.500    0.037    0.097   16.420   57.654    0.000
  467.750    0.112    0.115   16.397   58.772    0.000
  468.000    0.143    0.138   19.487   62.218    0.000
  468.250    0.138    0.194   23.823   65.863    0.000
  468.500    0.098    0.176   25.672   71.046    0.000
  468.750    0.050    0.148   22.540   78.109    0.000
  469.000    0.005    0.132   16.914   84.257    0.000
  469.250    0.000    0.116   15.646   89.194    0.000
  469.500    0.000    0.111   17.491   92.650    0.000
  469.750    0.000    0.107   17.477   90.942    0.000
  470.000    0.000    0.118   16.833   81.238    0.000
