~VERSION INFORMATION
 VERS.                 2.0:   CWLS LOG ASCII STANDARD -VERSION 2.0
 WRAP.                  NO:   ONE LINE PER DEPTH STEP
~WELL INFORMATION BLOCK
#MNEM.UNIT           DATA                    DESCRIPTION OF MNEMONIC
#---------    -------------------            -------------------------------
# Generated from Intellog Unique Number	CN_94_101/WELL/5019
WELL.         TEXACO EXPLOORATION            : Well_name    - WELL
LOC .         AA/11-09-099-15W4/0            : Location     - LOCATION
UWI .         AA/11-09-099-15W400            : Uwi          - UNIQUE WELL ID
ENTR.         TIM                            : Entered      - ENTERED BY
SRVC.         SCHLUMBERGER                   : Scn          - SERVICE COMPANY
DATE.         08/13/92                       : Date         - LOG DATE
STRT.M        270                            : top_depth    - START DEPTH
STOP.M        460                            : bot_depth    - STOP DEPTH
STEP.M        0.25                           : increment    - STEP LENGTH
 NULL. -999.2500:NULL Value
~CURVE INFORMATION BLOCK
#MNEM UNIT       ERCB CURVE CODE    CURVE DESCRIPTION
#-----------   ------------------   ----------------------------------
DEPT.M        00 001 00 00         : DEPTH        - DEPTH
GR  .API      00 310 00 00         : GR           - GAMMA RAY
ILD .OHMM     00 120 00 00         : RESD         - DEEP RESISTIVITY (DIL)
NPHI.V/V      00 330 00 00         : PHIN         - NEUTRON POROSITY (SANDSTONE)
DPHI.V/V      00 890 00 00         : PHID         - DENSITY POROSITY (SANDSTONE)
~PARAMETER INFORMATION
#MNEM.UNIT           DATA             DESCRIPTION OF MNEMONIC
#---------         -----------     ------------------------------
GL  .M        723.9                : gl           - GROUND LEVEL ELEVATION
EREF.M        727.3                : kb           - ELEVATION OF DEPTH REFERENCE
DATM.M        727.3                : datum        - DATUM ELEVATION
TDD .M        462                  : tdd          - TOTAL DEPTH DRILLER
RUN .         ONE                  : Run          - RUN NUMBER
ENG .         BILL                 : Engineer     - RECORDING ENGINEER
WIT .         JIM                  : Witness      - WITNESSED BY
MUD .         GEL                  : Mud_type     - MUD TYPE
MATR.         SANDSTONE            : Logunit      - NEUTRON MATRIX
TMAX.C        31.1                 : BHT          - MAXIMUM RECORDED TEMPERATURE
BHTD.M        462                  : BHTDEP       - MAXIMUM RECORDED TEMPERATURE
RMT .C        31.1                 : MDTP         - TEMPERATURE OF MUD
MUDD.KG/M     1130                 : MWT          - MUD DENSITY
NEUT.         1                    : NEUTRON      - NEUTRON TYPE
RESI.         0                    : RESIST       - RESISTIVITY TYPE
RM  .OHMM     6                    : RM           - RESISTIVITY OF MUD
RMC .OHMM     6                    : RMC          - RESISTIVITY OF MUD CAKE
RMF .OHMM     6                    : RMF          - RESISTIVITY OF MUD FILTRATE
SUFT.C        4                    : SUFT         - SURFACE TEMPERATURE
~A  DEPTH       GR     RESD     PHIN     PHID
# ...
  400.500  120.700    9.606    0.290    0.086
  400.750  128.059    8.976    0.276    0.191
  401.000  133.578    7.720    0.341    0.230
  401.250  137.872    6.463    0.392    0.242
  401.500  141.553    5.415    0.431    0.249
  401.750  145.847    5.202    0.484    0.254
  402.000  149.528    4.991    0.498    0.259
  402.250  151.983    4.987    0.474    0.262
  402.500  151.987    4.983    0.465    0.259
  402.750  150.768    4.981    0.461    0.252
  403.000  149.547    4.977    0.468    0.243
  403.250  148.939    4.975    0.489    0.238
  403.500  148.945    4.972    0.490    0.232
  403.750  150.174    4.969    0.489    0.225
  404.000  152.629    4.965    0.479    0.221
  404.250  154.472    4.963    0.455    0.220
  404.500  155.089    4.749    0.446    0.224
  404.750  151.418    4.329    0.453    0.234
  405.000  149.583    3.490    0.484    0.244
  405.250  151.426    2.860    0.508    0.252
  405.500  154.498    2.438    0.514    0.261
  405.750  155.725    2.225    0.519    0.262
  406.000  155.729    2.224    0.527    0.263
  406.250  155.123    2.220    0.536    0.263
  406.500  154.513    2.426    0.530    0.263
  406.750  153.292    2.631    0.522    0.262
  407.000  151.459    2.838    0.512    0.258
  407.250  150.851    3.460    0.485    0.257
  407.500  149.019    3.666    0.480    0.255
  407.750  147.797    3.872    0.476    0.253
  408.000  146.575    4.078    0.474    0.249
  408.250  146.582    4.074    0.468    0.248
  408.500  147.812    4.071    0.463    0.249
  408.750  149.043    4.069    0.452    0.249
  409.000  149.658    4.066    0.441    0.249
  409.250  150.890    4.479    0.434    0.242
  409.500  151.508    4.686    0.398    0.214
  409.750  150.898    5.517    0.368    0.205
  410.000  148.452    6.141    0.336    0.195
  410.250  142.943    7.182    0.362    0.199
  410.500  141.722    7.598    0.403    0.206
  410.750  144.178    7.804    0.449    0.215
  411.000  146.019    7.382    0.492    0.223
  411.250  150.314    6.125    0.498    0.247
  411.500  152.157    5.495    0.493    0.249
  411.750  152.773    5.075    0.482    0.245
  412.000  152.166    4.026    0.473    0.240
  412.250  151.557    3.815    0.454    0.231
  412.500  149.723    3.811    0.445    0.234
  412.750  147.890    4.017    0.470    0.239
  413.000  147.895    4.015    0.478    0.245
  413.250  147.900    4.012    0.487    0.247
  413.500  147.904    4.008    0.482    0.239
  413.750  147.296    3.795    0.471    0.228
  414.000  145.462    3.374    0.471    0.218
  414.250  144.241    2.952    0.500    0.209
  414.500  144.860    2.741    0.519    0.240
  414.750  145.477    2.529    0.523    0.262
  415.000  146.095    2.317    0.532    0.272
  415.250  147.325    2.314    0.537    0.267
  415.500  146.104    2.311    0.504    0.264
  415.750  143.660    2.308    0.493    0.258
  416.000  142.438    2.304    0.499    0.258
  416.250  141.829    2.510    0.507    0.255
  416.500  141.835    2.506    0.508    0.229
  416.750  142.451    2.712    0.516    0.225
  417.000  143.681    2.710    0.528    0.230
  417.250  144.913    2.915    0.522    0.235
  417.500  144.916    3.329    0.505    0.223
  417.750  145.534    3.535    0.493    0.202
  418.000  147.377    3.741    0.485    0.196
  418.250  149.833    3.737    0.494    0.202
  418.500  149.838    3.735    0.513    0.231
  418.750  148.003    3.312    0.519    0.249
  419.000  143.105    3.102    0.527    0.279
  419.250  137.596    2.263    0.537    0.295
  419.500  133.312    1.842    0.504    0.310
  419.750  129.639    1.629    0.484    0.322
  420.000  125.355    1.627    0.459    0.317
  420.250  121.072    2.039    0.439    0.312
  420.500  118.624    2.246    0.428    0.302
  420.750  115.567    2.453    0.432    0.295
  421.000  112.508    3.285    0.436    0.286
  421.250  110.060    3.907    0.440    0.272
  421.500  107.615    4.115    0.450    0.269
  421.750  111.296    4.319    0.461    0.264
  422.000  114.976    3.897    0.465    0.262
  422.250  117.431    3.895    0.473    0.260
  422.500  113.760    4.936    0.478    0.271
  422.750  107.637    6.605    0.471    0.281
  423.000   99.064    9.944    0.461    0.305
  423.250   90.490   12.866    0.452    0.320
  423.500   91.109   15.161    0.444    0.324
  423.750   91.113   17.456    0.444    0.319
  424.000   91.119   18.288    0.447    0.311
  424.250   89.897   17.031    0.441    0.303
  424.500   80.711   15.774    0.452    0.302
  424.750   69.074   14.309    0.462    0.296
  425.000   61.726   10.337    0.457    0.284
  425.250   56.830    7.618    0.446    0.274
  425.500   54.383    5.942    0.432    0.259
  425.750   50.712    6.357    0.390    0.259
  426.000   48.877    7.817    0.368    0.264
  426.250   53.784   10.112    0.374    0.274
  426.500   61.141   12.406    0.380    0.297
  426.750   70.949   13.866    0.426    0.316
  427.000   77.081   15.742    0.432    0.320
  427.250   78.311   17.202    0.432    0.322
  427.500   79.545   18.870    0.435    0.324
  427.750   80.159   20.747    0.444    0.325
  428.000   80.776   23.251    0.449    0.325
  428.250   82.006   28.262    0.454    0.325
  428.500   83.237   31.810    0.461    0.320
  428.750   85.080   28.673    0.469    0.316
  429.000   88.147   24.074    0.474    0.310
  429.250   91.218   21.982    0.479    0.303
  429.500   91.833   17.382    0.488    0.294
  429.750   94.290   11.530    0.462    0.286
  430.000   96.131    7.975    0.450    0.272
  430.250   99.813    3.793    0.447    0.259
  430.500  103.493    2.326    0.460    0.263
  430.750  109.625    2.531    0.471    0.264
  431.000  102.890    2.948    0.447    0.268
  431.250   90.027    5.033    0.438    0.274
  431.500   69.812    7.119    0.428    0.287
  431.750   60.013    9.623    0.406    0.294
  432.000   52.665   12.545    0.397    0.300
  432.250   46.542   17.555    0.398    0.305
  432.500   44.710   22.775    0.399    0.307
  432.750   45.329   25.488    0.402    0.312
  433.000   45.945   25.902    0.406    0.315
  433.250   47.177   25.898    0.402    0.312
  433.500   48.406   25.686    0.397    0.307
  433.750   49.635   24.430    0.387    0.303
  434.000   52.092   21.920    0.368    0.294
  434.250   55.160   18.157    0.346    0.288
  434.500   57.614   11.051    0.332    0.286
  434.750   68.648    6.033    0.341    0.211
  435.000   97.451    3.732    0.411    0.212
  435.250  135.445    2.267    0.455    0.267
  435.500  140.963    1.637    0.517    0.277
  435.750  149.547    1.423    0.538    0.277
  436.000  148.326    1.839    0.565    0.273
  436.250  144.654    2.672    0.584    0.265
  436.500  123.213    4.548    0.587    0.243
  436.750  113.414    6.217    0.397    0.220
  437.000  111.582    9.556    0.414    0.248
  437.250  109.748   12.269    0.432    0.268
  437.500  107.915   13.101    0.428    0.259
  437.750  109.146   13.306    0.422    0.236
  438.000  109.761   13.304    0.416    0.220
  438.250  110.378   13.301    0.413    0.226
  438.500  111.608   12.880    0.414    0.251
  438.750  113.454   12.248    0.412    0.268
  439.000  114.682   11.828    0.412    0.268
  439.250  116.525   11.616    0.414    0.264
  439.500  118.368   10.984    0.419    0.259
  439.750  115.923   10.564    0.423    0.257
  440.000  112.865   10.353    0.423    0.255
  440.250  111.643    9.931    0.422    0.253
  440.500  111.648    9.509    0.413    0.253
  440.750  112.877    9.298    0.407    0.253
  441.000  115.947    8.877    0.400    0.251
  441.250  117.788    8.456    0.394    0.249
  441.500  120.245    8.245    0.397    0.244
  441.750  123.313    8.242    0.399    0.241
  442.000  123.929    8.238    0.400    0.241
  442.250  123.935    8.652    0.397    0.246
  442.500  122.713    9.067    0.369    0.255
  442.750  121.492    9.273    0.373    0.264
  443.000  122.109    9.270    0.392    0.267
  443.250  125.178    9.057    0.404    0.255
  443.500  130.084    9.055    0.397    0.239
  443.750  134.379    8.423    0.388    0.224
