~VERSION INFORMATION
 VERS.                 2.0:   CWLS LOG ASCII STANDARD -VERSION 2.0
 WRAP.                  NO:   ONE LINE PER DEPTH STEP
~WELL INFORMATION BLOCK
#MNEM.UNIT           DATA                    DESCRIPTION OF MNEMONIC
#---------    -------------------            -------------------------------
# Generated from Intellog Unique Number	CN_91_93/WELL/3686
WELL.         10-14-093-08W4                 : Well_name    - WELL
LOC .         AA/10-14-093-08W4/0            : Location     - LOCATION
UWI .         AA/10-14-093-08W400            : Uwi          - UNIQUE WELL ID
ENTR.         JOETTE                         : Entered      - ENTERED BY
SRVC.         SCHLUMBERGER                   : Scn          - SERVICE COMPANY
DATE.         03/22/92                       : Date         - LOG DATE
STRT.M        50                             : top_depth    - START DEPTH
STOP.M        219                            : bot_depth    - STOP DEPTH
STEP.M        0.25                           : increment    - STEP LENGTH
 NULL. -999.2500:NULL Value
~CURVE INFORMATION BLOCK
#MNEM UNIT       ERCB CURVE CODE    CURVE DESCRIPTION
#-----------   ------------------   ----------------------------------
DEPT.M        00 001 00 00         : DEPTH        - DEPTH
CALI.MM       00 280 01 00         : CAL          - CALIPER
GR  .API      00 310 00 00         : GR           - GAMMA RAY
NPHI.V/V      00 330 00 00         : PHIN         - NEUTRON POROSITY (SANDSTONE)
DPHI.V/V      00 890 00 00         : PHID         - DENSITY POROSITY (SANDSTONE)
ILD .OHMM     00 120 00 00         : RESD         - DEEP RESISTIVITY (DIL)
~PARAMETER INFORMATION
#MNEM.UNIT           DATA             DESCRIPTION OF MNEMONIC
#---------         -----------     ------------------------------
GL  .M        466.5                : gl           - GROUND LEVEL ELEVATION
EREF.M        466.5                : kb           - ELEVATION OF DEPTH REFERENCE
DATM.M        466.5                : datum        - DATUM ELEVATION
TDD .M        219.4                : tdd          - TOTAL DEPTH DRILLER
RUN .         ONE                  : Run          - RUN NUMBER
ENG .         BILL                 : Engineer     - RECORDING ENGINEER
WIT .         JIM                  : Witness      - WITNESSED BY
MUD .         GEL                  : Mud_type     - MUD TYPE
MATR.         SANDSTONE            : Logunit      - NEUTRON MATRIX
TMAX.C        16                   : BHT          - MAXIMUM RECORDED TEMPERATURE
BHTD.M        219.4                : BHTDEP       - MAXIMUM RECORDED TEMPERATURE
RMT .C        14                   : MDTP         - TEMPERATURE OF MUD
MUDD.KG/M     9666.66              : MWT          - MUD DENSITY
NEUT.         1                    : NEUTRON      - NEUTRON TYPE
RESI.         0                    : RESIST       - RESISTIVITY TYPE
RM  .OHMM     4.5                  : RM           - RESISTIVITY OF MUD
RMC .OHMM     4.5                  : RMC          - RESISTIVITY OF MUD CAKE
RMF .OHMM     4.5                  : RMF          - RESISTIVITY OF MUD FILTRATE
SUFT.C        4                    : SUFT         - SURFACE TEMPERATURE
~A  DEPTH      CAL       GR     PHIN     PHID     RESD
# ...
  159.500  178.988  105.138    0.340    0.299  293.218
  159.750  178.099  109.311    0.358    0.288  273.036
  160.000  177.191  118.827    0.390    0.253  247.039
  160.250  176.283  130.696    0.416    0.239  226.721
  160.500  175.356  146.124    0.426    0.201  202.206
  160.750  175.434  155.049    0.416    0.219  172.731
  161.000  174.545  152.128    0.416    0.212  133.428
  161.250  173.618  152.175    0.420    0.207  107.610
  161.500  173.715  150.448    0.424    0.207   89.343
  161.750  173.773  146.947    0.428    0.199   89.368
  162.000  173.869  144.038    0.423    0.188   89.418
  162.250  173.927  142.311    0.410    0.188   89.493
  162.500  176.014  147.087    0.406    0.203   89.531
  162.750  176.053  150.100    0.414    0.221   89.581
  163.000  177.115  150.147    0.421    0.190   90.929
  163.250  179.202  150.773    0.435    0.190   93.633
  163.500  179.241  151.410    0.433    0.202   95.029
  163.750  180.323  152.048    0.421    0.202  100.723
  164.000  180.400  151.503    0.423    0.207  103.733
  164.250  181.463  150.367    0.427    0.206  103.791
  164.500  181.540  148.652    0.432    0.209  100.878
  164.750  181.617  143.378    0.432    0.202   95.295
  165.000  181.695  144.016    0.424    0.152   87.482
  165.250  181.791  144.653    0.412    0.139   90.084
  165.500  181.888  143.506    0.412    0.133   95.468
  165.750  181.927  139.414    0.413    0.219  101.175
  166.000  181.038  127.638    0.408    0.288  108.775
  166.250  181.116  129.469    0.399    0.300  118.655
  166.500  181.193  133.642    0.390    0.296  125.730
  166.750  181.271  133.097    0.382    0.297  153.843
  167.000  181.348  129.017    0.364    0.294  211.212
  167.250  180.440  135.555    0.353    0.252  237.051
  167.500  180.498  152.768    0.337    0.198  298.557
  167.750  180.576  151.029    0.350    0.225  340.027
  168.000  180.653  146.346    0.382    0.246  290.421
  168.250  180.750  141.664    0.390    0.251  202.836
  168.500  180.827  136.390    0.397    0.218  145.817
  168.750  179.900  128.149    0.399    0.220  114.269
  169.000  179.997  120.510    0.405    0.253  107.945
  169.250  180.074  130.629    0.407    0.287  143.978
  169.500  180.151  133.620    0.371    0.287  152.605
  169.750  179.243  139.578    0.353    0.300  184.063
  170.000  179.340  141.397    0.384    0.319  184.166
  170.250  179.398  146.185    0.415    0.233  124.998
  170.500  179.495  147.413    0.441    0.223  111.467
  170.750  179.572  148.039    0.462    0.222   84.887
  171.000  179.669  149.291    0.459    0.216   81.338
  171.250  179.708  150.520    0.461    0.218   76.858
  171.500  179.805  151.749    0.466    0.223   75.793
  171.750  179.901  152.375    0.461    0.223   74.753
  172.000  179.959  154.809    0.461    0.220   73.727
  172.250  180.056  155.423    0.465    0.221   72.706
  172.500  180.114  156.072    0.462    0.218   71.718
  172.750  179.226  156.710    0.456    0.214   70.724
  173.000  179.264  156.745    0.463    0.216   68.778
  173.250  179.361  156.803    0.453    0.221   67.834
  173.500  179.419  156.849    0.442    0.228   66.913
  173.750  179.516  156.305    0.448    0.243   66.932
  174.000  179.593  155.771    0.443    0.257   69.920
  174.250  179.671  155.204    0.430    0.221   76.271
  174.500  179.729  154.068    0.425    0.207   79.688
  174.750  179.806  152.341    0.422    0.206   79.710
  175.000  179.883  148.840    0.405    0.140   78.617
  175.250  178.976  147.704    0.401    0.142   89.524
  175.500  179.072  149.524    0.414    0.188   93.548
  175.750  179.150  151.344    0.430    0.221   88.358
  176.000  179.227  152.584    0.435    0.221   81.102
  176.250  179.324  152.654    0.429    0.216   76.624
  176.500  179.401  152.098    0.423    0.191   76.646
  176.750  180.464  152.133    0.419    0.186   83.608
  177.000  183.516  151.008    0.421    0.185   91.177
  177.250  183.555  149.861    0.424    0.167   89.926
  177.500  184.656  147.543    0.419    0.218   88.692
  177.750  184.695  145.225    0.410    0.211   87.487
  178.000  184.792  143.498    0.401    0.207   86.287
  178.250  184.869  142.953    0.403    0.213   86.360
  178.500  184.985  140.646    0.410    0.218   87.635
  178.750  184.058  139.487    0.403    0.246   88.953
  179.000  183.111  136.590    0.381    0.293   92.925
  179.250  179.267  138.410    0.386    0.270  101.351
  179.500  176.389  135.489    0.399    0.200  107.410
  179.750  175.462  122.530    0.384    0.234  120.583
  180.000  174.554  122.588    0.384    0.262  127.791
  180.250  174.631  119.088    0.371    0.289  137.371
  180.500  175.694  118.531    0.371    0.308  133.553
  180.750  176.776  117.987    0.383    0.323  139.516
  181.000  176.834  110.939    0.357    0.330  149.996
  181.250  177.916  107.439    0.352    0.294  145.868
  181.500  177.993  111.623    0.368    0.299  159.073
  181.750  179.037  106.952    0.348    0.297  148.104
  182.000  179.153  112.307    0.356    0.282  134.021
  182.250  179.230  109.989    0.361    0.292  136.056
  182.500  179.307  101.760    0.332    0.302  138.065
  182.750  179.404   96.486    0.339    0.303  144.290
  183.000  179.443   95.362    0.346    0.307  144.330
  183.250  179.559   91.850    0.331    0.319  140.318
  183.500  179.617   88.361    0.331    0.331  125.163
  183.750  179.675   86.043    0.336    0.335  138.471
  184.000  179.675   83.133    0.342    0.346  153.214
  184.250  178.844   84.953    0.351    0.353  148.955
  184.500  180.892   87.944    0.357    0.352  144.815
  184.750  180.004   83.852    0.368    0.354  142.848
  185.000  180.101   80.352    0.373    0.357  153.579
  185.250  180.139   86.321    0.379    0.357  177.394
  185.500  180.217   88.141    0.382    0.355  247.036
  185.750  180.294   84.629    0.384    0.356  261.803
  186.000  179.406   80.549    0.383    0.344  325.025
  186.250  179.483   77.037    0.382    0.329  386.429
  186.500  179.580   78.857    0.382    0.334  472.901
  186.750  179.618   81.859    0.383    0.344  466.413
  187.000  179.715   79.552    0.379    0.357  460.078
  187.250  180.797   83.725    0.374    0.353  466.935
  187.500  180.836   89.092    0.368    0.350  509.206
  187.750  180.933   92.685    0.367    0.353  524.351
  188.000  181.010   90.367    0.375    0.358  454.465
  188.250  182.092   88.640    0.415    0.364  393.783
  188.500  183.154   86.322    0.409    0.348  304.182
  188.750  183.213   84.004    0.384    0.349  209.445
  189.000  184.295   87.597    0.371    0.338  245.460
  189.250  184.372   87.052    0.364    0.337  362.054
  189.500  184.430   93.022    0.358    0.332  372.822
  189.750  184.507   98.980    0.360    0.330  424.548
  190.000  184.604  103.755    0.365    0.322  534.703
  190.250  184.662  105.575    0.361    0.312  505.108
  190.500  183.774   96.754    0.355    0.316  558.889
  190.750  183.870   90.310    0.353    0.319  627.349
  191.000  183.909   82.660    0.346    0.316  790.011
  191.250  184.006   83.900    0.335    0.309  980.651
  191.500  185.068   86.300    0.337    0.307 1039.410
  191.750  185.126   83.982    0.341    0.310 1055.050
  192.000  187.213   79.890    0.336    0.310 1118.270
  192.250  188.256   79.948    0.331    0.315 1151.210
  192.500  189.300   83.541    0.334    0.308 1202.950
  192.750  191.367   84.758    0.339    0.302 1238.550
  193.000  193.415   89.534    0.333    0.309 1275.390
  193.250  193.492   86.625    0.343    0.319 1313.500
  193.500  194.574   80.771    0.355    0.310 1333.080
  193.750  194.632   79.635    0.339    0.294 1372.730
  194.000  193.763   84.400    0.321    0.282 1393.580
  194.250  192.836   89.175    0.313    0.284 1414.540
  194.500  192.913   89.824    0.320    0.289 1435.620
  194.750  192.005   86.324    0.332    0.298 1478.530
  195.000  191.097   85.176    0.333    0.305 1479.360
  195.250  190.209   82.858    0.327    0.317 1438.240
  195.500  190.248   83.496    0.326    0.316 1418.510
  195.750  189.359   81.780    0.320    0.308 1399.040
