~VERSION INFORMATION
 VERS.                 2.0:   CWLS LOG ASCII STANDARD -VERSION 2.0
 WRAP.                  NO:   ONE LINE PER DEPTH STEP
~WELL INFORMATION BLOCK
#MNEM.UNIT           DATA                    DESCRIPTION OF MNEMONIC
#---------    -------------------            -------------------------------
# Generated from Intellog Unique Number	CC_88_90/WELL/3149
WELL.         HUSKY OIL OPERATIONS           : Well_name    - WELL
LOC .         AA/10-27-089-09W4/0            : Location     - LOCATION
UWI .         AA/10-27-089-09W400            : Uwi          - UNIQUE WELL ID
ENTR.         JOETTE                         : Entered      - ENTERED BY
SRVC.         SCHLUMBERGER                   : Scn          - SERVICE COMPANY
DATE.         03/06/92                       : Date         - LOG DATE
STRT.M        15.240                         : top_depth    - START DEPTH
STOP.M        116.240                        : bot_depth    - STOP DEPTH
STEP.M        0.25                           : increment    - STEP LENGTH
 NULL. -999.2500:NULL Value
~CURVE INFORMATION BLOCK
#MNEM UNIT       ERCB CURVE CODE    CURVE DESCRIPTION
#-----------   ------------------   ----------------------------------
DEPT.M        00 001 00 00         : DEPTH        - DEPTH
GR  .API      00 310 00 00         : GR           - GAMMA RAY
CALI.MM       00 280 01 00         : CAL          - CALIPER
DPHI.V/V      00 890 00 00         : PHID         - DENSITY POROSITY (SANDSTONE)
ILD .OHMM     00 120 00 00         : RESD         - DEEP RESISTIVITY (DIL)
~PARAMETER INFORMATION
#MNEM.UNIT           DATA             DESCRIPTION OF MNEMONIC
#---------         -----------     ------------------------------
GL  .M        356.586              : gl           - GROUND LEVEL ELEVATION
EREF.M        357.53               : kb           - ELEVATION OF DEPTH REFERENCE
DATM.M        357.53               : datum        - DATUM ELEVATION
TDD .M        123.139              : tdd          - TOTAL DEPTH DRILLER
RUN .         ONE                  : Run          - RUN NUMBER
ENG .         BILL                 : Engineer     - RECORDING ENGINEER
WIT .         JIM                  : Witness      - WITNESSED BY
MUD .         GEL                  : Mud_type     - MUD TYPE
MATR.         SANDSTONE            : Logunit      - NEUTRON MATRIX
TMAX.C        60                   : BHT          - MAXIMUM RECORDED TEMPERATURE
BHTD.M        123.139              : BHTDEP       - MAXIMUM RECORDED TEMPERATURE
RMT .C        7.22222              : MDTP         - TEMPERATURE OF MUD
MUDD.KG/M     11300                : MWT          - MUD DENSITY
NEUT.         1                    : NEUTRON      - NEUTRON TYPE
RESI.         0                    : RESIST       - RESISTIVITY TYPE
RM  .OHMM     6.85                 : RM           - RESISTIVITY OF MUD
RMC .OHMM     6.85                 : RMC          - RESISTIVITY OF MUD CAKE
RMF .OHMM     6.85                 : RMF          - RESISTIVITY OF MUD FILTRATE
SUFT.C        4                    : SUFT         - SURFACE TEMPERATURE
~A  DEPTH       GR      CAL     PHID     RESD
   15.240   85.425  166.128    0.202   10.904
   15.490   84.199  166.272    0.201   11.336
   15.740   87.275  167.416    0.211   11.217
   15.990   96.496  169.525    0.228   11.085
   16.240  112.478  175.708    0.220   10.968
   16.490  106.336  179.854    0.215   10.843
   16.740  105.725  172.995    0.209   10.587
   16.990  119.863  167.136    0.179   10.600
   17.240  127.241  163.277    0.178   10.746
   17.490  113.723  163.421    0.193   10.901
   17.740  111.268  163.601    0.240   10.515
   17.990  124.792  161.780    0.238   10.142
   18.240  121.108  160.888    0.224    9.662
   18.490  110.048  159.067    0.217    9.558
   18.740  109.437  158.138    0.194    9.564
   18.990  105.138  156.281    0.215    9.457
   19.240  102.683  149.457    0.242    9.125
   19.490  103.916  147.564    0.253    9.021
   19.740  112.523  155.820    0.218    9.032
   19.990  105.765  159.930    0.212    9.046
   20.240   93.477  159.038    0.211    8.835
   20.490  100.855  156.216    0.185    9.069
   20.740   95.942  155.324    0.181   10.155
   20.990  108.237  156.504    0.176    9.558
   21.240  115.614  157.685    0.187    8.990
   21.490  119.920  157.793    0.206    9.002
   21.740  127.297  157.937    0.209    9.016
   21.990  112.551  158.081    0.219    8.915
   22.240  104.565  157.224    0.215    8.816
   22.490  107.641  157.368    0.216    8.830
   22.740  118.706  157.512    0.225    8.729
   22.990  121.168  157.656    0.222    8.632
   23.240  121.171  158.872    0.215    8.329
   23.490  109.497  159.016    0.206    8.132
   23.740   90.449  160.197    0.213    7.942
   23.990   89.838  160.269    0.230    8.573
   24.240   93.528  159.448    0.233    9.362
   24.490   94.760  156.591    0.228    9.143
   24.740  108.899  150.732    0.218    8.394
   24.990  120.578  145.837    0.203    7.898
   25.240  126.727  143.980    0.220    7.337
   25.490  125.501  150.127    0.225    6.736
   25.740  106.453  155.309    0.223    7.175
   25.990   84.331  159.455    0.246    7.937
   26.240   97.856  160.600    0.251    6.195
   26.490   89.255  162.781    0.242    4.115
   26.740   91.102  161.888    0.261    5.485
   26.990   99.094  159.031    0.297    6.144
   27.240   99.712  154.172    0.307    5.928
   27.490  102.173  156.389    0.304    5.716
   27.740   96.030  158.498    0.304    5.514
   27.990  102.794  160.679    0.298    5.732
   28.240  124.307  160.823    0.307    6.106
   28.490  135.987  158.966    0.292    6.427
   28.740  129.230  157.145    0.287    6.680
   28.990  116.941  156.252    0.298    6.131
   29.240  102.195  159.434    0.311    5.988
   29.490  112.646  161.579    0.297    6.459
   29.740  114.493  162.723    0.268    6.885
   29.990  118.183  159.866    0.261    7.155
   30.240  121.874  155.007    0.255    7.347
   30.490  118.189  154.151    0.243    7.354
   30.740  115.734  153.330    0.231    7.182
   30.990  118.196  153.474    0.216    6.510
   31.240  120.043  154.546    0.193    7.023
   31.490  108.984  154.690    0.162   10.603
   31.740  100.998  154.870    0.118   12.797
   31.990  102.229  153.085    0.058   16.436
   32.240  113.295  152.193    0.029   15.268
   32.490  102.850  152.301    0.039    8.310
   32.740  101.625  153.481    0.051    7.167
   32.990  104.701  156.663    0.073    6.743
   33.240  110.849  157.735    0.168    6.586
   33.490  112.082  159.916    0.263    6.596
   33.740  105.325  160.096    0.288    6.444
   33.990  109.630  159.203    0.291    6.293
   34.240  109.633  158.383    0.299    6.071
   34.490  107.792  157.490    0.284    6.468
   34.740  108.410  156.706    0.283    7.151
   34.990   99.809  156.814    0.277    6.984
   35.240   99.812  156.958    0.275    6.331
   35.490   97.972  158.138    0.282    5.530
   35.740   83.225  158.318    0.269    5.746
   35.990   88.145  158.426    0.254    6.517
   36.240   94.909  158.534    0.255    6.365
   36.490   89.380  159.715    0.256    6.139
   36.740   91.842  160.823    0.260    6.071
   36.990  101.678  160.002    0.269    5.301
   37.240  102.296  158.145    0.260    5.579
   37.490   93.081  157.289    0.254    5.944
   37.740  105.375  158.433    0.256    6.181
   37.990  120.742  161.615    0.262    5.887
   38.240  120.131  161.759    0.265    5.405
   38.490  117.061  161.903    0.275    5.686
   38.740  120.137  161.082    0.275    6.367
   38.990  109.079  161.190    0.274    6.871
   39.240   99.249  160.334    0.268    6.228
   39.490   94.949  159.477    0.261    5.791
   39.740   98.640  158.620    0.270    6.092
   39.990   99.258  157.764    0.298    5.950
   40.240  100.490  157.908    0.307    5.882
   40.490   98.650  157.051    0.305    5.889
   40.740   91.892  157.195    0.294    5.824
   40.990   96.197  156.339    0.271    6.443
   41.240  108.492  156.483    0.257    5.913
   41.490   94.975  156.627    0.242    5.705
   41.740   95.593  155.842    0.229    6.882
   41.990  102.356  155.950    0.223    9.175
   42.240   92.526  156.166    0.217    7.718
   42.490  101.747  156.310    0.179    5.661
   42.740  100.522  156.418    0.171    5.958
   42.990   89.463  156.562    0.227    6.431
   43.240   88.852  156.706    0.270    6.520
   43.490   94.386  156.886    0.258    6.367
   43.740   98.691  157.030    0.256    6.142
   43.990   95.621  157.138    0.261    5.708
   44.240   88.864  157.318    0.258    5.437
   44.490   91.325  157.426    0.253    5.720
   44.740  118.369  157.606    0.248    6.990
   44.990  104.852  157.749    0.246    6.180
   45.240   93.178  156.893    0.252    5.397
   45.490   90.723  157.037    0.269    5.471
   45.740   89.498  157.217    0.301    6.852
   45.990  112.239  157.397    0.340    7.581
   46.240  123.919  158.469    0.343    6.874
   46.490  113.475  160.650    0.337    6.716
   46.740  114.708  160.830    0.328    6.555
   46.990  114.710  160.902    0.304    5.653
   47.240  104.266  159.081    0.283    6.099
   47.490   98.738  158.189    0.270    6.662
   47.740   97.512  157.404    0.265    6.114
   47.990  109.806  157.512    0.285    5.544
   48.240  120.258  157.656    0.280    5.835
   48.490  110.427  156.835    0.280    5.990
   48.740  107.357  156.943    0.286    6.227
   48.990  109.819  156.123    0.289    6.309
   49.240  108.593  153.265    0.281    6.317
   49.490  108.597  151.444    0.266    5.798
   49.740  116.589  152.553    0.247    5.877
   49.990  112.290  153.697    0.230    6.919
   50.240   93.241  155.842    0.213    5.968
   50.490   87.099  159.024    0.221    5.020
   50.740   82.800  161.168    0.258    5.764
   50.990   80.960  162.277    0.268    6.454
   51.240   72.974  163.421    0.266    6.074
   51.490   64.987  164.638    0.272    6.633
   51.740   74.823  165.818    0.278    6.480
   51.990   83.430  166.927    0.296    6.174
   52.240   88.350  168.035    0.292    6.181
   52.490   96.957  169.252    0.294    6.347
   52.740  116.012  169.360    0.296    6.046
   52.990  106.797  169.576    0.289    5.981
   53.240  117.862  168.683    0.289    5.987
   53.490  127.084  168.791    0.288    5.994
   53.740  120.327  167.971    0.280    6.077
   53.990  116.642  168.079    0.272    6.162
   54.240  120.948  167.222    0.271    6.170
   54.490  124.024  167.402    0.271    6.255
   54.740  128.329  167.582    0.271    5.957
   54.990  116.655  166.653    0.266    5.748
   55.240  110.512  165.869    0.253    6.355
   55.490   95.766  164.976    0.251    5.981
   55.740   90.239  163.155    0.251    6.216
   55.990   97.002  159.333    0.241    6.790
   56.240  102.536  157.440    0.232    6.632
   56.490  110.528  154.618    0.223    8.004
   56.740  106.844  153.690    0.210   10.150
   56.990  111.764  151.869    0.180    6.413
   57.240  106.850  151.012    0.177    7.007
   57.490  108.697  151.192    0.269    7.104
   57.740  105.627  150.264    0.302    6.769
   57.990   93.954  150.444    0.297    7.033
   58.240   93.957  150.624    0.294    7.401
   58.490  104.408  150.768    0.291    6.878
