~VERSION INFORMATION
 VERS.                 2.0:   CWLS LOG ASCII STANDARD -VERSION 2.0
 WRAP.                  NO:   ONE LINE PER DEPTH STEP
~WELL INFORMATION BLOCK
#MNEM.UNIT           DATA                    DESCRIPTION OF MNEMONIC
#---------    -------------------            -------------------------------
# Generated from Intellog Unique Number	CN_94_101/WELL/5029
WELL.         12-12-099-15W4                 : Well_name    - WELL
LOC .         AA/12-12-099-15W4/0            : Location     - LOCATION
UWI .         AA/12-12-099-15W400            : Uwi          - UNIQUE WELL ID
ENTR.         TIM                            : Entered      - ENTERED BY
SRVC.         SCHLUMBERGER                   : Scn          - SERVICE COMPANY
DATE.         08/13/92                       : Date         - LOG DATE
STRT.M        295                            : top_depth    - START DEPTH
STOP.M        495                            : bot_depth    - STOP DEPTH
STEP.M        0.25                           : increment    - STEP LENGTH
 NULL. -999.2500:NULL Value
~CURVE INFORMATION BLOCK
#MNEM UNIT       ERCB CURVE CODE    CURVE DESCRIPTION
#-----------   ------------------   ----------------------------------
DEPT.M        00 001 00 00         : DEPTH        - DEPTH
GR  .API      00 310 00 00         : GR           - GAMMA RAY
ILD .OHMM     00 120 00 00         : RESD         - DEEP RESISTIVITY (DIL)
NPHI.V/V      00 330 00 00         : PHIN         - NEUTRON POROSITY (SANDSTONE)
DPHI.V/V      00 890 00 00         : PHID         - DENSITY POROSITY (SANDSTONE)
~PARAMETER INFORMATION
#MNEM.UNIT           DATA             DESCRIPTION OF MNEMONIC
#---------         -----------     ------------------------------
GL  .M        740.9                : gl           - GROUND LEVEL ELEVATION
EREF.M        744.35               : kb           - ELEVATION OF DEPTH REFERENCE
DATM.M        744.35               : datum        - DATUM ELEVATION
TDD .M        497.5                : tdd          - TOTAL DEPTH DRILLER
RUN .         ONE                  : Run          - RUN NUMBER
ENG .         BILL                 : Engineer     - RECORDING ENGINEER
WIT .         JIM                  : Witness      - WITNESSED BY
MUD .         GEL                  : Mud_type     - MUD TYPE
MATR.         SANDSTONE            : Logunit      - NEUTRON MATRIX
TMAX.C        25                   : BHT          - MAXIMUM RECORDED TEMPERATURE
BHTD.M        497.5                : BHTDEP       - MAXIMUM RECORDED TEMPERATURE
RMT .C        10                   : MDTP         - TEMPERATURE OF MUD
MUDD.KG/M     1100                 : MWT          - MUD DENSITY
NEUT.         1                    : NEUTRON      - NEUTRON TYPE
RESI.         0                    : RESIST       - RESISTIVITY TYPE
RM  .OHMM     0.52                 : RM           - RESISTIVITY OF MUD
RMC .OHMM     0.72                 : RMC          - RESISTIVITY OF MUD CAKE
RMF .OHMM     0.72                 : RMF          - RESISTIVITY OF MUD FILTRATE
SUFT.C        4                    : SUFT         - SURFACE TEMPERATURE
~A  DEPTH       GR     RESD     PHIN     PHID
# ...
  338.500   90.251    4.330    0.526    0.301
  338.750   88.461    4.410    0.526    0.298
  339.000   87.261    4.492    0.524    0.296
  339.250   86.653    4.575    0.517    0.291
  339.500   86.635    4.661    0.511    0.286
  339.750   88.390    4.657    0.502    0.280
  340.000   91.327    4.656    0.495    0.269
  340.250   94.268    4.479    0.500    0.255
  340.500   99.569    4.309    0.522    0.243
  340.750  106.050    4.069    0.557    0.262
  341.000  108.987    3.768    0.546    0.301
  341.250  108.965    3.695    0.541    0.297
  341.500  107.766    3.765    0.557    0.294
  341.750  105.389    3.835    0.555    0.295
  342.000  103.599    3.981    0.534    0.297
  342.250  103.577    4.054    0.531    0.303
  342.500  103.564    4.131    0.535    0.306
  342.750  103.546    4.128    0.536    0.309
  343.000  102.937    4.048    0.541    0.314
  343.250  102.920    3.970    0.548    0.313
  343.500  101.125    3.747    0.559    0.308
  343.750   99.926    3.606    0.571    0.315
  344.000   98.726    3.469    0.573    0.328
  344.250   98.709    3.403    0.565    0.340
  344.500   98.691    3.466    0.560    0.343
  344.750   98.078    3.597    0.548    0.343
  345.000   98.061    3.664    0.534    0.343
  345.250   98.047    3.733    0.527    0.340
  345.500   94.480    3.949    0.523    0.338
  345.750   92.103    4.023    0.522    0.354
  346.000   90.904    4.176    0.523    0.370
  346.250   90.882    4.254    0.529    0.360
  346.500   90.864    4.333    0.531    0.362
  346.750   90.256    4.331    0.531    0.390
  347.000   87.870    4.329    0.531    0.398
  347.250   86.680    4.164    0.535    0.424
  347.500   84.298    4.163    0.543    0.435
  347.750   84.272    4.082    0.551    0.441
  348.000   84.263    4.158    0.557    0.433
  348.250   82.469    4.235    0.546    0.425
  348.500   81.269    4.480    0.530    0.417
  348.750   78.884    4.652    0.522    0.409
  349.000   78.866    4.922    0.505    0.399
  349.250   80.621    5.110    0.488    0.387
  349.500   82.967    5.107    0.516    0.368
  349.750   85.899    5.009    0.539    0.356
  350.000   87.659    4.552    0.549    0.351
  350.250   88.236    4.380    0.567    0.347
  350.500   89.400    3.980    0.582    0.339
  350.750   91.151    3.757    0.541    0.331
  351.000   92.906    3.616    0.525    0.323
  351.250   95.247    3.413    0.506    0.310
  351.500   96.420    3.347    0.511    0.298
  351.750   97.580    3.410    0.517    0.282
  352.000   98.158    3.539    0.526    0.271
  352.250   98.140    3.605    0.526    0.271
  352.500   99.895    3.672    0.534    0.273
  352.750  101.650    3.671    0.544    0.276
  353.000  103.405    3.738    0.537    0.276
  353.250  103.387    3.808    0.528    0.277
  353.500  103.952    3.806    0.532    0.277
  353.750  104.534    3.804    0.548    0.277
  354.000  105.098    3.802    0.574    0.276
  354.250  105.085    3.799    0.569    0.276
  354.500  105.068    3.797    0.567    0.276
  354.750  105.054    3.795    0.565    0.276
  355.000  105.032    3.793    0.566    0.277
  355.250  105.015    3.791    0.568    0.284
  355.500  104.406    3.788    0.570    0.292
  355.750  104.388    3.787    0.567    0.306
  356.000  104.366    3.856    0.565    0.324
  356.250  104.349    3.855    0.566    0.344
  356.500  104.331    3.926    0.571    0.350
  356.750  104.314    4.000    0.566    0.332
  357.000  103.701    4.074    0.559    0.332
  357.250  102.510    4.229    0.549    0.339
  357.500   98.352    4.228    0.543    0.313
  357.750   96.566    4.225    0.539    0.283
  358.000   95.957    4.222    0.539    0.258
  358.250   99.481    4.140    0.542    0.256
  358.500   99.463    3.984    0.554    0.305
  358.750   98.268    3.907    0.580    0.329
  359.000   97.660    3.759    0.548    0.293
  359.250   99.415    3.687    0.542    0.284
  359.500   99.397    3.479    0.557    0.316
  359.750   98.193    3.413    0.589    0.345
  360.000   97.580    3.283    0.595    0.363
  360.250   97.563    3.220    0.582    0.365
  360.500   98.132    3.158    0.573    0.360
  360.750   98.714    3.096    0.587    0.358
  361.000   97.505    3.036    0.600    0.354
  361.250   96.906    2.978    0.612    0.349
  361.500   95.702    2.920    0.623    0.343
  361.750   95.689    2.863    0.625    0.343
  362.000   95.667    2.808    0.621    0.346
  362.250   95.649    2.753    0.611    0.348
  362.500   95.636    2.752    0.598    0.317
  362.750   95.027    2.750    0.583    0.319
  363.000   95.010    2.748    0.575    0.350
  363.250   95.583    2.747    0.564    0.357
  363.500   94.974    2.852    0.559    0.356
  363.750   91.403    3.018    0.562    0.347
  364.000   90.212    3.511    0.546    0.325
  364.250   85.463    4.009    0.514    0.313
  364.500   81.309    4.754    0.476    0.324
  364.750   77.156    5.637    0.459    0.336
  365.000   71.820    6.683    0.432    0.345
  365.250   67.662    7.631    0.409    0.356
  365.500   65.876    9.049    0.391    0.370
  365.750   68.222    9.394    0.389    0.366
  366.000   72.336    9.212    0.460    0.359
  366.250   75.273    8.696    0.478    0.339
  366.500   78.205    8.055    0.504    0.328
  366.750   79.378    7.048    0.513    0.311
  367.000   81.724    6.283    0.503    0.316
  367.250   84.070    6.046    0.493    0.321
  367.500   85.825    5.495    0.490    0.322
  367.750   88.171    5.288    0.497    0.316
  368.000   88.739    5.186    0.508    0.308
  368.250   88.131    5.084    0.509    0.300
  368.500   86.927    5.083    0.499    0.291
  368.750   86.918    5.177    0.481    0.291
  369.000   86.305    5.273    0.489    0.300
  369.250   86.883    5.270    0.516    0.318
  369.500   88.638    5.268    0.521    0.321
  369.750   86.839    5.901    0.512    0.325
  370.000   85.053    6.609    0.488    0.324
  370.250   78.531    7.403    0.462    0.320
  370.500   74.382    8.137    0.450    0.319
  370.750   69.637    9.288    0.446    0.320
  371.000   65.484    9.828    0.448    0.318
  371.250   60.739   10.011    0.458    0.304
  371.500   61.894    9.817    0.468    0.296
  371.750   63.067    9.268    0.478    0.323
  372.000   63.640    7.956    0.478    0.326
  372.250   65.982    6.961    0.481    0.300
  372.500   67.741    5.976    0.486    0.280
  372.750   71.860    4.846    0.497    0.268
  373.000   77.747    4.006    0.513    0.253
  373.250   81.279    3.640    0.539    0.283
  373.500   85.988    3.246    0.554    0.309
  373.750   91.875    3.183    0.565    0.323
  374.000   94.816    3.121    0.557    0.314
  374.250   94.207    3.120    0.538    0.308
  374.500   91.822    3.239    0.517    0.301
  374.750   89.445    3.362    0.503    0.300
  375.000   88.832    3.491    0.492    0.301
  375.250   88.814    3.693    0.506    0.301
  375.500   89.383    4.136    0.533    0.302
  375.750   88.770    4.633    0.530    0.310
  376.000   88.171    5.092    0.519    0.321
  376.250   86.372    5.388    0.535    0.323
  376.500   85.181    5.386    0.545    0.321
  376.750   84.573    5.181    0.531    0.310
  377.000   84.555    5.082    0.527    0.284
  377.250   86.310    4.618    0.523    0.255
  377.500   90.428    4.360    0.536    0.219
  377.750   93.952    4.441    0.611    0.326
  378.000   94.520    4.698    0.618    0.345
  378.250   95.103    4.878    0.586    0.352
  378.500   95.085    5.064    0.555    0.362
  378.750   93.881    5.159    0.533    0.371
  379.000   91.504    5.355    0.514    0.382
  379.250   88.528    5.455    0.502    0.385
  379.500   86.742    5.557    0.496    0.350
  379.750   84.948    5.660    0.507    0.339
  380.000   84.917    5.765    0.513    0.343
  380.250   84.903    5.872    0.516    0.340
  380.500   84.890    5.982    0.504    0.333
  380.750   84.277    6.094    0.492    0.323
  381.000   83.678    6.207    0.492    0.314
  381.250   82.478    6.322    0.498    0.314
  381.500   81.870    6.440    0.497    0.322
  381.750   81.848    6.559    0.491    0.321
