~Version : LASO    vs 4.00
VERS.                2.00:   CWLS Log ASCII Standard -VERSION 2.0
WRAP.                  NO:
~Well Information Block
#MNEM.UNIT       Data                        Description of Mnemonic
#----.----      -------------------------- : -----------------------------
STRT.M            15.0000:
STOP.M           206.4000:
STEP.M             0.2000:
NULL.           -999.2500:
COMP.  MOBIL OIL OF CANADA     :COMPANY
WELL.  MOBIL CLARKE OV 13-4    :WELL
FLD.                           :FIELD
LOC.   13-04-090-07W4          :LOCATION
CTRY.  CANADA                  :COUNTRY
PROV.  ALBERTA                 :PROVINCE
SRVC.  SCHLUMBERGER            :SERVICE COMPANY
DATE.  06-MAR-81               :LOG DATE
UWI.   AA/13-04-090-07W400     :UNIQUE WELL ID
~Parameter Information Block
#MNEM.UNIT       Data                        Description of Mnemonic
#----.----      -------------------------- : -----------------------------
RUN .                   1                 : Run Number
GL  .M           458.6000                 : Ground Level Elevation
DREF.                  KB                 : Depth Reference
EREF.M           458.6000                 : Elevation of Depth Reference
TDL .M           206.5000                 : Total Depth Logger
TDD .M           207.0000                 : Total Depth Driller
CSGL.M             0.0000                 : Casing Bottom Logger
CSGD.M             8.0000                 : Casing Bottom Driller
CSGS.MM          219.0000                 : Casing Size
CSGW.KG/M          0.0000                 : Casing Weight
BS  .MM          159.0000                 : Bit Size
DFD .            999.0000                 : Mud Weight (Density)
~Curve Information Block
#MNEM.UNIT        API CODE    Curve Description
#---------    ------------    ------------------------------
DEPT.M                    :   DEPTH
CALI.MM       42 280  1  1:   2 DENSITY CALIPER
DPHI.V/V                  :   DPHI
GR  .GAPI     42 310  1  1:   3 GAMMA RAY
LLD .Ohmm                 :   LLD
NPHI.V/V      42 890  3  1:   4 NEUTRON POROSITY (SANDSTONE)
RHOB.K/M3     42 350  1  1:   5 BULK DENSITY
~A  Depth           CALI        DPHI          GR         LLD        NPHI        RHOB
# ...
186.0000        173.9250      0.3748     87.4350   1033.4694      0.4072   2366.0000
186.2000        169.6250      0.3803     77.5350    725.8489      0.4184   2312.0000
186.4000        169.6250      0.3779     73.2300    401.3607      0.4186   2315.0000
186.6000        166.4000      0.3754     71.4300    223.5866      0.4120   2322.0000
186.8000        169.6250      0.3786     75.5250    152.8735      0.4008   2246.0000
187.0000        167.4750      0.3751     78.9300    117.1576      0.3782   2250.0000
187.2000        175.0000      0.3731     81.6300     99.7189      0.3594   2215.0000
187.4000        176.0750      0.3630     89.5350     88.9926      0.3786   2091.0000
187.6000        169.6250      0.3434     94.5450     81.7073      0.4000   2017.0000
187.8000        171.7750      0.3227     94.5450     78.9095      0.4398   1973.0000
188.0000        172.8500      0.2954     85.0350     78.7096      0.5056   1964.0000
188.2000        181.4500      0.2676     61.7250     78.7103      0.5606   2087.0000
188.4000        178.2250      0.2637     59.1150     80.0352      0.5158   2093.8999
188.6000        177.1500      0.2568     59.3250     80.4358      0.4484   2093.0000
188.8000        182.5250      0.2523     60.2250     80.7242      0.3958   2217.0000
189.0000        180.3750      0.2603     57.5250     78.8292      0.3808   2197.0000
189.2000        176.0750      0.2681     54.9150     74.0635      0.3674   2193.0000
189.4000        176.0750      0.2687     51.1200     69.6158      0.3430   2220.0000
189.6000        176.0750      0.2854     48.2100     66.9895      0.3390   2209.0000
189.8000        175.0000      0.3114     46.0200     66.5711      0.3394   2213.0000
190.0000        176.0750      0.3337     46.8150     64.6139      0.3328   2210.0000
190.2000        176.0750      0.3316     46.8150     62.4655      0.3300   2184.0000
190.4000        173.9250      0.3045     45.3150     59.2199      0.3236   2215.0000
190.6000        173.9250      0.2983     44.2200     56.8251      0.3248   2225.0000
190.8000        176.0750      0.3060     46.3200     56.5024      0.3388   2277.0000
191.0000        175.0000      0.3107     47.3100     56.3686      0.3374   2277.0000
191.2000        176.0750      0.3063     48.6150     56.3606      0.3364   2250.0000
191.4000        173.9250      0.3056     53.2200     56.3639      0.3510   2246.0000
191.6000        173.9250      0.3206     58.0200     58.0109      0.3616   2231.0000
191.8000        169.6250      0.3179     63.9300     60.0606      0.3648   2242.0000
192.0000        177.1500      0.3044     84.0300     58.5991      0.3478   2274.0000
192.2000        176.0750      0.3004     98.8350     58.4276      0.3510   2274.0000
192.4000        171.7750      0.2966    113.9550     58.4187      0.3652   2252.0000
192.6000        167.4750      0.2927    147.1650     64.7289      0.3794   2282.0000
192.8000        170.7000      0.2827    169.2750     74.3092      0.3704   2281.0000
193.0000        169.6250      0.2852    195.7950     81.3757      0.3742   2303.0000
193.2000        173.9250      0.2768    212.8950     87.8660      0.3880   2489.0000
193.4000        170.7000      0.2724    177.5850     97.8592      0.3908   2589.0000
193.6000        170.7000      0.2616    134.4600    106.5307      0.3980   2632.0000
193.8000        175.0000      0.2682    107.7450    113.1233      0.3996   2556.0000
194.0000        173.9250      0.2371     95.1450    121.5256      0.3668   2498.0000
194.2000        170.7000      0.2181     95.3400    126.3564      0.3532   2492.0000
194.4000        172.8500      0.1773     95.5350    132.3991      0.3496   2499.0000
194.6000        172.8500      0.1453     94.2450    136.0575      0.3488   2560.0000
194.8000        171.7750      0.1275     94.1400    139.4702      0.3432   2577.0000
195.0000        170.7000      0.1181     94.7400    139.8979      0.3284   2550.0000
195.2000        173.9250      0.1092     91.1400    141.9172      0.3030   2602.0000
195.4000        173.9250      0.1118     88.1400    144.4866      0.3046   2611.0000
195.6000        172.8500      0.1134     86.4300    147.3870      0.3090   2604.8999
195.8000        172.8500      0.1168     79.4250    153.0754      0.3162   2595.0000
196.0000        171.7750      0.1131     74.9250    159.3488      0.3160   2613.0000
196.2000        170.7000      0.1060     70.3200    167.5328      0.3100   2606.0000
196.4000        172.8500      0.1045     67.9200    177.8505      0.2818   2598.0000
196.6000        170.7000      0.0992     69.3300    190.3113      0.2536   2632.0000
196.8000        170.7000      0.0917     69.2250    204.8920      0.2342   2639.0000
197.0000        169.6250      0.0841     69.3300    214.4898      0.2322   2659.8999
197.2000        173.9250      0.0802     72.7350    227.9730      0.2448   2650.0000
197.4000        173.9250      0.0744     72.6300    234.2907      0.2456   2623.0000
197.6000        172.8500      0.0772     72.4350    237.2344      0.2446   2606.0000
197.8000        171.7750      0.0920     68.0250    237.6888      0.2558   2606.0000
198.0000        173.9250      0.1054     68.8200    235.8132      0.2610   2642.0000
198.2000        173.9250      0.0977     68.1300    234.1835      0.2588   2662.0000
198.4000        173.9250      0.0852     64.5300    232.5626      0.2544   2657.0000
198.6000        173.9250      0.0739     62.0250    231.7966      0.2574   2652.0000
198.8000        169.6250      0.0634     60.1200    231.6676      0.2616   2662.0000
199.0000        170.7000      0.0590     62.8200    233.5237      0.2500   2672.0000
199.2000        171.7750      0.0550     63.6300    237.5974      0.2352   2686.0000
199.4000        171.7750      0.0553   -999.2500    239.2914      0.2278   2667.0000
199.6000        168.5500      0.0748   -999.2500    240.9226      0.2608   2628.0000
199.8000        169.6250      0.0861   -999.2500    245.0732      0.2784   2625.0000
200.0000        167.4750      0.0843   -999.2500    247.5799      0.2912   2625.0000
200.2000        168.5500      0.0819   -999.2500   -999.2500      0.2936   2628.0000
200.4000        169.6250      0.0855   -999.2500   -999.2500      0.2788   2634.0000
200.6000        169.6250      0.0839   -999.2500   -999.2500      0.2806   2651.0000
200.8000        170.7000      0.0882   -999.2500   -999.2500      0.2884   2648.8999
201.0000        171.7750      0.0886   -999.2500   -999.2500      0.2630   2659.8999
201.2000        171.7750      0.0898   -999.2500   -999.2500      0.2260   2665.0000
201.4000        171.7750      0.0869   -999.2500   -999.2500      0.1982   2648.0000
201.6000        171.7750      0.0804   -999.2500   -999.2500      0.1956   2613.0000
201.8000        171.7750      0.0810   -999.2500   -999.2500      0.1867   2597.0000
202.0000        171.7750      0.0885   -999.2500   -999.2500      0.1763   2609.0000
202.2000        172.8500      0.0952   -999.2500   -999.2500   -999.2500   2613.0000
202.4000        172.8500      0.0935   -999.2500   -999.2500   -999.2500   2607.0000
202.6000        171.7750      0.0850   -999.2500   -999.2500   -999.2500   2608.0000
202.8000        171.7750      0.0848   -999.2500   -999.2500   -999.2500   2655.0000
203.0000        171.7750      0.0867   -999.2500   -999.2500   -999.2500   2668.0000
203.2000        171.7750      0.0861   -999.2500   -999.2500   -999.2500   2674.0000
203.4000        171.7750      0.0934   -999.2500   -999.2500   -999.2500   2670.0000
203.6000        169.6250      0.1001   -999.2500   -999.2500   -999.2500   2689.0000
203.8000        169.6250      0.0995   -999.2500   -999.2500   -999.2500   2668.0000
204.0000        169.6250      0.1007   -999.2500   -999.2500   -999.2500   2680.0000
204.2000        170.7000      0.1085   -999.2500   -999.2500   -999.2500   2689.0000
204.4000        169.6250      0.1122   -999.2500   -999.2500   -999.2500   2677.0000
204.6000        170.7000      0.1076   -999.2500   -999.2500   -999.2500   2664.0000
204.8000        169.6250      0.1047   -999.2500   -999.2500   -999.2500   2676.0000
