~VERSION INFORMATION
 VERS.                 2.0:   CWLS LOG ASCII STANDARD -VERSION 2.0
 WRAP.                  NO:   ONE LINE PER DEPTH STEP
~WELL INFORMATION BLOCK
#MNEM.UNIT           DATA                    DESCRIPTION OF MNEMONIC
#---------    -------------------            -------------------------------
# Generated from Intellog Unique Number	CW_82_90/WELL/1029
WELL.         11-20-082-20W4                 : Well_name    - WELL
LOC .         AA/11-20-082-20W4/0            : Location     - LOCATION
UWI .         AA/11-20-082-20W4/0            : Uwi          - UNIQUE WELL ID
ENTR.         JAYE                           : Entered      - ENTERED BY
SRVC.         SCHLUMBERGER                   : Scn          - SERVICE COMPANY
DATE.         2 FEB 76                       : Date         - LOG DATE
STRT.M        182.88                         : top_depth    - START DEPTH
STOP.M        387.13                         : bot_depth    - STOP DEPTH
STEP.M        0.25                           : increment    - STEP LENGTH
 NULL. -999.2500:NULL Value
~CURVE INFORMATION BLOCK
#MNEM UNIT       ERCB CURVE CODE    CURVE DESCRIPTION
#-----------   ------------------   ----------------------------------
DEPT.M        00 001 00 00         : DEPTH        - DEPTH
CALI.MM       00 280 01 00         : CAL          - CALIPER
GR  .API      00 310 00 00         : GR           - GAMMA RAY
NPHI.V/V      00 330 00 00         : PHIN         - NEUTRON POROSITY (SANDSTONE)
DPHI.V/V      00 890 00 00         : PHID         - DENSITY POROSITY (SANDSTONE)
ILD .OHMM     00 120 00 00         : RESD         - DEEP RESISTIVITY (DLL)
~PARAMETER INFORMATION
#MNEM.UNIT           DATA             DESCRIPTION OF MNEMONIC
#---------         -----------     ------------------------------
GL  .M        603.504              : gl           - GROUND LEVEL ELEVATION
EREF.M        606.857              : kb           - ELEVATION OF DEPTH REFERENCE
DATM.M        603.504              : datum        - DATUM ELEVATION
TDD .M        396.24               : tdd          - TOTAL DEPTH DRILLER
BASE.         EDMONTON             : Branch       - HOME BASE OF LOGGING UNIT
MATR.         SANDSTONE            : Logunit      - NEUTRON MATRIX
TMAX.C        20                   : BHT          - MAXIMUM RECORDED TEMPERATURE
BHTD.M        396.24               : BHTDEP       - MAXIMUM RECORDED TEMPERATURE
RMT .C        14.4444              : MDTP         - TEMPERATURE OF MUD
MUDD.KG/M     0                    : MWT          - MUD DENSITY
NEUT.         0                    : NEUTRON      - NEUTRON TYPE
RESI.         1                    : RESIST       - RESISTIVITY TYPE
RM  .OHMM     2.78                 : RM           - RESISTIVITY OF MUD
RMC .OHMM     3.2                  : RMC          - RESISTIVITY OF MUD CAKE
RMF .OHMM     2.13                 : RMF          - RESISTIVITY OF MUD FILTRATE
SUFT.C        4                    : SUFT         - SURFACE TEMPERATURE
~A  DEPTH      CAL       GR     PHIN     PHID     RESD
  182.880  139.765   63.381    0.469    0.239    7.567
  183.130  139.694   61.053    0.429    0.253    7.247
  183.380  141.275   63.750    0.427    0.251    7.010
  183.630  148.136   73.173    0.440    0.254    6.848
  183.880  152.686   73.522    0.461    0.265    6.467
  184.130  155.697   71.781    0.484    0.273    5.940
  184.380  156.839   71.090    0.516    0.296    5.500
  184.630  154.024   74.112    0.535    0.308    5.163
  184.880  155.273   78.252    0.555    0.295    4.809
  185.130  156.203   78.858    0.571    0.300    4.515
  185.380  156.784   79.995    0.548    0.317    4.376
  185.630  156.721   82.101    0.558    0.331    4.241
  185.880  157.639   82.647    0.576    0.317    4.185
  186.130  158.560   83.588    0.584    0.300    4.121
  186.380  156.735   85.173    0.574    0.282    4.074
  186.630  154.796   85.978    0.555    0.276    4.012
  186.880  155.935   87.569    0.549    0.269    3.919
  187.130  157.407   86.089    0.563    0.275    3.821
  187.380  157.993   86.965    0.569    0.269    3.741
  187.630  157.709   86.986    0.555    0.273    3.654
  187.880  157.746   86.291    0.556    0.281    3.507
  188.130  157.349   86.183    0.560    0.270    3.378
  188.380  156.290   85.553    0.573    0.287    3.210
  188.630  153.692   89.625    0.570    0.306    3.111
  188.880  153.185   89.191    0.578    0.315    2.991
  189.130  153.774   89.862    0.586    0.286    2.870
  189.380  154.478   92.497    0.583    0.276    2.743
  189.630  154.745   92.975    0.570    0.281    2.617
  189.880  155.114   90.322    0.584    0.281    2.587
  190.130  155.922   89.566    0.596    0.289    2.593
  190.380  156.516   88.018    0.606    0.293    2.621
  190.630  156.882   84.648    0.600    0.290    2.648
  190.880  157.031   84.408    0.577    0.274    2.671
  191.130  157.403   85.217    0.583    0.273    2.678
  191.380  158.104   84.259    0.591    0.272    2.690
  191.630  158.810   84.086    0.601    0.265    2.778
  191.880  154.008   84.110    0.606    0.262    2.881
  192.130  148.547   80.937    0.589    0.248    2.929
  192.380  148.163   83.176    0.556    0.192    2.948
  192.630  149.068   88.880    0.578    0.156    3.003
  192.880  152.523   91.645    0.591    0.213    3.023
  193.130  152.016   92.773    0.596    0.259    3.043
  193.380  150.073   91.687    0.573    0.277    3.044
  193.630  147.813   89.556    0.559    0.280    3.064
  193.880  147.297   90.953    0.566    0.274    3.108
  194.130  147.447   92.737    0.576    0.269    3.186
  194.380  150.569   90.343    0.573    0.270    3.251
  194.630  153.582   90.692    0.551    0.273    3.312
  194.880  153.740   91.433    0.550    0.264    3.360
  195.130  154.111   90.869    0.567    0.251    3.409
  195.380  154.363   91.087    0.578    0.262    3.459
  195.630  155.835   90.523    0.573    0.277    3.474
  195.880  157.972   92.571    0.576    0.273    3.455
  196.130  158.779   94.353    0.563    0.275    3.430
  196.380  158.168   95.160    0.565    0.281    3.418
  196.630  157.210   94.594    0.571    0.271    3.433
  196.880  156.269   92.464    0.563    0.289    3.463
  197.130  155.752   90.268    0.575    0.283    3.556
  197.380  155.462   90.421    0.568    0.278    3.680
  197.630  155.284   82.550    0.552    0.279    4.165
  197.880  154.890   77.673    0.560    0.275    5.034
  198.130  152.620   70.256    0.552    0.288    6.257
  198.380  149.687   64.535    0.472    0.281    8.044
  198.630  143.683   60.314    0.442    0.259   10.761
  198.880  138.882   65.561    0.466    0.185   13.481
  199.130  137.501   87.317    0.483    0.240   16.490
  199.380  137.984  104.702    0.475    0.210   17.584
  199.630  138.018  111.317    0.435    0.145   17.770
  199.880  138.070   95.676    0.369    0.081   18.100
  200.130  138.329   78.727    0.316    0.040   24.023
  200.380  138.472   63.934    0.270    0.052   26.655
  200.630  138.961   38.960    0.227    0.055   31.026
  200.880  138.988   28.276    0.178    0.051   35.750
  201.130  139.254   26.213    0.158    0.052   43.042
  201.380  138.971   34.785    0.178    0.098   47.662
  201.630  138.672   36.375    0.366    0.155   50.022
  201.880  138.604   34.895    0.452    0.305   50.952
  202.130  138.865   31.002    0.397    0.288   50.076
  202.380  139.235   34.032    0.351    0.243   50.210
  202.630  139.615   37.575    0.363    0.238   50.629
  202.880  139.981   39.362    0.410    0.272   51.066
  203.130  140.131   43.433    0.432    0.288   50.789
  203.380  140.176   45.673    0.438    0.300   50.713
  203.630  140.330   47.459    0.437    0.298   50.738
  203.880  140.372   44.738    0.448    0.290   51.174
  204.130  140.411   37.517    0.442    0.278   51.506
  204.380  140.555   29.380    0.423    0.265   52.360
  204.630  140.492   25.619    0.366    0.262   53.127
  204.880  140.421   29.427    0.376    0.281   53.477
  205.130  140.459   33.954    0.425    0.305   53.818
  205.380  140.282   37.109    0.472    0.327   54.492
  205.630  140.109   39.417    0.465    0.323   55.839
  205.880  140.176   39.047    0.459    0.333   57.677
  206.130  140.298   37.375    0.463    0.340   59.931
  206.380  140.670   38.767    0.463    0.338   61.294
  206.630  140.932   41.596    0.464    0.360   56.864
  206.880  140.971   45.670    0.464    0.371   54.019
  207.130  141.231   47.319    0.465    0.369   50.213
  207.380  141.386   45.385    0.468    0.373   44.412
  207.630  141.535   45.342    0.491    0.368   39.989
  207.880  141.907   47.650    0.504    0.370   37.243
  208.130  142.736   49.697    0.508    0.379   34.963
  208.380  142.975   49.983    0.507    0.382   33.285
  208.630  142.797   48.046    0.510    0.376   32.005
  208.880  142.286   44.738    0.510    0.379   30.893
  209.130  141.675   41.628    0.501    0.382   29.704
  209.380  141.598   43.805    0.495    0.378   28.167
  209.630  141.641   43.768    0.502    0.364   26.920
  209.880  141.691   43.067    0.500    0.365   25.730
  210.130  141.624   39.897    0.493    0.345   24.642
  210.380  141.543   38.284    0.483    0.329   23.599
  210.630  141.154   37.653    0.478    0.353   22.600
  210.880  140.973   40.162    0.479    0.382   21.731
  211.130  141.007   40.314    0.491    0.362   21.060
  211.380  141.171   40.333    0.499    0.379   20.250
  211.630  141.316   40.228    0.498    0.396   19.317
  211.880  141.259   42.076    0.484    0.376   18.646
  212.130  141.403   44.645    0.477    0.364   17.928
  212.380  141.672   45.451    0.494    0.369   16.999
  212.630  141.817   49.193    0.509    0.363   16.120
  212.880  142.186   57.571    0.504    0.356   16.815
  213.130  142.186   51.197    0.493    0.353   16.395
  213.380  142.718   51.614    0.477    0.359   16.177
  213.630  143.075   56.531    0.467    0.357   12.250
  213.880  143.561   57.794    0.469    0.347    7.849
  214.130  143.602   63.759    0.475    0.331    5.920
  214.380  143.965   66.651    0.543    0.314    4.083
  214.630  147.415   68.697    0.593    0.299    5.684
  214.880  143.716   58.341    0.560    0.310    7.866
  215.130  140.684   49.030    0.468    0.317   12.916
  215.380  140.612   42.787    0.465    0.341   15.958
  215.630  140.650   44.051    0.465    0.345   16.948
  215.880  140.582   45.972    0.451    0.350   17.681
  216.130  140.734   48.339    0.455    0.343   17.832
  216.380  141.552   50.907    0.467    0.320   17.560
  216.630  142.472   47.995    0.465    0.319   16.884
  216.880  142.846   48.872    0.445    0.325   15.663
  217.130  143.218   49.932    0.452    0.344   14.330
  217.380  143.471   53.156    0.452    0.345   13.346
  217.630  143.627   55.723    0.450    0.343   12.307
  217.880  143.229   58.553    0.453    0.328   11.349
  218.130  143.151   59.748    0.461    0.308   10.280
  218.380  142.757   61.664    0.464    0.296    9.728
  218.630  142.254   64.166    0.457    0.285    9.989
  218.880  141.962   66.998    0.460    0.298   10.378
  219.130  142.001   63.561    0.479    0.307   10.741
