~VERSION INFORMATION
 VERS.                 2.0:   CWLS LOG ASCII STANDARD -VERSION 2.0
 WRAP.                  NO:   ONE LINE PER DEPTH STEP
~WELL INFORMATION BLOCK
#MNEM.UNIT           DATA                    DESCRIPTION OF MNEMONIC
#---------    -------------------            -------------------------------
# Generated from Intellog Unique Number	CW_82_90/WELL/1029
WELL.         11-20-082-20W4                 : Well_name    - WELL
LOC .         AA/11-20-082-20W4/0            : Location     - LOCATION
UWI .         AA/11-20-082-20W4/0            : Uwi          - UNIQUE WELL ID
ENTR.         JAYE                           : Entered      - ENTERED BY
SRVC.         SCHLUMBERGER                   : Scn          - SERVICE COMPANY
DATE.         2 FEB 76                       : Date         - LOG DATE
STRT.M        182.88                         : top_depth    - START DEPTH
STOP.M        387.13                         : bot_depth    - STOP DEPTH
STEP.M        0.25                           : increment    - STEP LENGTH
 NULL. -999.2500:NULL Value
~CURVE INFORMATION BLOCK
#MNEM UNIT       ERCB CURVE CODE    CURVE DESCRIPTION
#-----------   ------------------   ----------------------------------
DEPT.M        00 001 00 00         : DEPTH        - DEPTH
CALI.MM       00 280 01 00         : CAL          - CALIPER
GR  .API      00 310 00 00         : GR           - GAMMA RAY
NPHI.V/V      00 330 00 00         : PHIN         - NEUTRON POROSITY (SANDSTONE)
DPHI.V/V      00 890 00 00         : PHID         - DENSITY POROSITY (SANDSTONE)
ILD .OHMM     00 120 00 00         : RESD         - DEEP RESISTIVITY (DLL)
~PARAMETER INFORMATION
#MNEM.UNIT           DATA             DESCRIPTION OF MNEMONIC
#---------         -----------     ------------------------------
GL  .M        603.504              : gl           - GROUND LEVEL ELEVATION
EREF.M        606.857              : kb           - ELEVATION OF DEPTH REFERENCE
DATM.M        603.504              : datum        - DATUM ELEVATION
TDD .M        396.24               : tdd          - TOTAL DEPTH DRILLER
BASE.         EDMONTON             : Branch       - HOME BASE OF LOGGING UNIT
MATR.         SANDSTONE            : Logunit      - NEUTRON MATRIX
TMAX.C        20                   : BHT          - MAXIMUM RECORDED TEMPERATURE
BHTD.M        396.24               : BHTDEP       - MAXIMUM RECORDED TEMPERATURE
RMT .C        14.4444              : MDTP         - TEMPERATURE OF MUD
MUDD.KG/M     0                    : MWT          - MUD DENSITY
NEUT.         0                    : NEUTRON      - NEUTRON TYPE
RESI.         1                    : RESIST       - RESISTIVITY TYPE
RM  .OHMM     2.78                 : RM           - RESISTIVITY OF MUD
RMC .OHMM     3.2                  : RMC          - RESISTIVITY OF MUD CAKE
RMF .OHMM     2.13                 : RMF          - RESISTIVITY OF MUD FILTRATE
SUFT.C        4                    : SUFT         - SURFACE TEMPERATURE
~A  DEPTH      CAL       GR     PHIN     PHID     RESD
# ...
  365.380  152.350   93.384    0.420    0.197   12.584
  365.630  152.288   95.886    0.430    0.189   12.342
  365.880  152.101   94.996    0.435    0.181   12.179
  366.130  153.243  100.302    0.438    0.183   11.969
  366.380  153.290   99.020    0.439    0.182   11.439
  366.630  152.116   95.650    0.449    0.181    9.916
  366.880  152.159   97.175    0.442    0.162    9.090
  367.130  156.488  102.159    0.445    0.145    8.829
  367.380  160.600  101.069    0.438    0.148    8.746
  367.630  156.242   99.264    0.424    0.180    8.749
  367.880  158.264  105.489    0.418    0.169    8.702
  368.130  159.845  111.255    0.423    0.187    8.759
  368.380  159.333  109.715    0.428    0.186    8.817
  368.630  159.157  105.168    0.433    0.195    8.944
  368.880  161.288  102.384    0.442    0.161    9.538
  369.130  164.297  101.105    0.455    0.147   10.625
  369.380  162.799   98.512    0.441    0.168   12.220
  369.630  151.511   93.837    0.420    0.157   14.025
  369.880  145.942   86.156    0.394    0.128   16.162
  370.130  142.684   77.106    0.333    0.102   19.613
  370.380  141.295   81.829    0.349    0.160   24.866
  370.630  141.007   87.987    0.390    0.186   27.428
  370.880  142.146   94.407    0.399    0.203   27.499
  371.130  144.277   94.822    0.420    0.192   26.915
  371.380  147.840   99.089    0.405    0.216   25.070
  371.630  148.659  100.024    0.395    0.204   24.833
  371.880  147.483   98.219    0.403    0.194   25.096
  372.130  146.754   92.889    0.403    0.191   26.600
  372.380  146.804   87.821    0.389    0.182   31.210
  372.630  146.284   82.686    0.378    0.207   35.465
  372.880  146.992   65.217    0.372    0.231   41.441
  373.130  147.367   55.516    0.380    0.264   48.041
  373.380  147.733   51.820    0.387    0.291   51.739
  373.630  147.882   52.689    0.369    0.289   53.441
  373.880  147.821   54.809    0.365    0.275   52.735
  374.130  148.071   53.584    0.380    0.267   52.444
  374.380  148.122   47.209    0.391    0.270   49.929
  374.630  147.604   40.251    0.394    0.266   46.685
  374.880  145.998   37.074    0.405    0.260   44.092
  375.130  146.041   38.144    0.400    0.284   42.308
  375.380  145.985   39.142    0.391    0.268   38.784
  375.630  146.131   39.231    0.388    0.261   37.663
  375.880  145.837   38.083    0.395    0.275   36.505
  376.130  145.659   38.234    0.392    0.292   35.168
  376.380  145.473   44.327    0.402    0.274   33.612
  376.630  145.296   48.852    0.403    0.260   32.127
  376.880  145.452   55.729    0.403    0.272   27.304
  377.130  145.269   64.496    0.404    0.265   23.534
  377.380  145.201   74.636    0.412    0.243   20.812
  377.630  145.026   84.319    0.400    0.219   17.794
  377.880  145.394   94.524    0.385    0.140   14.885
  378.130  142.905   93.241    0.373    0.133   13.296
  378.380  139.642   90.458    0.360    0.114    6.945
  378.630  144.746   93.875    0.369    0.103    8.406
  378.880  144.894  101.535    0.422    0.159    7.144
  379.130  144.498  107.434    0.447    0.183    5.686
  379.380  143.884  105.501    0.468    0.196    4.979
  379.630  143.807  101.994    0.445    0.191    5.342
  379.880  144.623   91.509    0.432    0.167    5.821
  380.130  145.321   84.286    0.416    0.138    6.589
  380.380  144.815   89.400    0.397    0.105    8.028
  380.630  144.421   99.738    0.380    0.105    9.233
  380.880  144.240  108.309    0.392    0.151    9.612
  381.130  144.826  114.272    0.419    0.186    9.007
  381.380  146.632  118.473    0.431    0.183    7.549
  381.630  146.892  116.341    0.468    0.193    6.365
  381.880  146.492  109.576    0.450    0.202    5.697
  382.130  145.324  102.093    0.432    0.187    6.309
  382.380  144.924   92.716    0.407    0.178    7.328
  382.630  145.071   84.058    0.386    0.167    8.771
  382.880  145.229   86.243    0.384    0.157   10.432
  383.130  144.826   88.283    0.370    0.149   14.380
  383.380  145.195   94.895    0.362    0.147   20.098
  383.630  145.467   96.945    0.359    0.150   19.990
  383.880  145.506   93.835    0.353    0.152   18.731
  384.130  145.543   90.722    0.361    0.153   17.270
  384.380  145.256   88.134    0.373    0.156   14.796
  384.630  144.966   91.034    0.387    0.163   12.304
  384.880  144.784   90.925    0.404    0.172   11.078
  385.130  140.429   88.531    0.417    0.181   10.338
  385.380  138.817   89.205    0.406    0.187   11.046
  385.630  141.502   88.317    0.399    0.181   12.208
  385.880  145.498   86.576    0.390    0.169   13.983
  386.130  146.310   85.104    0.380    0.160   16.243
  386.380  146.789   85.906    0.366    0.147   18.421
  386.630  144.521   87.426    0.352    0.107   21.698
  386.880  143.682   88.040    0.296    0.101   25.506
  387.130  146.474   87.407    0.254    0.099   56.562
