~VERSION INFORMATION
 VERS.                 2.0:   CWLS LOG ASCII STANDARD -VERSION 2.0
 WRAP.                  NO:   ONE LINE PER DEPTH STEP
~WELL INFORMATION BLOCK
#MNEM.UNIT           DATA                    DESCRIPTION OF MNEMONIC
#---------    -------------------            -------------------------------
# Generated from Intellog Unique Number	CX_WELLS/WELL/1182
WELL.         10-26-088-16W4                 : Well_name    - WELL
LOC .         AA/10-26-088-16W4/0            : Location     - LOCATION
UWI .         AA/10-26-088-16W400            : Uwi          - UNIQUE WELL ID
ENTR.         DW                             : Entered      - ENTERED BY
SRVC.         SCHLUMBERGER                   : Scn          - SERVICE COMPANY
STRT.M        85                             : top_depth    - START DEPTH
STOP.M        275                            : bot_depth    - STOP DEPTH
STEP.M        0.25                           : increment    - STEP LENGTH
 NULL. -999.2500:NULL Value
~CURVE INFORMATION BLOCK
#MNEM UNIT       ERCB CURVE CODE    CURVE DESCRIPTION
#-----------   ------------------   ----------------------------------
DEPT.M        00 001 00 00         : DEPTH        - DEPTH
GR  .API      00 310 00 00         : GR           - GAMMA RAY
NPHI.V/V      00 330 00 00         : PHIN         - NEUTRON POROSITY (SANDSTONE)
DPHI.V/V      00 890 00 00         : PHID         - DENSITY POROSITY (SANDSTONE)
ILD .OHMM     00 120 00 00         : RESD         - DEEP RESISTIVITY (DIL)
~PARAMETER INFORMATION
#MNEM.UNIT           DATA             DESCRIPTION OF MNEMONIC
#---------         -----------     ------------------------------
GL  .M        537.55               : gl           - GROUND LEVEL ELEVATION
EREF.M        540.75               : kb           - ELEVATION OF DEPTH REFERENCE
DATM.M        540.75               : datum        - DATUM ELEVATION
TDD .M        282                  : tdd          - TOTAL DEPTH DRILLER
RUN .         ONE                  : Run          - RUN NUMBER
ENG .         BILL                 : Engineer     - RECORDING ENGINEER
WIT .         JIM                  : Witness      - WITNESSED BY
MUD .         GEL                  : Mud_type     - MUD TYPE
MATR.         SANDSTONE            : Logunit      - NEUTRON MATRIX
TMAX.C        32.7                 : BHT          - MAXIMUM RECORDED TEMPERATURE
BHTD.M        282                  : BHTDEP       - MAXIMUM RECORDED TEMPERATURE
MATR.         1                    : LOGUNIT      - NEUTRON MATRIX
RMT .C        25                   : MDTP         - TEMPERATURE OF MUD
NEUT.         1                    : NEUTRON      - NEUTRON TYPE
RESI.         0                    : RESIST       - RESISTIVITY TYPE
RMC .OHMM     0.25                 : RMC          - RESISTIVITY OF MUD CAKE
RMF .OHMM     0.25                 : RMF          - RESISTIVITY OF MUD FILTRATE
SUFT.C        15                   : SUFT         - SURFACE TEMPERATURE
~A  DEPTH       GR     PHIN     PHID     RESD
# ...
  172.000   93.126    0.449    0.264   13.376
  172.250   92.566    0.448    0.257   12.684
  172.500   90.244    0.443    0.262   12.245
  172.750   86.119    0.440    0.278   11.399
  173.000   81.372    0.435    0.288   10.612
  173.250   74.262    0.432    0.300    9.879
  173.500   74.945    0.429    0.311    9.719
  173.750   77.411    0.425    0.273    9.745
  174.000   79.359    0.466    0.276   10.320
  174.250   78.218    0.473    0.293   10.724
  174.500   74.714    0.436    0.304   11.363
  174.750   72.952    0.432    0.312   12.485
  175.000   70.651    0.432    0.315   14.767
  175.250   69.510    0.426    0.280   17.474
  175.500   69.012    0.410    0.222   19.557
  175.750   68.473    0.389    0.206   20.711
  176.000   67.954    0.366    0.201   20.386
  176.250   67.456    0.342    0.190   18.969
  176.500   69.320    0.328    0.169   16.710
  176.750   74.211    0.351    0.159   14.993
  177.000   78.542    0.399    0.184   12.960
  177.250   80.407    0.451    0.211   11.423
  177.500   79.287    0.473    0.239   11.027
  177.750   75.763    0.470    0.259   11.056
  178.000   76.446    0.459    0.271   11.495
  178.250   77.751    0.449    0.283   12.173
  178.500   78.414    0.460    0.285   12.199
  178.750   80.921    0.498    0.278   11.149
  179.000   82.205    0.505    0.270   10.004
  179.250   83.489    0.503    0.271    9.491
  179.500   84.173    0.493    0.270    9.168
  179.750   84.856    0.487    0.267    9.358
  180.000   84.938    0.481    0.264    9.546
  180.250   87.425    0.476    0.258   10.115
  180.500   90.533    0.468    0.252   10.917
  180.750   87.008    0.451    0.248   11.356
  181.000   83.484    0.446    0.254   11.368
  181.250   81.142    0.447    0.255   11.392
  181.500   84.851    0.451    0.260   11.208
  181.750   88.560    0.457    0.268   10.633
  182.000   91.046    0.461    0.274   10.088
  182.250   92.310    0.465    0.281   10.110
  182.500   94.196    0.469    0.287   10.120
  182.750   98.506    0.500    0.293    8.915
  183.000  102.816    0.507    0.299    6.654
  183.250  105.303    0.535    0.305    5.150
  183.500  108.991    0.561    0.308    4.138
  183.750  111.498    0.574    0.302    3.578
  184.000  111.580    0.587    0.296    3.586
  184.250  110.461    0.589    0.286    4.013
  184.500  108.118    0.581    0.271    5.112
  184.750  102.190    0.564    0.266    6.878
  185.000   98.085    0.489    0.259    9.090
  185.250   96.364    0.487    0.248   10.174
  185.500   97.068    0.479    0.246   10.384
  185.750   97.710    0.472    0.257   10.035
  186.000  100.217    0.475    0.259    9.878
  186.250  102.703    0.475    0.260    9.894
  186.500  104.589    0.477    0.254    9.561
  186.750  106.495    0.482    0.248    9.581
  187.000  107.199    0.488    0.237    9.601
  187.250  107.240    0.479    0.233    9.616
  187.500  106.140    0.465    0.229   10.009
  187.750  104.440    0.437    0.226   10.205
  188.000  103.279    0.423    0.231   11.219
  188.250  101.558    0.422    0.233   12.102
  188.500   99.858    0.427    0.242   13.061
  188.750   99.318    0.431    0.258   13.339
  189.000   97.597    0.437    0.273   13.353
  189.250   95.275    0.431    0.262   13.644
  189.500   91.751    0.423    0.234   14.171
  189.750   88.828    0.414    0.218   15.877
  190.000   85.324    0.407    0.187   17.759
  190.250   81.780    0.400    0.157   21.792
  190.500   78.235    0.326    0.133   29.336
  190.750   72.928    0.273    0.094   35.998
  191.000   68.782    0.253    0.075   41.058
  191.250   65.859    0.264    0.100   39.657
  191.500   66.542    0.316    0.156   33.671
  191.750   70.231    0.343    0.194   28.052
  192.000   75.743    0.435    0.245   20.938
  192.250   81.235    0.442    0.292   16.822
  192.500   87.349    0.436    0.286   14.556
  192.750   92.840    0.424    0.263   13.795
  193.000   95.327    0.418    0.235   13.088
  193.250   97.212    0.427    0.242   13.109
  193.500  100.341    0.447    0.250   13.381
  193.750   99.221    0.443    0.245   13.912
  194.000   96.319    0.432    0.273   15.294
  194.250   94.597    0.432    0.279   16.196
  194.500   94.058    0.440    0.277   16.839
  194.750   92.959    0.450    0.274   17.198
  195.000   92.399    0.454    0.245   17.554
  195.250   91.880    0.459    0.215   17.261
  195.500   91.361    0.450    0.204   16.672
  195.750   91.464    0.431    0.193   15.521
  196.000   91.546    0.399    0.185   14.999
  196.250   92.229    0.423    0.194   14.764
  196.500   92.312    0.438    0.202   14.510
  196.750   91.192    0.447    0.194   14.540
  197.000   90.652    0.415    0.175   14.305
  197.250   90.133    0.427    0.199   14.601
  197.500   92.081    0.442    0.211   14.111
  197.750   93.324    0.455    0.224   13.636
  198.000   94.007    0.460    0.234   13.919
  198.250   93.488    0.458    0.229   14.740
  198.500   93.591    0.469    0.217   15.610
  198.750   92.471    0.492    0.206   15.934
  199.000   90.149    0.514    0.194   15.967
  199.250   87.827    0.513    0.190   15.709
  199.500   87.287    0.497    0.196   15.455
  199.750   91.577    0.451    0.211   14.647
  200.000   97.090    0.467    0.247   13.636
  200.250   97.793    0.486    0.260   13.170
  200.500   96.694    0.477    0.266   12.267
  200.750   96.756    0.462    0.258   11.849
  201.000   96.817    0.462    0.251   11.651
  201.250   98.744    0.462    0.246   11.468
  201.500  100.008    0.468    0.243   11.492
  201.750  101.292    0.492    0.233   11.312
  202.000  101.975    0.500    0.227   11.124
  202.250  102.058    0.505    0.216   10.755
  202.500  102.761    0.504    0.211   10.576
  202.750  104.025    0.494    0.213   10.215
  203.000  105.911    0.490    0.234   10.236
  203.250  104.832    0.484    0.248   10.448
  203.500  103.691    0.486    0.260   10.857
  203.750  102.011    0.483    0.268   11.289
  204.000  102.073    0.464    0.257   11.961
  204.250  101.554    0.455    0.250   11.986
  204.500  100.434    0.444    0.251   12.018
  204.750   99.915    0.440    0.245   11.817
  205.000   99.977    0.449    0.247   11.632
  205.250   99.458    0.462    0.252   11.444
  205.500   98.939    0.477    0.249   11.904
  205.750   96.638    0.444    0.245   12.364
  206.000   97.321    0.444    0.253   12.855
  206.250   98.585    0.446    0.263   13.379
  206.500  100.470    0.446    0.260   13.400
  206.750  103.019    0.437    0.254   13.436
  207.000  103.060    0.431    0.252   13.471
  207.250  103.743    0.429    0.248   13.246
  207.500  104.426    0.426    0.246   13.267
  207.750  105.711    0.423    0.244   13.052
  208.000  105.793    0.416    0.239   13.323
  208.250  104.693    0.410    0.230   13.859
  208.500  104.154    0.410    0.198   14.677
  208.750  104.236    0.407    0.179   14.981
  209.000  104.319    0.399    0.160   14.470
  209.250  106.245    0.413    0.184   13.983
  209.500  107.529    0.436    0.222   13.764
  209.750  108.814    0.446    0.242   13.779
  210.000  109.497    0.449    0.236   13.808
  210.250  109.559    0.437    0.230   13.591
  210.500  108.439    0.457    0.234   12.895
  210.750  107.319    0.458    0.243   12.221
  211.000  106.800    0.454    0.245   11.589
  211.250  105.701    0.450    0.236   10.983
  211.500  105.762    0.446    0.225   10.415
  211.750  107.668    0.457    0.238    9.355
  212.000  111.377    0.486    0.256    8.861
  212.250  110.258    0.496    0.257    8.249
  212.500  108.557    0.509    0.251    7.823
  212.750  107.396    0.505    0.224    7.847
  213.000  105.074    0.495    0.222    8.001
  213.250  101.570    0.468    0.218    8.172
  213.500  103.456    0.456    0.220    8.500
  213.750  105.942    0.462    0.227    8.838
  214.000  108.408    0.488    0.236    8.857
  214.250  107.910    0.498    0.239    8.880
  214.500  106.831    0.507    0.223    8.568
  214.750  106.271    0.503    0.207    8.280
  215.000  105.151    0.416    0.160    7.993
  215.250  107.078    0.407    0.140    7.868
