~VERSION INFORMATION
 VERS.                 2.0:   CWLS LOG ASCII STANDARD -VERSION 2.0
 WRAP.                  NO:   ONE LINE PER DEPTH STEP
~WELL INFORMATION BLOCK
#MNEM.UNIT           DATA                    DESCRIPTION OF MNEMONIC
#---------    -------------------            -------------------------------
# Generated from Intellog Unique Number	CC_88_90/WELL/3153
WELL.         UNION OIL COMPANY OF CALIFORNI : Well_name    - WELL
LOC .         AA/11-33-090-11W4/0            : Location     - LOCATION
UWI .         AA/11-33-090-11W400            : Uwi          - UNIQUE WELL ID
ENTR.         JOETTE                         : Entered      - ENTERED BY
SRVC.         COMPUTALOG                     : Scn          - SERVICE COMPANY
DATE.         03/11/92                       : Date         - LOG DATE
STRT.M        30.480                         : top_depth    - START DEPTH
STOP.M        131.480                        : bot_depth    - STOP DEPTH
STEP.M        0.25                           : increment    - STEP LENGTH
 NULL. -999.2500:NULL Value
~CURVE INFORMATION BLOCK
#MNEM UNIT       ERCB CURVE CODE    CURVE DESCRIPTION
#-----------   ------------------   ----------------------------------
DEPT.M        00 001 00 00         : DEPTH        - DEPTH
GR  .API      00 310 00 00         : GR           - GAMMA RAY
NPHI.V/V      00 330 00 00         : PHIN         - NEUTRON POROSITY (SANDSTONE)
ILD .OHMM     00 120 00 00         : RESD         - DEEP RESISTIVITY (DIL)
~PARAMETER INFORMATION
#MNEM.UNIT           DATA             DESCRIPTION OF MNEMONIC
#---------         -----------     ------------------------------
GL  .M        423.367              : gl           - GROUND LEVEL ELEVATION
EREF.M        423.367              : kb           - ELEVATION OF DEPTH REFERENCE
DATM.M        423.367              : datum        - DATUM ELEVATION
TDD .M        167.335              : tdd          - TOTAL DEPTH DRILLER
RUN .         ONE                  : Run          - RUN NUMBER
ENG .         BILL                 : Engineer     - RECORDING ENGINEER
WIT .         JIM                  : Witness      - WITNESSED BY
MUD .         GEL                  : Mud_type     - MUD TYPE
MATR.         SANDSTONE            : Logunit      - NEUTRON MATRIX
TMAX.C        7.22222              : BHT          - MAXIMUM RECORDED TEMPERATURE
BHTD.M        167.335              : BHTDEP       - MAXIMUM RECORDED TEMPERATURE
RMT .C        6.66667              : MDTP         - TEMPERATURE OF MUD
MUDD.KG/M     1110                 : MWT          - MUD DENSITY
NEUT.         1                    : NEUTRON      - NEUTRON TYPE
RESI.         0                    : RESIST       - RESISTIVITY TYPE
RM  .OHMM     5.9                  : RM           - RESISTIVITY OF MUD
RMC .OHMM     5.9                  : RMC          - RESISTIVITY OF MUD CAKE
RMF .OHMM     4                    : RMF          - RESISTIVITY OF MUD FILTRATE
SUFT.C        4                    : SUFT         - SURFACE TEMPERATURE
~A  DEPTH       GR     PHIN     RESD
# ...
   84.730   84.881    0.507    7.554
   84.980   82.425    0.506    8.155
   85.230   80.585    0.508    8.623
   85.480   91.650    0.511    8.284
   85.730  115.622    0.521    7.540
   85.980  122.385    0.527    6.932
   86.230  116.857    0.514    6.996
   86.480  121.162    0.490    7.598
   86.730  121.780    0.490    8.468
   86.980  121.783    0.498    8.935
   87.230  108.880    0.489    8.933
   87.480   92.905    0.481    8.728
   87.730   83.075    0.480    8.523
   87.980  100.286    0.481    8.788
   88.230  124.257    0.482    8.919
   88.480  124.875    0.480    8.916
   88.730  116.889    0.485    9.450
   88.980  111.361    0.492    9.784
   89.230   97.229    0.489   10.184
   89.480   84.940    0.455   10.315
   89.730   64.663    0.419   10.647
   89.980   41.313    0.372   11.115
   90.230   43.774    0.458   11.583
   90.480   40.705    0.470   12.117
   90.730   33.333    0.482   12.518
   90.980   35.179    0.458   12.851
   91.230   59.151    0.466   12.847
   91.480   99.101    0.518   12.306
   91.730  105.250    0.542   10.420
   91.980  108.326    0.523    9.274
   92.230   84.361    0.532    7.926
   92.480   68.385    0.543    7.652
   92.730   48.722    0.537    7.313
   92.980   46.267    0.543    6.840
   93.230   60.406    0.549    6.298
   93.480   65.940    0.551    5.757
   93.730   57.953    0.562    5.013
   93.980   45.050    0.575    4.875
   94.230   45.668    0.553    4.806
   94.480   51.203    0.526    4.399
   94.730   58.581    0.505    4.193
   94.980   58.584    0.489    4.594
   95.230   54.900    0.513    5.398
   95.480   57.975    0.540    6.067
   95.730   63.510    0.543    6.467
   95.980   61.669    0.529    6.262
   96.230   61.673    0.504    6.191
   96.480   55.530    0.491    6.457
   96.730   62.908    0.488    6.319
   96.980   75.817    0.467    6.181
   97.230   83.809    0.468    6.313
   97.480   83.198    0.479    7.251
   97.730   78.284    0.492    7.516
   97.980   67.840    0.482    7.379
   98.230   57.396    0.466    7.778
   98.480   47.566    0.466    8.381
   98.730   35.892    0.474    9.184
   98.980   32.823    0.479    9.652
   99.230   35.284    0.482    9.714
   99.480   38.360    0.459    9.577
   99.730   37.134    0.437    9.304
   99.980   40.210    0.470    9.101
  100.230   46.359    0.483    8.492
  100.480   38.987    0.478    8.085
  100.730   43.907    0.472    7.679
  100.980   48.826    0.478    7.540
  101.230   48.830    0.484    7.671
  101.480   46.989    0.481    7.803
  101.730   46.377    0.492    7.732
  101.980   46.381    0.502    7.527
  102.230   42.697    0.488    7.054
  102.480   48.231    0.473    7.118
  102.730   48.849    0.421    8.190
  102.980   36.560    0.479    8.454
  103.230   29.189    0.488    8.453
  103.480   25.505    0.496    8.449
  103.730   21.820    0.511    8.581
  103.980   31.042    0.492    9.384
  104.230   48.867    0.474    8.978
  104.480   44.568    0.487    8.638
  104.730   42.728    0.499    8.432
  104.980   45.190    0.498    8.630
  105.230   47.651    0.482    8.695
  105.480   71.622    0.485    8.624
  105.730   87.604    0.487    8.688
  105.980   92.523    0.481    8.819
  106.230   94.370    0.483    8.815
  106.480   77.780    0.481    8.679
  106.730   71.638    0.471    8.271
  106.980   86.391    0.494    7.998
  107.230   96.841    0.525    7.593
  107.480   96.230    0.542    6.984
  107.730   95.618    0.553    6.376
  107.980   82.716    0.548    5.700
  108.230   72.272    0.517    4.621
  108.480   64.285    0.504    4.012
  108.730   64.903    0.487    3.875
  108.980   82.728    0.463    5.620
  109.230   82.117    0.460    6.894
  109.480   75.360    0.480    7.697
  109.730   75.363    0.477    8.232
  109.980   77.210    0.456    8.362
  110.230   71.068    0.443    8.628
  110.480   69.227    0.524    9.298
  110.730   66.772    0.581   10.774
  110.980   63.702    0.585   12.116
  111.230   46.498    0.580    9.826
  111.480   45.886    0.575    8.882
  111.730   55.722    0.552    6.121
  111.980   73.548    0.530    3.697
  112.230   83.999    0.505    3.559
  112.480   79.700    0.495    3.824
  112.730   66.797    0.498    4.224
  112.980   48.978    0.489    4.692
  113.230   71.105    0.461    5.159
  113.480   95.691    0.471    5.426
  113.730  123.964    0.481    6.229
  113.980  115.978    0.480    7.167
  114.230  115.981    0.429    7.701
  114.480  124.588    0.489    7.363
  114.730  120.904    0.528    7.022
  114.980   92.637    0.540    5.002
  115.230   76.047    0.530    3.923
  115.480   47.780    0.526    3.650
  115.730   63.762    0.529    3.850
  115.980  106.785    0.547    3.980
  116.230  104.330    0.565    3.976
  116.480  106.176    0.552    3.974
  116.730   93.888    0.544    4.306
  116.980   61.934    0.536    4.572
  117.230   44.115    0.516    4.904
  117.480   65.014    0.506    5.171
  117.730   74.235    0.490    5.772
  117.980   83.457    0.502    5.970
  118.230  113.573    0.524    6.572
  118.480   96.984    0.535    6.502
  118.730   55.196    0.524    6.029
  118.980   39.221    0.505    5.621
  119.230   52.744    0.489    5.955
  119.480   66.882    0.479    6.691
  119.730   77.948    0.469    7.495
  119.980   87.169    0.454    8.837
  120.230   83.485    0.434   12.060
  120.480   75.499    0.374   13.335
  120.730   73.044    0.334   15.551
  120.980   77.349    0.269   19.784
  121.230   74.894    0.211   39.953
  121.480   76.126   -0.018   41.227
  121.730   67.525   -0.043   41.291
  121.980   63.841   -0.027   40.682
  122.230   65.688    0.007   40.074
  122.480   59.545    0.025   40.407
  122.730   54.632    0.055   40.874
  122.980   60.781    0.342   41.073
  123.230   63.242    0.332   40.263
  123.480   58.944    0.340   39.453
  123.730   62.020    0.351   38.508
  123.980   70.627    0.352   35.344
  124.230   73.703    0.347   26.061
  124.480   74.935    0.363   17.855
  124.730   74.324    0.385   18.860
  124.980   71.869    0.405   19.664
  125.230   63.883    0.394   19.056
  125.480   63.885    0.382   12.798
  125.730   66.347    0.363   12.862
  125.980   67.579    0.350   13.329
  126.230   76.187    0.337   14.402
  126.480   71.887    0.330   15.676
  126.730   69.432    0.332   17.220
  126.980   66.362    0.357   18.763
  127.230   66.980    0.352   21.315
  127.480   68.213    0.342   21.782
  127.730   65.757    0.340   21.040
  127.980   67.605    0.344   20.969
  128.230   76.212    0.352   20.899
  128.480   74.371    0.367   21.501
  128.730   70.072    0.379   24.994
  128.980   72.534    0.368   23.915
  129.230   71.308    0.365   21.826
  129.480   67.623    0.372   22.966
  129.730   65.168    0.380   24.174
  129.980   74.390    0.368   24.709
  130.230   71.935    0.364   17.442
  130.480   59.032    0.351   16.700
  130.730   39.369    0.355   16.158
  130.980   20.320    0.364   15.751
  131.230   21.553    0.381   15.277
  131.480   25.243    0.378   14.669
