~VERSION INFORMATION
 VERS.                 2.0:   CWLS LOG ASCII STANDARD -VERSION 2.0
 WRAP.                  NO:   ONE LINE PER DEPTH STEP
~WELL INFORMATION BLOCK
#MNEM.UNIT           DATA                    DESCRIPTION OF MNEMONIC
#---------    -------------------            -------------------------------
# Generated from Intellog Unique Number	CS_71_72/WELL/908
WELL.         ET AL KIRBY                    : Well_name    - WELL
LOC .         AA/11-30-071-05W4/0            : Location     - LOCATION
UWI .         AA/11-30-071-05W4/0            : Uwi          - UNIQUE WELL ID
ENTR.         SP                             : Entered      - ENTERED BY
SRVC.         SCHLUMBERGER                   : Scn          - SERVICE COMPANY
STRT.M        340                            : top_depth    - START DEPTH
STOP.M        507                            : bot_depth    - STOP DEPTH
STEP.M        0.25                           : increment    - STEP LENGTH
 NULL. -999.2500:NULL Value
~CURVE INFORMATION BLOCK
#MNEM UNIT       ERCB CURVE CODE    CURVE DESCRIPTION
#-----------   ------------------   ----------------------------------
DEPT.M        00 001 00 00         : DEPTH        - DEPTH
ILD .OHMM     00 120 00 00         : RESD         - DEEP RESISTIVITY (DIL)
DPHI.V/V      00 890 00 00         : PHID         - DENSITY POROSITY (LIMESTONE)
NPHI.V/V      00 330 00 00         : PHIN         - NEUTRON POROSITY (LIMESTONE)
GR  .API      00 310 00 00         : GR           - GAMMA RAY
~PARAMETER INFORMATION
#MNEM.UNIT           DATA             DESCRIPTION OF MNEMONIC
#---------         -----------     ------------------------------
GL  .M        684.1                : gl           - GROUND LEVEL ELEVATION
EREF.M        687.4                : kb           - ELEVATION OF DEPTH REFERENCE
DATM.M        684.1                : datum        - DATUM ELEVATION
TDD .M        507                  : tdd          - TOTAL DEPTH DRILLER
RUN .         ONE                  : Run          - RUN NUMBER
ENG .         BILL                 : Engineer     - RECORDING ENGINEER
WIT .         JIM                  : Witness      - WITNESSED BY
MUD .         GEL                  : Mud_type     - MUD TYPE
MATR.         LIMESTONE            : Logunit      - NEUTRON MATRIX
TMAX.C        22                   : BHT          - MAXIMUM RECORDED TEMPERATURE
BHTD.M        507                  : BHTDEP       - MAXIMUM RECORDED TEMPERATURE
MATR.         1                    : LOGUNIT      - NEUTRON MATRIX
RMT .C        25                   : MDTP         - TEMPERATURE OF MUD
NEUT.         1                    : NEUTRON      - NEUTRON TYPE
RESI.         0                    : RESIST       - RESISTIVITY TYPE
RMC .OHMM     0.25                 : RMC          - RESISTIVITY OF MUD CAKE
RMF .OHMM     0.25                 : RMF          - RESISTIVITY OF MUD FILTRATE
SUFT.C        15                   : SUFT         - SURFACE TEMPERATURE
~A  DEPTH     RESD     PHID     PHIN       GR
# ...
  427.000    6.736    0.278    0.518   72.732
  427.250    7.256    0.281    0.520   70.230
  427.500    7.699    0.267    0.519   68.707
  427.750    8.061    0.251    0.501   67.860
  428.000    8.190    0.268    0.473   68.052
  428.250    7.938    0.307    0.469   68.733
  428.500    7.311    0.321    0.504   68.744
  428.750    6.557    0.327    0.491   68.323
  429.000    6.061    0.329    0.482   67.047
  429.250    5.786    0.329    0.489   65.953
  429.500    5.682    0.327    0.494   64.493
  429.750    5.697    0.325    0.498   64.072
  430.000    5.734    0.324    0.496   65.245
  430.250    5.791    0.324    0.492   67.213
  430.500    5.873    0.324    0.488   70.715
  430.750    5.954    0.321    0.489   72.929
  431.000    6.049    0.305    0.502   73.854
  431.250    6.145    0.285    0.525   74.601
  431.500    6.255    0.272    0.512   73.507
  431.750    6.298    0.279    0.478   73.267
  432.000    6.361    0.281    0.468   75.727
  432.250    6.353    0.273    0.466   77.941
  432.500    6.347    0.267    0.457   79.542
  432.750    6.352    0.265    0.452   79.489
  433.000    6.393    0.262    0.457   77.477
  433.250    6.481    0.256    0.467   76.322
  433.500    6.584    0.256    0.465   75.167
  433.750    6.665    0.266    0.465   74.686
  434.000    6.633    0.270    0.464   74.389
  434.250    6.363    0.272    0.460   74.520
  434.500    6.241    0.278    0.467   77.407
  434.750    5.683    0.282    0.477   81.645
  435.000    5.011    0.287    0.478   84.042
  435.250    4.530    0.286    0.493   86.010
  435.500    3.957    0.285    0.519   86.263
  435.750    3.366    0.289    0.542   81.556
  436.000    2.869    0.302    0.525   82.116
  436.250    2.653    0.321    0.523   84.944
  436.500    2.462    0.324    0.558   86.054
  436.750    2.328    0.311    0.583   86.614
  437.000    2.264    0.298    0.590   85.459
  437.250    2.245    0.310    0.595   85.039
  437.500    2.220    0.322    0.617   85.050
  437.750    2.223    0.324    0.629   85.425
  438.000    2.275    0.314    0.618   84.576
  438.250    2.355    0.301    0.587   81.767
  438.500    2.416    0.293    0.566   83.553
  438.750    2.500    0.296    0.546   85.093
  439.000    2.584    0.300    0.550   86.266
  439.250    2.685    0.296    0.559   85.050
  439.500    2.870    0.289    0.567   83.343
  439.750    3.007    0.280    0.571   81.085
  440.000    3.257    0.275    0.522   79.379
  440.250    3.548    0.264    0.500   77.857
  440.500    3.815    0.257    0.511   76.089
  440.750    4.390    0.263    0.521   74.751
  441.000    5.070    0.286    0.515   73.289
  441.250    5.442    0.304    0.473   70.542
  441.500    5.851    0.306    0.447   69.388
  441.750    6.161    0.300    0.438   70.928
  442.000    6.500    0.280    0.440   72.285
  442.250    6.443    0.265    0.452   73.334
  442.500    6.267    0.254    0.469   73.037
  442.750    6.132    0.249    0.481   71.882
  443.000    6.043    0.251    0.483   70.728
  443.250    6.038    0.255    0.490   71.778
  443.500    5.997    0.254    0.497   73.501
  443.750    5.988    0.252    0.495   75.470
  444.000    5.946    0.242    0.501   76.398
  444.250    5.986    0.233    0.510   76.957
  444.500    6.013    0.233    0.509   78.253
  444.750    6.027    0.235    0.506   79.548
  445.000    6.044    0.241    0.505   80.721
  445.250    6.061    0.257    0.513   80.178
  445.500    6.204    0.267    0.524   81.412
  445.750    6.632    0.270    0.528   80.870
  446.000    7.309    0.266    0.505   75.244
  446.250    8.316    0.234    0.474   68.515
  446.500    9.232    0.124    0.439   62.888
  446.750    9.851    0.092    0.384   61.917
  447.000    9.822    0.189    0.343   67.807
  447.250    8.184    0.231    0.390   72.165
  447.500    6.923    0.251    0.472   74.011
  447.750    6.163    0.262    0.501   77.082
  448.000    5.687    0.286    0.513   80.767
  448.250    5.606    0.292    0.496   83.838
  448.500    5.462    0.271    0.483   86.787
  448.750    5.335    0.259    0.473   84.223
  449.000    5.171    0.274    0.475   81.230
  449.250    5.029    0.285    0.485   79.892
  449.500    4.983    0.284    0.482   79.595
  449.750    4.999    0.272    0.472   79.787
  450.000    5.076    0.265    0.463   78.476
  450.250    5.091    0.262    0.457   78.186
  450.500    5.066    0.260    0.463   75.035
  450.750    5.033    0.255    0.468   73.344
  451.000    4.989    0.261    0.477   72.263
  451.250    4.944    0.277    0.489   72.034
  451.500    4.846    0.289    0.496   72.538
  451.750    4.704    0.292    0.498   74.015
  452.000    4.519    0.284    0.496   76.037
  452.250    3.874    0.290    0.490   76.111
  452.500    3.371    0.298    0.496   74.788
  452.750    2.945    0.302    0.517   75.168
  453.000    2.656    0.303    0.538   77.252
  453.250    2.536    0.296    0.551   79.396
  453.500    2.577    0.284    0.547   81.177
  453.750    2.739    0.275    0.544   80.338
  454.000    3.001    0.284    0.540   77.917
  454.250    3.375    0.292    0.526   74.464
  454.500    3.789    0.290    0.512   73.258
  454.750    4.052    0.282    0.500   74.126
  455.000    4.275    0.274    0.488   79.193
  455.250    4.450    0.270    0.464   85.905
  455.500    4.438    0.267    0.470   72.647
  455.750    4.424    0.262    0.497   72.114
  456.000    4.393    0.252    0.506   71.581
  456.250    4.305    0.249    0.467   71.718
  456.500    4.149    0.262    0.485   72.767
  456.750    3.969    0.271    0.499   73.879
  457.000    3.883    0.277    0.515   72.552
  457.250    3.930    0.293    0.524   70.497
  457.500    4.123    0.291    0.526   69.355
  457.750    4.269    0.292    0.510   71.135
  458.000    4.296    0.288    0.470   73.099
  458.250    4.227    0.276    0.445   73.905
  458.500    4.073    0.269    0.457   74.224
  458.750    3.962    0.284    0.481   72.959
  459.000    4.018    0.298    0.507   70.052
  459.250    4.402    0.299    0.525   67.265
  459.500    5.172    0.305    0.515   63.509
  459.750    6.298    0.317    0.497   60.782
  460.000    7.179    0.328    0.487   58.846
  460.250    8.199    0.335    0.483   56.792
  460.500    9.224    0.338    0.482   55.649
  460.750   10.260    0.339    0.478   56.272
  461.000   11.026    0.336    0.472   56.287
  461.250   11.376    0.335    0.467   55.205
  461.500   11.890    0.336    0.464   53.273
  461.750   12.615    0.341    0.471   52.071
  462.000   13.590    0.347    0.514   51.719
  462.250   15.402    0.329    0.548   51.919
  462.500   17.260    0.284    0.551   52.545
  462.750   18.315    0.239    0.505   52.129
  463.000   18.643    0.226    0.448   51.594
  463.250   17.661    0.245    0.416   52.766
  463.500   16.513    0.271    0.436   53.815
  463.750   15.734    0.297    0.453   54.623
  464.000   14.793    0.326    0.450   54.576
  464.250   13.939    0.320    0.455   54.346
  464.500   12.622    0.321    0.476   54.970
  464.750   10.799    0.330    0.482   56.323
  465.000    8.914    0.336    0.485   58.712
  465.250    7.386    0.336    0.491   61.101
  465.500    6.155    0.320    0.501   65.803
  465.750    5.480    0.291    0.510   69.227
  466.000    5.858    0.267    0.518   68.754
  466.250    6.665    0.260    0.475   63.657
  466.500    7.441    0.267    0.452   60.930
  466.750    8.199    0.262    0.441   63.502
  467.000    8.716    0.227    0.440   63.760
  467.250    9.091    0.201    0.449   59.878
  467.500    9.133    0.204    0.444   59.711
  467.750    8.270    0.231    0.443   67.761
  468.000    6.390    0.255    0.452   74.838
  468.250    5.089    0.256    0.466   78.689
  468.500    4.330    0.249    0.506   77.608
  468.750    4.508    0.245    0.520   74.517
  469.000    5.014    0.243    0.477   71.305
  469.250    6.013    0.249    0.442   67.425
  469.500    6.678    0.257    0.417   65.062
  469.750    7.498    0.264    0.410   62.764
  470.000    8.199    0.267    0.405   60.592
  470.250    8.748    0.266    0.399   59.205
