~VERSION INFORMATION
 VERS.                 2.0:   CWLS LOG ASCII STANDARD -VERSION 2.0
 WRAP.                  NO:   ONE LINE PER DEPTH STEP
~WELL INFORMATION BLOCK
#MNEM.UNIT           DATA                    DESCRIPTION OF MNEMONIC
#---------    -------------------            -------------------------------
# Generated from Intellog Unique Number	CC_88_90/WELL/3150
WELL.         IMPERIAL OIL                   : Well_name    - WELL
LOC .         AA/11-06-090-13W4/0            : Location     - LOCATION
UWI .         AA/11-06-090-13W400            : Uwi          - UNIQUE WELL ID
ENTR.         JOETTE                         : Entered      - ENTERED BY
SRVC.         SCHLUMBERGER                   : Scn          - SERVICE COMPANY
DATE.         03/11/92                       : Date         - LOG DATE
STRT.M        60.96                          : top_depth    - START DEPTH
STOP.M        161.96                         : bot_depth    - STOP DEPTH
STEP.M        0.25                           : increment    - STEP LENGTH
 NULL. -999.2500:NULL Value
~CURVE INFORMATION BLOCK
#MNEM UNIT       ERCB CURVE CODE    CURVE DESCRIPTION
#-----------   ------------------   ----------------------------------
DEPT.M        00 001 00 00         : DEPTH        - DEPTH
GR  .API      00 310 00 00         : GR           - GAMMA RAY
NPHI.V/V      00 330 00 00         : PHIN         - NEUTRON POROSITY (SANDSTONE)
ILD .OHMM     00 120 00 00         : RESD         - DEEP RESISTIVITY (DIL)
~PARAMETER INFORMATION
#MNEM.UNIT           DATA             DESCRIPTION OF MNEMONIC
#---------         -----------     ------------------------------
GL  .M        504.139              : gl           - GROUND LEVEL ELEVATION
EREF.M        504.139              : kb           - ELEVATION OF DEPTH REFERENCE
DATM.M        504.139              : datum        - DATUM ELEVATION
TDD .M        220.98               : tdd          - TOTAL DEPTH DRILLER
RUN .         ONE                  : Run          - RUN NUMBER
ENG .         BILL                 : Engineer     - RECORDING ENGINEER
WIT .         JIM                  : Witness      - WITNESSED BY
MUD .         GEL                  : Mud_type     - MUD TYPE
MATR.         SANDSTONE            : Logunit      - NEUTRON MATRIX
TMAX.C        8.88889              : BHT          - MAXIMUM RECORDED TEMPERATURE
BHTD.M        220.98               : BHTDEP       - MAXIMUM RECORDED TEMPERATURE
RMT .C        37.7778              : MDTP         - TEMPERATURE OF MUD
MUDD.KG/M     1140                 : MWT          - MUD DENSITY
NEUT.         1                    : NEUTRON      - NEUTRON TYPE
RESI.         0                    : RESIST       - RESISTIVITY TYPE
RM  .OHMM     4.5                  : RM           - RESISTIVITY OF MUD
RMC .OHMM     4.5                  : RMC          - RESISTIVITY OF MUD CAKE
RMF .OHMM     4.5                  : RMF          - RESISTIVITY OF MUD FILTRATE
SUFT.C        4                    : SUFT         - SURFACE TEMPERATURE
~A  DEPTH       GR     PHIN     RESD
   60.960   85.425    0.451   29.228
   61.210   84.199    0.430   27.332
   61.460   87.275    0.410   26.454
   61.710   96.496    0.431   25.867
   61.960  112.478    0.449   25.425
   62.210  106.336    0.455   24.476
   62.460  105.725    0.450   25.561
   62.710  119.863    0.439   24.608
   62.960  127.241    0.422   26.350
   63.210  113.723    0.431   25.035
   63.460  111.268    0.446   26.629
   63.710  124.792    0.445   27.788
   63.960  121.108    0.444   26.474
   64.210  110.048    0.443   25.596
   64.460  109.437    0.435   24.864
   64.710  105.138    0.451   24.204
   64.960  102.683    0.480   23.545
   65.210  103.916    0.489   22.740
   65.460  112.523    0.487   19.899
   65.710  105.765    0.470   16.767
   65.960   93.477    0.471   11.090
   66.210  100.855    0.478   11.085
   66.460   95.942    0.476   13.406
   66.710  108.237    0.477   13.838
   66.960  115.614    0.441   14.706
   67.210  119.920    0.445   14.699
   67.460  127.297    0.468   14.040
   67.710  112.551    0.470   13.090
   67.960  104.565    0.464   11.557
   68.210  107.641    0.483    9.953
   68.460  118.706    0.476    9.729
   68.710  121.168    0.480    9.578
   68.960  121.171    0.487    9.572
   69.210  109.497    0.497    9.495
   69.460   90.449    0.494    9.342
   69.710   89.838    0.488    9.193
   69.960   93.528    0.492    9.044
   70.210   94.760    0.504    8.746
   70.460  108.899    0.499    8.522
   70.710  120.578    0.503    8.299
   70.960  126.727    0.510    8.223
   71.210  125.501    0.503    8.070
   71.460  106.453    0.509    7.995
   71.710   84.331    0.517    8.060
   71.960   97.856    0.506    8.129
   72.210   89.255    0.483    8.414
   72.460   91.102    0.486    8.843
   72.710   99.094    0.496    9.058
   72.960   99.712    0.496    9.198
   73.210  102.173    0.493    8.903
   73.460   96.030    0.500    8.604
   73.710  102.794    0.491    8.891
   73.960  124.307    0.495    8.594
   74.210  135.987    0.491    8.152
   74.460  129.230    0.483    7.931
   74.710  116.941    0.492    7.635
   74.960  102.195    0.485    7.847
   75.210  112.646    0.466    8.570
   75.460  114.493    0.439   11.981
   75.710  118.183    0.411   15.393
   75.960  121.874    0.399   38.072
   76.210  118.189    0.423   37.631
   76.460  115.734    0.431   37.335
   76.710  118.196    0.426   36.748
   76.960  120.043    0.437   36.161
   77.210  108.984    0.438   36.955
   77.460  100.998    0.442   35.569
   77.710  102.229    0.429   33.673
   77.960  113.295    0.440   32.287
   78.210  102.850    0.446   30.463
   78.460  101.625    0.395   29.513
   78.710  104.701    0.385   28.125
   78.960  110.849    0.425   28.556
   79.210  112.082    0.448   28.116
   79.460  105.325    0.430   26.730
   79.710  109.630    0.430   27.960
   79.960  109.633    0.439   28.319
   80.210  107.792    0.437   27.803
   80.460  108.410    0.297   28.890
   80.710   99.809    0.189   32.156
   80.960   99.812    0.185   37.894
   81.210   97.972    0.203   37.598
   81.460   83.225    0.247   35.921
   81.710   88.145    0.272   34.025
   81.960   94.909    0.324   35.764
   82.210   89.380    0.367   37.360
   82.460   91.842    0.403   39.608
   82.710  101.678    0.366   39.529
   82.960  102.296    0.212   39.380
   83.210   93.081    0.138   39.300
   83.460  105.375    0.106   39.367
   83.710  120.742    0.097   39.580
   83.960  120.131    0.087   39.720
   84.210  117.061    0.091   39.497
   84.460  120.137    0.134   39.639
   84.710  109.079    0.323   39.924
   84.960   99.249    0.366   39.919
   85.210   94.949    0.459   39.477
   85.460   98.640    0.459   20.494
   85.710   99.258    0.428   20.927
   85.960  100.490    0.421   21.358
   86.210   98.650    0.443   21.933
   86.460   91.892    0.449   21.710
   86.710   96.197    0.444   21.341
   86.960  108.492    0.436   22.861
   87.210   94.975    0.433   23.731
   87.460   95.593    0.441   23.797
   87.710  102.356    0.445   22.411
   87.960   92.526    0.443   21.897
   88.210  101.747    0.444   20.074
   88.460  100.522    0.452   18.470
   88.710   89.463    0.456   17.007
   88.960   88.852    0.438   16.859
   89.210   94.386    0.424   17.000
   89.460   98.691    0.437   17.431
   89.710   95.621    0.446   17.278
   89.960   88.864    0.446   17.200
   90.210   91.325    0.444   17.485
   90.460  118.369    0.454   17.845
   90.710  104.852    0.449   18.349
   90.960   93.178    0.442   18.415
   91.210   90.723    0.448   20.593
   91.460   89.498    0.456   21.169
   91.710  112.239    0.455   20.871
   91.960  123.919    0.449   20.504
   92.210  113.475    0.412   19.699
   92.460  114.708    0.373   19.331
   92.710  114.710    0.273   28.704
   92.960  104.266    0.243   42.295
   93.210   98.738    0.211   42.508
   93.460   97.512    0.145   40.830
   93.710  109.806    0.094   40.389
   93.960  120.258    0.077   40.602
   94.210  110.427    0.062   40.524
   94.460  107.357    0.090   39.427
   94.710  109.819    0.136   29.244
   94.960  108.593    0.217   22.985
   95.210  108.597    0.387   23.198
   95.460  116.589    0.429   22.901
   95.710  112.290    0.458   22.750
   95.960   93.241    0.450   23.473
   96.210   87.099    0.445   22.886
   96.460   82.800    0.443   22.518
   96.710   80.960    0.448   22.440
   96.960   72.974    0.435   22.288
   97.210   64.987    0.430   21.773
   97.460   74.823    0.435   21.842
   97.710   83.430    0.449   22.200
   97.960   88.350    0.460   22.050
   98.210   96.957    0.463   21.754
   98.460  116.012    0.437   18.767
   98.710  106.797    0.434   19.344
   98.960  117.862    0.444   19.339
   99.210  127.084    0.442   18.167
   99.460  120.327    0.430   18.237
   99.710  116.642    0.448   18.377
   99.960  120.948    0.460   18.808
  100.210  124.024    0.462   19.312
  100.460  128.329    0.449   19.598
  100.710  116.655    0.457   20.245
  100.960  110.512    0.458   20.749
  101.210   95.766    0.442   20.817
  101.460   90.239    0.460   20.450
  101.710   97.002    0.468   20.151
  101.960  102.536    0.439   20.293
  102.210  110.528    0.438   19.706
  102.460  106.844    0.438   18.756
  102.710  111.764    0.433   19.113
  102.960  106.850    0.448   19.182
  103.210  108.697    0.469   19.176
  103.460  105.627    0.436   19.534
  103.710   93.954    0.325   19.892
  103.960   93.957    0.259   19.015
  104.210  104.408    0.362   18.863
  104.460  102.567    0.437   18.714
  104.710  110.560    0.458   18.708
  104.960  116.708    0.460   19.283
  105.210  103.806    0.446   19.351
  105.460   81.685    0.458   19.783
  105.710   82.302    0.449   20.213
  105.960  101.972    0.433   20.645
  106.210  102.590    0.440   19.986
  106.460   88.457    0.449   19.254
  106.710   79.857    0.452   18.881
  106.960   83.548    0.443   18.950
  107.210   81.093    0.420   18.944
  107.460   77.408    0.419   18.796
  107.710   94.619    0.434   18.281
  107.960  107.528    0.429   17.985
  108.210  105.073    0.439   17.906
  108.460   96.472    0.456   17.901
  108.710  105.079    0.452   19.204
  108.960  108.770    0.439   18.474
  109.210   95.867    0.445   17.523
  109.460   91.568    0.452   17.081
  109.710   87.884    0.447   18.094
  109.960   89.116    0.455   18.233
  110.210   77.443    0.444   18.592
  110.460   80.519    0.433   19.605
  110.710  111.865    0.446   19.962
  110.960  114.941    0.457   20.612
  111.210  114.329    0.472   20.244
  111.460  111.260    0.489   14.786
  111.710   84.836    0.496    7.946
  111.960   81.767    0.500    8.594
  112.210   84.843    0.495    8.008
  112.460   89.148    0.489    7.639
  112.710  103.900    0.486    8.943
  112.960  130.330    0.478   11.991
  113.210  124.188    0.485   13.950
  113.460  111.899    0.485   12.271
  113.710  104.529    0.501    9.211
  113.960  105.146    0.518    8.262
  114.210   91.013    0.526    6.730
  114.460   85.486    0.532    6.725
  114.710   83.031    0.512    7.301
  114.960   82.420    0.514    7.732
