~VERSION INFORMATION
 VERS.                 2.0:   CWLS LOG ASCII STANDARD -VERSION 2.0
 WRAP.                  NO:   ONE LINE PER DEPTH STEP
~WELL INFORMATION BLOCK
#MNEM.UNIT           DATA                    DESCRIPTION OF MNEMONIC
#---------    -------------------            -------------------------------
# Generated from Intellog Unique Number	CX_WELLS/WELL/3178
WELL.         ARCO ACI MCMURRAY              : Well_name    - WELL
LOC .         AA/10-26-083-11W4/0            : Location     - LOCATION
UWI .         AA/10-26-083-11W4/0            : Uwi          - UNIQUE WELL ID
ENTR.         TIM                            : Entered      - ENTERED BY
SRVC.         SCHLUMBERGER                   : Scn          - SERVICE COMPANY
STRT.F        750                            : top_depth    - START DEPTH
STOP.F        1479.99                        : bot_depth    - STOP DEPTH
STEP.F        0.82                           : increment    - STEP LENGTH
 NULL. -999.2500:NULL Value
~CURVE INFORMATION BLOCK
#MNEM UNIT       ERCB CURVE CODE    CURVE DESCRIPTION
#-----------   ------------------   ----------------------------------
DEPT.F        00 001 00 00         : DEPTH        - DEPTH
GR  .API      00 310 00 00         : GR           - GAMMA RAY
DPHI.V/V      00 890 00 00         : PHID         - DENSITY POROSITY (SANDSTONE)
ILD .OHMM     00 120 00 00         : RESD         - DEEP RESISTIVITY (DIL)
~PARAMETER INFORMATION
#MNEM.UNIT           DATA             DESCRIPTION OF MNEMONIC
#---------         -----------     ------------------------------
GL  .F        2254                 : gl           - GROUND LEVEL ELEVATION
EREF.F        2264                 : kb           - ELEVATION OF DEPTH REFERENCE
DATM.F        2264                 : datum        - DATUM ELEVATION
TDD .F        1485                 : tdd          - TOTAL DEPTH DRILLER
RUN .         ONE                  : Run          - RUN NUMBER
ENG .         BILL                 : Engineer     - RECORDING ENGINEER
WIT .         JIM                  : Witness      - WITNESSED BY
MUD .         GEL                  : Mud_type     - MUD TYPE
MATR.         SANDSTONE            : Logunit      - NEUTRON MATRIX
TMAX.F        71                   : BHT          - MAXIMUM RECORDED TEMPERATURE
BHTD.F        1486                 : BHTDEP       - MAXIMUM RECORDED TEMPERATURE
MATR.         1                    : LOGUNIT      - NEUTRON MATRIX
RMT .F        77                   : MDTP         - TEMPERATURE OF MUD
NEUT.         1                    : NEUTRON      - NEUTRON TYPE
RESI.         3.8                  : RESIST       - RESISTIVITY TYPE
RMC .OHMM     3.8                  : RMC          - RESISTIVITY OF MUD CAKE
RMF .OHMM     3.8                  : RMF          - RESISTIVITY OF MUD FILTRATE
SUFT.F        32                   : SUFT         - SURFACE TEMPERATURE
~A  DEPTH       GR     PHID     RESD
# ...
 1105.970   80.368    0.353   10.947
 1106.790   81.617    0.353   10.783
 1107.610   82.296    0.351   10.799
 1108.430   82.957    0.348   10.632
 1109.250   83.617    0.348   10.642
 1110.070   83.707    0.349   10.472
 1110.890   84.368    0.350    9.946
 1111.710   82.657    0.350    9.787
 1112.530   80.393    0.351    9.802
 1113.350   78.093    0.353    9.832
 1114.170   79.966    0.355    9.847
 1114.990   80.645    0.355    9.862
 1115.810   80.699    0.355    9.882
 1116.630   82.519    0.352    9.907
 1117.450   86.729    0.352    9.932
 1118.270   88.585    0.352    9.948
 1119.090   88.657    0.350   10.151
 1119.910   88.140    0.347   10.172
 1120.730   87.035    0.343   10.198
 1121.560   84.735    0.338   10.213
 1122.380   81.276    0.324   10.060
 1123.200   79.012    0.278   10.080
 1124.020   82.616    0.243    9.919
 1124.840   86.808    0.264    9.934
 1125.660   90.411    0.312    9.959
 1126.480   91.678    0.329    9.795
 1127.300   92.339    0.330    9.653
 1128.120   93.588    0.331    9.493
 1128.940   94.249    0.330    9.168
 1129.760   93.144    0.326    8.699
 1130.580   97.354    0.320    7.962
 1131.400  104.488    0.311    7.694
 1132.220  111.070    0.297    7.434
 1133.040  107.593    0.278    7.311
 1133.860  104.134    0.264    7.201
 1134.680  101.282    0.246    7.208
 1135.500  104.867    0.242    7.227
 1136.320  112.037    0.278    7.115
 1137.140  115.623    0.293    7.004
 1137.960  113.929    0.300    6.885
 1138.780  109.882    0.302    6.539
 1139.600  105.834    0.305    6.431
 1140.420  106.513    0.308    6.099
 1141.240  109.564    0.312    5.893
 1142.060  111.365    0.315    5.694
 1142.880  113.828    0.316    5.308
 1143.700  114.488    0.317    5.220
 1144.520  113.954    0.318    5.136
 1145.340  114.062    0.313    5.149
 1146.160  114.098    0.307    5.354
 1146.980  114.759    0.304    5.561
 1147.800  115.438    0.303    5.993
 1148.620  113.174    0.297    6.348
 1149.440  112.051    0.286    6.594
 1150.260  108.592    0.277    6.735
 1151.080  106.292    0.278    6.866
 1151.900  107.595    0.290    7.010
 1152.720  108.808    0.308    7.024
 1153.540  110.057    0.318    7.039
 1154.360  110.129    0.308    7.186
 1155.180  114.946    0.297    7.205
 1156.000  117.961    0.282    7.212
 1156.820  120.957    0.267    7.227
 1157.640  119.852    0.255    7.245
 1158.460  118.784    0.259    7.260
 1159.280  118.838    0.267    7.278
 1160.100  119.516    0.274    7.290
 1160.930  120.766    0.275    7.304
 1161.750  121.408    0.276    7.191
 1162.570  122.675    0.281    7.202
 1163.390  123.961    0.282    7.090
 1164.210  124.015    0.283    7.101
 1165.030  123.498    0.285    6.991
 1165.850  122.412    0.290    6.755
 1166.670  122.466    0.292    6.297
 1167.490  123.769    0.297    5.870
 1168.310  125.571    0.307    5.564
 1169.130  127.979    0.314    5.093
 1169.950  132.777    0.287    4.830
 1170.770  136.969    0.280    4.421
 1171.590  136.471    0.273    4.195
 1172.410  134.171    0.260    3.980
 1173.230  131.300    0.245    3.778
 1174.050  128.448    0.229    3.716
 1174.870  126.736    0.216    3.723
 1175.690  129.805    0.246    3.731
 1176.510  132.195    0.264    4.172
 1177.330  134.622    0.260    4.662
 1178.150  133.517    0.260    5.208
 1178.970  130.058    0.260    5.719
 1179.790  127.187    0.260    5.946
 1180.610  124.905    0.260    6.067
 1181.430  127.349    0.262    6.191
 1182.250  130.971    0.263    6.437
 1183.070  134.004    0.262    6.816
 1183.890  135.841    0.259    7.076
 1184.710  136.520    0.252    7.769
 1185.530  136.556    0.244    8.683
 1186.350  136.646    0.234    9.893
 1187.170  136.700    0.233   10.280
 1187.990  135.614    0.234   10.480
 1188.810  130.371    0.236   10.699
 1189.630  128.677    0.240   10.716
 1190.450  127.591    0.237   10.555
 1191.270  126.504    0.234   10.582
 1192.090  125.399    0.234   10.402
 1192.910  124.276    0.239   10.056
 1193.730  124.348    0.247    9.894
 1194.550  127.969    0.263    9.560
 1195.370  130.396    0.268    9.402
 1196.190  131.074    0.268    9.252
 1197.010  130.540    0.268    8.939
 1197.830  130.612    0.266    8.800
 1198.650  130.702    0.265    8.668
 1199.480  126.637    0.263    8.677
 1200.300  121.412    0.262    8.868
 1201.120  123.250    0.262    9.045
 1201.940  125.123    0.262    9.394
 1202.760  122.841    0.260    9.591
 1203.580  120.559    0.259    9.611
 1204.400  122.397    0.260    9.457
 1205.220  121.899    0.266    9.305
 1206.040  121.346    0.271    9.319
 1206.860  118.476    0.266    9.005
 1207.680  115.623    0.262    8.865
 1208.500  113.930    0.258    8.888
 1209.320  118.710    0.259    8.901
 1210.140  122.314    0.262    8.919
 1210.960  124.169    0.261    8.938
 1211.780  121.299    0.253    8.960
 1212.600  117.840    0.246    8.979
 1213.420  115.558    0.240    8.839
 1214.240  116.219    0.245    8.848
 1215.060  120.428    0.256    8.871
 1215.880  124.620    0.260    8.889
 1216.700  124.122    0.264    8.907
 1217.520  120.645    0.274    9.261
 1218.340  115.456    0.271    9.275
 1219.160  112.568    0.268    9.474
 1219.980  110.268    0.269    9.489
 1220.800  107.986    0.270    9.341
 1221.620  106.899    0.272    9.192
 1222.440  105.812    0.277    9.044
 1223.260  105.848    0.280    8.899
 1224.080  105.920    0.285    8.757
 1224.900  106.581    0.293    8.612
 1225.720  110.220    0.301    8.474
 1226.540  114.394    0.307    8.192
 1227.360  120.369    0.301    7.781
 1228.180  125.168    0.290    7.510
 1229.000  128.165    0.282    6.875
 1229.820  132.375    0.279    6.173
 1230.640  134.212    0.276    5.254
 1231.460  133.125    0.275    4.805
 1232.280  131.414    0.279    4.479
 1233.100  126.189    0.278    4.652
 1233.920  116.256    0.250    5.295
 1234.740  111.050    0.240    6.252
 1235.560  113.494    0.237    7.247
 1236.380  114.119    0.245    8.252
 1237.200  114.191    0.234    8.733
 1238.020  110.161    0.213    8.911
 1238.850  107.861    0.194    9.265
 1239.670  105.579    0.221    9.450
 1240.490  106.865    0.235    9.825
 1241.310  109.861    0.246    9.850
 1242.130  115.819    0.246    9.865
 1242.950  122.383    0.245    9.542
 1243.770  123.080    0.243    9.379
 1244.590  122.527    0.244    9.067
 1245.410  121.458    0.244    8.917
 1246.230  119.765    0.237    8.783
 1247.050  119.230    0.226    8.792
 1247.870  117.555    0.228    8.652
 1248.690  116.450    0.241    8.513
 1249.510  115.934    0.236    8.539
 1250.330  114.829    0.219    8.251
 1251.150  114.901    0.240    8.114
 1251.970  117.327    0.258    7.844
 1252.790  122.107    0.288    7.576
 1253.610  122.180    0.305    7.191
 1254.430  117.544    0.277    6.700
 1255.250  112.907    0.269    5.802
 1256.070  108.271    0.267    4.427
 1256.890  104.830    0.268    3.975
 1257.710  101.942    0.267    3.639
 1258.530   99.071    0.259    3.646
 1259.350  101.516    0.259    4.224
 1260.170  105.119    0.261    5.083
 1260.990  108.152    0.263    5.284
 1261.810  110.578    0.265    5.197
 1262.630  111.827    0.267    5.205
 1263.450  111.311    0.264    4.939
 1264.270  109.635    0.255    4.601
 1265.090  108.530    0.243    4.289
 1265.910  109.191    0.226    3.996
 1266.730  108.693    0.211    3.861
 1267.550  108.176    0.207    3.869
 1268.370  107.624    0.257    4.172
 1269.190  107.696    0.301    4.494
 1270.010  120.163    0.301    4.756
 1270.830  130.240    0.298    5.128
 1271.650  131.508    0.293    5.046
 1272.470  134.523    0.292    4.619
 1273.290  133.418    0.287    4.460
 1274.110  129.959    0.286    4.085
 1274.930  127.088    0.286    3.945
 1275.750  123.040    0.281    3.882
 1276.570  122.542    0.267    3.818
 1277.400  125.539    0.249    3.756
 1278.220  129.731    0.238    3.766
 1279.040  128.073    0.231    3.774
 1279.860  125.203    0.228    3.996
 1280.680  124.668    0.252    4.228
 1281.500  127.113    0.258    4.313
 1282.320  129.521    0.264    4.248
 1283.140  134.337    0.271    4.175
