~VERSION INFORMATION
 VERS.                 2.0:   CWLS LOG ASCII STANDARD -VERSION 2.0
 WRAP.                  NO:   ONE LINE PER DEPTH STEP
~WELL INFORMATION BLOCK
#MNEM.UNIT           DATA                    DESCRIPTION OF MNEMONIC
#---------    -------------------            -------------------------------
# Generated from Intellog Unique Number	CC_84_87/WELL/2336
NULL.         -999.25                        : NULL_VALUE
WELL.         SUN CHEECHAM                   : Well_name    - WELL              
LOC .         11-36-085-07W4                 : Location     - LOCATION          
UWI .         AA/11-36-085-07W400            : Uwi          - UNIQUE WELL ID    
ENTR.         DW                             : Entered      - ENTERED BY        
SRVC.         SCHLUMBERGER                   : Scn          - SERVICE COMPANY   
DATE.         28 MAR 80                      : Date         - LOG DATE
STRT.M        50                             : top_depth    - START DEPTH       
STOP.M        250.102                        : bot_depth    - STOP DEPTH        
STEP.M        0.3                            : increment    - STEP LENGTH       
~CURVE INFORMATION BLOCK
#MNEM UNIT       ERCB CURVE CODE    CURVE DESCRIPTION
#-----------   ------------------   ----------------------------------
DEPT.M        00 001 00 00         : DEPTH        - DEPTH                       
DPHI.V/V      00 890 00 00         : PHID         - DENSITY POROSITY (LIMESTONE)
NPHI.V/V      00 330 00 00         : PHIN         - NEUTRON POROSITY (LIMESTONE)
GR  .API      00 310 00 00         : GR           - GAMMA RAY                   
ILD .OHMM     00 120 00 00         : RESD         - DEEP RESISTIVITY (DIL)      
~PARAMETER INFORMATION       
#MNEM.UNIT           DATA             DESCRIPTION OF MNEMONIC
#---------         -----------     ------------------------------
GL  .M        487.6                : gl           - GROUND LEVEL ELEVATION      
EREF.M        489.66               : kb           - ELEVATION OF DEPTH REFERENCE
DATM.M        489.66               : datum        - DATUM ELEVATION             
TDD .M        249                  : tdd          - TOTAL DEPTH DRILLER         
RUN .         ONE                  : Run          - RUN NUMBER                  
ENG .         BILL                 : Engineer     - RECORDING ENGINEER          
WIT .         JIM                  : Witness      - WITNESSED BY                
MUD .         GEL                  : Mud_type     - MUD TYPE                    
MATR.         LIMESTONE            : Logunit      - NEUTRON MATRIX              
TMAX.C        18.5                 : BHT          - MAXIMUM RECORDED TEMPERATURE
BHTD.M        250                  : BHTDEP       - MAXIMUM RECORDED TEMPERATURE
MATR.         1                    : LOGUNIT      - NEUTRON MATRIX              
RMT .C        25                   : MDTP         - TEMPERATURE OF MUD          
NEUT.         1                    : NEUTRON      - NEUTRON TYPE                
RESI.         0                    : RESIST       - RESISTIVITY TYPE            
RMC .OHMM     0.25                 : RMC          - RESISTIVITY OF MUD CAKE     
RMF .OHMM     0.25                 : RMF          - RESISTIVITY OF MUD FILTRATE 
SUFT.C        4                    : SUFT         - SURFACE TEMPERATURE         
~A  DEPTH     PHID     PHIN       GR     RESD
   50.000    0.210    0.508   78.969   10.972
   50.300    0.259    0.507   82.602    8.742
   50.600    0.261    0.508   88.664    7.935
   50.900    0.255    0.511   89.869    7.483
   51.200    0.253    0.516   86.211    6.796
   51.500    0.249    0.534   87.415    6.406
   51.800    0.252    0.552   91.654    6.505
   52.100    0.258    0.538   91.035    6.251
   52.400    0.268    0.555   87.378    5.891
   52.700    0.279    0.545   86.153    5.871
   53.000    0.280    0.511   90.999    6.548
   53.300    0.284    0.499   86.128    7.732
   53.600    0.299    0.474   81.257   11.638
   53.900    0.326    0.463   77.599   15.367
   54.200    0.348    0.476   75.766   16.201
   54.500    0.389    0.488   78.182   15.845
   54.800    0.364    0.474   80.602   14.938
   55.100    0.318    0.470   75.730   14.094
   55.400    0.303    0.462   78.756   13.272
   55.700    0.289    0.456   82.996   12.751
   56.000    0.287    0.444   88.451   12.026
   56.300    0.265    0.438   83.579   10.705
   56.600    0.273    0.448   81.745   10.297
   56.900    0.270    0.467   85.376    9.522
   57.200    0.254    0.461   87.188    9.150
   57.500    0.241    0.459   85.962    8.942
   57.800    0.251    0.478   90.203    8.927
   58.100    0.217    0.447   90.190    9.235
   58.400    0.214    0.431   85.927    9.564
   58.700    0.235    0.438   91.989    9.347
   59.000    0.251    0.467   91.976    9.158
   59.300    0.244    0.477   88.319    9.133
   59.600    0.214    0.466   82.234    9.452
   59.900    0.207    0.464   83.434    9.426
   60.200    0.244    0.471   89.500    8.878
   60.500    0.256    0.490   97.383    7.912
   60.800    0.257    0.507  105.877    7.049
   61.100    0.236    0.513  104.043    6.652
   61.400    0.252    0.530  107.067    6.502
   61.700    0.238    0.536  106.448    6.613
   62.000    0.237    0.526  105.221    7.372
   62.300    0.252    0.513  108.246    8.080
   62.600    0.216    0.492  108.843    9.354
   62.900    0.231    0.471  105.793   10.835
   63.200    0.229    0.462  102.135   11.003
   63.500    0.224    0.457  100.911   10.961
   63.800    0.222    0.415  105.149   10.728
   64.100    0.234    0.430  106.355   10.510
   64.400    0.258    0.441  102.697   10.875
   64.700    0.258    0.451  100.256   11.908
   65.000    0.256    0.464  100.851   12.805
   65.300    0.283    0.481   99.018   15.394
   65.600    0.300    0.480   88.071   17.161
   65.900    0.307    0.463   77.125   17.776
   66.200    0.310    0.466   81.972   18.053
   66.500    0.308    0.470   89.857   17.674
   66.800    0.301    0.472   83.770   16.353
   67.100    0.297    0.464   81.936   14.301
   67.400    0.299    0.456   84.963   12.508
   67.700    0.283    0.445   86.165   12.464
   68.000    0.265    0.444   88.582   14.445
   68.300    0.266    0.469   84.319   22.994
   68.600    0.290    0.477   73.980   31.512
   68.900    0.297    0.430   62.427   35.163
   69.200    0.318    0.411   49.051   35.046
   69.500    0.323    0.418   47.214   34.923
   69.800    0.313    0.407   47.812   34.823
   70.100    0.329    0.399   53.266   34.735
   70.400    0.323    0.424   53.860   35.301
   70.700    0.329    0.448   53.244   36.545
   71.000    0.324    0.446   47.764   38.546
   71.300    0.323    0.432   47.748   40.651
   71.600    0.330    0.449   49.560   40.518
   71.900    0.330    0.445   51.981   40.405
   72.200    0.319    0.434   48.931   39.511
   72.500    0.316    0.425   45.880   38.652
   72.800    0.339    0.431   48.298   37.873
   73.100    0.349    0.414   51.326   37.076
   73.400    0.351    0.415   51.920   37.650
   73.700    0.308    0.428   51.908   38.243
   74.000    0.306    0.438   52.503   40.354
   74.300    0.313    0.439   54.922   48.513
   74.600    0.317    0.441   56.734   55.121
   74.900    0.301    0.436   55.504   57.078
   75.200    0.272    0.357   50.634   57.959
   75.500    0.266    0.266   43.941   55.714
   75.800    0.218    0.267   37.853   49.617
   76.100    0.228    0.378   37.236   47.678
   76.400    0.293    0.410   39.654   44.951
   76.700    0.301    0.391   42.679   42.359
   77.000    0.309    0.389   45.097   39.920
   77.300    0.317    0.411   45.692   36.937
   77.600    0.312    0.415   46.287   34.170
   77.900    0.322    0.413   46.276   32.189
   78.200    0.332    0.423   46.264   31.511
   78.500    0.328    0.437   46.859   30.850
   78.800    0.327    0.456   51.100   30.753
   79.100    0.330    0.458   55.341   30.085
   79.400    0.328    0.453   56.542   28.894
   79.700    0.321    0.454   55.315   28.299
   80.000    0.308    0.453   54.698   25.696
   80.300    0.311    0.441   56.505   20.460
   80.600    0.318    0.431   58.318   16.600
   80.900    0.318    0.422   57.698   14.793
   81.200    0.307    0.439   60.117   13.692
   81.500    0.281    0.455   71.038   13.393
   81.800    0.274    0.473   70.419   14.122
   82.100    0.314    0.500   61.902   14.907
   82.400    0.290    0.464   57.639   17.919
   82.700    0.287    0.489   64.916   21.552
   83.000    0.312    0.485   64.905   22.707
   83.300    0.313    0.461   60.640   21.817
   83.600    0.313    0.439   61.237   18.739
   83.900    0.309    0.424   61.224   13.341
   84.200    0.297    0.418   67.893   10.617
   84.500    0.281    0.451   73.958    9.647
   84.800    0.251    0.479   78.196    8.282
   85.100    0.231    0.505   78.793    8.257
   85.400    0.253    0.510   78.173    8.869
   85.700    0.260    0.512   77.554    8.359
   86.000    0.272    0.515   76.328    7.590
   86.300    0.300    0.477   73.885    7.432
   86.600    0.267    0.455   75.090    7.549
   86.900    0.269    0.468   82.367    8.747
   87.200    0.267    0.503   78.711   15.871
   87.500    0.301    0.513   68.372   20.958
   87.800    0.325    0.469   60.462   23.817
   88.100    0.315    0.450   57.413   23.750
   88.400    0.319    0.458   56.792   21.163
   88.700    0.304    0.455   54.960   18.514
   89.000    0.307    0.445   57.376   15.598
   89.300    0.318    0.439   56.756   12.892
   89.600    0.318    0.439   56.745   12.159
   89.900    0.323    0.461   57.948   12.819
   90.200    0.327    0.479   56.723   14.305
   90.500    0.329    0.505   61.571   16.866
   90.800    0.311    0.498   65.204   17.802
   91.100    0.294    0.471   62.763   18.074
   91.400    0.296    0.451   57.282   17.375
   91.700    0.290    0.437   54.233   15.190
   92.000    0.294    0.437   54.828   11.655
   92.300    0.312    0.443   62.106   10.196
   92.600    0.314    0.469   70.599    8.116
   92.900    0.303    0.471   72.408    6.969
   93.200    0.284    0.467   72.399    6.212
   93.500    0.288    0.470   74.817    5.745
   93.800    0.288    0.474   74.804    5.623
   94.100    0.264    0.496   74.791    5.823
   94.400    0.249    0.533   77.211    6.252
   94.700    0.266    0.511   76.591    6.477
   95.000    0.265    0.494   82.046    6.580
   95.300    0.261    0.523   82.641    6.435
   95.600    0.287    0.546   78.984    6.184
   95.900    0.296    0.479   75.328    5.612
   96.200    0.285    0.470   89.896    5.392
   96.500    0.244    0.499   91.705    5.076
   96.800    0.227    0.513   91.694    5.163
   97.100    0.241    0.552   97.755    5.647
   97.400    0.238    0.560   97.138    5.745
   97.700    0.231    0.510   92.872    5.836
   98.000    0.228    0.487   93.467    5.396
   98.300    0.230    0.487   92.241    5.183
   98.600    0.235    0.493   87.371    5.261
   98.900    0.247    0.517   90.395    5.352
   99.200    0.249    0.536   90.383    5.861
   99.500    0.248    0.558   87.335    6.785
   99.800    0.263    0.540   85.499    7.431
  100.100    0.268    0.487   84.881    7.693
  100.400    0.289    0.472   83.045    7.670
  100.700    0.296    0.456   78.176    7.501
  101.000    0.248    0.456   77.556    6.813
  101.300    0.220    0.483   82.404    6.305
  101.600    0.226    0.489   86.643    5.616
  101.900    0.228    0.502   87.240    5.102
