~Version : LASO    vs 4.00
VERS.                2.00:   CWLS Log ASCII Standard -VERSION 2.0
WRAP.                  NO:
~Well Information Block
#MNEM.UNIT       Data                        Description of Mnemonic
#----.----      -------------------------- : -----------------------------
STRT.M             3.0000:
STOP.M           202.0000:
STEP.M             0.1250:
NULL.           -999.2500:
COMP.  MOBILOIL CANADA             :COMPANY
WELL.  MOBIL CLARKE OV 10-26       :WELL
FLD.   CLARKE                      :FIELD
LOC.   10-26-090-07W4              :LOCATION
CTRY.  CANADA                      :COUNTRY
PROV.  ALBERTA                     :PROVINCE
SRVC.  DRESSER ATLAS               :SERVICE COMPANY
DATE.  31-JAN-81                   :LOG DATE
UWI.   AA/10-26-090-07W400         :UNIQUE WELL ID
~Parameter Information Block
#MNEM.UNIT       Data                        Description of Mnemonic
#----.----      -------------------------- : -----------------------------
RUN .                   1                 : Run Number
GL  .M           456.0000                 : Ground Level Elevation
DREF.                  KB                 : Depth Reference
EREF.M           456.0000                 : Elevation of Depth Reference
TDL .M           201.0000                 : Total Depth Logger
TDD .M           203.0000                 : Total Depth Driller
CSGL.M            13.0000                 : Casing Bottom Logger
CSGD.M            12.0000                 : Casing Bottom Driller
CSGS.MM          219.0000                 : Casing Size
CSGW.KG/M          0.0000                 : Casing Weight
BHT .DEGC         18.0000                 : Bottom Hole Temperature
BS  .MM          171.4000                 : Bit Size
DFD .              9.7000                 : Mud Weight (Density)
DFV .             85.0000                 : Mud Viscosity
RM  .OHMM          4.0000                 : Mud Resistivity
RMT .DEGC         18.0000                 : Mud Resistivity Temperature
RMF .OHMM          6.2000                 : Mud Filtrate Resistivity
RMFT.DEGC         12.0000                 : RMF Temperature
RMC .OHMM         11.6000                 : Mud Cake Resistivity
RMCT.DEGC         12.0000                 : RMC Temperature
~Curve Information Block
#MNEM.UNIT        API CODE    Curve Description
#---------    ------------    -------------------------------------------
DEPT.M                    :   DEPTH
CALI.MM       42 280  1  1:   3 DENSITY CALIPER
DPHI.V/V                  :   DPHI
DT  .US/M     60 520 42  1:   2 SONIC INTERVAL TRANSIT TIME (COMPENSATED)
GR  .GAPI     42 310  1  1:   4 GAMMA RAY
LLD .Ohmm                 :   LLD
NPHI.V/V      42 890  3  1:   5 NEUTRON POROSITY (SANDSTONE)
RHOB.K/M3     42 350  1  1:   6 BULK DENSITY
~A  Depth           CALI        DPHI          DT          GR         LLD        NPHI        RHOB
# ...
117.1250        193.5000      0.2382    477.4800    101.7300     86.9286      0.4493   2283.2000
117.2500        193.1750      0.2355    475.7600    102.6600     91.1809      0.4346   2285.6001
117.3750        192.5750      0.2307    472.5600    104.3100     95.4530      0.4234   2295.3999
117.5000        193.5000      0.2269    469.6400    100.9950     98.0144      0.4141   2317.5000
117.6250        193.1750      0.2232    467.1600     98.0400    101.1139      0.4114   2348.1001
117.7500        193.5000      0.2172    438.7600     93.9900    102.5643      0.3848   2381.7000
117.8750        191.3500      0.2087    403.6800     86.0700    100.7154      0.3751   2422.1001
118.0000        191.3500      0.1936    376.9600     85.1400     98.3923      0.3661   2479.6001
118.1250        190.1250      0.1806    353.9600     83.8500     94.7317      0.3597   2523.1001
118.2500        187.9750      0.1666    345.3600     86.4300     91.6698      0.3811   2499.2000
118.3750        187.9750      0.1494    358.1200     93.0750     88.7123      0.4013   2432.5000
118.5000        184.9250      0.1277    384.8400     98.4150     85.7738      0.4111   2355.3999
118.6250        179.7000      0.0898    411.5200     99.3300     81.0991      0.4126   2288.1001
118.7500        180.6250      0.1284    463.2400     96.9450     79.1335      0.4159   2259.8999
118.8750        186.4500      0.1596    470.1200     97.5000     78.3965      0.4204   2256.2000
119.0000        187.3750      0.1755    473.0400     96.7500     79.2847      0.4268   2263.6001
119.1250        189.5000      0.1898    472.0800     97.3050     79.3865      0.4391   2281.3000
119.2500        192.8750      0.2039    470.1200     98.7900     80.3046      0.4373   2293.0000
119.3750        194.7250      0.2174    466.2000     98.0400     80.5626      0.4309   2291.7000
119.5000        195.0250      0.2314    460.3200     99.1500     79.9995      0.4279   2283.2000
119.6250        195.3250      0.2260    454.4400     95.1000     77.3886      0.4279   2277.7000
119.7500        195.9500      0.2210    447.3200     95.4600     71.8231      0.4365   2280.1001
119.8750        196.8750      0.2253    450.2800     97.8600     67.8656      0.4223   2289.3000
120.0000        198.4000      0.2260    459.8400    102.6600     64.8968      0.4121   2298.5000
120.1250        198.7000      0.2232    463.5200    103.0200     60.0728      0.4129   2304.0000
120.2500        199.0000      0.2216    457.8800     99.5250     55.1710      0.4076   2302.8000
120.3750        197.4750      0.2203    451.4800     96.5700     51.1705      0.4028   2303.3999
120.5000        195.0250      0.2181    447.3200     94.5450     46.3445      0.3964   2304.6001
120.6250        195.6250      0.2156    442.9200     95.1000     42.3245      0.3968   2307.7000
120.7500        193.1750      0.2141    437.7600     94.9200     37.5210      0.4084   2300.8999
120.8750        194.4000      0.2144    438.0000     96.7500     34.3394      0.4181   2277.7000
121.0000        194.1000      0.2154    446.0800     93.8100     31.9067      0.4241   2257.5000
121.1250        192.8750      0.2156    454.9200     91.0500     29.3657      0.4301   2246.5000
121.2500        192.8750      0.2193    461.5200     94.9200     27.3400      0.4418   2237.8999
121.3750        193.1750      0.2250    466.6800     95.4600     26.2448      0.4582   2225.0000
121.5000        194.7250      0.2346    483.1200     93.4350     26.1869      0.4807   2195.7000
121.6250        197.4750      0.2418    500.0000     92.1450     26.2369      0.4942   2141.8000
121.7500        199.3250      0.2487    527.9600     87.1800     25.4495      0.5009   2093.5000
121.8750        198.7000      0.2730    536.0400     84.6000     25.4128      0.4987   2062.2000
122.0000        196.2500      0.2980    541.4400     81.2700     25.4896      0.5137   2060.3999
122.1250        197.4750      0.3178    543.8800     80.7300     25.5833      0.5107   2057.3000
122.2500        200.8500      0.3391    548.3200     82.2000     25.6795      0.5171   2058.6001
122.3750        201.7750      0.3560    548.0400     84.9600     25.7759      0.5201   2062.2000
122.5000        199.9250      0.3594    548.0400     86.9850     26.7632      0.5152   2075.1001
122.6250        194.1000      0.3579    546.3600     88.6500     28.7780      0.5062   2106.8999
122.7500        191.0500      0.3556    532.8800     89.3850     30.5527      0.4904   2147.3000
122.8750        191.3500      0.3511    524.5200     86.8050     33.3774      0.4871   2151.0000
123.0000        191.3500      0.3409    516.2000     86.0700     36.2298      0.4800   2156.5000
123.1250        192.8750      0.3273    514.2400     87.7200     38.4503      0.4792   2162.0000
123.2500        191.3500      0.3130    516.4400     88.0950     40.6203      0.4504   2170.6001
123.3750        191.0500      0.3036    515.7200     91.2300     42.7869      0.4466   2183.3999
123.5000        191.6500      0.2984    514.0000     90.8550     44.5499      0.4440   2200.6001
123.6250        191.3500      0.2934    511.8000     93.2550     47.1141      0.4403   2212.2000
123.7500        191.3500      0.2884    499.5200     98.0400     49.2843      0.4346   2223.2000
123.8750        191.6500      0.2822    491.6800     95.6550     51.0350      0.4219   2234.2000
124.0000        187.6750      0.2784    489.2400     90.3000     53.1215      0.4096   2242.2000
124.1250        184.3000      0.2722    483.6000     88.4700     54.4228      0.4073   2248.8999
124.2500        185.5250      0.2684    479.4400     92.1450     56.4364      0.4096   2244.0000
124.3750        190.7250      0.2623    484.0800     99.5250     57.7103      0.4208   2235.3999
124.5000        192.2750      0.2572    485.8000     98.9700     59.7336      0.4346   2229.3000
124.6250        192.5750      0.2534    491.4400     97.6800     61.8785      0.4459   2232.3999
124.7500        193.1750      0.2520    491.9200     95.6550     63.1467      0.4466   2242.2000
124.8750        192.5750      0.2551    488.0000     92.5200     64.2919      0.4399   2258.1001
125.0000        191.9500      0.2543    484.3200     89.7600     66.3299      0.4301   2273.3999
125.1250        192.2750      0.2499    485.8000     89.3850     66.6471      0.4189   2290.5000
125.2500        191.6500      0.2450    480.6400     82.3800     69.0258      0.4111   2319.8999
125.3750        187.0500      0.2378    471.8400     80.5350     71.7335      0.4126   2349.3000
125.5000        184.0000      0.2256    466.2000     80.5350     65.6612      0.4208   2367.0000
125.6250        188.9000      0.2152    464.0000     82.9350     59.7619      0.4211   2377.3999
125.7500        189.2000      0.2062    459.0800     83.6700     56.4573      0.4189   2386.0000
125.8750        188.6000      0.1961    456.1600     82.0200     51.7611      0.4196   2393.3000
126.0000        186.1500      0.1876    446.8400     82.5600     47.7231      0.4118   2400.7000
126.1250        183.7000      0.1780    438.5200     86.4300     45.4566      0.4088   2406.2000
126.2500        182.7750      0.1724    446.6000     92.7000     43.4691      0.4103   2401.3000
126.3750        189.2000      0.1655    453.4400     99.5250     42.5745      0.4268   2385.3999
126.5000        190.7250      0.1608    459.3200    105.2400     42.2989      0.4414   2302.8000
126.6250        192.2750      0.1559    470.8400    101.9100     41.4814      0.4478   2237.8999
126.7500        193.5000      0.1543    505.4000     99.7050     41.4277      0.4616   2239.7000
126.8750        193.1750      0.1548    505.4000    100.4400     41.5042      0.4654   2245.8000
127.0000        193.1750      0.1615    505.4000     98.9700     41.5933      0.4687   2244.0000
127.1250        192.8750      0.1713    505.4000     99.3300     41.6887      0.4721   2239.1001
127.2500        193.5000      0.1880    505.9200    101.9100     41.7851      0.4897   2236.1001
127.3750        193.8000      0.2259    504.9200    105.6000     41.8815      0.4807   2237.3000
