~VERSION INFORMATION
 VERS.                 2.0:   CWLS LOG ASCII STANDARD -VERSION 2.0
 WRAP.                  NO:   ONE LINE PER DEPTH STEP
~WELL INFORMATION BLOCK
#MNEM.UNIT           DATA                    DESCRIPTION OF MNEMONIC
#---------    -------------------            -------------------------------
# Generated from Intellog Unique Number	CC_80_83/WELL/2355
NULL.         -999.25                        : NULL_VALUE
WELL.         PEX PCEJ HANGST OV             : Well_name    - WELL
LOC .         10-14-082-10W4                 : Location     - LOCATION          
UWI .         AA/10-14-082-10W400            : Uwi          - UNIQUE WELL ID    
ENTR.         DW                             : Entered      - ENTERED BY        
SRVC.         DRESSER ATLAS                  : Scn          - SERVICE COMPANY   
DATE.         24 FEB 80                      : Date         - LOG DATE
STRT.M        250                            : top_depth    - START DEPTH       
STOP.M        484.891                        : bot_depth    - STOP DEPTH        
STEP.M        0.3                            : increment    - STEP LENGTH       
~CURVE INFORMATION BLOCK
#MNEM UNIT       ERCB CURVE CODE    CURVE DESCRIPTION
#-----------   ------------------   ----------------------------------
DEPT.M        00 001 00 00         : DEPTH        - DEPTH                       
GR  .API      00 310 00 00         : GR           - GAMMA RAY                   
ILD .OHMM     00 120 00 00         : RESD         - DEEP RESISTIVITY (DIL)      
DPHI.V/V      00 890 00 00         : PHID         - DENSITY POROSITY (LIMESTONE)
NPHI.V/V      00 330 00 00         : PHIN         - NEUTRON POROSITY (LIMESTONE)
~PARAMETER INFORMATION       
#MNEM.UNIT           DATA             DESCRIPTION OF MNEMONIC
#---------         -----------     ------------------------------
GL  .M        706.79               : gl           - GROUND LEVEL ELEVATION      
EREF.M        710.48               : kb           - ELEVATION OF DEPTH REFERENCE
DATM.M        710.48               : datum        - DATUM ELEVATION             
TDD .M        496                  : tdd          - TOTAL DEPTH DRILLER         
RUN .         ONE                  : Run          - RUN NUMBER                  
ENG .         BILL                 : Engineer     - RECORDING ENGINEER          
WIT .         JIM                  : Witness      - WITNESSED BY                
MUD .         GEL                  : Mud_type     - MUD TYPE                    
MATR.         LIMESTONE            : Logunit      - NEUTRON MATRIX              
TMAX.C        17                   : BHT          - MAXIMUM RECORDED TEMPERATURE
BHTD.M        496                  : BHTDEP       - MAXIMUM RECORDED TEMPERATURE
MATR.         1                    : LOGUNIT      - NEUTRON MATRIX              
RMT .C        25                   : MDTP         - TEMPERATURE OF MUD          
NEUT.         1                    : NEUTRON      - NEUTRON TYPE                
RESI.         0                    : RESIST       - RESISTIVITY TYPE            
RMC .OHMM     0.25                 : RMC          - RESISTIVITY OF MUD CAKE     
RMF .OHMM     0.25                 : RMF          - RESISTIVITY OF MUD FILTRATE 
SUFT.C        15                   : SUFT         - SURFACE TEMPERATURE         
~A  DEPTH       GR     RESD     PHID     PHIN
# ...
  302.198   81.684   10.082    0.229    0.326
  302.498   95.391    8.356    0.220    0.319
  302.798  114.085    6.425    0.223    0.327
  303.098  104.717    5.741    0.228    0.334
  303.398  104.079    6.076    0.223    0.338
  303.698  102.191    6.429    0.237    0.349
  303.998   94.071    7.198    0.221    0.357
  304.298  100.916    7.762    0.128    0.360
  304.598   90.302    7.910    0.153    0.367
  304.898   89.661    7.765    0.212    0.373
  305.198   97.756    7.914    0.265    0.367
  305.498   80.904    8.375    0.273    0.357
  305.798   88.372    8.535    0.274    0.357
  306.098   94.591   10.110    0.274    0.353
  306.398   88.345   10.698    0.275    0.315
  306.698   67.750   12.672    0.301    0.315
  306.998   52.767   14.457    0.305    0.327
  307.298   45.268   15.884    0.300    0.336
  307.598   42.761   17.128    0.298    0.336
  307.898   48.979   17.456    0.295    0.342
  308.198   52.086   17.135    0.297    0.355
  308.498   56.433   17.137    0.299    0.346
  308.798   56.421   17.142    0.302    0.352
  309.098   53.291   16.827    0.313    0.337
  309.398   52.027   17.150    0.320    0.336
  309.698   52.637   17.153    0.313    0.330
  309.998   52.625   17.484    0.300    0.329
  310.298   47.622   17.487    0.299    0.329
  310.598   51.346   17.822    0.299    0.330
  310.898   53.828   18.165    0.300    0.333
  311.198   54.438   18.168    0.298    0.325
  311.498   53.800   18.516    0.296    0.323
  311.798   53.157   18.518    0.294    0.327
  312.098   54.396   18.524    0.294    0.328
  312.398   51.886   18.528    0.299    0.330
  312.698   46.881   18.188    0.292    0.329
  312.998   52.475   18.190    0.278    0.313
  313.298   56.828   18.194    0.273    0.308
  313.598   59.934   17.861    0.298    0.321
  313.898   58.675   17.532    0.302    0.329
  314.198   54.294   17.209    0.300    0.335
  314.498   48.043   16.892    0.297    0.327
  314.798   54.266   16.274    0.295    0.335
  315.098   51.134   16.277    0.295    0.323
  315.398   57.356   15.976    0.293    0.324
  315.698   61.706   15.682    0.298    0.332
  315.998   54.208   15.393    0.300    0.332
  316.298   54.191   15.398    0.297    0.331
  316.598   56.674   15.400    0.295    0.331
  316.898   59.767   15.405    0.297    0.342
  317.198   60.381   15.407    0.299    0.330
  317.498   59.749   15.124    0.301    0.331
  317.798   56.616   14.845    0.302    0.342
  318.098   59.096   14.848    0.299    0.347
  318.398   51.599   14.853    0.293    0.356
  318.698   49.711   14.855    0.296    0.352
  318.997   55.309   14.857    0.303    0.347
  319.297   55.921   15.143    0.305    0.343
  319.597   55.282   14.863    0.301    0.345
  319.897   59.631   14.319    0.301    0.352
  320.197   64.608   13.538    0.311    0.361
  320.497   58.358   13.540    0.314    0.346
  320.797   55.848   13.292    0.306    0.346
  321.097   58.949   13.295    0.300    0.361
  321.397   61.430   13.297    0.295    0.368
  321.697   53.310   13.300    0.293    0.377
  321.997   57.658   13.055    0.302    0.352
  322.297   59.515   13.057    0.310    0.346
  322.597   57.631   13.059    0.310    0.326
  322.897   50.758   13.063    0.308    0.328
  323.197   49.497   13.315    0.300    0.349
  323.497   50.725   13.569    0.293    0.367
  323.797   50.709   13.829    0.292    0.366
  324.097   48.828   13.832    0.299    0.362
  324.397   46.944   13.836    0.306    0.364
  324.697   50.667   13.838    0.306    0.376
  324.997   52.529   13.842    0.304    0.351
  325.297   51.889   13.844    0.302    0.339
  325.597   48.759   13.848    0.307    0.333
  325.897   48.744   13.851    0.312    0.334
  326.197   48.724   14.117    0.313    0.339
  326.497   46.844   14.120    0.311    0.347
  326.797   46.822   14.122    0.305    0.356
  327.097   48.062   14.393    0.297    0.368
  327.397   48.047   14.395    0.293    0.348
  327.697   47.403   14.130    0.293    0.354
  327.997   47.393   13.872    0.308    0.360
  328.297   46.752   13.616    0.307    0.344
  328.597   47.991   13.619    0.301    0.324
  328.897   57.331   13.622    0.297    0.347
  329.197   46.088   13.624    0.294    0.359
  329.497   42.332   13.374    0.295    0.337
  329.797   49.177   13.376    0.292    0.344
  330.097   54.156   13.131    0.284    0.363
  330.397   54.762   13.134    0.281    0.373
  330.697   57.240   13.385    0.284    0.358
  330.997   57.229   13.140    0.295    0.354
  331.297   51.603   13.142    0.300    0.341
  331.597   50.964   13.394    0.301    0.333
  331.897   55.314   13.147    0.303    0.343
  332.197   55.924   13.151    0.300    0.351
  332.497   56.534   12.908    0.294    0.336
  332.797   61.508   12.672    0.289    0.336
  333.097   66.481   12.674    0.290    0.352
  333.397   65.846   12.676    0.294    0.360
  333.697   55.852   12.444    0.299    0.368
  333.997   53.968   12.446    0.303    0.377
  334.297   53.328   12.448    0.304    0.357
  334.597   52.692   12.450    0.305    0.344
  334.897   58.911   12.221    0.300    0.337
  335.197   63.888   12.225    0.256    0.352
  335.497   69.485   12.000    0.257    0.356
  335.797   70.720   11.778    0.260    0.357
  336.097   65.092   11.135    0.271    0.360
  336.397   67.570   11.565    0.273    0.355
  336.697   68.179   11.785    0.268    0.351
  336.997   68.787   12.473    0.267    0.354
  337.297   68.147   12.475    0.261    0.359
  337.597   67.514   12.478    0.241    0.360
  337.897   63.132   12.480    0.254    0.360
  338.197   63.745   12.483    0.257    0.338
  338.497   63.729   12.485    0.225    0.321
  338.797   63.716   12.255    0.165    0.301
  339.097   62.452   12.031    0.154    0.286
  339.397   61.191   12.032    0.245    0.283
  339.697   61.800   12.036    0.269    0.337
  339.997   64.280   12.267    0.277    0.316
  340.297   68.630   12.502    0.290    0.340
  340.597   69.867   12.271    0.293    0.354
  340.897   65.484   11.821    0.294    0.338
  341.197   65.469   10.968    0.274    0.322
  341.497   67.952   10.176    0.238    0.336
  341.797   85.398    8.435    0.223    0.355
  342.097   94.115    5.904    0.219    0.372
  342.397   94.725    4.802    0.223    0.390
  342.697   82.862    4.291    0.229    0.363
  342.997   82.220    4.134    0.243    0.352
  343.297   79.715    4.542    0.254    0.340
  343.596   75.959    4.898    0.263    0.325
  343.896   68.461    5.587    0.270    0.341
  344.196   66.576    6.374    0.268    0.356
  344.496   77.785    7.136    0.263    0.345
  344.796   67.794    7.273    0.259    0.331
  345.096   85.865    6.876    0.254    0.329
  345.396   81.483    5.287    0.238    0.376
  345.696   99.556    4.382    0.198    0.367
  345.996  107.648    3.771    0.210    0.373
  346.296  106.388    3.633    0.236    0.397
  346.596   91.405    3.634    0.221    0.386
  346.896   87.650    4.304    0.215    0.372
  347.196   94.492    4.729    0.213    0.372
  347.496  100.715    5.099    0.180    0.373
  347.796  102.573    4.227    0.183    0.361
  348.096   95.076    3.312    0.187    0.370
  348.396  100.051    3.073    0.192    0.377
  348.696  113.755    2.960    0.192    0.385
  348.996  106.879    2.906    0.187    0.395
  349.296  106.239    2.852    0.184    0.403
  349.596  106.850    2.907    0.187    0.412
  349.896  103.097    2.853    0.199    0.393
  350.196  100.587    2.854    0.208    0.377
  350.496  106.185    2.801    0.205    0.398
  350.796   97.441    2.699    0.203    0.411
  351.096  106.155    2.600    0.204    0.412
  351.396  111.131    2.367    0.205    0.423
  351.696  109.868    2.037    0.209    0.411
  351.996  106.114    1.855    0.213    0.403
  352.296  100.486    1.787    0.213    0.402
  352.596   97.355    1.787    0.211    0.408
  352.896   96.089    1.821    0.208    0.431
  353.196   97.325    1.964    0.221    0.442
  353.496  103.547    2.040    0.228    0.447
  353.796  108.522    2.199    0.227    0.437
  354.096   99.153    2.416    0.208    0.420
