~VERSION INFORMATION
 VERS.                 2.0:   CWLS LOG ASCII STANDARD -VERSION 2.0
 WRAP.                  NO:   ONE LINE PER DEPTH STEP
~WELL INFORMATION BLOCK
#MNEM.UNIT           DATA                    DESCRIPTION OF MNEMONIC
#---------    -------------------            -------------------------------
# Generated from Intellog Unique Number	CN_94_101/WELL/5012
WELL.         10-36-097-12W4                 : Well_name    - WELL
LOC .         AA/10-36-097-12W4/0            : Location     - LOCATION
UWI .         AA/10-36-097-12W400            : Uwi          - UNIQUE WELL ID
ENTR.         JOETTE                         : Entered      - ENTERED BY
SRVC.         SCHLUMBERGER                   : Scn          - SERVICE COMPANY
DATE.         08/17/92                       : Date         - LOG DATE
STRT.M        0                              : top_depth    - START DEPTH
STOP.M        110                            : bot_depth    - STOP DEPTH
STEP.M        0.25                           : increment    - STEP LENGTH
 NULL. -999.2500:NULL Value
~CURVE INFORMATION BLOCK
#MNEM UNIT       ERCB CURVE CODE    CURVE DESCRIPTION
#-----------   ------------------   ----------------------------------
DEPT.M        00 001 00 00         : DEPTH        - DEPTH
ILD .OHMM     00 120 00 00         : RESD         - DEEP RESISTIVITY (DIL)
GR  .API      00 310 00 00         : GR           - GAMMA RAY
DPHI.V/V      00 890 00 00         : PHID         - DENSITY POROSITY (SANDSTONE)
NPHI.V/V      00 330 00 00         : PHIN         - NEUTRON POROSITY (SANDSTONE)
~PARAMETER INFORMATION
#MNEM.UNIT           DATA             DESCRIPTION OF MNEMONIC
#---------         -----------     ------------------------------
GL  .M        331.14               : gl           - GROUND LEVEL ELEVATION
EREF.M        331.14               : kb           - ELEVATION OF DEPTH REFERENCE
DATM.M        331.14               : datum        - DATUM ELEVATION
TDD .M        112                  : tdd          - TOTAL DEPTH DRILLER
RUN .         ONE                  : Run          - RUN NUMBER
ENG .         BILL                 : Engineer     - RECORDING ENGINEER
WIT .         JIM                  : Witness      - WITNESSED BY
MUD .         GEL                  : Mud_type     - MUD TYPE
MATR.         SANDSTONE            : Logunit      - NEUTRON MATRIX
TMAX.C        15                   : BHT          - MAXIMUM RECORDED TEMPERATURE
BHTD.M        112                  : BHTDEP       - MAXIMUM RECORDED TEMPERATURE
RMT .C        15                   : MDTP         - TEMPERATURE OF MUD
MUDD.KG/M     1022                 : MWT          - MUD DENSITY
NEUT.         1                    : NEUTRON      - NEUTRON TYPE
RESI.         0                    : RESIST       - RESISTIVITY TYPE
RM  .OHMM     14.6                 : RM           - RESISTIVITY OF MUD
RMC .OHMM     7.81                 : RMC          - RESISTIVITY OF MUD CAKE
RMF .OHMM     11.3                 : RMF          - RESISTIVITY OF MUD FILTRATE
SUFT.C        4                    : SUFT         - SURFACE TEMPERATURE
~A  DEPTH     RESD       GR     PHID     PHIN
# ...
   43.500  120.969   10.467    0.380    0.226
   43.750  116.130   11.148    0.391    0.212
   44.000   98.106   12.443    0.404    0.246
   44.250   76.108   13.760    0.382    0.380
   44.500   55.757   14.396    0.354    0.410
   44.750   48.461   15.122    0.361    0.400
   45.000   40.344   15.167    0.373    0.375
   45.250   31.746   15.302    0.372    0.395
   45.500   34.143   15.938    0.373    0.407
   45.750   57.878   16.028    0.385    0.416
   46.000   69.770   14.959    0.378    0.409
   46.250   60.613   15.640    0.363    0.396
   46.500   48.377   17.525    0.367    0.392
   46.750   64.443   18.184    0.377    0.419
   47.000   70.270   18.842    0.370    0.427
   47.250   62.834   19.546    0.344    0.442
   47.500   64.760   19.636    0.326    0.435
   47.750   97.986   14.998    0.323    0.389
   48.000  114.761   12.134    0.325    0.364
   48.250  130.701   14.587    0.328    0.342
   48.500  125.416   16.428    0.337    0.335
   48.750  100.099   18.882    0.356    0.332
   49.000   71.279   21.336    0.357    0.356
   49.250   52.266   24.403    0.358    0.384
   49.500   49.424   25.107    0.356    0.413
   49.750   38.890   24.583    0.347    0.439
   50.000   32.391   24.127    0.349    0.453
   50.250   29.785   24.763    0.355    0.438
   50.500   28.202   26.649    0.360    0.435
   50.750   30.766   27.330    0.359    0.430
   51.000   44.589   25.647    0.347    0.431
   51.250   82.346   22.760    0.325    0.438
   51.500   99.223   21.668    0.272    0.445
   51.750   96.616   25.895    0.267    0.445
   52.000   91.442   28.962    0.246    0.402
   52.250  107.145   26.688    0.292    0.393
   52.500  206.394   24.392    0.334    0.393
   52.750  271.058   24.482    0.351    0.416
   53.000  245.732   21.617    0.359    0.421
   53.250  219.631   19.957    0.356    0.427
   53.500  236.428   24.184    0.355    0.431
   53.750  250.696   25.433    0.364    0.437
   54.000  240.559   25.523    0.373    0.448
   54.250  215.104   23.841    0.380    0.439
   54.500  218.667   22.158    0.368    0.417
   54.750  231.967   22.248    0.371    0.413
   55.000  242.389   22.383    0.397    0.416
   55.250  249.707   22.428    0.419    0.421
   55.500  257.591   22.518    0.420    0.430
   55.750  250.599   23.199    0.380    0.440
   56.000  214.733   23.903    0.362    0.420
   56.250  176.324   23.993    0.360    0.414
   56.500  164.529   24.060    0.352    0.394
   56.750  184.658   24.150    0.338    0.390
   57.000  207.248   25.422    0.343    0.390
   57.250  190.657   28.490    0.348    0.396
   57.500  156.485   29.762    0.342    0.404
   57.750  126.683   28.692    0.338    0.397
   58.000  121.615   26.419    0.346    0.402
   58.250  120.113   25.918    0.345    0.412
   58.500  108.940   26.008    0.345    0.418
   58.750  115.565   28.462    0.352    0.413
   59.000  112.479   31.484    0.349    0.407
   59.250  104.955   33.938    0.337    0.409
   59.500  106.646   34.619    0.347    0.406
   59.750  118.005   32.936    0.359    0.396
   60.000  146.417   28.321    0.355    0.398
   60.250  129.019   26.025    0.352    0.423
   60.500  116.965   24.933    0.358    0.432
   60.750  113.892   28.023    0.364    0.422
   61.000  114.095   29.250    0.364    0.414
   61.250  121.034   32.931    0.363    0.414
   61.500  130.175   33.589    0.368    0.417
   61.750  150.310   31.338    0.377    0.419
   62.000  164.046   29.633    0.379    0.420
   62.250  155.262   27.927    0.376    0.422
   62.500  136.814   25.063    0.369    0.406
   62.750  107.656   27.517    0.372    0.411
   63.000   88.360   33.561    0.386    0.437
   63.250   65.689   31.856    0.398    0.437
   63.500   72.685   28.400    0.393    0.423
   63.750   68.793   27.308    0.388    0.425
   64.000   78.314   27.967    0.398    0.434
   64.250  105.766   28.080    0.422    0.432
   64.500   88.051   26.988    0.420    0.416
   64.750   57.603   26.464    0.420    0.423
   65.000   41.605   26.555    0.424    0.431
   65.250   35.651   27.849    0.413    0.443
   65.500   33.727   28.530    0.403    0.451
   65.750   32.841   31.575    0.403    0.423
   66.000   32.464   35.211    0.391    0.423
   66.250   32.035   40.096    0.364    0.435
   66.500   28.254   39.550    0.340    0.435
   66.750   24.199   39.026    0.315    0.436
   67.000   19.590   38.526    0.290    0.439
   67.250   17.263   41.593    0.245    0.442
   67.500   14.583   42.910    0.233    0.449
   67.750   14.000   42.955    0.239    0.450
   68.000   14.025   43.659    0.242    0.445
   68.250   14.461   44.340    0.254    0.438
   68.500   15.776   44.407    0.261    0.417
   68.750   16.728   44.497    0.267    0.411
   69.000   17.991   42.837    0.268    0.418
   69.250   17.518   39.381    0.269    0.447
   69.500   16.595   38.245    0.268    0.464
   69.750   16.610   41.312    0.265    0.461
   70.000   16.878   40.834    0.270    0.442
   70.250   18.412   38.537    0.284    0.429
   70.500   20.960   36.855    0.312    0.423
   70.750   25.267   33.967    0.318    0.415
   71.000   27.958   31.716    0.338    0.415
   71.250   30.500   31.806    0.350    0.424
   71.500   38.367   32.465    0.343    0.434
   71.750   58.052   33.146    0.314    0.443
   72.000   67.031   34.418    0.316    0.447
   72.250   47.059   38.689    0.335    0.449
   72.500   34.005   37.575    0.347    0.448
   72.750   67.391   34.142    0.355    0.442
   73.000  133.616   32.414    0.363    0.414
   73.250  149.962   29.549    0.400    0.409
   73.500  154.559   25.525    0.336    0.404
   73.750  144.284   22.638    0.329    0.395
   74.000  134.632   21.569    0.295    0.383
   74.250  134.813   23.409    0.309    0.381
   74.500  167.197   28.840    0.265    0.411
   74.750  149.437   30.090    0.228    0.430
   75.000   88.510   29.612    0.267    0.443
   75.250   54.681   28.497    0.334    0.419
   75.500   78.132   26.837    0.396    0.412
   75.750  116.552   25.723    0.359    0.409
   76.000  120.125   25.244    0.359    0.418
   76.250  105.898   27.698    0.360    0.445
   76.500   89.462   31.334    0.361    0.453
   76.750   77.755   34.424    0.388    0.455
   77.000   76.795   33.287    0.346    0.409
   77.250   63.031   30.422    0.304    0.444
   77.500   48.876   33.467    0.310    0.466
   77.750   39.568   34.148    0.317    0.416
   78.000   32.955   30.715    0.322    0.413
   78.250   30.317   27.828    0.319    0.437
   78.500   32.147   29.100    0.315    0.465
   78.750   28.327   33.917    0.403    0.468
   79.000   30.930   35.803    0.406    0.470
   79.250   34.698   41.825    0.353    0.464
   79.500   42.407   46.029    0.311    0.459
   79.750   38.462   52.051    0.249    0.458
   80.000   29.002   50.959    0.237    0.452
   80.250   18.965   47.481    0.238    0.445
   80.500   15.789   37.503    0.243    0.430
   80.750   16.280   35.229    0.268    0.413
   81.000   18.271   31.796    0.287    0.410
   81.250   22.016   28.931    0.306    0.449
   81.500   22.381   31.385    0.308    0.451
   81.750   21.192   34.430    0.317    0.403
   82.000   20.921   32.770    0.349    0.401
   82.250   24.157   31.042    0.370    0.409
   82.500   32.611   28.791    0.368    0.429
   82.750   41.609   30.631    0.356    0.432
   83.000   36.180   34.903    0.349    0.426
   83.250   32.352   36.152    0.373    0.423
   83.500   29.735   35.674    0.345    0.454
   83.750   26.969   35.151    0.341    0.485
   84.000   24.810   34.672    0.350    0.462
   84.250   25.936   35.967    0.353    0.419
   84.500   28.724   35.967    0.298    0.411
   84.750   23.566   36.147    0.264    0.406
   85.000   16.311   40.942    0.268    0.415
   85.250   12.835   43.987    0.271    0.435
   85.500   12.147   45.827    0.263    0.447
   85.750   11.661   50.076    0.238    0.472
   86.000   11.195   48.985    0.224    0.469
   86.250   11.703   45.551    0.230    0.497
   86.500   12.409   47.414    0.275    0.543
   86.750   11.416   49.868    0.297    0.566
