~VERSION INFORMATION
 VERS.                 2.0:   CWLS LOG ASCII STANDARD -VERSION 2.0
 WRAP.                  NO:   ONE LINE PER DEPTH STEP
~WELL INFORMATION BLOCK
#MNEM.UNIT           DATA                    DESCRIPTION OF MNEMONIC
#---------    -------------------            -------------------------------
# Generated from Intellog Unique Number	CC_88_90/WELL/2296
WELL.         10-26-089-16W4                 : Well_name    - WELL
LOC .         AA/10-26-089-16W4/0            : Location     - LOCATION
UWI .         AA/10-26-089-16W400            : Uwi          - UNIQUE WELL ID
ENTR.         DW                             : Entered      - ENTERED BY
SRVC.         SCHLUMBERGER                   : Scn          - SERVICE COMPANY
STRT.M        75                             : top_depth    - START DEPTH
STOP.M        224.75                         : bot_depth    - STOP DEPTH
STEP.M        0.25                           : increment    - STEP LENGTH
 NULL. -999.2500:NULL Value
~CURVE INFORMATION BLOCK
#MNEM UNIT       ERCB CURVE CODE    CURVE DESCRIPTION
#-----------   ------------------   ----------------------------------
DEPT.M        00 001 00 00         : DEPTH        - DEPTH
GR  .API      00 310 00 00         : GR           - GAMMA RAY
DPHI.V/V      00 890 00 00         : PHID         - DENSITY POROSITY (SANDSTONE)
NPHI.V/V      00 330 00 00         : PHIN         - NEUTRON POROSITY (SANDSTONE)
ILD .OHMM     00 120 00 00         : RESD         - DEEP RESISTIVITY (DIL)
~PARAMETER INFORMATION
#MNEM.UNIT           DATA             DESCRIPTION OF MNEMONIC
#---------         -----------     ------------------------------
GL  .M        480.8                : gl           - GROUND LEVEL ELEVATION
EREF.M        484.09               : kb           - ELEVATION OF DEPTH REFERENCE
DATM.M        484.09               : datum        - DATUM ELEVATION
TDD .M        232                  : tdd          - TOTAL DEPTH DRILLER
RUN .         ONE                  : Run          - RUN NUMBER
ENG .         BILL                 : Engineer     - RECORDING ENGINEER
WIT .         JIM                  : Witness      - WITNESSED BY
MUD .         GEL                  : Mud_type     - MUD TYPE
MATR.         SANDSTONE            : Logunit      - NEUTRON MATRIX
TMAX.C        25                   : BHT          - MAXIMUM RECORDED TEMPERATURE
BHTD.M        232                  : BHTDEP       - MAXIMUM RECORDED TEMPERATURE
MATR.         1                    : LOGUNIT      - NEUTRON MATRIX
RMT .C        25                   : MDTP         - TEMPERATURE OF MUD
NEUT.         1                    : NEUTRON      - NEUTRON TYPE
RESI.         0                    : RESIST       - RESISTIVITY TYPE
RMC .OHMM     0.25                 : RMC          - RESISTIVITY OF MUD CAKE
RMF .OHMM     0.25                 : RMF          - RESISTIVITY OF MUD FILTRATE
SUFT.C        15                   : SUFT         - SURFACE TEMPERATURE
~A  DEPTH       GR     PHID     PHIN     RESD
   75.000   98.763    0.300    0.609    3.172
   75.250   94.460    0.309    0.597    3.217
   75.500   92.159    0.308    0.613    3.313
   75.750   92.517    0.297    0.586    3.426
   76.000   93.303    0.297    0.557    3.525
   76.250   92.299    0.297    0.582    3.658
   76.500   91.980    0.266    0.606    3.834
   76.750   96.333    0.243    0.592    3.894
   77.000  101.920    0.272    0.606    4.005
   77.250  102.763    0.282    0.582    4.114
   77.500   98.754    0.268    0.553    4.135
   77.750   96.357    0.278    0.572    4.146
   78.000   98.158    0.293    0.572    4.216
   78.250   96.631    0.280    0.542    4.268
   78.500   96.394    0.266    0.555    4.477
   78.750   97.840    0.272    0.573    4.573
   79.000   99.395    0.278    0.573    4.768
   79.250  100.946    0.272    0.574    5.308
   79.500  101.251    0.275    0.562    5.928
   79.750   98.115    0.293    0.517    6.635
   80.000   96.204    0.285    0.509    7.273
   80.250   91.762    0.274    0.531    8.162
   80.500   85.263    0.255    0.572    8.818
   80.750   79.751    0.210    0.561    9.066
   81.000   75.333    0.187    0.455    9.516
   81.250   76.074    0.245    0.446    9.544
   81.500   78.411    0.250    0.501    9.402
   81.750   79.368    0.260    0.542    9.215
   82.000   78.555    0.293    0.566    8.765
   82.250   77.824    0.300    0.576    8.280
   82.500   79.042    0.295    0.551    8.027
   82.750   80.677    0.283    0.530    7.203
   83.000   81.305    0.269    0.523    6.546
   83.250   82.125    0.252    0.549    6.246
   83.500   82.952    0.222    0.557    6.147
   83.750   82.574    0.134    0.488    6.956
   84.000   79.667    0.034    0.380    9.340
   84.250   71.333    0.117    0.307   11.527
   84.500   62.194    0.172    0.331   11.422
   84.750   72.220    0.222    0.389    9.889
   85.000   87.523    0.277    0.468    8.114
   85.250   91.606    0.287    0.531    6.684
   85.500   92.636    0.291    0.499    6.046
   85.750   81.045    0.296    0.485    5.821
   86.000   77.356    0.268    0.563    5.950
   86.250   82.716    0.240    0.629    6.168
   86.500   86.804    0.239    0.585    6.353
   86.750   87.130    0.251    0.518    6.369
   87.000   87.702    0.261    0.542    6.047
   87.250   87.460    0.250    0.516    5.754
   87.500   84.374    0.237    0.477    5.650
   87.750   80.692    0.235    0.464    5.968
   88.000   78.216    0.253    0.495    6.766
   88.250   77.129    0.283    0.544    7.564
   88.500   76.598    0.296    0.545    8.186
   88.750   74.075    0.286    0.511    9.595
   89.000   71.731    0.281    0.476   10.870
   89.250   70.206    0.277    0.475   11.912
   89.500   69.924    0.305    0.509   12.636
   89.750   71.494    0.344    0.546   12.947
   90.000   73.516    0.326    0.543   13.142
   90.250   72.810    0.325    0.493   13.008
   90.500   69.393    0.320    0.530   12.224
   90.750   66.760    0.311    0.504   11.841
   91.000   70.606    0.304    0.464   11.473
   91.250   78.466    0.298    0.512   10.475
   91.500   81.547    0.290    0.520    9.711
   91.750   82.887    0.274    0.494    9.391
   92.000   86.480    0.276    0.459    9.200
   92.250   88.018    0.264    0.445    9.217
   92.500   84.741    0.240    0.463    9.008
   92.750   83.237    0.227    0.498    8.391
   93.000   88.341    0.233    0.531    7.595
   93.250   90.028    0.268    0.552    6.063
   93.500   90.754    0.273    0.554    5.455
   93.750   84.939    0.248    0.534    5.260
   94.000   79.190    0.244    0.511    5.578
   94.250   78.792    0.265    0.510    6.786
   94.500   75.391    0.273    0.525    7.888
   94.750   72.273    0.284    0.515    8.349
   95.000   70.302    0.285    0.539    7.964
   95.250   77.419    0.279    0.547    6.296
   95.500   85.232    0.271    0.543    4.802
   95.750   85.127    0.274    0.572    4.530
   96.000   83.421    0.295    0.588    4.388
   96.250   76.344    0.316    0.527    4.300
   96.500   64.013    0.346    0.505    4.657
   96.750   54.508    0.380    0.555    7.093
   97.000   51.239    0.451    0.614   10.786
   97.250   53.543    0.417    0.599   13.209
   97.500   61.196    0.202    0.517   13.662
   97.750   68.935    0.262    0.510   13.319
   98.000   70.704    0.290    0.530   12.217
   98.250   70.561    0.272    0.562   11.182
   98.500   71.517    0.274    0.559    9.784
   98.750   73.484    0.271    0.507    8.116
   99.000   76.638    0.272    0.483    7.458
   99.250   78.377    0.289    0.486    6.758
   99.500   77.745    0.314    0.498    6.567
   99.750   71.550    0.327    0.538    6.863
  100.000   66.207    0.325    0.555    7.121
  100.250   66.147    0.321    0.540    7.880
  100.500   65.536    0.318    0.546    9.721
  100.750   65.080    0.307    0.491   10.790
  101.000   63.792    0.350    0.474   11.069
  101.250   62.016    0.337    0.487   11.119
  101.500   60.969    0.300    0.507   10.490
  101.750   62.461    0.302    0.508    9.081
  102.000   68.011    0.279    0.474    8.047
  102.250   75.505    0.287    0.492    8.130
  102.500   78.949    0.284    0.528    9.943
  102.750   78.698    0.281    0.499   12.169
  103.000   75.743    0.281    0.463   13.639
  103.250   73.666    0.265    0.471   14.273
  103.500   76.042    0.247    0.461   14.471
  103.750   75.714    0.257    0.452   14.549
  104.000   74.297    0.272    0.454   13.778
  104.250   72.118    0.290    0.472   13.138
  104.500   69.472    0.285    0.497   13.317
  104.750   66.829    0.264    0.511   13.726
  105.000   64.320    0.279    0.540   13.675
  105.250   63.741    0.287    0.600   13.268
  105.500   63.690    0.160    0.405   12.722
  105.750   66.726    0.138    0.361   11.915
  106.000   73.337    0.220    0.483   10.920
  106.250   75.432    0.269    0.508   10.205
  106.500   67.413    0.306    0.505   10.104
  106.750   61.648    0.241    0.445   10.270
  107.000   61.941    0.252    0.467   10.378
  107.250   65.071    0.298    0.511   10.832
  107.500   69.322    0.344    0.502   11.110
  107.750   76.696    0.328    0.470   10.526
  108.000   85.937    0.179    0.461    9.193
  108.250   87.125    0.125    0.467    7.215
  108.500   79.485    0.145    0.453    6.364
  108.750   88.768    0.203    0.485    5.684
  109.000  104.433    0.249    0.546    4.820
  109.250  108.221    0.249    0.583    4.436
  109.500  111.869    0.235    0.603    4.313
  109.750  111.455    0.223    0.588    4.109
  110.000  105.591    0.204    0.592    4.014
  110.250  101.480    0.191    0.603    3.960
  110.500  103.446    0.204    0.616    3.916
  110.750  107.532    0.223    0.609    3.926
  111.000  107.554    0.217    0.551    3.924
  111.250  103.107    0.219    0.522    3.917
  111.500   98.498    0.207    0.553    3.981
  111.750  100.683    0.194    0.545    3.991
  112.000  104.930    0.204    0.531    4.050
  112.250  101.937    0.229    0.571    4.287
  112.500   93.363    0.247    0.605    4.654
  112.750   86.846    0.263    0.624    5.336
  113.000   77.559    0.270    0.536    6.644
  113.250   69.384    0.265    0.458   10.281
  113.500   72.344    0.222    0.440   13.610
  113.750   82.651    0.181    0.435   14.271
  114.000   86.579    0.204    0.452   13.951
  114.250   87.781    0.218    0.502   12.159
  114.500   87.596    0.229    0.555   10.539
  114.750   88.884    0.237    0.546    9.668
  115.000   87.755    0.229    0.487    9.231
  115.250   83.564    0.211    0.459    8.998
  115.500   83.499    0.200    0.495    9.377
  115.750   86.187    0.206    0.528   11.018
  116.000   91.942    0.209    0.504   12.152
  116.250   89.999    0.220    0.467   12.973
  116.500   81.485    0.232    0.469   13.635
  116.750   82.000    0.228    0.495   13.638
  117.000   90.912    0.220    0.510   13.186
  117.250   81.721    0.221    0.525   13.104
  117.500   72.476    0.220    0.466   13.921
  117.750   68.323    0.216    0.425   15.570
  118.000   64.639    0.239    0.436   17.825
  118.250   61.519    0.290    0.453   19.985
