~VERSION INFORMATION
 VERS.                 2.0:   CWLS LOG ASCII STANDARD -VERSION 2.0
 WRAP.                  NO:   ONE LINE PER DEPTH STEP
~WELL INFORMATION BLOCK
#MNEM.UNIT           DATA                    DESCRIPTION OF MNEMONIC
#---------    -------------------            -------------------------------
# Generated from Intellog Unique Number	CC_80_83/WELL/2338
NULL.         -999.25                        : NULL_VALUE
COMP.         PETRO CANADA                   : COMPANY
WELL.         PEX PCEJ HOUSE OV              : Well_name    - WELL
LOC .         10-08-081-14W4                 : Location     - LOCATION          
UWI .         AA/10-08-081-14W400            : Uwi          - UNIQUE WELL ID    
ENTR.         DW                             : Entered      - ENTERED BY        
SRVC.         SCHLUMBERGER                   : Scn          - SERVICE COMPANY   
DATE.         19 JAN 82                      : Date         - LOG DATE
STRT.M        200                            : top_depth    - START DEPTH       
STOP.M        379.996                        : bot_depth    - STOP DEPTH        
STEP.M        0.3                            : increment    - STEP LENGTH       
~CURVE INFORMATION BLOCK
#MNEM UNIT       ERCB CURVE CODE    CURVE DESCRIPTION
#-----------   ------------------   ----------------------------------
DEPT.M        00 001 00 00         : DEPTH        - DEPTH                       
DPHI.V/V      00 890 00 00         : PHID         - DENSITY POROSITY (LIMESTONE)
NPHI.V/V      00 330 00 00         : PHIN         - NEUTRON POROSITY (LIMESTONE)
GR  .API      00 310 00 00         : GR           - GAMMA RAY                   
ILD .OHMM     00 120 00 00         : RESD         - DEEP RESISTIVITY (DIL)      
~PARAMETER INFORMATION       
#MNEM.UNIT           DATA             DESCRIPTION OF MNEMONIC
#---------         -----------     ------------------------------
GL  .M        587.4                : gl           - GROUND LEVEL ELEVATION      
EREF.M        590.9                : kb           - ELEVATION OF DEPTH REFERENCE
DATM.M        590.9                : datum        - DATUM ELEVATION             
TDD .M        390                  : tdd          - TOTAL DEPTH DRILLER         
RUN .         ONE                  : Run          - RUN NUMBER                  
ENG .         BILL                 : Engineer     - RECORDING ENGINEER          
WIT .         JIM                  : Witness      - WITNESSED BY                
MUD .         GEL                  : Mud_type     - MUD TYPE                    
MATR.         LIMESTONE            : Logunit      - NEUTRON MATRIX              
TMAX.C        18.3                 : BHT          - MAXIMUM RECORDED TEMPERATURE
BHTD.M        390                  : BHTDEP       - MAXIMUM RECORDED TEMPERATURE
MATR.         1                    : LOGUNIT      - NEUTRON MATRIX              
RMT .C        25                   : MDTP         - TEMPERATURE OF MUD          
NEUT.         1                    : NEUTRON      - NEUTRON TYPE                
RESI.         0                    : RESIST       - RESISTIVITY TYPE            
RMC .OHMM     0.25                 : RMC          - RESISTIVITY OF MUD CAKE     
RMF .OHMM     0.25                 : RMF          - RESISTIVITY OF MUD FILTRATE 
SUFT.C        15                   : SUFT         - SURFACE TEMPERATURE         
~A  DEPTH     PHID     PHIN       GR     RESD
# ...
  252.201    0.303    0.411   60.700   13.224
  252.501    0.295    0.427   66.151   13.472
  252.801    0.299    0.442   68.560   12.253
  253.101    0.315    0.465   67.921   11.797
  253.401    0.329    0.481   61.806   10.730
  253.701    0.318    0.468   55.684    9.946
  254.001    0.333    0.427   53.826    9.575
  254.301    0.318    0.454   55.633    9.940
  254.601    0.316    0.485   71.429   10.516
  254.901    0.372    0.514   77.489   10.512
  255.201    0.369    0.469   64.671    9.562
  255.501    0.302    0.441   63.428    7.915
  255.801    0.327    0.401   64.010    7.620
  256.101    0.376    0.398   62.765    9.199
  256.401    0.482    0.516   60.907   11.752
  256.701    0.608    0.605   68.183   11.528
  257.001    0.637    0.634   78.506    9.543
  257.301    0.656    0.593   85.165    7.188
  257.600    0.416    0.525   78.444    5.838
  257.900    0.374    0.488   69.283    5.515
  258.200    0.349    0.480   68.034    5.945
  258.500    0.350    0.463   69.225    6.783
  258.800    0.322    0.471   69.201    9.170
  259.100    0.315    0.461   64.299   10.863
  259.400    0.351    0.449   61.223   11.493
  259.700    0.365    0.430   61.192   11.273
  260.000    0.371    0.420   65.427   11.059
  260.300    0.355    0.430   70.273   11.056
  260.600    0.388    0.446   72.669   11.050
  260.900    0.391    0.470   72.647   11.048
  261.200    0.359    0.465   49.487   11.687
  261.500    0.229    0.222   36.059   12.839
  261.800    0.201    0.212   42.118   14.646
  262.100    0.265    0.376   54.265   15.495
  262.400    0.364    0.468   61.544   15.785
  262.700    0.364    0.504   65.166   15.485
  263.000    0.357    0.545   65.749   12.577
  263.300    0.347    0.486   65.105   11.659
  263.600    0.334    0.477   63.251   11.223
  263.900    0.349    0.476   65.656   11.011
  264.200    0.365    0.465   69.283   10.401
  264.500    0.339    0.456   70.462   10.012
  264.800    0.335    0.449   69.826   10.200
  265.100    0.354    0.466   70.417   10.005
  265.400    0.390    0.454   75.252    9.630
  265.700    0.462    0.476   78.879    9.449
  266.000    0.493    0.547   78.843    8.758
  266.300    0.426    0.515   76.995    7.529
  266.600    0.426    0.513   73.318    6.350
  266.900    0.372    0.498   87.897    5.887
  267.200    0.403    0.486   84.821    5.773
  267.500    0.347    0.491   79.318    5.882
  267.800    0.319    0.516   76.852    6.222
  268.100    0.285    0.505   86.559    6.583
  268.400    0.332    0.498   87.739    6.834
  268.700    0.365    0.483   87.719    6.831
  269.000    0.295    0.441   91.346    6.576
  269.300    0.331    0.446   96.797    6.097
  269.600    0.312    0.499   99.205    5.441
  269.900    0.306    0.490   87.608    5.440
  270.200    0.334    0.480   76.008    5.437
  270.500    0.329    0.458   72.935    5.645
  270.800    0.324    0.453   71.084    6.085
  271.100    0.355    0.483   66.184    6.561
  271.400    0.468    0.468   64.328    7.626
  271.700    0.541    0.539   74.040    7.770
  272.000    0.736    0.643   71.568    7.340
  272.300    0.732    0.659   64.845    5.224
  272.600    0.785    0.628   58.731    2.502
  272.900    0.836    0.647   55.051    1.268
  273.200    0.873    0.713   61.112    1.030
  273.500    0.890    0.694   56.212    0.937
  273.800    0.896    0.681   47.657    1.029
  274.100    0.899    0.696   45.196    1.680
  274.400    0.894    0.701   50.643    2.497
  274.700    0.859    0.707   67.661    3.014
  275.000    0.795    0.653   73.112    3.311
  275.300    0.777    0.538   69.433    3.437
  275.600    0.751    0.569   60.271    3.636
  275.900    0.733    0.596   59.634    4.071
  276.200    0.706    0.587   66.302    4.388
  276.500    0.683    0.593   74.185    4.387
  276.800    0.480    0.608   72.327    4.554
  277.100    0.476    0.579   69.256    4.818
  277.400    0.596    0.537   71.053    4.815
  277.700    0.611    0.552   78.330    4.724
  278.000    0.584    0.601   80.737    4.723
  278.300    0.535    0.612   78.883    4.722
  278.600    0.586    0.606   79.461    4.809
  278.900    0.621    0.501   81.260    4.900
  279.200    0.583    0.506   86.088    5.281
  279.500    0.522    0.488   87.289    5.587
  279.800    0.595    0.491   78.730    6.024
  280.100    0.619    0.500   79.922    6.493
  280.400    0.357    0.478   84.156    6.741
  280.700    0.362    0.456   88.388    6.613
  281.000    0.408    0.492   90.799    6.365
  281.300    0.462    0.503   88.939    6.484
  281.600    0.508    0.501   77.347    6.731
  281.900    0.546    0.527   85.834    6.729
  282.199    0.500    0.500   90.069    6.357
  282.499    0.415    0.508   88.824    5.783
  282.799    0.406    0.521   84.530    5.360
  283.099    0.466    0.513   88.762    5.359
  283.399    0.581    0.567   84.479    5.458
  283.699    0.599    0.610   72.872    5.561
  283.999    0.600    0.610   75.890    5.252
  284.299    0.526    0.586   79.520    4.962
  284.599    0.524    0.620   88.010    4.600
  284.899    0.382    0.558   94.071    4.686
  285.199    0.364    0.501   95.264    5.051
  285.499    0.364    0.443   90.968    5.873
  285.799    0.363    0.448   87.894    6.957
  286.099    0.355    0.431   89.087    8.398
  286.399    0.345    0.466   73.838    9.226
  286.699    0.338    0.461   68.939    9.579
  286.999    0.304    0.298   82.908   10.133
  287.299    0.292    0.462   86.534    9.940
  287.599    0.358    0.471   85.286    9.568
  287.899    0.406    0.460   77.346    9.210
  288.199    0.563    0.510   71.229    8.701
  288.499    0.606    0.609   74.854    7.479
  288.799    0.559    0.589   84.556    6.676
  289.099    0.500    0.545   88.184    6.307
  289.399    0.464    0.496   88.767    7.060
  289.699    0.376    0.502   86.305    8.054
  289.999    0.295    0.346   71.056    9.363
  290.299    0.323    0.382   61.897    9.721
  290.599    0.458    0.509   63.070    9.536
  290.899    0.634    0.610   63.048    7.182
  291.199    0.655    0.634   69.115    5.945
  291.499    0.667    0.655   78.216    5.307
  291.799    0.501    0.552   75.141    4.827
  292.099    0.523    0.545   72.067    4.736
  292.399    0.587    0.571   75.694    4.734
  292.699    0.604    0.548   84.798    5.008
  292.999    0.493    0.503   95.114    5.199
  293.299    0.444    0.501   95.692    6.044
  293.599    0.421    0.484   82.885    6.766
  293.899    0.344    0.450   77.368    7.719
  294.199    0.316    0.431   80.999    8.642
  294.499    0.311    0.447   87.661    9.494
  294.799    0.321    0.407   90.069   10.043
  295.099    0.444    0.423   88.209   10.039
  295.399    0.526    0.501   88.797    8.630
  295.699    0.554    0.488   90.586    6.878
  295.999    0.484    0.504   88.740    6.257
  296.299    0.522    0.501   89.922    5.911
  296.599    0.533    0.504   88.072    5.799
  296.899    0.435    0.523   82.563    5.688
  297.199    0.452    0.502   85.565    5.794
  297.499    0.512    0.534   87.377    5.903
  297.799    0.514    0.561   91.611    5.682
  298.099    0.561    0.599   97.664    5.470
  298.399    0.387    0.466  104.328    5.572
  298.699    0.303    0.435  106.134    5.895
  298.999    0.357    0.424  104.886    6.984
  299.299    0.385    0.403  101.205    8.274
  299.599    0.377    0.379   97.524   10.569
  299.899    0.293    0.364   95.659   11.612
  300.199    0.312    0.377   92.594   12.284
  300.499    0.373    0.455   87.698   11.825
  300.799    0.423    0.471   87.059   10.164
  301.099    0.477    0.536   77.895    8.574
  301.399    0.580    0.536   83.953    7.370
  301.699    0.575    0.503   86.968    6.455
  301.999    0.512    0.510   83.899    6.098
  302.299    0.596    0.548   72.298    5.653
  302.599    0.606    0.526   66.181    5.651
  302.899    0.309    0.303   66.152    6.092
  303.199    0.298    0.263   72.825    7.783
  303.499    0.342    0.372   82.535   11.564
  303.799    0.320    0.417   87.375   16.860
  304.099    0.311    0.441   89.170   16.230
