~VERSION INFORMATION
 VERS.                 2.0:   CWLS LOG ASCII STANDARD -VERSION 2.0
 WRAP.                  NO:   ONE LINE PER DEPTH STEP
~WELL INFORMATION BLOCK
#MNEM.UNIT           DATA                    DESCRIPTION OF MNEMONIC
#---------    -------------------            -------------------------------
# Generated from Intellog Unique Number	CN_94_101/WELL/1070
WELL.         CHEVRON CANADA RESOURCES       : Well_name    - WELL
LOC .         AA/10-29-094-07W4/0            : Location     - LOCATION
UWI .         AA/10-29-094-07W400            : Uwi          - UNIQUE WELL ID
ENTR.         JOETTE                         : Entered      - ENTERED BY
SRVC.         SCHLUMBERGER                   : Scn          - SERVICE COMPANY
DATE.         04/12/92                       : Date         - LOG DATE
STRT.M        100                            : top_depth    - START DEPTH
STOP.M        250                            : bot_depth    - STOP DEPTH
STEP.M        0.25                           : increment    - STEP LENGTH
 NULL. -999.2500:NULL Value
~CURVE INFORMATION BLOCK
#MNEM UNIT       ERCB CURVE CODE    CURVE DESCRIPTION
#-----------   ------------------   ----------------------------------
DEPT.M        00 001 00 00         : DEPTH        - DEPTH
GR  .API      00 310 00 00         : GR           - GAMMA RAY
ILD .OHMM     00 120 00 00         : RESD         - DEEP RESISTIVITY (DIL)
DPHI.V/V      00 890 00 00         : PHID         - DENSITY POROSITY (SANDSTONE)
NPHI.V/V      00 330 00 00         : PHIN         - NEUTRON POROSITY (SANDSTONE)
CALI.MM       00 280 01 00         : CAL          - CALIPER
~PARAMETER INFORMATION
#MNEM.UNIT           DATA             DESCRIPTION OF MNEMONIC
#---------         -----------     ------------------------------
GL  .M        496.1                : gl           - GROUND LEVEL ELEVATION
EREF.M        496.1                : kb           - ELEVATION OF DEPTH REFERENCE
DATM.M        496.1                : datum        - DATUM ELEVATION
TDD .M        253.4                : tdd          - TOTAL DEPTH DRILLER
RUN .         ONE                  : Run          - RUN NUMBER
ENG .         BILL                 : Engineer     - RECORDING ENGINEER
WIT .         JIM                  : Witness      - WITNESSED BY
MUD .         GEL                  : Mud_type     - MUD TYPE
MATR.         SANDSTONE            : Logunit      - NEUTRON MATRIX
TMAX.C        10                   : BHT          - MAXIMUM RECORDED TEMPERATURE
BHTD.M        253.4                : BHTDEP       - MAXIMUM RECORDED TEMPERATURE
RMT .C        17.3                 : MDTP         - TEMPERATURE OF MUD
MUDD.KG/M     1130                 : MWT          - MUD DENSITY
NEUT.         1                    : NEUTRON      - NEUTRON TYPE
RESI.         0                    : RESIST       - RESISTIVITY TYPE
RM  .OHMM     8.25                 : RM           - RESISTIVITY OF MUD
RMC .OHMM     7.89                 : RMC          - RESISTIVITY OF MUD CAKE
RMF .OHMM     6.89                 : RMF          - RESISTIVITY OF MUD FILTRATE
SUFT.C        4                    : SUFT         - SURFACE TEMPERATURE
~A  DEPTH       GR     RESD     PHID     PHIN      CAL
  100.000   75.856   19.487    0.307    0.498  157.492
  100.250   77.107   16.122    0.292    0.492  158.721
  100.500   75.249   15.532    0.287    0.486  156.390
  100.750   76.500   19.164    0.289    0.486  155.238
  101.000   80.858   21.504    0.300    0.516  155.674
  101.250   86.461   17.452    0.310    0.598  156.110
  101.500  100.769   11.490    0.301    0.586  156.536
  101.750  114.457    9.506    0.287    0.557  157.368
  102.000  112.597    8.985    0.284    0.539  157.814
  102.250  103.278    8.823    0.286    0.586  158.240
  102.500   97.690    9.348    0.292    0.590  158.288
  102.750   89.615   10.896    0.282    0.548  158.318
  103.000   86.513   14.235    0.273    0.492  158.386
  103.250   92.118   18.246    0.265    0.474  158.405
  103.500   92.126   12.012    0.263    0.431  158.057
  103.750   98.351   11.357    0.269    0.405  157.709
  104.000  110.171   10.939    0.293    0.443  157.729
  104.250  113.911    9.050    0.296    0.483  158.581
  104.500   96.508    8.235    0.293    0.545  158.997
  104.750   90.919    8.086    0.300    0.574  159.433
  105.000   84.710    9.423    0.303    0.584  161.862
  105.250   89.069   13.539    0.294    0.572  163.875
  105.500   91.565   12.322    0.298    0.533  167.107
  105.750   89.706   11.001    0.305    0.515  166.343
  106.000   85.985   10.596    0.323    0.564  162.018
  106.250   82.260    9.827    0.338    0.582  167.214
  106.500   78.537    8.773    0.239    0.522  171.617
  106.750   78.544    9.842    0.124    0.492  160.151
  107.000   82.906   24.565    0.196    0.459  153.039
  107.250   83.535   18.130    0.241    0.460  150.698
  107.500   86.027   14.999    0.283    0.514  150.350
  107.750   92.874   12.890    0.310    0.543  151.579
  108.000  101.586   11.508    0.307    0.565  155.982
  108.250  105.324    9.702    0.311    0.618  163.162
  108.500   98.492    8.340    0.329    0.615  169.955
  108.750  105.340    9.536    0.343    0.596  167.614
  109.000  110.944    9.728    0.356    0.580  165.669
  109.250   99.138    9.021    0.398    0.614  173.246
  109.500   94.797    8.528    0.384    0.621  182.816
  109.750   93.557   10.723    0.360    0.621  181.268
  110.000   88.591   14.008    0.341    0.630  168.602
  110.250   82.381   15.131    0.318    0.617  163.087
  110.500   84.253   14.299    0.306    0.490  163.136
  110.750   87.369   10.756    0.307    0.514  163.571
  111.000   91.107   10.363    0.299    0.552  163.214
  111.250   94.845    9.983    0.300    0.615  162.459
  111.500  101.070    8.261    0.320    0.615  165.662
  111.750  107.295    7.235    0.360    0.594  173.249
  112.000  111.035    6.838    0.377    0.539  176.065
  112.250  109.175    6.715    0.363    0.569  176.500
  112.500  104.830    6.850    0.351    0.680  169.795
  112.750  107.327    7.397    0.351    0.645  163.486
  113.000  109.199    9.128    0.357    0.621  167.493
  113.250  106.098    9.858    0.367    0.602  171.499
  113.500  102.373   10.055    0.375    0.587  171.151
  113.750   98.028   10.258    0.376    0.564  173.164
  114.000   97.414   10.267    0.385    0.538  175.990
  114.250  102.395   10.274    0.368    0.512  171.655
  114.500  106.137   11.307    0.320    0.495  163.363
  114.750  111.116   13.691    0.303    0.476  158.651
  115.000  110.502   13.965    0.284    0.461  159.086
  115.250  111.131   14.244    0.269    0.478  159.909
  115.500  114.869   13.987    0.255    0.467  159.958
  115.750  109.281   11.137    0.244    0.462  158.400
  116.000  101.828   10.938    0.247    0.503  156.852
  116.250  106.189   11.810    0.260    0.552  156.098
  116.500  108.683   13.249    0.268    0.494  156.930
  116.750  108.067   13.779    0.257    0.483  157.763
  117.000   99.992   13.275    0.258    0.497  157.415
  117.250   96.893   12.311    0.264    0.508  155.867
  117.500   93.170   12.321    0.269    0.480  154.309
  117.750   88.201   13.309    0.272    0.489  153.158
  118.000   82.615   14.096    0.273    0.508  153.197
  118.250   80.133   16.427    0.276    0.502  152.839
  118.500   83.251   21.460    0.283    0.512  152.085
  118.750   88.231   23.176    0.292    0.522  151.340
  119.000   87.617   19.174    0.305    0.501  151.776
  119.250   78.298   15.271    0.314    0.500  152.202
  119.500   77.064   13.124    0.321    0.500  152.241
  119.750   81.421   17.474    0.318    0.490  151.902
  120.000   85.783   19.984    0.307    0.496  151.128
  120.250   85.169   17.171    0.302    0.503  150.384
  120.500   83.933   14.758    0.304    0.505  149.629
  120.750   83.942   14.491    0.306    0.476  149.271
  121.000   81.462   14.228    0.311    0.448  147.723
  121.250   78.981   13.452    0.319    0.458  146.572
  121.500   72.149   15.978    0.330    0.484  146.621
  121.750   70.913   17.587    0.328    0.505  147.850
  122.000   80.869   18.635    0.317    0.508  149.486
  122.250   84.606   23.885    0.314    0.502  149.109
  122.500   80.883   24.363    0.323    0.495  147.174
  122.750   78.406   23.471    0.334    0.486  146.419
  123.000   78.413   21.767    0.339    0.466  146.845
  123.250   82.149   14.607    0.332    0.464  147.678
  123.500   88.996   11.859    0.321    0.458  149.710
  123.750   92.734   13.557    0.314    0.452  150.533
  124.000   87.147   15.212    0.311    0.465  150.175
  124.250   84.046   14.937    0.317    0.475  147.843
  124.500   79.700   14.948    0.320    0.456  146.702
  124.750   75.976   17.417    0.259    0.392  146.721
  125.000   79.714   27.010    0.229    0.438  147.167
  125.250   85.939   21.511    0.191    0.452  148.406
  125.500   92.786   16.489    0.236    0.473  149.645
  125.750   98.391   13.642    0.260    0.496  150.071
  126.000   92.804   14.185    0.279    0.503  150.913
  126.250   90.325   16.225    0.295    0.503  151.329
  126.500   88.465   15.926    0.308    0.506  150.981
  126.750   83.501   15.637    0.313    0.514  149.830
  127.000   78.532   14.781    0.315    0.506  151.059
  127.250   89.731   11.550    0.323    0.503  155.065
  127.500   99.686    9.741    0.333    0.492  158.675
  127.750  105.291    9.749    0.346    0.541  162.681
  128.000  107.162   10.329    0.352    0.561  165.110
  128.250   88.517   11.153    0.344    0.513  170.713
  128.500   79.199   12.276    0.326    0.502  168.768
  128.750   71.123   12.524    0.320    0.541  167.617
  129.000   81.700   11.838    0.315    0.576  167.666
  129.250   96.008   10.567    0.332    0.537  170.066
  129.500  114.668    9.258    0.348    0.554  173.685
  129.750  113.432    8.263    0.356    0.579  171.740
  130.000  107.847    7.379    0.346    0.590  173.356
  130.250  108.473    6.843    0.341    0.578  173.008
  130.500  111.589    6.345    0.342    0.583  171.054
  130.750  117.192    6.114    0.342    0.566  170.299
  131.000  121.555    6.004    0.342    0.574  171.538
  131.250  118.454    6.241    0.342    0.607  169.187
  131.500  109.755    6.365    0.336    0.611  164.872
  131.750   96.706    6.494    0.329    0.593  163.314
  132.000   88.011    6.499    0.326    0.564  165.734
  132.250   91.747    6.886    0.324    0.526  175.304
  132.500   91.756    8.025    0.321    0.509  178.517
  132.750   91.142    9.534    0.308    0.507  170.224
  133.000   90.528   10.901    0.303    0.507  165.899
  133.250   89.291   11.548    0.314    0.568  171.493
  133.500   88.677   12.006    0.344    0.566  181.856
  133.750   95.522   11.566    0.347    0.528  175.944
  134.000  107.342   12.258    0.311    0.488  170.023
  134.250  102.998   14.282    0.247    0.437  166.501
  134.500   90.570   17.622    0.188    0.395  163.753
  134.750   83.739   27.854    0.108    0.364  160.618
  135.000  108.616   16.674    0.179    0.489  158.286
  135.250  105.514   13.026    0.249    0.556  157.919
  135.500   91.844   12.313    0.266    0.543  157.561
  135.750   89.988   12.806    0.267    0.504  158.403
  136.000   89.373   13.827    0.253    0.479  159.226
  136.250   85.027   18.764    0.214    0.493  160.862
