~VERSION INFORMATION
 VERS.                 2.0:   CWLS LOG ASCII STANDARD -VERSION 2.0
 WRAP.                  NO:   ONE LINE PER DEPTH STEP
~WELL INFORMATION BLOCK
#MNEM.UNIT           DATA                    DESCRIPTION OF MNEMONIC
#---------    -------------------            -------------------------------
# Generated from Intellog Unique Number	CC_88_90/WELL/3158
WELL.         TEXACO CANADA INC.             : Well_name    - WELL
LOC .         AA/14-17-088-09W4/0            : Location     - LOCATION
UWI .         AA/14-17-088-09W400            : Uwi          - UNIQUE WELL ID
ENTR.         JOETTE                         : Entered      - ENTERED BY
SRVC.         COMPUTALOG                     : Scn          - SERVICE COMPANY
DATE.         03/04/92                       : Date         - LOG DATE
STRT.M        75                             : top_depth    - START DEPTH
STOP.M        176                            : bot_depth    - STOP DEPTH
STEP.M        0.25                           : increment    - STEP LENGTH
 NULL. -999.2500:NULL Value
~CURVE INFORMATION BLOCK
#MNEM UNIT       ERCB CURVE CODE    CURVE DESCRIPTION
#-----------   ------------------   ----------------------------------
DEPT.M        00 001 00 00         : DEPTH        - DEPTH
GR  .API      00 310 00 00         : GR           - GAMMA RAY
CALI.MM       00 280 01 00         : CAL          - CALIPER
NPHI.V/V      00 330 00 00         : PHIN         - NEUTRON POROSITY (SANDSTONE)
DPHI.V/V      00 890 00 00         : PHID         - DENSITY POROSITY (SANDSTONE)
ILD .OHMM     00 120 00 00         : RESD         - DEEP RESISTIVITY (DIL)
~PARAMETER INFORMATION
#MNEM.UNIT           DATA             DESCRIPTION OF MNEMONIC
#---------         -----------     ------------------------------
GL  .M        375.8                : gl           - GROUND LEVEL ELEVATION
EREF.M        379.8                : kb           - ELEVATION OF DEPTH REFERENCE
DATM.M        379.8                : datum        - DATUM ELEVATION
TDD .M        185.3                : tdd          - TOTAL DEPTH DRILLER
RUN .         ONE                  : Run          - RUN NUMBER
ENG .         BILL                 : Engineer     - RECORDING ENGINEER
WIT .         JIM                  : Witness      - WITNESSED BY
MUD .         GEL                  : Mud_type     - MUD TYPE
MATR.         SANDSTONE            : Logunit      - NEUTRON MATRIX
TMAX.C        19                   : BHT          - MAXIMUM RECORDED TEMPERATURE
BHTD.M        185.3                : BHTDEP       - MAXIMUM RECORDED TEMPERATURE
RMT .C        20                   : MDTP         - TEMPERATURE OF MUD
MUDD.KG/M     9166.66              : MWT          - MUD DENSITY
NEUT.         1                    : NEUTRON      - NEUTRON TYPE
RESI.         0                    : RESIST       - RESISTIVITY TYPE
RM  .OHMM     5.68                 : RM           - RESISTIVITY OF MUD
RMC .OHMM     5.68                 : RMC          - RESISTIVITY OF MUD CAKE
RMF .OHMM     5.68                 : RMF          - RESISTIVITY OF MUD FILTRATE
SUFT.C        4                    : SUFT         - SURFACE TEMPERATURE
~A  DEPTH       GR      CAL     PHIN     PHID     RESD
# ...
  111.500   74.823  170.229    0.347    0.121   12.663
  111.750   83.430  180.710    0.346    0.116   12.916
  112.000   88.350  176.709    0.342    0.133   13.179
  112.250   96.957  171.641    0.337    0.136   13.442
  112.500  116.012  173.859    0.333    0.149   13.224
  112.750  106.797  179.129    0.331    0.150   12.999
  113.000  117.862  185.493    0.334    0.150   12.769
  113.250  127.084  183.507    0.333    0.152   12.794
  113.500  120.327  171.212    0.316    0.151   12.813
  113.750  116.642  176.482    0.315    0.145   12.838
  114.000  120.948  171.444    0.312    0.145   13.094
  114.250  124.024  166.406    0.307    0.135   13.366
  114.500  128.329  164.390    0.310    0.129   13.632
  114.750  116.655  163.469    0.326    0.127   13.653
  115.000  110.512  167.760    0.333    0.129   12.931
  115.250   95.766  176.140    0.344    0.147   12.030
  115.500   90.239  183.540    0.362    0.165   12.265
  115.750   97.002  186.795    0.370    0.187   13.234
  116.000  102.536  176.516    0.375    0.222   13.254
  116.250  110.528  180.778    0.379    0.248   13.030
  116.500  106.844  190.223    0.402    0.250   15.431
  116.750  111.764  189.302    0.451    0.242   18.977
  117.000  106.850  188.410    0.483    0.225   18.311
  117.250  108.697  159.444    0.503    0.219   15.799
  117.500  105.627  174.100    0.508    0.222   14.155
  117.750   93.954  182.509    0.521    0.259   12.678
  118.000   93.957  202.348    0.532    0.300   12.463
  118.250  104.408  211.793    0.507    0.343   12.721
  118.500  102.567  217.092    0.453    0.383   13.214
  118.750  110.560  243.151    0.434    0.406   16.244
  119.000  116.708  271.284    0.421    0.386   28.460
  119.250  103.806  283.838    0.409    0.344   38.400
  119.500   81.685  266.332    0.445    0.298   39.197
  119.750   82.302  244.651    0.488    0.276   36.424
  120.000  101.972  166.965    0.516    0.248   35.820
  120.250  102.590  176.439    0.502    0.248   44.861
  120.500   88.457  188.993    0.434    0.252   71.578
  120.750   79.857  190.146    0.413    0.261  108.042
  121.000   83.548  188.188    0.315    0.241  160.010
  121.250   81.093  192.450    0.349    0.225  350.560
  121.500   77.408  185.310    0.366    0.207  473.366
  121.750   94.619  172.987    0.360    0.199  439.878
  122.000  107.528  154.444    0.354    0.202  409.070
  122.250  105.073  155.596    0.348    0.209  409.849
  122.500   96.472  155.712    0.349    0.221  433.736
  122.750  105.079  157.901    0.351    0.240  485.767
  123.000  108.770  161.155    0.357    0.235  533.998
  123.250   95.867  163.344    0.358    0.217  555.536
  123.500   91.568  164.496    0.357    0.212  536.238
  123.750   87.884  164.612    0.359    0.206  498.303
  124.000   89.116  163.662    0.363    0.203  446.116
  124.250   77.443  160.668    0.365    0.202  414.714
  124.500   80.519  157.674    0.369    0.202  439.385
  124.750  111.865  154.680    0.372    0.203  483.012
  125.000  114.941  151.686    0.375    0.206  530.970
  125.250  114.329  149.757    0.377    0.208  572.917
  125.500  111.260  150.939    0.377    0.209  618.414
  125.750   84.836  151.025    0.375    0.210  630.521
  126.000   81.767  154.280    0.375    0.211  608.388
  126.250   84.843  156.469    0.374    0.210  565.779
  126.500   89.148  158.629    0.372    0.216  566.640
  126.750  103.900  160.847    0.373    0.223  600.122
  127.000  130.330  161.999    0.376    0.223  825.276
  127.250  124.188  163.122    0.379    0.210  841.755
  127.500  111.899  167.442    0.383    0.208  875.371
  127.750  104.529  169.602    0.389    0.213  892.849
  128.000  105.146  170.783    0.403    0.231  814.683
  128.250   91.013  169.862    0.468    0.264  541.996
  128.500   85.486  168.942    0.472    0.275  494.170
  128.750   83.031  169.086    0.481    0.278  388.477
  129.000   82.420  170.210    0.474    0.272  335.200
  129.250   84.881  171.362    0.444    0.248  545.100
  129.500   82.425  171.478    0.440    0.231  610.489
  129.750   80.585  169.491    0.434    0.225  709.948
  130.000   91.650  163.474    0.430    0.218  751.610
  130.250  115.622  160.422    0.431    0.215  698.970
  130.500  122.385  158.436    0.436    0.210  649.769
  130.750  116.857  156.507    0.448    0.214  582.163
  131.000  121.162  154.550    0.452    0.217  551.150
  131.250  121.780  154.637    0.464    0.211  522.187
  131.500  121.783  156.826    0.465    0.208  522.584
  131.750  108.880  163.219    0.466    0.214  543.455
  132.000   92.905  164.400    0.466    0.214  554.517
  132.250   83.075  163.450    0.461    0.214  555.573
  132.500  100.286  162.558    0.446    0.217  545.734
  132.750  124.257  162.616    0.430    0.218  526.578
  133.000  124.875  162.761    0.426    0.214  508.286
  133.250  116.889  164.949    0.415    0.210  558.967
  133.500  111.361  164.086    0.416    0.207  637.548
  133.750   97.229  164.144    0.413    0.197  662.757
  134.000   84.940  162.158    0.392    0.216  432.456
  134.250   64.663  159.193    0.377    0.305  190.752
  134.500   41.313  158.272    0.358    0.327  134.045
  134.750   43.774  197.778    0.353    0.336   73.965
  135.000   40.705  231.093    0.462    0.330   89.246
  135.250   33.333  266.511    0.442    0.293  165.346
  135.500   35.179  253.122    0.440    0.261  390.273
  135.750   59.151  210.709    0.447    0.244  488.778
  136.000   99.101  178.661    0.448    0.226  568.407
  136.250  105.250  165.301    0.430    0.220  625.082
  136.500  108.326  164.409    0.425    0.204  649.551
  136.750   84.361  163.489    0.428    0.195  714.316
  137.000   68.385  163.633    0.425    0.192  742.278
  137.250   48.722  162.655    0.411    0.196  786.138
  137.500   46.267  162.770    0.408    0.198  802.140
  137.750   60.406  161.849    0.405    0.199  759.987
  138.000   65.940  160.957    0.406    0.201  706.222
  138.250   57.953  161.044    0.426    0.201  419.834
  138.500   45.050  161.189    0.489    0.201  235.927
  138.750   45.668  162.370    0.453    0.201  199.967
  139.000   51.203  162.486    0.436    0.202  215.764
  139.250   58.581  162.601    0.432    0.208  246.191
  139.500   58.584  162.717    0.423    0.211  345.054
  139.750   54.900  162.804    0.428    0.211  351.810
  140.000   57.975  162.920    0.459    0.209  345.711
  140.250   63.510  161.999    0.479    0.205  292.906
  140.500   61.669  162.115    0.467    0.204  272.185
  140.750   61.673  162.259    0.448    0.202  253.025
  141.000   55.530  162.375    0.418    0.201  299.666
  141.250   62.908  162.491    0.411    0.200  375.587
  141.500   75.817  162.635    0.405    0.200  405.259
  141.750   83.809  162.693    0.406    0.200  356.121
  142.000   83.198  162.896    0.405    0.201  192.805
  142.250   78.284  162.953    0.401    0.201  157.321
  142.500   67.840  163.098    0.398    0.205  100.759
  142.750   57.396  163.214    0.400    0.209   79.178
  143.000   47.566  163.330    0.413    0.213   48.875
  143.250   35.892  163.445    0.415    0.217   48.028
  143.500   32.823  163.561    0.420    0.206   45.487
  143.750   35.284  163.677    0.415    0.192   40.770
  144.000   38.360  163.792    0.394    0.181   38.583
  144.250   37.134  162.871    0.365    0.164   34.555
  144.500   40.210  162.987    0.355    0.154   23.844
  144.750   46.359  162.037    0.359    0.224   16.755
  145.000   38.987  161.174    0.368    0.229   11.147
  145.250   43.907  161.261    0.368    0.202   10.549
  145.500   48.826  168.633    0.349    0.194    9.629
  145.750   48.830  186.371    0.330    0.193    8.790
  146.000   46.989  188.559    0.328    0.196    8.634
  146.250   46.377  166.907    0.345    0.195    8.180
  146.500   46.381  159.767    0.350    0.186    8.039
  146.750   42.697  164.029    0.368    0.186    7.759
  147.000   48.231  165.210    0.372    0.191    7.352
  147.250   48.849  164.289    0.379    0.210    7.221
  147.500   36.560  163.368    0.381    0.215    6.842
  147.750   29.189  164.520    0.350    0.227    6.723
