~VERSION INFORMATION
 VERS.                 2.0:   CWLS LOG ASCII STANDARD -VERSION 2.0
 WRAP.                  NO:   ONE LINE PER DEPTH STEP
~WELL INFORMATION BLOCK
#MNEM.UNIT           DATA                    DESCRIPTION OF MNEMONIC
#---------    -------------------            -------------------------------
# Generated from Intellog Unique Number	CW_82_90/WELL/995
WELL.         11-17-082-19W4                 : Well_name    - WELL
LOC .         AA/11-17-082-19W4/0            : Location     - LOCATION
UWI .         AA/11-17-082-19W400            : Uwi          - UNIQUE WELL ID
ENTR.         JAYE                           : Entered      - ENTERED BY
SRVC.         SCHLUMBERGER                   : Scn          - SERVICE COMPANY
DATE.         28 JAN 78                      : Date         - LOG DATE
STRT.M        173.736                        : top_depth    - START DEPTH
STOP.M        363.986                        : bot_depth    - STOP DEPTH
STEP.M        0.25                           : increment    - STEP LENGTH
 NULL. -999.2500:NULL Value
~CURVE INFORMATION BLOCK
#MNEM UNIT       ERCB CURVE CODE    CURVE DESCRIPTION
#-----------   ------------------   ----------------------------------
DEPT.M        00 001 00 00         : DEPTH        - DEPTH
CALI.MM       00 280 01 00         : CAL          - CALIPER
GR  .API      00 310 00 00         : GR           - GAMMA RAY
NPHI.V/V      00 330 00 00         : PHIN         - NEUTRON POROSITY (SANDSTONE)
DPHI.V/V      00 890 00 00         : PHID         - DENSITY POROSITY (SANDSTONE)
ILD .OHMM     00 120 00 00         : RESD         - DEEP RESISTIVITY (DIL)
~PARAMETER INFORMATION
#MNEM.UNIT           DATA             DESCRIPTION OF MNEMONIC
#---------         -----------     ------------------------------
GL  .M        585.216              : gl           - GROUND LEVEL ELEVATION
EREF.M        588.569              : kb           - ELEVATION OF DEPTH REFERENCE
DATM.M        585.216              : datum        - DATUM ELEVATION
TDD .M        366.37               : tdd          - TOTAL DEPTH DRILLER
RUN .         ONE                  : Run          - RUN NUMBER
ENG .         GUNN                 : Engineer     - RECORDING ENGINEER
WIT .         BICKHAM              : Witness      - WITNESSED BY
BASE.         EDMONTON             : Branch       - HOME BASE OF LOGGING UNIT
MUD .         GEL CHEM             : Mud_type     - MUD TYPE
MATR.         SANDSTONE            : Logunit      - NEUTRON MATRIX
TMAX.C        27.7778              : BHT          - MAXIMUM RECORDED TEMPERATURE
BHTD.M        366.37               : BHTDEP       - MAXIMUM RECORDED TEMPERATURE
RMT .C        18.3333              : MDTP         - TEMPERATURE OF MUD
MUDD.KG/M     9300                 : MWT          - MUD DENSITY
NEUT.         0                    : NEUTRON      - NEUTRON TYPE
RESI.         0                    : RESIST       - RESISTIVITY TYPE
RM  .OHMM     4.82                 : RM           - RESISTIVITY OF MUD
RMC .OHMM     0                    : RMC          - RESISTIVITY OF MUD CAKE
RMF .OHMM     0                    : RMF          - RESISTIVITY OF MUD FILTRATE
SUFT.C        4                    : SUFT         - SURFACE TEMPERATURE
~A  DEPTH      CAL       GR     PHIN     PHID     RESD
# ...
  246.736  149.310   46.382    0.418    0.258   13.325
  246.986  150.148   41.937    0.381    0.241   16.771
  247.236  150.881   42.617    0.356    0.237   18.211
  247.486  149.834   45.641    0.360    0.252   18.767
  247.736  147.948   47.370    0.416    0.273   17.913
  247.986  146.901   49.098    0.473    0.297   16.410
  248.236  146.796   49.654    0.472    0.300   15.517
  248.486  146.796   50.333    0.471    0.310   14.701
  248.736  146.796   50.518    0.484    0.322   14.111
  248.986  146.901   47.926    0.478    0.313   13.878
  249.236  146.901   45.395    0.477    0.307   13.751
  249.486  146.901   44.593    0.486    0.337   13.857
  249.736  146.901   44.160    0.487    0.345   14.041
  249.986  147.111   42.432    0.467    0.329   14.201
  250.236  147.529   42.247    0.465    0.307   14.337
  250.486  147.529   42.803    0.473    0.306   14.501
  250.736  147.529   42.309    0.490    0.317   14.639
  250.986  147.320   40.395    0.498    0.306   14.806
  251.236  147.320   38.482    0.485    0.295   14.837
  251.486  147.425   38.235    0.477    0.292   14.728
  251.736  147.320   38.976    0.477    0.296   14.731
  251.986  147.320   39.964    0.471    0.309   14.816
  252.236  147.006   39.532    0.462    0.311   14.818
  252.486  146.901   39.902    0.460    0.308   14.793
  252.736  146.901   40.828    0.467    0.312   14.713
  252.986  147.111   42.001    0.479    0.304   14.605
  253.236  147.111   42.742    0.488    0.299   14.580
  253.486  147.006   42.618    0.479    0.292   14.474
  253.736  147.215   41.507    0.470    0.288   14.449
  253.986  147.320   41.940    0.462    0.286   14.532
  254.236  147.425   43.051    0.454    0.292   14.671
  254.486  147.529   43.915    0.454    0.293   14.728
  254.736  147.529   41.076    0.467    0.288   14.731
  254.986  147.320   42.619    0.472    0.281   14.678
  255.236  147.320   42.681    0.484    0.273   14.653
  255.486  147.215   42.002    0.486    0.286   14.627
  255.736  147.006   41.755    0.483    0.308   14.522
  255.986  146.901   42.372    0.495    0.307   14.496
  256.236  146.901   43.175    0.493    0.304   14.445
  256.486  147.006   44.039    0.483    0.301   14.393
  256.736  147.111   44.348    0.482    0.286   14.393
  256.986  147.215   44.595    0.469    0.269   14.393
  257.236  147.111   45.459    0.467    0.246   13.363
  257.486  146.901   47.928    0.495    0.291   12.874
  257.736  147.006   49.719    0.495    0.287   11.663
  257.986  147.215   51.015    0.487    0.277   11.405
  258.236  147.425   55.645    0.472    0.277   10.705
  258.486  147.844   60.028    0.474    0.261   10.160
  258.736  147.948   65.028    0.488    0.267    9.465
  258.986  148.158   66.879    0.496    0.255    8.901
  259.236  148.053   67.744    0.522    0.222    8.705
  259.486  148.158   68.299    0.512    0.214    9.021
  259.736  148.053   68.732    0.491    0.244   10.036
  259.986  147.948   69.781    0.483    0.235   10.094
  260.236  147.948   75.275    0.475    0.242    8.694
  260.486  147.739   88.300    0.465    0.219    7.106
  260.736  147.634   99.658    0.485    0.205    5.787
  260.986  149.939  110.090    0.520    0.186    4.792
  261.236  152.033  115.337    0.540    0.202    4.097
  261.486  156.118  116.263    0.527    0.189    3.663
  261.736  158.004  114.596    0.512    0.176    3.483
  261.986  158.737  110.955    0.514    0.167    3.445
  262.236  160.308  109.597    0.542    0.151    3.478
  262.486  161.984  112.004    0.562    0.180    3.584
  262.736  163.660  112.930    0.572    0.184    3.686
  262.986  163.346  112.560    0.542    0.195    3.849
  263.236  160.936  109.844    0.522    0.202    0.001
  263.486  158.737  106.572    0.528    0.199    4.404
  263.736  157.375   98.362    0.526    0.207    4.882
  263.986  154.757   92.498    0.518    0.223    5.482
  264.236  153.500   96.202    0.483    0.252    6.273
  264.486  152.243   95.647    0.482    0.222    6.953
  264.736  150.672   88.733    0.492    0.216    7.926
  264.986  149.624   77.499    0.500    0.242    9.035
  265.236  148.891   68.240    0.480    0.268    9.755
  265.486  148.263   69.104    0.470    0.284   10.593
  265.736  147.948   71.758    0.458    0.266   11.567
  265.986  147.529   75.771    0.452    0.268   12.397
  266.236  147.320   77.129    0.450    0.261   12.657
  266.486  147.006   77.684    0.452    0.263   12.588
  266.736  146.692   78.117    0.466    0.256   12.380
  266.986  146.482   80.524    0.493    0.266   12.153
  267.236  146.063   82.993    0.491    0.268   11.863
  267.486  145.644   85.030    0.491    0.259   11.450
  267.736  145.644   87.685    0.494    0.250   10.909
  267.986  145.958   89.599    0.481    0.246   10.316
  268.236  146.587   95.771    0.478    0.238    9.828
  268.486  148.053   98.179    0.477    0.223    9.173
  268.736  149.415   98.488    0.485    0.201    8.482
  268.986  150.986  100.401    0.488    0.212    7.976
  269.236  152.138  100.957    0.481    0.193    7.786
  269.486  152.767   97.315    0.485    0.196    7.715
  269.736  153.081   96.081    0.497    0.214    7.759
  269.986  152.557   96.019    0.496    0.194    7.952
  270.236  151.300   93.797    0.492    0.191    8.225
  270.486  150.043   92.377    0.480    0.199    8.587
  270.736  149.834   95.649    0.472    0.192    8.718
  270.986  150.043   97.254    0.464    0.202    8.687
  271.236  150.881  100.834    0.452    0.191    8.559
  271.486  152.033   98.118    0.451    0.209    8.355
  271.736  152.138   97.069    0.479    0.224    8.140
  271.986  151.300   97.995    0.481    0.237    7.902
  272.236  151.510  102.192    0.481    0.226    7.642
  272.486  153.919  105.958    0.488    0.222    7.501
  272.736  155.280  105.835    0.483    0.185    7.405
  272.986  155.804   98.798    0.480    0.172    7.310
  273.236  155.699   92.872    0.491    0.162    7.297
  273.486  154.966   88.983    0.506    0.167    7.409
  273.736  153.814   87.810    0.473    0.191    7.592
  273.986  151.195   88.242    0.463    0.207    7.765
  274.236  149.415   92.131    0.466    0.208    8.032
  274.486  148.263   92.934    0.466    0.202    8.169
  274.736  147.844   94.169    0.461    0.213    8.325
  274.986  147.529   96.267    0.461    0.222    8.404
  275.236  147.948   96.082    0.456    0.226    8.406
  275.486  148.263   95.095    0.447    0.207    8.360
  275.736  148.472   98.799    0.454    0.202    8.161
  275.986  148.472   99.292    0.441    0.191    7.981
  276.236  148.472   97.934    0.445    0.192    7.776
  276.486  148.682   95.404    0.469    0.195    7.562
  276.736  148.682   93.984    0.472    0.188    7.232
  276.986  148.891   95.960    0.475    0.197    7.007
  277.236  148.786   98.861    0.482    0.198    6.713
  277.486  148.682   98.058    0.484    0.225    6.419
  277.736  148.891   93.984    0.476    0.211    6.162
  277.986  149.101   95.898    0.477    0.200    5.762
  278.236  149.101   99.478    0.496    0.196    5.358
  278.486  149.205  103.676    0.514    0.205    4.908
  278.736  149.101   99.293    0.545    0.246    5.105
  278.986  149.310   94.293    0.533    0.255    5.523
  279.236  149.729   90.158    0.487    0.257    6.214
  279.486  150.043   87.689    0.487    0.246    6.785
  279.736  149.939   89.047    0.500    0.243    7.313
  279.986  149.415   81.763    0.496    0.249    7.593
  280.236  149.310   82.689    0.500    0.254    7.766
  280.486  149.101   84.664    0.518    0.263    7.782
  280.736  148.786   85.590    0.494    0.264    7.798
  280.986  148.682   85.590    0.483    0.263    7.902
  281.236  148.682   88.060    0.488    0.264    8.052
  281.486  148.682   87.566    0.480    0.239    8.190
  281.736  148.263   83.924    0.458    0.216    8.222
  281.986  147.948   84.171    0.455    0.182    7.503
  282.236  147.320   87.196    0.503    0.224    7.618
  282.486  146.796   89.109    0.509    0.243    7.924
  282.736  146.796   90.714    0.492    0.238    7.969
  282.986  147.111   94.850    0.495    0.233    7.607
