~VERSION INFORMATION
 VERS.                 2.0:   CWLS LOG ASCII STANDARD -VERSION 2.0
 WRAP.                  NO:   ONE LINE PER DEPTH STEP
~WELL INFORMATION BLOCK
#MNEM.UNIT           DATA                    DESCRIPTION OF MNEMONIC
#---------    -------------------            -------------------------------
# Generated from Intellog Unique Number	CC_80_83/WELL/2365
NULL.         -999.25                        : NULL_VALUE
WELL.         PEX PCEJ HANGST OV             : Well_name    - WELL
LOC .         10-23-082-08W4                 : Location     - LOCATION          
UWI .         AA/10-23-082-08W4/0            : Uwi          - UNIQUE WELL ID    
ENTR.         DW                             : Entered      - ENTERED BY        
SRVC.         DRESSER ATLAS                  : Scn          - SERVICE COMPANY   
DATE.         29 FEB 80                      : Date         - LOG DATE
STRT.M        275                            : top_depth    - START DEPTH       
STOP.M        509.89                         : bot_depth    - STOP DEPTH        
STEP.M        0.3                            : increment    - STEP LENGTH       
~CURVE INFORMATION BLOCK
#MNEM UNIT       ERCB CURVE CODE    CURVE DESCRIPTION
#-----------   ------------------   ----------------------------------
DEPT.M        00 001 00 00         : DEPTH        - DEPTH                       
DPHI.V/V      00 890 00 00         : PHID         - DENSITY POROSITY (LIMESTONE)
NPHI.V/V      00 330 00 00         : PHIN         - NEUTRON POROSITY (LIMESTONE)
GR  .API      00 310 00 00         : GR           - GAMMA RAY                   
ILD .OHMM     00 120 00 00         : RESD         - DEEP RESISTIVITY (DIL)      
~PARAMETER INFORMATION       
#MNEM.UNIT           DATA             DESCRIPTION OF MNEMONIC
#---------         -----------     ------------------------------
GL  .M        740.12               : gl           - GROUND LEVEL ELEVATION      
EREF.M        743.77               : kb           - ELEVATION OF DEPTH REFERENCE
DATM.M        743.77               : datum        - DATUM ELEVATION             
TDD .M        512                  : tdd          - TOTAL DEPTH DRILLER         
RUN .         ONE                  : Run          - RUN NUMBER                  
ENG .         BILL                 : Engineer     - RECORDING ENGINEER          
WIT .         JIM                  : Witness      - WITNESSED BY                
MUD .         GEL                  : Mud_type     - MUD TYPE                    
MATR.         LIMESTONE            : Logunit      - NEUTRON MATRIX              
TMAX.C        16.8                 : BHT          - MAXIMUM RECORDED TEMPERATURE
BHTD.M        512                  : BHTDEP       - MAXIMUM RECORDED TEMPERATURE
MATR.         1                    : LOGUNIT      - NEUTRON MATRIX              
RMT .C        25                   : MDTP         - TEMPERATURE OF MUD          
NEUT.         1                    : NEUTRON      - NEUTRON TYPE                
RESI.         0                    : RESIST       - RESISTIVITY TYPE            
RMC .OHMM     0.25                 : RMC          - RESISTIVITY OF MUD CAKE     
RMF .OHMM     0.25                 : RMF          - RESISTIVITY OF MUD FILTRATE 
SUFT.C        15                   : SUFT         - SURFACE TEMPERATURE         
~A  DEPTH     PHID     PHIN       GR     RESD
# ...
  379.396    0.387    0.404   81.174    4.168
  379.696    0.386    0.412   81.133    4.167
  379.996    0.369    0.397   74.812    4.757
  380.296    0.247    0.365   64.086    5.747
  380.596    0.224    0.354   60.273    8.078
  380.896    0.283    0.334   57.100   10.727
  381.196    0.295    0.344   56.428   16.264
  381.496    0.292    0.345   58.897   18.918
  381.796    0.294    0.343   53.827   18.560
  382.096    0.294    0.346   55.039   17.203
  382.396    0.291    0.349   57.518   15.945
  382.696    0.294    0.353   56.222   15.063
  382.996    0.296    0.346   56.810   14.500
  383.296    0.298    0.337   54.258   14.226
  383.596    0.297    0.318   51.697   14.772
  383.896    0.297    0.330   56.053   15.052
  384.196    0.296    0.335   51.617   15.336
  384.496    0.289    0.324   52.198   15.625
  384.796    0.288    0.328   53.424   15.623
  385.096    0.291    0.339   54.639   15.326
  385.396    0.292    0.356   55.224   14.755
  385.695    0.290    0.371   51.415   14.204
  385.995    0.302    0.382   48.855   12.919
  386.295    0.302    0.391   51.329   12.917
  386.595    0.300    0.360   63.856   13.162
  386.895    0.298    0.326   58.159   13.666
  387.195    0.295    0.345   60.630   14.191
  387.495    0.285    0.358   53.676   15.303
  387.795    0.287    0.363   49.869   15.891
  388.095    0.293    0.357   48.567   16.190
  388.395    0.289    0.355   49.159   16.497
  388.695    0.284    0.361   54.135   16.494
  388.995    0.281    0.349   55.349   15.877
  389.295    0.281    0.344   55.931   15.578
  389.595    0.286    0.353   56.529   15.282
  389.895    0.292    0.354   58.377   14.993
  390.195    0.296    0.355   55.191   14.990
  390.495    0.294    0.344   50.124   14.986
  390.795    0.290    0.329   50.078   14.985
  391.095    0.286    0.328   54.441   15.268
  391.395    0.286    0.339   58.168   15.264
  391.695    0.291    0.347   54.986   14.975
  391.995    0.300    0.346   48.038   14.973
  392.295    0.302    0.337   49.872   15.256
  392.595    0.299    0.332   51.727   15.840
  392.895    0.297    0.328   49.796   16.141
  393.195    0.297    0.331   47.247   16.446
  393.495    0.302    0.336   46.575   17.077
  393.795    0.301    0.343   52.189   17.733
  394.095    0.293    0.331   59.686   18.413
  394.395    0.266    0.330   53.991   18.760
  394.695    0.183    0.338   50.174   19.481
  394.995    0.218    0.347   48.256   19.477
  395.295    0.285    0.359   50.098   18.398
  395.595    0.284    0.331   53.200   17.712
  395.895    0.283    0.327   55.037   16.416
  396.195    0.284    0.328   58.140   16.106
  396.495    0.288    0.321   57.472   15.504
  396.795    0.289    0.312   53.660   15.502
  397.095    0.292    0.317   51.732   15.499
  397.395    0.293    0.335   54.833   15.792
  397.695    0.293    0.321   62.961   15.789
  397.995    0.292    0.315   55.382   16.393
  398.295    0.291    0.328   59.735   16.391
  398.595    0.288    0.330   54.669   16.389
  398.895    0.290    0.326   56.515   16.386
  399.195    0.289    0.338   52.074   16.382
  399.495    0.289    0.347   53.910   16.072
  399.795    0.289    0.347   56.382   16.069
  400.095    0.288    0.322   58.237   16.372
  400.395    0.280    0.301   59.447   17.326
  400.695    0.267    0.275   55.005   19.041
  400.995    0.064    0.210   49.317   20.151
  401.295    0.100    0.186   36.082   23.000
  401.595    0.243    0.207   36.035   23.882
  401.895    0.288    0.265   39.141   22.991
  402.195    0.306    0.347   56.692   20.911
  402.495    0.293    0.332   49.112   16.660
  402.795    0.287    0.335   52.203   14.316
  403.095    0.285    0.338   55.936   13.782
  403.395    0.286    0.350   55.898   13.778
  403.695    0.290    0.352   61.513   14.039
  403.995    0.287    0.350   61.466   14.305
  404.295    0.285    0.366   58.916   14.303
  404.595    0.284    0.356   60.120   14.300
  404.895    0.283    0.339   61.339   14.570
  405.195    0.284    0.340   62.562   14.566
  405.495    0.284    0.348   60.631   14.291
  405.795    0.278    0.381   63.106   14.288
  406.095    0.286    0.376   64.944   14.018
  406.395    0.291    0.362   60.513   13.753
  406.695    0.282    0.350   57.312   13.492
  406.995    0.276    0.350   57.283   13.236
  407.295    0.271    0.341   60.378   13.234
  407.595    0.272    0.344   62.235   13.231
  407.895    0.282    0.345   60.303   13.228
  408.195    0.279    0.358   65.914   13.226
  408.495    0.276    0.375   67.136   13.224
  408.795    0.280    0.381   65.210   12.257
  409.095    0.289    0.382   68.935   11.149
  409.395    0.299    0.404   73.294    6.562
  409.695    0.422    0.439   80.791    5.327
  409.995    0.421    0.414   88.286    4.492
  410.294    0.343    0.412   89.490    4.407
  410.594    0.307    0.420   86.321    4.576
  410.894    0.291    0.477   83.133    4.842
  411.194    0.297    0.483   83.101    5.029
  411.494    0.303    0.482   81.167    5.321
  411.794    0.358    0.477   79.875    5.320
  412.094    0.422    0.476   75.438    5.122
  412.394    0.451    0.508   84.186    4.319
  412.694    0.384    0.483   89.169    3.782
  412.994    0.358    0.492   84.732    3.129
  413.294    0.359    0.501   75.271    2.846
  413.594    0.398    0.502   83.400    2.446
  413.894    0.406    0.527   92.153    2.225
  414.194    0.413    0.548   88.971    2.023
  414.494    0.421    0.540   80.760    2.023
  414.794    0.443    0.526   75.069    2.182
  415.094    0.487    0.476   77.534    2.490
  415.394    0.399    0.398   87.543    3.009
  415.694    0.401    0.402   85.607    3.847
  415.994    0.400    0.458   81.803    5.109
  416.294    0.389    0.453   80.515    6.056
  416.594    0.255    0.413   84.220    6.531
  416.894    0.260    0.393   86.084    6.530
  417.194    0.354    0.416   80.390    6.529
  417.494    0.335    0.424   81.604    6.652
  417.794    0.271    0.414   86.590    6.777
  418.094    0.278    0.403   89.687    7.038
  418.394    0.418    0.414   83.367    8.033
  418.694    0.329    0.372   91.495    9.170
  418.994    0.293    0.312   98.360   10.466
  419.294    0.086    0.297   87.642   11.287
  419.594    0.201    0.306   85.718   11.944
  419.894    0.217    0.335   95.722   11.942
  420.194    0.241    0.345   99.455   10.861
  420.494    0.286    0.375   96.270    8.022
  420.794    0.343    0.377   84.922    7.025
  421.094    0.367    0.416   88.654    6.512
  421.394    0.385    0.385   87.345    6.151
  421.694    0.387    0.374   85.429    6.035
  421.994    0.381    0.368   90.414    6.149
  422.294    0.371    0.347   85.976    6.758
  422.594    0.278    0.329   78.390    7.861
  422.894    0.211    0.339   77.720   10.842
  423.194    0.208    0.347   81.446   11.259
  423.494    0.222    0.331   88.947   11.257
  423.794    0.237    0.345   95.817   10.434
  424.094    0.237    0.366   90.755    9.312
  424.394    0.247    0.375   85.058    8.155
  424.694    0.359    0.397   84.386    6.256
  424.994    0.381    0.413   82.464    5.478
  425.294    0.377    0.413   84.937    5.274
  425.594    0.389    0.417   83.005    5.272
  425.894    0.398    0.434   85.483    5.272
  426.194    0.366    0.407   89.835    5.474
  426.494    0.377    0.390   87.278    5.578
  426.794    0.439    0.405   84.719    5.791
  427.094    0.505    0.417   83.431    6.014
  427.394    0.248    0.391   80.243    6.486
  427.694    0.234    0.379   79.570    7.835
  427.994    0.244    0.381   80.167    8.612
  428.294    0.240    0.378   78.872    9.113
  428.594    0.236    0.384   80.704    9.111
  428.894    0.313    0.395   82.549    8.445
  429.194    0.416    0.475   79.372    3.672
  429.494    0.473    0.467   69.907    3.340
  429.794    0.477    0.445   71.751    3.468
  430.094    0.372    0.390   86.160    4.034
  430.394    0.246    0.353   82.345    5.357
  430.694    0.243    0.365   79.796    6.981
  430.994    0.238    0.353   74.730    8.434
  431.294    0.162    0.358   82.855    9.998
