~VERSION INFORMATION
 VERS.                 2.0:   CWLS LOG ASCII STANDARD -VERSION 2.0
 WRAP.                  NO:   ONE LINE PER DEPTH STEP
~WELL INFORMATION BLOCK
#MNEM.UNIT           DATA                    DESCRIPTION OF MNEMONIC
#---------    -------------------            -------------------------------
# Generated from Intellog Unique Number	CS_77_79/WELL/969
WELL.         PEX PCEJ ALGAR OV              : Well_name    - WELL
LOC .         AA/10-26-079-15W4/0            : Location     - LOCATION
UWI .         AA/10-26-079-15W4/0            : Uwi          - UNIQUE WELL ID
ENTR.         JHS                            : Entered      - ENTERED BY
SRVC.         SCHLUMBERGER                   : Scn          - SERVICE COMPANY
STRT.M        225                            : top_depth    - START DEPTH
STOP.M        470                            : bot_depth    - STOP DEPTH
STEP.M        0.25                           : increment    - STEP LENGTH
 NULL. -999.2500:NULL Value
~CURVE INFORMATION BLOCK
#MNEM UNIT       ERCB CURVE CODE    CURVE DESCRIPTION
#-----------   ------------------   ----------------------------------
DEPT.M        00 001 00 00         : DEPTH        - DEPTH
DPHI.V/V      00 890 00 00         : PHID         - DENSITY POROSITY (LIMESTONE)
NPHI.V/V      00 330 00 00         : PHIN         - NEUTRON POROSITY (LIMESTONE)
GR  .API      00 310 00 00         : GR           - GAMMA RAY
ILD .OHMM     00 120 00 00         : RESD         - DEEP RESISTIVITY (DIL)
RHOB.KG/M3    00 350 00 00         : DENS         - BULK DENSITY
~PARAMETER INFORMATION
#MNEM.UNIT           DATA             DESCRIPTION OF MNEMONIC
#---------         -----------     ------------------------------
GL  .M        640.8                : gl           - GROUND LEVEL ELEVATION
EREF.M        644                  : kb           - ELEVATION OF DEPTH REFERENCE
DATM.M        644                  : datum        - DATUM ELEVATION
TDD .M        477                  : tdd          - TOTAL DEPTH DRILLER
RUN .         ONE                  : Run          - RUN NUMBER
ENG .         BILL                 : Engineer     - RECORDING ENGINEER
WIT .         JIM                  : Witness      - WITNESSED BY
MUD .         GEL                  : Mud_type     - MUD TYPE
MATR.         LIMESTONE            : Logunit      - NEUTRON MATRIX
TMAX.C        28                   : BHT          - MAXIMUM RECORDED TEMPERATURE
BHTD.M        477                  : BHTDEP       - MAXIMUM RECORDED TEMPERATURE
MATR.         1                    : LOGUNIT      - NEUTRON MATRIX
RMT .C        25                   : MDTP         - TEMPERATURE OF MUD
NEUT.         1                    : NEUTRON      - NEUTRON TYPE
RESI.         0                    : RESIST       - RESISTIVITY TYPE
RMC .OHMM     0.25                 : RMC          - RESISTIVITY OF MUD CAKE
RMF .OHMM     0.25                 : RMF          - RESISTIVITY OF MUD FILTRATE
SUFT.C        15                   : SUFT         - SURFACE TEMPERATURE
~A  DEPTH     PHID     PHIN       GR     RESD     DENS
# ...
  261.500    0.293    0.358   92.249   10.756    0.000
  261.750    0.360    0.345   85.493   11.374    0.000
  262.000    0.321    0.327   56.521   12.972    0.000
  262.250    0.250    0.317   31.877   15.071    0.000
  262.500    0.267    0.344   30.671   17.186    0.000
  262.750    0.276    0.322   27.623   19.596    0.000
  263.000    0.284    0.309   24.578   20.338    0.000
  263.250    0.280    0.316   28.313   17.818    0.000
  263.500    0.261    0.313   41.924   15.319    0.000
  263.750    0.256    0.327   58.625   13.938    0.000
  264.000    0.258    0.360   77.179   12.444    0.000
  264.250    0.247    0.372   73.508   11.109    0.000
  264.500    0.228    0.367   83.423    9.551    0.000
  264.750    0.206    0.385   96.416    8.528    0.000
  265.000    0.183    0.445  117.434    7.471    0.000
  265.250    0.177    0.439  106.367    6.545    0.000
  265.500    0.185    0.448  102.697    6.068    0.000
  265.750    0.200    0.456  111.376    5.732    0.000
  266.000    0.173    0.437  108.940    5.517    0.000
  266.250    0.158    0.422  115.148    5.412    0.000
  266.500    0.175    0.419  112.717    5.308    0.000
  266.750    0.182    0.419  110.279    5.110    0.000
  267.000    0.190    0.430  118.341    4.827    0.000
  267.250    0.201    0.422  118.993    4.647    0.000
  267.500    0.214    0.431  118.420    4.644    0.000
  267.750    0.205    0.403  121.539    4.820    0.000
  268.000    0.194    0.420  122.801    5.097    0.000
  268.250    0.175    0.408  104.938    5.095    0.000
  268.500    0.166    0.408  112.383    4.905    0.000
  268.750    0.208    0.454  123.529    4.378    0.000
  269.000    0.222    0.471  134.054    3.909    0.000
  269.250    0.227    0.458  133.482    3.763    0.000
  269.500    0.236    0.429  129.187    3.833    0.000
  269.750    0.234    0.415  121.204    4.624    0.000
  270.000    0.232    0.407  117.534    5.273    0.000
  270.250    0.233    0.402  116.959    6.482    0.000
  270.500    0.243    0.380  107.117    7.821    0.000
  270.750    0.249    0.376  108.391    9.436    0.000
  271.000    0.255    0.394  111.508   10.363    0.000
  271.250    0.245    0.392  107.843   10.959    0.000
  271.500    0.249    0.391  103.557   10.749    0.000
  271.750    0.258    0.404  103.592   10.154    0.000
  272.000    0.262    0.418   98.689    8.897    0.000
  272.250    0.209    0.405   94.401    8.094    0.000
  272.500    0.158    0.405  103.081    7.363    0.000
  272.750    0.170    0.411  114.225    7.222    0.000
  273.000    0.321    0.417  122.284    7.783    0.000
  273.250    0.276    0.410  105.654    8.710    0.000
  273.500    0.236    0.388  108.781   10.118    0.000
  273.750    0.230    0.382  102.023   10.702    0.000
  274.000    0.242    0.376   97.123   11.107    0.000
  274.250    0.250    0.373  103.334   11.744    0.000
  274.500    0.256    0.381  105.221   11.741    0.000
  274.750    0.253    0.381  101.555   11.734    0.000
  275.000    0.243    0.374  105.913   11.293    0.000
  275.250    0.238    0.360  105.325   11.290    0.000
  275.500    0.227    0.349  106.599   11.073    0.000
  275.750    0.218    0.353  112.187   11.070    0.000
  276.000    0.214    0.365  106.670   11.062    0.000
  276.250    0.224    0.370  117.194   11.268    0.000
  276.500    0.240    0.359  111.060   11.053    0.000
  276.750    0.234    0.372  103.685   10.840    0.000
  277.000    0.243    0.365   99.403   10.634    0.000
  277.250    0.246    0.365   92.031   10.235    0.000
  277.500    0.241    0.349   84.662   10.041    0.000
  277.750    0.253    0.343   82.230    9.484    0.000
  278.000    0.241    0.356   87.819    9.129    0.000
  278.250    0.223    0.349   84.775    8.956    0.000
  278.500    0.239    0.351   89.749    8.783    0.000
  278.750    0.249    0.364   86.074    8.617    0.000
  279.000    0.249    0.391   92.283    8.449    0.000
  279.250    0.235    0.377   92.939    8.289    0.000
  279.500    0.219    0.376   91.119    8.441    0.000
  279.750    0.208    0.389   89.925    8.439    0.000
  280.000    0.195    0.392   82.551    8.758    0.000
  280.250    0.175    0.360   83.828    9.438    0.000
  280.500    0.164    0.332   80.159    9.981    0.000
  280.750    0.165    0.374   72.782   10.358    0.000
  281.000    0.255    0.404   82.076    9.971    0.000
  281.250    0.251    0.405   79.029    9.245    0.000
  281.500    0.241    0.403   90.173    7.800    0.000
  281.750    0.245    0.416  105.636    6.459    0.000
  282.000    0.247    0.425  116.786    6.101    0.000
  282.250    0.241    0.422  110.029    6.956    0.000
  282.500    0.232    0.406   97.106    7.785    0.000
  282.750    0.216    0.418   90.967    9.571    0.000
  283.000    0.205    0.417   91.620   11.121    0.000
  283.250    0.211    0.402   88.571   11.985    0.000
  283.500    0.222    0.397   94.783   12.438    0.000
  283.750    0.237    0.373   98.519   11.532    0.000
  284.000    0.255    0.405  100.414   10.101    0.000
  284.250    0.251    0.397  104.143    9.190    0.000
  284.500    0.241    0.393  109.119    8.361    0.000
  284.750    0.238    0.402  111.622    7.464    0.000
  285.000    0.239    0.403  104.870    6.919    0.000
  285.250    0.242    0.409   92.558    6.917    0.000
  285.500    0.255    0.375   69.143    8.665    0.000
  285.750    0.272    0.350   51.898   11.926    0.000
  286.000    0.278    0.344   45.768   15.225    0.000
  286.250    0.278    0.355   44.563   20.567    0.000
  286.500    0.276    0.343   40.895   27.780    0.000
  286.750    0.278    0.347   47.724   31.083    0.000
  287.000    0.281    0.357   47.764   31.659    0.000
  287.250    0.280    0.351   49.644   29.903    0.000
  287.500    0.279    0.352   45.984   28.252    0.000
  287.750    0.280    0.363   53.434   24.750    0.000
  288.000    0.275    0.370   68.886   21.283    0.000
  288.250    0.275    0.386   81.882   15.159    0.000
  288.500    0.324    0.406   97.966   11.642    0.000
  288.750    0.295    0.427  104.169    9.111    0.000
  289.000    0.277    0.417  106.064    7.687    0.000
  289.250    0.267    0.422   91.286    6.863    0.000
  289.500    0.258    0.413   97.499    6.483    0.000
  289.750    0.248    0.402   90.119    6.480    0.000
  290.000    0.239    0.387   87.069    6.983    0.000
  290.250    0.236    0.386   79.083    7.668    0.000
  290.500    0.253    0.387   72.945    8.581    0.000
  290.750    0.274    0.404   70.513    9.602    0.000
  291.000    0.271    0.394   66.237   10.948    0.000
  291.250    0.278    0.381   59.476   12.253    0.000
  291.500    0.285    0.367   57.666   14.782    0.000
  291.750    0.285    0.394   55.224   17.177    0.000
  292.000    0.287    0.383   58.963   20.723    0.000
  292.250    0.293    0.385   59.002   25.476    0.000
  292.500    0.298    0.397   60.271   31.913    0.000
  292.750    0.297    0.403   54.755   35.050    0.000
  293.000    0.298    0.423   52.323   40.715    0.000
  293.250    0.300    0.416   56.674   44.719    0.000
  293.500    0.300    0.409   58.560   50.045    0.000
  293.750    0.300    0.402   60.454   59.247    0.000
  294.000    0.307    0.402   58.014   63.853    0.000
  294.250    0.313    0.414   51.883   66.272    0.000
  294.500    0.317    0.418   53.153   63.783    0.000
  294.750    0.323    0.425   53.190   61.396    0.000
  295.000    0.321    0.419   57.550   63.724    0.000
  295.250    0.308    0.392   56.348   67.390    0.000
  295.500    0.301    0.366   52.059   68.630    0.000
  295.750    0.306    0.390   52.093   67.335    0.000
  296.000    0.306    0.392   58.308   63.605    0.000
  296.250    0.303    0.390   55.873   57.863    0.000
  296.500    0.304    0.373   54.055   50.694    0.000
  296.750    0.301    0.372   51.623   41.976    0.000
  297.000    0.299    0.370   57.212   34.757    0.000
  297.250    0.297    0.376   56.640   31.033    0.000
  297.500    0.295    0.371   56.056   26.678    0.000
  297.750    0.293    0.365   60.407   24.273    0.000
